uniorb/output/strategy_1/Drop/Drop_KinoSat_110101.txt

KinoSat_110101
-------------------------
    Access    *     Start Time (UTCG)     *     Stop Time (UTCG)  *   Duration (s)        *       Station  *  Data (Mbytes)
         1   01 Jun 2027 03:09:34.469   01 Jun 2027 03:10:44.954            70.485               Magadan2          8810.625
         2   01 Jun 2027 03:11:07.687   01 Jun 2027 03:12:25.598            77.911               Magadan2          9738.875
         3   01 Jun 2027 03:12:47.740   01 Jun 2027 03:13:34.003            46.263               Magadan1          5782.875
         4   01 Jun 2027 03:14:07.679   01 Jun 2027 03:14:39.544            31.865                Irkutsk          3983.125
         5   01 Jun 2027 03:14:53.540   01 Jun 2027 03:15:07.808            14.268              Murmansk1          1783.500
         6   01 Jun 2027 03:15:20.513   01 Jun 2027 03:16:04.417            43.904                Norilsk          5488.000
         7   01 Jun 2027 03:17:31.578   01 Jun 2027 03:17:39.148             7.570              Murmansk1           946.250
         8   01 Jun 2027 03:18:00.200   01 Jun 2027 03:18:09.326             9.126              Murmansk1          1140.750
         9   01 Jun 2027 03:50:58.626   01 Jun 2027 03:53:03.738           125.112            RioGallegos         15639.000
        10   01 Jun 2027 03:54:30.719   01 Jun 2027 03:55:14.802            44.083            RioGallegos          5510.375
        11   01 Jun 2027 04:25:26.990   01 Jun 2027 04:27:07.496           100.506                Sumatra         12563.250
        12   01 Jun 2027 04:48:06.159   01 Jun 2027 04:48:18.692            12.533                Novosib          1566.625
        13   01 Jun 2027 04:48:27.453   01 Jun 2027 04:48:58.277            30.824              Murmansk2          3853.000
        14   01 Jun 2027 04:49:13.247   01 Jun 2027 04:51:15.365           122.118                Norilsk         15264.750
        15   01 Jun 2027 04:51:43.678   01 Jun 2027 04:52:16.499            32.821              Murmansk2          4102.625
        16   01 Jun 2027 04:52:39.951   01 Jun 2027 04:52:59.761            19.810                Norilsk          2476.250
        17   01 Jun 2027 04:53:28.088   01 Jun 2027 04:53:49.048            20.960                Norilsk          2620.000
        18   01 Jun 2027 06:09:58.250   01 Jun 2027 06:12:23.107           144.857                  Delhi         18107.125
        19   01 Jun 2027 06:16:18.239   01 Jun 2027 06:16:45.316            27.077                  Delhi          3384.625
        20   01 Jun 2027 06:24:53.446   01 Jun 2027 06:25:09.069            15.623              Murmansk1          1952.875
        21   01 Jun 2027 06:25:17.280   01 Jun 2027 06:25:39.225            21.945                 Moscow          2743.125
        22   01 Jun 2027 06:25:51.298   01 Jun 2027 06:26:02.298            11.000                Novosib          1375.000
        23   01 Jun 2027 06:26:05.599   01 Jun 2027 06:27:05.600            60.001                Norilsk          7500.125
        24   01 Jun 2027 06:27:26.986   01 Jun 2027 06:28:03.393            36.407                Norilsk          4550.875
        25   01 Jun 2027 06:28:04.092   01 Jun 2027 06:28:38.708            34.616                 Moscow          4327.000
        26   01 Jun 2027 08:00:47.524   01 Jun 2027 08:01:20.359            32.835                 Moscow          4104.375
        27   01 Jun 2027 08:01:30.343   01 Jun 2027 08:01:50.563            20.220                 Moscow          2527.500
        28   01 Jun 2027 08:02:09.963   01 Jun 2027 08:02:48.234            38.271              Murmansk1          4783.875
        29   01 Jun 2027 08:04:05.412   01 Jun 2027 08:04:07.276             1.864                 Moscow           233.000
        30   01 Jun 2027 08:04:41.267   01 Jun 2027 08:05:35.677            54.410                 Moscow          6801.250
        31   01 Jun 2027 09:08:09.276   01 Jun 2027 09:14:25.169           375.893               CapeTown         46986.625
        32   01 Jun 2027 13:02:17.024   01 Jun 2027 13:05:13.814           176.790               Magadan2         22098.750
        33   01 Jun 2027 13:05:21.996   01 Jun 2027 13:07:10.212           108.216               Magadan2         13527.000
        34   01 Jun 2027 14:58:11.148   01 Jun 2027 14:59:55.178           104.030                Sumatra         13003.750
        35   01 Jun 2027 15:39:03.682   01 Jun 2027 15:40:32.239            88.557            RioGallegos         11069.625
        36   01 Jun 2027 16:31:31.610   01 Jun 2027 16:32:48.203            76.593                Sumatra          9574.125
        37   01 Jun 2027 16:33:12.437   01 Jun 2027 16:34:02.368            49.931                  Delhi          6241.375
        38   01 Jun 2027 16:34:24.040   01 Jun 2027 16:36:14.515           110.475                Sumatra         13809.375
        39   01 Jun 2027 17:57:58.997   01 Jun 2027 17:58:21.545            22.548                Novosib          2818.500
        40   01 Jun 2027 18:00:50.398   01 Jun 2027 18:04:02.091           191.693                  Delhi         23961.625
        41   01 Jun 2027 21:05:51.150   01 Jun 2027 21:06:51.662            60.512              Murmansk1          7564.000
        42   01 Jun 2027 21:07:01.567   01 Jun 2027 21:08:49.350           107.783                 Moscow         13472.875
        43   01 Jun 2027 21:18:44.626   01 Jun 2027 21:19:55.863            71.237                 Moscow          1455.250
        44   02 Jun 2027 03:27:27.187   02 Jun 2027 03:27:38.640            11.453                Norilsk          1431.625
        45   02 Jun 2027 03:31:13.005   02 Jun 2027 03:31:28.247            15.242              Murmansk2          1905.250
        46   02 Jun 2027 04:04:37.360   02 Jun 2027 04:05:19.873            42.513            RioGallegos          5314.125
        47   02 Jun 2027 04:37:37.778   02 Jun 2027 04:41:13.384           215.606                Sumatra         26950.750
        48   02 Jun 2027 05:00:33.708   02 Jun 2027 05:02:34.690           120.982                Irkutsk         15122.750
        49   02 Jun 2027 05:03:25.189   02 Jun 2027 05:04:18.591            53.402              Murmansk1          6675.250
        50   02 Jun 2027 05:04:28.466   02 Jun 2027 05:04:58.090            29.624                Norilsk          3703.000
        51   02 Jun 2027 06:22:19.861   02 Jun 2027 06:26:22.466           242.605                  Delhi         30325.625
        52   02 Jun 2027 06:36:53.854   02 Jun 2027 06:37:06.675            12.821              Murmansk2          1602.625
        53   02 Jun 2027 06:37:39.204   02 Jun 2027 06:38:54.045            74.841              Murmansk2          9355.125
        54   02 Jun 2027 06:39:03.873   02 Jun 2027 06:39:56.849            52.976                 Moscow          6622.000
        55   02 Jun 2027 06:42:14.244   02 Jun 2027 06:42:18.674             4.430                 Moscow           553.750
        56   02 Jun 2027 09:19:55.419   02 Jun 2027 09:25:46.547           351.128               CapeTown         43891.000
        57   02 Jun 2027 13:14:16.899   02 Jun 2027 13:14:42.768            25.869               Magadan2          3233.625
        58   02 Jun 2027 13:15:16.116   02 Jun 2027 13:17:24.151           128.035               Magadan1         16004.375
        59   02 Jun 2027 15:09:02.279   02 Jun 2027 15:13:43.738           281.459                Sumatra         35182.375
        60   02 Jun 2027 15:16:59.281   02 Jun 2027 15:17:56.246            56.965                Sumatra          7120.625
        61   02 Jun 2027 16:35:43.973   02 Jun 2027 16:35:50.456             6.483                Novosib           810.375
        62   02 Jun 2027 16:43:45.591   02 Jun 2027 16:44:17.802            32.211                Sumatra          4026.375
        63   02 Jun 2027 16:46:11.735   02 Jun 2027 16:48:10.364           118.629                Sumatra         14828.625
        64   02 Jun 2027 18:05:31.013   02 Jun 2027 18:07:24.234           113.221                Novosib         14152.625
        65   02 Jun 2027 18:12:51.298   02 Jun 2027 18:14:16.200            84.902                  Delhi         10612.750
        66   02 Jun 2027 18:17:48.143   02 Jun 2027 18:20:30.791           162.648                  Delhi         20331.000
        67   02 Jun 2027 19:48:06.297   02 Jun 2027 19:48:54.167            47.870                 Moscow          5983.750
        68   02 Jun 2027 21:43:00.069   02 Jun 2027 21:44:14.677            74.608               CapeTown          9326.000
        69   02 Jun 2027 21:46:06.487   02 Jun 2027 21:47:48.372           101.885               CapeTown         12735.625
        70   03 Jun 2027 03:14:42.016   03 Jun 2027 03:22:32.706           470.690                Sumatra         58836.250
        71   03 Jun 2027 05:14:47.246   03 Jun 2027 05:16:12.066            84.820                Novosib         10602.500
        72   03 Jun 2027 06:34:49.564   03 Jun 2027 06:37:34.730           165.166                  Delhi         20645.750
        73   03 Jun 2027 06:49:35.080   03 Jun 2027 06:50:09.709            34.629              Murmansk2          4328.625
        74   03 Jun 2027 06:50:09.709   03 Jun 2027 06:50:41.156            31.447              Murmansk1          3930.875
        75   03 Jun 2027 06:50:46.760   03 Jun 2027 06:51:41.856            55.096              Murmansk2          6887.000
        76   03 Jun 2027 09:34:25.693   03 Jun 2027 09:36:21.065           115.372               CapeTown         14421.500
        77   03 Jun 2027 13:26:17.278   03 Jun 2027 13:28:47.645           150.367               Magadan2         18795.875
        78   03 Jun 2027 15:07:56.125   03 Jun 2027 15:10:36.601           160.476                Irkutsk         20059.500
        79   03 Jun 2027 15:21:47.950   03 Jun 2027 15:27:43.451           355.501                Sumatra         44437.625
        80   03 Jun 2027 16:46:22.601   03 Jun 2027 16:47:20.093            57.492                Novosib          7186.500
        81   03 Jun 2027 16:50:26.497   03 Jun 2027 16:52:07.992           101.495                  Delhi         12686.875
        82   03 Jun 2027 16:54:15.568   03 Jun 2027 16:59:37.855           322.287                  Delhi         40285.875
        83   03 Jun 2027 20:02:31.445   03 Jun 2027 20:03:52.928            81.483                 Moscow         10185.375
        84   03 Jun 2027 21:55:10.721   03 Jun 2027 21:55:49.146            38.425               CapeTown          4803.125
        85   03 Jun 2027 21:59:43.158   03 Jun 2027 22:01:41.972           118.814               CapeTown         14851.750
        86   04 Jun 2027 03:26:15.169   04 Jun 2027 03:28:01.745           106.576                Sumatra         13322.000
        87   04 Jun 2027 03:30:20.619   04 Jun 2027 03:33:06.512           165.893                Sumatra         20736.625
        88   04 Jun 2027 05:03:40.378   04 Jun 2027 05:04:18.261            37.883                Sumatra          4735.375
        89   04 Jun 2027 05:09:16.970   04 Jun 2027 05:11:12.725           115.755                Sumatra         14469.375
        90   04 Jun 2027 05:25:57.272   04 Jun 2027 05:26:26.601            29.329                Novosib          3666.125
        91   04 Jun 2027 05:26:46.339   04 Jun 2027 05:27:34.095            47.756                 Moscow          5969.500
        92   04 Jun 2027 05:30:03.533   04 Jun 2027 05:30:07.608             4.075              Murmansk1           509.375
        93   04 Jun 2027 05:30:17.020   04 Jun 2027 05:30:55.390            38.370              Murmansk2          4796.250
        94   04 Jun 2027 06:47:29.750   04 Jun 2027 06:50:44.838           195.088                  Delhi         24386.000
        95   04 Jun 2027 07:01:54.002   04 Jun 2027 07:02:00.723             6.721                Norilsk           840.125
        96   04 Jun 2027 07:02:03.409   04 Jun 2027 07:02:36.267            32.858                Novosib          4107.250
        97   04 Jun 2027 07:02:40.062   04 Jun 2027 07:03:32.729            52.667              Murmansk1          6583.375
        98   04 Jun 2027 07:03:48.786   04 Jun 2027 07:04:01.113            12.327                Norilsk          1540.875
        99   04 Jun 2027 07:04:01.339   04 Jun 2027 07:04:54.046            52.707              Murmansk2          6588.375
       100   04 Jun 2027 09:43:39.662   04 Jun 2027 09:46:27.749           168.087               CapeTown         21010.875
       101   04 Jun 2027 10:24:17.218   04 Jun 2027 10:25:00.670            43.452                Anadyr2          5431.500
       102   04 Jun 2027 10:33:42.519   04 Jun 2027 10:33:51.093             8.574                Anadyr2          1071.750
       103   04 Jun 2027 12:00:06.169   04 Jun 2027 12:00:09.932             3.763                Anadyr2           470.375
       104   04 Jun 2027 12:02:17.786   04 Jun 2027 12:02:55.030            37.244                Anadyr2          4655.500
       105   04 Jun 2027 12:02:55.030   04 Jun 2027 12:03:25.728            30.698                Anadyr1          3837.250
       106   04 Jun 2027 12:03:50.149   04 Jun 2027 12:05:12.437            82.288               Magadan2         10286.000
       107   04 Jun 2027 12:09:41.753   04 Jun 2027 12:09:44.249             2.496                Anadyr1           312.000
       108   04 Jun 2027 12:11:47.286   04 Jun 2027 12:13:46.487           119.201               Magadan1         14900.125
       109   04 Jun 2027 13:38:18.083   04 Jun 2027 13:38:32.588            14.505               Magadan2          1813.125
       110   04 Jun 2027 13:40:13.301   04 Jun 2027 13:41:36.675            83.374               Magadan2         10421.750
       111   04 Jun 2027 13:43:48.495   04 Jun 2027 13:46:00.971           132.476               Magadan2         16559.500
       112   04 Jun 2027 15:22:18.668   04 Jun 2027 15:23:41.073            82.405                Irkutsk         10300.625
       113   04 Jun 2027 15:28:10.565   04 Jun 2027 15:29:30.123            79.558                Irkutsk          9944.750
       114   04 Jun 2027 15:32:04.824   04 Jun 2027 15:34:13.287           128.463                Sumatra         16057.875
       115   04 Jun 2027 15:37:00.594   04 Jun 2027 15:38:36.832            96.238                Sumatra         12029.750
       116   04 Jun 2027 16:56:34.205   04 Jun 2027 16:59:06.130           151.925                Novosib         18990.625
       117   04 Jun 2027 17:02:49.499   04 Jun 2027 17:09:05.176           375.677                  Delhi         46959.625
       118   04 Jun 2027 20:09:40.423   04 Jun 2027 20:12:29.239           168.816                 Moscow         21102.000
       119   04 Jun 2027 21:45:53.335   04 Jun 2027 21:46:16.048            22.713                 Moscow          2839.125
       120   04 Jun 2027 22:07:27.185   04 Jun 2027 22:09:54.288           147.103               CapeTown         18387.875
       121   05 Jun 2027 03:37:56.273   05 Jun 2027 03:44:12.211           375.938                Sumatra         46992.250
       122   05 Jun 2027 05:14:56.855   05 Jun 2027 05:16:31.319            94.464                Sumatra         11808.000
       123   05 Jun 2027 05:20:36.500   05 Jun 2027 05:21:08.304            31.804                Sumatra          3975.500
       124   05 Jun 2027 05:26:06.729   05 Jun 2027 05:27:17.360            70.631                  Delhi          8828.875
       125   05 Jun 2027 05:32:52.180   05 Jun 2027 05:33:51.191            59.011                  Delhi          7376.375
       126   05 Jun 2027 05:38:45.249   05 Jun 2027 05:40:11.619            86.370                Novosib         10796.250
       127   05 Jun 2027 07:00:25.363   05 Jun 2027 07:02:57.766           152.403                  Delhi         19050.375
       128   05 Jun 2027 07:13:39.548   05 Jun 2027 07:14:01.604            22.056                 Moscow          2757.000
       129   05 Jun 2027 07:14:09.633   05 Jun 2027 07:14:29.029            19.396                Novosib          2424.500
       130   05 Jun 2027 07:14:32.516   05 Jun 2027 07:14:42.407             9.891                Norilsk          1236.375
       131   05 Jun 2027 07:14:42.608   05 Jun 2027 07:14:56.110            13.502                 Moscow          1687.750
       132   05 Jun 2027 07:15:24.334   05 Jun 2027 07:15:49.917            25.583              Murmansk2          3197.875
       133   05 Jun 2027 07:15:58.747   05 Jun 2027 07:16:40.823            42.076                 Moscow          5259.500
       134   05 Jun 2027 07:17:36.517   05 Jun 2027 07:17:45.029             8.512                 Moscow          1064.000
       135   05 Jun 2027 08:22:42.451   05 Jun 2027 08:22:54.432            11.981               CapeTown          1497.625
       136   05 Jun 2027 09:55:36.654   05 Jun 2027 09:57:34.373           117.719               CapeTown         14714.875
       137   05 Jun 2027 10:36:16.486   05 Jun 2027 10:36:49.673            33.187                Anadyr2          4148.375
       138   05 Jun 2027 10:37:03.195   05 Jun 2027 10:38:22.189            78.994                Anadyr2          9874.250
       139   05 Jun 2027 10:41:09.486   05 Jun 2027 10:41:55.115            45.629                Anadyr2          5703.625
       140   05 Jun 2027 10:45:34.192   05 Jun 2027 10:45:50.776            16.584                Anadyr1          2073.000
       141   05 Jun 2027 12:12:07.530   05 Jun 2027 12:12:09.708             2.178                Anadyr2           272.250
       142   05 Jun 2027 12:12:27.004   05 Jun 2027 12:12:56.399            29.395                Anadyr2          3674.375
       143   05 Jun 2027 12:14:39.515   05 Jun 2027 12:19:26.533           287.018               Magadan1         35877.250
       144   05 Jun 2027 12:22:44.480   05 Jun 2027 12:24:11.361            86.881               Magadan2         10860.125
       145   05 Jun 2027 13:50:19.256   05 Jun 2027 13:52:35.880           136.624               Magadan1         17078.000
       146   05 Jun 2027 14:43:26.451   05 Jun 2027 14:46:19.225           172.774            RioGallegos         21596.750
       147   05 Jun 2027 15:43:49.381   05 Jun 2027 15:46:30.618           161.237                Sumatra         20154.625
       148   05 Jun 2027 17:05:41.814   05 Jun 2027 17:05:52.037            10.223                Irkutsk          1277.875
       149   05 Jun 2027 17:08:13.666   05 Jun 2027 17:10:56.613           162.947                Novosib         20368.375
       150   05 Jun 2027 17:13:38.053   05 Jun 2027 17:19:59.931           381.878                  Delhi         47734.750
       151   05 Jun 2027 18:49:14.383   05 Jun 2027 18:49:15.530             1.147                  Delhi           143.375
       152   05 Jun 2027 18:55:04.268   05 Jun 2027 18:55:11.024             6.756                  Delhi           844.500
       153   05 Jun 2027 20:19:18.947   05 Jun 2027 20:21:58.174           159.227                 Moscow         19903.375
       154   05 Jun 2027 21:55:09.700   05 Jun 2027 21:56:06.296            56.596                 Moscow          7074.500
       155   05 Jun 2027 21:56:38.609   05 Jun 2027 21:56:49.438            10.829              Murmansk1          1353.625
       156   05 Jun 2027 22:19:50.229   05 Jun 2027 22:21:42.730           112.501               CapeTown         14062.625
       157   05 Jun 2027 22:28:42.416   05 Jun 2027 22:29:48.670            66.254               CapeTown          8281.750
       158   06 Jun 2027 03:49:44.047   06 Jun 2027 03:52:36.739           172.692                Sumatra         21586.500
       159   06 Jun 2027 04:15:48.183   06 Jun 2027 04:16:06.744            18.561                Novosib          2320.125
       160   06 Jun 2027 04:18:54.526   06 Jun 2027 04:18:56.741             2.215              Murmansk1           276.875
       161   06 Jun 2027 04:19:29.426   06 Jun 2027 04:20:14.523            45.097              Murmansk1          5637.125
       162   06 Jun 2027 04:53:25.750   06 Jun 2027 04:54:06.046            40.296            RioGallegos          5037.000
       163   06 Jun 2027 05:27:49.972   06 Jun 2027 05:28:46.800            56.828                Sumatra          7103.500
       164   06 Jun 2027 05:33:03.460   06 Jun 2027 05:35:04.790           121.330                Sumatra         15166.250
       165   06 Jun 2027 05:35:25.502   06 Jun 2027 05:36:07.279            41.777                  Delhi          5222.125
       166   06 Jun 2027 05:50:55.313   06 Jun 2027 05:51:44.868            49.555                Norilsk          6194.375
       167   06 Jun 2027 05:52:33.123   06 Jun 2027 05:53:16.106            42.983                Novosib          5372.875
       168   06 Jun 2027 07:13:51.212   06 Jun 2027 07:14:46.789            55.577                  Delhi          6947.125
       169   06 Jun 2027 07:15:34.405   06 Jun 2027 07:16:26.410            52.005                  Delhi          6500.625
       170   06 Jun 2027 07:22:59.067   06 Jun 2027 07:23:45.276            46.209                Novosib          5776.125
       171   06 Jun 2027 07:23:58.126   06 Jun 2027 07:24:41.200            43.074                Novosib          5384.250
       172   06 Jun 2027 07:24:53.988   06 Jun 2027 07:25:44.072            50.084                 Moscow          6260.500
       173   06 Jun 2027 07:25:48.307   06 Jun 2027 07:26:05.867            17.560                 Moscow          2195.000
       174   06 Jun 2027 07:26:08.259   06 Jun 2027 07:26:24.277            16.018              Murmansk2          2002.250
       175   06 Jun 2027 07:26:24.373   06 Jun 2027 07:26:30.047             5.674                 Moscow           709.250
       176   06 Jun 2027 07:26:39.318   06 Jun 2027 07:27:39.879            60.561                Norilsk          7570.125
       177   06 Jun 2027 07:27:58.944   06 Jun 2027 07:28:41.282            42.338                Norilsk          5292.250
       178   06 Jun 2027 07:29:03.881   06 Jun 2027 07:29:55.877            51.996                Norilsk          6499.500
       179   06 Jun 2027 08:33:45.896   06 Jun 2027 08:35:27.325           101.429               CapeTown         12678.625
       180   06 Jun 2027 08:41:49.138   06 Jun 2027 08:41:54.408             5.270               CapeTown           658.750
       181   06 Jun 2027 10:08:31.060   06 Jun 2027 10:08:59.035            27.975               CapeTown          3496.875
       182   06 Jun 2027 10:15:12.293   06 Jun 2027 10:16:46.171            93.878               CapeTown         11734.750
       183   06 Jun 2027 10:48:16.259   06 Jun 2027 10:50:18.537           122.278                Anadyr2         15284.750
       184   06 Jun 2027 10:57:22.278   06 Jun 2027 10:57:50.878            28.600                Anadyr2          3575.000
       185   06 Jun 2027 12:24:08.928   06 Jun 2027 12:24:51.791            42.863                Anadyr2          5357.875
       186   06 Jun 2027 12:26:36.300   06 Jun 2027 12:27:48.735            72.435               Magadan2          9054.375
       187   06 Jun 2027 12:32:15.822   06 Jun 2027 12:36:38.174           262.352               Magadan1         32794.000
       188   06 Jun 2027 14:54:48.174   06 Jun 2027 14:55:41.742            53.568            RioGallegos          6696.000
       189   06 Jun 2027 14:58:22.838   06 Jun 2027 14:59:53.050            90.212            RioGallegos         11276.500
       190   06 Jun 2027 15:41:59.110   06 Jun 2027 15:43:51.096           111.986                Irkutsk         13998.250
       191   06 Jun 2027 15:50:13.779   06 Jun 2027 15:51:30.618            76.839                Irkutsk          9604.875
       192   06 Jun 2027 15:55:40.198   06 Jun 2027 15:58:41.322           181.124                Sumatra         22640.500
       193   06 Jun 2027 17:17:45.009   06 Jun 2027 17:17:48.535             3.526                Irkutsk           440.750
       194   06 Jun 2027 17:19:12.301   06 Jun 2027 17:19:20.548             8.247                Irkutsk          1030.875
       195   06 Jun 2027 17:20:30.642   06 Jun 2027 17:22:49.012           138.370                Novosib         17296.250
       196   06 Jun 2027 17:25:23.519   06 Jun 2027 17:34:49.802           566.283                  Delhi         70785.375
       197   06 Jun 2027 22:32:21.134   06 Jun 2027 22:34:11.692           110.558               CapeTown         13819.750
       198   07 Jun 2027 04:01:37.782   07 Jun 2027 04:04:44.427           186.645                Sumatra         23330.625
       199   07 Jun 2027 04:28:52.102   07 Jun 2027 04:29:18.639            26.537                Norilsk          3317.125
       200   07 Jun 2027 04:29:44.804   07 Jun 2027 04:29:46.950             2.146                Norilsk           268.250
       201   07 Jun 2027 04:29:49.535   07 Jun 2027 04:30:53.107            63.572                Norilsk          7946.500
       202   07 Jun 2027 05:41:22.440   07 Jun 2027 05:43:05.862           103.422                Sumatra         12927.750
       203   07 Jun 2027 05:45:49.698   07 Jun 2027 05:47:27.184            97.486                  Delhi         12185.750
       204   07 Jun 2027 05:48:58.310   07 Jun 2027 05:50:37.664            99.354                  Delhi         12419.250
       205   07 Jun 2027 06:03:07.243   07 Jun 2027 06:05:05.546           118.303              Murmansk2         14787.875
       206   07 Jun 2027 07:34:57.503   07 Jun 2027 07:35:21.868            24.365                 Moscow          3045.625
       207   07 Jun 2027 07:35:25.245   07 Jun 2027 07:35:44.253            19.008              Murmansk1          2376.000
       208   07 Jun 2027 07:36:03.758   07 Jun 2027 07:37:43.478            99.720              Murmansk2         12465.000
       209   07 Jun 2027 07:37:51.471   07 Jun 2027 07:38:26.236            34.765              Murmansk2          4345.625
       210   07 Jun 2027 07:38:33.926   07 Jun 2027 07:39:22.145            48.219                 Moscow          6027.375
       211   07 Jun 2027 07:39:29.073   07 Jun 2027 07:39:42.944            13.871              Murmansk1          1733.875
       212   07 Jun 2027 07:39:47.531   07 Jun 2027 07:40:10.712            23.181                 Moscow          2897.625
       213   07 Jun 2027 07:40:25.012   07 Jun 2027 07:41:17.707            52.695              Murmansk1          6586.875
       214   07 Jun 2027 07:42:40.662   07 Jun 2027 07:42:43.524             2.862                 Moscow           357.750
       215   07 Jun 2027 08:45:09.064   07 Jun 2027 08:49:37.487           268.423               CapeTown         33552.875
       216   07 Jun 2027 08:51:58.524   07 Jun 2027 08:54:22.059           143.535               CapeTown         17941.875
       217   07 Jun 2027 11:02:56.387   07 Jun 2027 11:03:33.195            36.808                Anadyr2          4601.000
       218   07 Jun 2027 11:04:48.820   07 Jun 2027 11:06:46.973           118.153                Anadyr2         14769.125
       219   07 Jun 2027 12:38:34.084   07 Jun 2027 12:40:59.660           145.576               Magadan1         18197.000
       220   07 Jun 2027 12:43:36.597   07 Jun 2027 12:44:35.348            58.751               Magadan2          7343.875
       221   07 Jun 2027 14:15:04.217   07 Jun 2027 14:15:26.623            22.406               Magadan1          2800.750
       222   07 Jun 2027 14:23:58.591   07 Jun 2027 14:24:54.291            55.700               Magadan2          6962.500
       223   07 Jun 2027 15:06:12.615   07 Jun 2027 15:08:08.491           115.876            RioGallegos         14484.500
       224   07 Jun 2027 15:53:55.495   07 Jun 2027 15:55:18.616            83.121                Irkutsk         10390.125
       225   07 Jun 2027 15:59:00.717   07 Jun 2027 16:00:19.353            78.636                Irkutsk          9829.500
       226   07 Jun 2027 16:03:15.015   07 Jun 2027 16:03:28.080            13.065                Irkutsk          1633.125
       227   07 Jun 2027 16:07:36.774   07 Jun 2027 16:10:44.375           187.601                Sumatra         23450.125
       228   07 Jun 2027 17:31:48.078   07 Jun 2027 17:34:43.333           175.255                Novosib         21906.875
       229   07 Jun 2027 17:37:13.640   07 Jun 2027 17:42:15.115           301.475                  Delhi         37684.375
       230   07 Jun 2027 20:40:00.260   07 Jun 2027 20:40:01.776             1.516              Murmansk1           189.500
       231   07 Jun 2027 20:43:16.131   07 Jun 2027 20:43:56.968            40.837                 Moscow          5104.625
       232   07 Jun 2027 20:46:22.999   07 Jun 2027 20:48:10.704           107.705                 Moscow         13463.125
       233   07 Jun 2027 22:50:43.576   07 Jun 2027 22:52:37.297           113.721               CapeTown         14215.125
       234   08 Jun 2027 03:38:59.473   08 Jun 2027 03:39:38.607            39.134            RioGallegos          4891.750
       235   08 Jun 2027 03:41:48.091   08 Jun 2027 03:41:54.077             5.986            RioGallegos           748.250
       236   08 Jun 2027 04:13:37.150   08 Jun 2027 04:16:11.316           154.166                Sumatra         19270.750
       237   08 Jun 2027 04:30:28.888   08 Jun 2027 04:31:34.097            65.209                Irkutsk          8151.125
       238   08 Jun 2027 04:35:57.826   08 Jun 2027 04:36:21.193            23.367                Norilsk          2920.875
       239   08 Jun 2027 04:36:39.611   08 Jun 2027 04:37:42.298            62.687                Novosib          7835.875
       240   08 Jun 2027 04:37:50.298   08 Jun 2027 04:38:25.126            34.828                Irkutsk          4353.500
       241   08 Jun 2027 04:38:41.577   08 Jun 2027 04:39:22.419            40.842                Novosib          5105.250
       242   08 Jun 2027 04:39:45.130   08 Jun 2027 04:40:10.414            25.284              Murmansk2          3160.500
       243   08 Jun 2027 05:19:27.782   08 Jun 2027 05:19:37.791            10.009            RioGallegos          1251.125
       244   08 Jun 2027 05:57:58.653   08 Jun 2027 06:02:37.103           278.450                  Delhi         34806.250
       245   08 Jun 2027 06:14:24.652   08 Jun 2027 06:14:59.380            34.728              Murmansk2          4341.000
       246   08 Jun 2027 06:15:18.677   08 Jun 2027 06:16:51.672            92.995                Novosib         11624.375
       247   08 Jun 2027 07:48:34.470   08 Jun 2027 07:49:26.279            51.809                 Moscow          6476.125
       248   08 Jun 2027 07:49:54.835   08 Jun 2027 07:50:44.864            50.029                Norilsk          6253.625
       249   08 Jun 2027 07:50:45.048   08 Jun 2027 07:51:48.642            63.594                 Moscow          7949.250
       250   08 Jun 2027 08:56:42.929   08 Jun 2027 08:57:19.037            36.108               CapeTown          4513.500
       251   08 Jun 2027 08:57:48.197   08 Jun 2027 09:03:39.087           350.890               CapeTown         43861.250
       252   08 Jun 2027 11:12:16.959   08 Jun 2027 11:12:31.737            14.778                Anadyr2          1847.250
       253   08 Jun 2027 11:20:34.705   08 Jun 2027 11:21:52.066            77.361                Anadyr2          9670.125
       254   08 Jun 2027 12:50:32.690   08 Jun 2027 12:51:15.418            42.728               Magadan1          5341.000
       255   08 Jun 2027 12:52:20.470   08 Jun 2027 12:57:02.722           282.252               Magadan2         35281.500
       256   08 Jun 2027 15:18:07.043   08 Jun 2027 15:20:07.909           120.866            RioGallegos         15108.250
       257   08 Jun 2027 15:26:14.871   08 Jun 2027 15:27:38.320            83.449            RioGallegos         10431.125
       258   08 Jun 2027 16:05:53.215   08 Jun 2027 16:06:56.271            63.056                Irkutsk          7882.000
       259   08 Jun 2027 16:12:46.287   08 Jun 2027 16:13:33.411            47.124                Irkutsk          5890.500
       260   08 Jun 2027 16:19:38.935   08 Jun 2027 16:21:44.264           125.329                Sumatra         15666.125
       261   08 Jun 2027 16:22:45.295   08 Jun 2027 16:24:39.060           113.765                Sumatra         14220.625
       262   08 Jun 2027 17:44:54.060   08 Jun 2027 17:45:13.397            19.337                Novosib          2417.125
       263   08 Jun 2027 17:49:07.723   08 Jun 2027 17:52:05.832           178.109                  Delhi         22263.625
       264   08 Jun 2027 17:58:22.805   08 Jun 2027 17:58:40.071            17.266                  Delhi          2158.250
       265   08 Jun 2027 19:26:19.266   08 Jun 2027 19:26:58.194            38.928                  Delhi          4866.000
       266   08 Jun 2027 20:52:41.068   08 Jun 2027 20:52:48.888             7.820              Murmansk1           977.500
       267   08 Jun 2027 20:55:15.993   08 Jun 2027 20:56:34.094            78.101                 Moscow          9762.625
       268   08 Jun 2027 20:58:30.494   08 Jun 2027 21:00:07.590            97.096                 Moscow         12137.000
       269   08 Jun 2027 21:22:21.735   08 Jun 2027 21:24:28.492           126.757               CapeTown         15844.625
       270   09 Jun 2027 02:52:49.831   09 Jun 2027 02:53:46.424            56.593                Sumatra          7074.125
       271   09 Jun 2027 03:13:05.642   09 Jun 2027 03:13:48.617            42.975               Magadan2          5371.875
       272   09 Jun 2027 03:15:10.131   09 Jun 2027 03:15:24.300            14.169              Murmansk2          1771.125
       273   09 Jun 2027 03:15:36.493   09 Jun 2027 03:16:00.992            24.499                Novosib          3062.375
       274   09 Jun 2027 03:19:20.794   09 Jun 2027 03:19:51.134            30.340              Murmansk2          3792.500
       275   09 Jun 2027 03:51:13.950   09 Jun 2027 03:53:51.472           157.522            RioGallegos         19690.250
       276   09 Jun 2027 03:54:45.318   09 Jun 2027 03:55:29.708            44.390            RioGallegos          5548.750
       277   09 Jun 2027 04:25:42.141   09 Jun 2027 04:27:21.606            99.465                Sumatra         12433.125
       278   09 Jun 2027 04:28:42.783   09 Jun 2027 04:30:33.392           110.609                Sumatra         13826.125
       279   09 Jun 2027 04:48:22.124   09 Jun 2027 04:48:33.406            11.282                Novosib          1410.250
       280   09 Jun 2027 04:48:44.811   09 Jun 2027 04:50:06.330            81.519                Irkutsk         10189.875
       281   09 Jun 2027 04:50:30.244   09 Jun 2027 04:50:59.022            28.778              Murmansk1          3597.250
       282   09 Jun 2027 04:51:00.778   09 Jun 2027 04:51:15.584            14.806                Norilsk          1850.750
       283   09 Jun 2027 04:51:18.673   09 Jun 2027 04:51:45.981            27.308              Murmansk1          3413.500
       284   09 Jun 2027 04:51:58.151   09 Jun 2027 04:52:11.763            13.612              Murmansk1          1701.500
       285   09 Jun 2027 04:52:33.838   09 Jun 2027 04:53:04.607            30.769              Murmansk1          3846.125
       286   09 Jun 2027 06:10:13.614   09 Jun 2027 06:12:38.025           144.411                  Delhi         18051.375
       287   09 Jun 2027 06:16:33.316   09 Jun 2027 06:16:59.414            26.098                  Delhi          3262.250
       288   09 Jun 2027 06:24:55.256   09 Jun 2027 06:25:31.658            36.402                 Moscow          4550.250
       289   09 Jun 2027 06:25:54.152   09 Jun 2027 06:26:48.712            54.560                 Moscow          6820.000
       290   09 Jun 2027 06:26:49.394   09 Jun 2027 06:27:20.295            30.901                Norilsk          3862.625
       291   09 Jun 2027 06:27:44.329   09 Jun 2027 06:28:14.395            30.066                Norilsk          3758.250
       292   09 Jun 2027 06:28:16.764   09 Jun 2027 06:28:52.782            36.018              Murmansk1          4502.250
       293   09 Jun 2027 08:00:20.900   09 Jun 2027 08:02:05.394           104.494                 Moscow         13061.750
       294   09 Jun 2027 08:02:15.784   09 Jun 2027 08:02:58.435            42.651                 Moscow          5331.375
       295   09 Jun 2027 09:08:23.909   09 Jun 2027 09:14:39.183           375.274               CapeTown         46909.250
       296   09 Jun 2027 11:24:17.741   09 Jun 2027 11:25:55.366            97.625                Anadyr2         12203.125
       297   09 Jun 2027 11:28:47.849   09 Jun 2027 11:29:04.650            16.801                Anadyr1          2100.125
       298   09 Jun 2027 11:33:39.247   09 Jun 2027 11:34:08.995            29.748               Magadan1          3718.500
       299   09 Jun 2027 13:02:31.992   09 Jun 2027 13:03:05.115            33.123               Magadan2          4140.375
       300   09 Jun 2027 13:05:29.050   09 Jun 2027 13:07:24.984           115.934               Magadan1         14491.750
       301   09 Jun 2027 13:12:06.362   09 Jun 2027 13:12:59.073            52.711               Magadan1          6588.875
       302   09 Jun 2027 14:38:26.706   09 Jun 2027 14:39:11.958            45.252               Magadan1          5656.500
       303   09 Jun 2027 14:58:23.811   09 Jun 2027 15:00:20.031           116.220                Sumatra         14527.500
       304   09 Jun 2027 15:30:03.155   09 Jun 2027 15:31:32.099            88.944            RioGallegos         11118.000
       305   09 Jun 2027 15:36:26.830   09 Jun 2027 15:39:19.194           172.364            RioGallegos         21545.500
       306   09 Jun 2027 16:31:46.825   09 Jun 2027 16:33:25.837            99.012                Sumatra         12376.500
       307   09 Jun 2027 16:33:26.102   09 Jun 2027 16:34:19.322            53.220                  Delhi          6652.500
       308   09 Jun 2027 16:39:28.796   09 Jun 2027 16:41:01.230            92.434                Sumatra         11554.250
       309   09 Jun 2027 17:55:10.036   09 Jun 2027 17:57:00.910           110.874                Novosib         13859.250
       310   09 Jun 2027 18:01:05.365   09 Jun 2027 18:03:08.343           122.978                  Delhi         15372.250
       311   09 Jun 2027 21:06:08.129   09 Jun 2027 21:06:31.184            23.055              Murmansk2          2881.875
       312   09 Jun 2027 21:07:16.568   09 Jun 2027 21:09:04.459           107.891                 Moscow         13486.375
       313   09 Jun 2027 21:32:42.164   09 Jun 2027 21:33:01.246            19.082               CapeTown          2385.250
       314   09 Jun 2027 21:33:19.338   09 Jun 2027 21:34:22.969            63.631               CapeTown          7953.875
       315   09 Jun 2027 21:36:12.795   09 Jun 2027 21:36:13.188             0.393               CapeTown            49.125
       316   09 Jun 2027 21:38:58.449   09 Jun 2027 21:40:28.140            89.691               CapeTown         11211.375
       317   10 Jun 2027 03:03:52.084   10 Jun 2027 03:07:05.252           193.168                Sumatra         24146.000
       318   10 Jun 2027 03:12:16.104   10 Jun 2027 03:12:37.366            21.262                Sumatra          2657.750
       319   10 Jun 2027 03:27:37.398   10 Jun 2027 03:27:54.827            17.429                Norilsk          2178.625
       320   10 Jun 2027 03:27:57.356   10 Jun 2027 03:28:40.854            43.498              Murmansk1          5437.250
       321   10 Jun 2027 03:30:27.168   10 Jun 2027 03:30:55.953            28.785                Norilsk          3598.125
       322   10 Jun 2027 04:05:35.068   10 Jun 2027 04:05:47.513            12.445            RioGallegos          1555.625
       323   10 Jun 2027 04:11:18.248   10 Jun 2027 04:12:21.004            62.756            RioGallegos          7844.500
       324   10 Jun 2027 04:37:53.058   10 Jun 2027 04:39:44.471           111.413                Sumatra         13926.625
       325   10 Jun 2027 04:40:33.394   10 Jun 2027 04:41:30.312            56.918                Sumatra          7114.750
       326   10 Jun 2027 04:45:32.194   10 Jun 2027 04:46:09.608            37.414                Sumatra          4676.750
       327   10 Jun 2027 05:00:37.295   10 Jun 2027 05:02:23.153           105.858                Novosib         13232.250
       328   10 Jun 2027 05:02:43.769   10 Jun 2027 05:03:16.227            32.458                Novosib          4057.250
       329   10 Jun 2027 05:03:45.385   10 Jun 2027 05:04:23.660            38.275              Murmansk1          4784.375
       330   10 Jun 2027 06:22:35.375   10 Jun 2027 06:26:37.384           242.009                  Delhi         30251.125
       331   10 Jun 2027 06:37:06.113   10 Jun 2027 06:37:16.725            10.612                 Moscow          1326.500
       332   10 Jun 2027 06:37:37.912   10 Jun 2027 06:38:05.019            27.107                Norilsk          3388.375
       333   10 Jun 2027 06:38:09.280   10 Jun 2027 06:38:18.822             9.542                Norilsk          1192.750
       334   10 Jun 2027 06:38:19.938   10 Jun 2027 06:38:33.661            13.723              Murmansk2          1715.375
       335   10 Jun 2027 06:38:38.299   10 Jun 2027 06:39:08.814            30.515                Norilsk          3814.375
       336   10 Jun 2027 06:39:08.921   10 Jun 2027 06:40:06.274            57.353              Murmansk2          7169.125
       337   10 Jun 2027 08:14:14.568   10 Jun 2027 08:15:15.507            60.939                 Moscow          7617.375
       338   10 Jun 2027 08:15:35.945   10 Jun 2027 08:15:41.668             5.723                Norilsk           715.375
       339   10 Jun 2027 08:16:02.993   10 Jun 2027 08:16:50.478            47.485              Murmansk2          5935.625
       340   10 Jun 2027 09:20:10.154   10 Jun 2027 09:26:00.812           350.658               CapeTown         43832.250
       341   10 Jun 2027 11:36:18.738   10 Jun 2027 11:36:26.659             7.921                Anadyr2           990.125
       342   10 Jun 2027 11:39:29.570   10 Jun 2027 11:41:04.759            95.189                Anadyr1         11898.625
       343   10 Jun 2027 11:42:25.950   10 Jun 2027 11:45:25.279           179.329               Magadan1         22416.125
       344   10 Jun 2027 13:14:31.880   10 Jun 2027 13:17:39.323           187.443               Magadan1         23430.375
       345   10 Jun 2027 15:09:13.295   10 Jun 2027 15:14:21.149           307.854                Sumatra         38481.750
       346   10 Jun 2027 15:16:57.041   10 Jun 2027 15:18:06.554            69.513                Sumatra          8689.125
       347   10 Jun 2027 16:35:52.047   10 Jun 2027 16:36:14.156            22.109                Novosib          2763.625
       348   10 Jun 2027 16:44:00.946   10 Jun 2027 16:44:32.146            31.200                Sumatra          3900.000
       349   10 Jun 2027 16:48:25.168   10 Jun 2027 16:48:34.901             9.733                Sumatra          1216.625
       350   10 Jun 2027 18:05:46.017   10 Jun 2027 18:07:39.328           113.311                Novosib         14163.875
       351   10 Jun 2027 18:13:06.335   10 Jun 2027 18:16:17.810           191.475                  Delhi         23934.375
       352   10 Jun 2027 18:25:46.484   10 Jun 2027 18:25:49.043             2.559                  Delhi           319.875
       353   10 Jun 2027 19:47:07.114   10 Jun 2027 19:49:08.694           121.580                 Moscow         15197.500
       354   10 Jun 2027 21:19:17.785   10 Jun 2027 21:19:33.759            15.974                 Moscow          1996.750
       355   10 Jun 2027 21:21:29.915   10 Jun 2027 21:22:36.427            66.512                 Moscow          8314.000
       356   10 Jun 2027 21:28:01.662   10 Jun 2027 21:28:53.669            52.007                 Moscow          6500.875
       357   10 Jun 2027 21:45:41.360   10 Jun 2027 21:46:21.412            40.052               CapeTown          5006.500
       358   10 Jun 2027 21:49:17.842   10 Jun 2027 21:51:05.495           107.653               CapeTown         13456.625
       359   11 Jun 2027 03:14:56.341   11 Jun 2027 03:22:45.530           469.189                Sumatra         58648.625
       360   11 Jun 2027 04:50:10.630   11 Jun 2027 04:50:20.363             9.733                Sumatra          1216.625
       361   11 Jun 2027 04:52:13.219   11 Jun 2027 04:54:25.235           132.016                Sumatra         16502.000
       362   11 Jun 2027 05:04:47.406   11 Jun 2027 05:06:16.553            89.147                  Delhi         11143.375
       363   11 Jun 2027 05:14:03.219   11 Jun 2027 05:14:14.673            11.454              Murmansk2          1431.750
       364   11 Jun 2027 05:14:26.647   11 Jun 2027 05:15:23.224            56.577                Norilsk          7072.125
       365   11 Jun 2027 05:17:14.465   11 Jun 2027 05:17:34.046            19.581                Novosib          2447.625
       366   11 Jun 2027 06:35:05.267   11 Jun 2027 06:37:48.563           163.296                  Delhi         20412.000
       367   11 Jun 2027 06:41:25.159   11 Jun 2027 06:41:43.047            17.888                  Delhi          2236.000
       368   11 Jun 2027 06:49:51.638   11 Jun 2027 06:50:14.211            22.573              Murmansk1          2821.625
       369   11 Jun 2027 06:50:19.021   11 Jun 2027 06:52:06.730           107.709                 Moscow         13463.625
       370   11 Jun 2027 09:32:00.591   11 Jun 2027 09:34:41.018           160.427               CapeTown         20053.375
       371   11 Jun 2027 10:12:35.109   11 Jun 2027 10:13:30.865            55.756                Anadyr2          6969.500
       372   11 Jun 2027 11:48:19.903   11 Jun 2027 11:48:25.342             5.439                Anadyr1           679.875
       373   11 Jun 2027 11:50:12.060   11 Jun 2027 11:51:36.213            84.153                Anadyr2         10519.125
       374   11 Jun 2027 11:53:35.884   11 Jun 2027 11:54:07.376            31.492               Magadan1          3936.500
       375   11 Jun 2027 11:57:24.091   11 Jun 2027 12:00:33.475           189.384               Magadan1         23673.000
       376   11 Jun 2027 13:26:32.272   11 Jun 2027 13:28:01.986            89.714               Magadan1         11214.250
       377   11 Jun 2027 15:08:11.351   11 Jun 2027 15:11:01.264           169.913                Irkutsk         21239.125
       378   11 Jun 2027 15:23:38.292   11 Jun 2027 15:27:56.854           258.562                Sumatra         32320.250
       379   11 Jun 2027 16:45:11.032   11 Jun 2027 16:45:44.395            33.363                Irkutsk          4170.375
       380   11 Jun 2027 16:46:38.251   11 Jun 2027 16:47:34.639            56.388                Novosib          7048.500
       381   11 Jun 2027 16:50:40.777   11 Jun 2027 16:53:03.687           142.910                  Delhi         17863.750
       382   11 Jun 2027 16:53:57.212   11 Jun 2027 16:59:52.296           355.084                  Delhi         44385.500
       383   11 Jun 2027 20:00:44.069   11 Jun 2027 20:00:54.523            10.454                 Moscow          1306.750
       384   11 Jun 2027 20:02:47.404   11 Jun 2027 20:04:24.828            97.424                 Moscow         12178.000
       385   11 Jun 2027 21:55:25.986   11 Jun 2027 21:57:58.123           152.137               CapeTown         19017.125
       386   12 Jun 2027 03:26:29.678   12 Jun 2027 03:28:17.250           107.572                Sumatra         13446.500
       387   12 Jun 2027 03:30:37.021   12 Jun 2027 03:33:20.219           163.198                Sumatra         20399.750
       388   12 Jun 2027 03:51:47.287   12 Jun 2027 03:52:09.977            22.690                Irkutsk          2836.250
       389   12 Jun 2027 05:02:36.280   12 Jun 2027 05:03:54.801            78.521                Sumatra          9815.125
       390   12 Jun 2027 05:04:33.201   12 Jun 2027 05:06:29.584           116.383                Sumatra         14547.875
       391   12 Jun 2027 05:25:27.079   12 Jun 2027 05:26:53.784            86.705                Irkutsk         10838.125
       392   12 Jun 2027 06:47:45.710   12 Jun 2027 06:50:59.960           194.250                  Delhi         24281.250
       393   12 Jun 2027 07:01:46.214   12 Jun 2027 07:02:09.200            22.986              Murmansk1          2873.250
       394   12 Jun 2027 07:02:18.379   12 Jun 2027 07:02:45.198            26.819                Novosib          3352.375
       395   12 Jun 2027 07:02:54.603   12 Jun 2027 07:04:04.158            69.555                Norilsk          8694.375
       396   12 Jun 2027 08:13:13.465   12 Jun 2027 08:14:22.456            68.991               CapeTown          8623.875
       397   12 Jun 2027 09:43:54.547   12 Jun 2027 09:46:41.481           166.934               CapeTown         20866.750
       398   12 Jun 2027 10:24:32.168   12 Jun 2027 10:25:15.183            43.015                Anadyr1          5376.875
       399   12 Jun 2027 12:00:21.179   12 Jun 2027 12:00:24.631             3.452                Anadyr2           431.500
       400   12 Jun 2027 12:01:17.249   12 Jun 2027 12:02:32.773            75.524                Anadyr2          9440.500
       401   12 Jun 2027 12:02:58.816   12 Jun 2027 12:05:25.893           147.077               Magadan1         18384.625
       402   12 Jun 2027 12:06:58.861   12 Jun 2027 12:08:28.499            89.638               Magadan1         11204.750
       403   12 Jun 2027 12:09:12.144   12 Jun 2027 12:10:52.882           100.738               Magadan1         12592.250
       404   12 Jun 2027 13:38:33.086   12 Jun 2027 13:40:28.360           115.274               Magadan1         14409.250
       405   12 Jun 2027 15:22:34.429   12 Jun 2027 15:23:55.537            81.108                Irkutsk         10138.500
       406   12 Jun 2027 15:32:19.412   12 Jun 2027 15:38:50.740           391.328                Sumatra         48916.000
       407   12 Jun 2027 17:01:33.751   12 Jun 2027 17:03:38.597           124.846                Novosib         15605.750
       408   12 Jun 2027 18:29:49.265   12 Jun 2027 18:29:58.182             8.917                Novosib          1114.625
       409   12 Jun 2027 18:35:13.660   12 Jun 2027 18:36:16.751            63.091                Novosib          7886.375
       410   12 Jun 2027 18:37:18.261   12 Jun 2027 18:39:27.412           129.151                  Delhi         16143.875
       411   12 Jun 2027 18:47:01.524   12 Jun 2027 18:49:22.075           140.551                  Delhi         17568.875
       412   12 Jun 2027 20:08:55.217   12 Jun 2027 20:09:08.014            12.797                 Moscow          1599.625
       413   12 Jun 2027 20:13:21.654   12 Jun 2027 20:15:59.813           158.159                 Moscow         19769.875
       414   12 Jun 2027 22:07:42.579   12 Jun 2027 22:10:09.078           146.499               CapeTown         18312.375
       415   13 Jun 2027 03:38:10.934   13 Jun 2027 03:40:38.185           147.251                Sumatra         18406.375
       416   13 Jun 2027 03:43:46.911   13 Jun 2027 03:44:26.267            39.356                Sumatra          4919.500
       417   13 Jun 2027 04:03:52.026   13 Jun 2027 04:04:21.686            29.660                Novosib          3707.500
       418   13 Jun 2027 04:07:45.525   13 Jun 2027 04:08:18.504            32.979                Norilsk          4122.375
       419   13 Jun 2027 04:40:59.258   13 Jun 2027 04:42:33.587            94.329            RioGallegos         11791.125
       420   13 Jun 2027 04:43:08.797   13 Jun 2027 04:43:48.798            40.001            RioGallegos          5000.125
       421   13 Jun 2027 04:50:02.562   13 Jun 2027 04:50:44.687            42.125            RioGallegos          5265.625
       422   13 Jun 2027 05:15:12.751   13 Jun 2027 05:16:46.169            93.418                Sumatra         11677.250
       423   13 Jun 2027 05:22:03.141   13 Jun 2027 05:22:54.652            51.511                  Delhi          6438.875
       424   13 Jun 2027 05:26:13.314   13 Jun 2027 05:27:31.808            78.494                  Delhi          9811.750
       425   13 Jun 2027 05:38:29.206   13 Jun 2027 05:38:56.221            27.015                Novosib          3376.875
       426   13 Jun 2027 05:39:35.524   13 Jun 2027 05:39:55.517            19.993              Murmansk2          2499.125
       427   13 Jun 2027 05:40:25.793   13 Jun 2027 05:41:01.320            35.527                 Moscow          4440.875
       428   13 Jun 2027 05:41:14.138   13 Jun 2027 05:41:34.061            19.923                Novosib          2490.375
       429   13 Jun 2027 07:00:41.738   13 Jun 2027 07:03:12.233           150.495                  Delhi         18811.875
       430   13 Jun 2027 07:14:04.857   13 Jun 2027 07:15:38.947            94.090              Murmansk2         11761.250
       431   13 Jun 2027 07:16:01.852   13 Jun 2027 07:17:28.195            86.343                Norilsk         10792.875
       432   13 Jun 2027 07:17:28.791   13 Jun 2027 07:17:54.733            25.942                 Moscow          3242.750
       433   13 Jun 2027 09:55:51.604   13 Jun 2027 09:57:48.476           116.872               CapeTown         14609.000
       434   13 Jun 2027 10:03:07.094   13 Jun 2027 10:05:25.807           138.713               CapeTown         17339.125
       435   13 Jun 2027 10:36:31.451   13 Jun 2027 10:37:04.243            32.792                Anadyr2          4099.000
       436   13 Jun 2027 10:37:18.974   13 Jun 2027 10:38:37.592            78.618                Anadyr1          9827.250
       437   13 Jun 2027 10:39:41.369   13 Jun 2027 10:41:24.258           102.889                Anadyr1         12861.125
       438   13 Jun 2027 12:12:22.542   13 Jun 2027 12:12:24.415             1.873                Anadyr1           234.125
       439   13 Jun 2027 12:14:54.409   13 Jun 2027 12:16:32.071            97.662               Magadan2         12207.750
       440   13 Jun 2027 12:19:42.048   13 Jun 2027 12:20:55.459            73.411               Magadan2          9176.375
       441   13 Jun 2027 12:22:50.838   13 Jun 2027 12:24:26.275            95.437               Magadan1         11929.625
       442   13 Jun 2027 13:50:34.268   13 Jun 2027 13:50:44.119             9.851               Magadan2          1231.375
       443   13 Jun 2027 13:52:50.886   13 Jun 2027 13:53:54.087            63.201               Magadan2          7900.125
       444   13 Jun 2027 14:43:41.427   13 Jun 2027 14:46:44.308           182.881            RioGallegos         22860.125
       445   13 Jun 2027 15:35:22.773   13 Jun 2027 15:35:38.137            15.364                Irkutsk          1920.500
       446   13 Jun 2027 15:44:04.109   13 Jun 2027 15:46:45.888           161.779                Sumatra         20222.375
       447   13 Jun 2027 17:05:56.860   13 Jun 2027 17:06:06.685             9.825                Irkutsk          1228.125
       448   13 Jun 2027 17:08:29.049   13 Jun 2027 17:11:11.281           162.232                Novosib         20279.000
       449   13 Jun 2027 17:13:52.671   13 Jun 2027 17:20:13.893           381.222                  Delhi         47652.750
       450   13 Jun 2027 18:49:29.653   13 Jun 2027 18:51:47.612           137.959                  Delhi         17244.875
       451   13 Jun 2027 20:19:33.875   13 Jun 2027 20:20:42.679            68.804                 Moscow          8600.500
       452   13 Jun 2027 21:56:21.402   13 Jun 2027 21:56:33.659            12.257                 Moscow          1532.125
       453   13 Jun 2027 21:56:50.782   13 Jun 2027 21:57:04.090            13.308              Murmansk2          1663.500
       454   13 Jun 2027 22:01:42.765   13 Jun 2027 22:02:09.985            27.220              Murmansk2          3402.500
       455   13 Jun 2027 22:04:58.748   13 Jun 2027 22:05:01.867             3.119                 Moscow           389.875
       456   13 Jun 2027 22:20:05.767   13 Jun 2027 22:21:57.435           111.668               CapeTown         13958.500
