uniorb/output/strategy_1/Drop/Drop_KinoSat_111408.txt

KinoSat_111408
-------------------------
    Access    *     Start Time (UTCG)     *     Stop Time (UTCG)  *   Duration (s)        *       Station  *  Data (Mbytes)
         1   01 Jun 2027 04:34:08.098   01 Jun 2027 04:35:06.428            58.330              Murmansk1          1822.813
         2   01 Jun 2027 04:35:06.428   01 Jun 2027 04:35:20.959            14.531              Murmansk2           454.094
         3   01 Jun 2027 04:35:29.865   01 Jun 2027 04:35:38.778             8.913              Murmansk1           278.531
         4   01 Jun 2027 04:36:04.842   01 Jun 2027 04:36:34.856            30.014              Murmansk2           937.937
         5   01 Jun 2027 05:56:05.325   01 Jun 2027 05:56:28.503            23.178                Anadyr2           724.312
         6   01 Jun 2027 05:56:59.516   01 Jun 2027 06:00:16.963           197.447                Anadyr2          6170.219
         7   01 Jun 2027 07:33:31.445   01 Jun 2027 07:33:59.792            28.347                Anadyr1           885.844
         8   01 Jun 2027 07:34:13.553   01 Jun 2027 07:36:11.801           118.248                Anadyr2          3695.250
         9   01 Jun 2027 07:36:26.853   01 Jun 2027 07:36:53.168            26.315               Magadan1           822.344
        10   01 Jun 2027 07:37:28.246   01 Jun 2027 07:37:34.909             6.663                Anadyr2           208.219
        11   01 Jun 2027 09:07:54.314   01 Jun 2027 09:08:52.420            58.106               Magadan2          1815.812
        12   01 Jun 2027 09:08:52.420   01 Jun 2027 09:09:29.985            37.565               Magadan1          1173.906
        13   01 Jun 2027 09:09:29.985   01 Jun 2027 09:12:46.709           196.724               Magadan2          6147.625
        14   01 Jun 2027 10:44:06.620   01 Jun 2027 10:44:45.738            39.118                Irkutsk          1222.438
        15   01 Jun 2027 10:45:42.172   01 Jun 2027 10:46:05.147            22.975                Irkutsk           717.969
        16   01 Jun 2027 10:46:20.608   01 Jun 2027 10:47:17.666            57.058              Murmansk1          1783.062
        17   01 Jun 2027 10:47:29.398   01 Jun 2027 10:48:19.517            50.119              Murmansk2          1566.219
        18   01 Jun 2027 10:48:19.517   01 Jun 2027 10:48:28.544             9.027              Murmansk1           282.094
        19   01 Jun 2027 10:48:36.882   01 Jun 2027 10:49:27.451            50.569              Murmansk1          1580.281
        20   01 Jun 2027 10:49:32.542   01 Jun 2027 10:50:24.949            52.407                Norilsk          1637.719
        21   01 Jun 2027 11:25:25.378   01 Jun 2027 11:26:15.724            50.346            RioGallegos          1573.313
        22   01 Jun 2027 11:28:01.369   01 Jun 2027 11:29:11.527            70.158            RioGallegos          2192.438
        23   01 Jun 2027 11:59:38.066   01 Jun 2027 12:00:53.455            75.389                Sumatra          2355.906
        24   01 Jun 2027 12:03:12.155   01 Jun 2027 12:04:02.674            50.519                Sumatra          1578.719
        25   01 Jun 2027 12:14:01.877   01 Jun 2027 12:15:26.732            84.855                Novosib          2651.719
        26   01 Jun 2027 12:17:07.462   01 Jun 2027 12:18:02.995            55.533                Novosib          1735.406
        27   01 Jun 2027 12:18:18.865   01 Jun 2027 12:20:36.410           137.545                Norilsk          4298.281
        28   01 Jun 2027 12:20:50.471   01 Jun 2027 12:21:20.054            29.583                Norilsk           924.469
        29   01 Jun 2027 13:44:45.258   01 Jun 2027 13:49:42.701           297.443                  Delhi          9295.094
        30   01 Jun 2027 13:54:06.410   01 Jun 2027 13:54:44.708            38.298                Novosib          1196.812
        31   01 Jun 2027 13:54:58.427   01 Jun 2027 13:55:49.283            50.856              Murmansk1          1589.250
        32   01 Jun 2027 13:56:40.518   01 Jun 2027 13:57:00.205            19.687                Norilsk           615.219
        33   01 Jun 2027 13:57:11.045   01 Jun 2027 13:58:01.056            50.011                Novosib          1562.844
        34   01 Jun 2027 13:59:14.420   01 Jun 2027 14:00:00.852            46.432                Norilsk          1451.000
        35   01 Jun 2027 15:27:41.267   01 Jun 2027 15:29:29.343           108.076                 Moscow          3377.375
        36   01 Jun 2027 15:31:11.314   01 Jun 2027 15:32:30.815            79.501              Murmansk1          2484.406
        37   01 Jun 2027 15:34:11.178   01 Jun 2027 15:34:28.208            17.030              Murmansk2           532.188
        38   01 Jun 2027 15:39:05.193   01 Jun 2027 15:40:21.918            76.725                Norilsk          2397.656
        39   01 Jun 2027 15:46:43.638   01 Jun 2027 15:47:32.216            48.578                Anadyr1          1518.062
        40   01 Jun 2027 15:47:57.515   01 Jun 2027 15:48:13.069            15.554                Anadyr1           486.063
        41   01 Jun 2027 15:48:38.544   01 Jun 2027 15:49:55.381            76.837                Anadyr1          2401.156
        42   01 Jun 2027 17:07:28.688   01 Jun 2027 17:08:19.543            50.855                 Moscow          1589.219
        43   01 Jun 2027 17:09:15.862   01 Jun 2027 17:11:38.682           142.820                 Moscow          4463.125
        44   01 Jun 2027 17:21:36.298   01 Jun 2027 17:23:19.376           103.078                Anadyr2          3221.187
        45   01 Jun 2027 17:23:38.993   01 Jun 2027 17:23:57.275            18.282                Anadyr2           571.313
        46   01 Jun 2027 18:18:23.385   01 Jun 2027 18:19:01.248            37.863               CapeTown          1183.219
        47   01 Jun 2027 18:22:43.099   01 Jun 2027 18:23:07.696            24.597               CapeTown           768.656
        48   01 Jun 2027 18:50:33.224   01 Jun 2027 18:54:25.255           232.031              Murmansk2          7250.969
        49   01 Jun 2027 18:54:38.161   01 Jun 2027 18:54:39.048             0.887              Murmansk1            27.719
        50   01 Jun 2027 18:57:25.720   01 Jun 2027 18:57:28.496             2.776                Anadyr2            86.750
        51   01 Jun 2027 19:00:03.258   01 Jun 2027 19:02:22.392           139.134               Magadan2          4347.938
        52   01 Jun 2027 19:04:53.449   01 Jun 2027 19:05:48.145            54.696               Magadan1          1709.250
        53   01 Jun 2027 20:33:21.320   01 Jun 2027 20:37:04.844           223.524                Anadyr1          6985.125
        54   01 Jun 2027 20:37:13.645   01 Jun 2027 20:40:01.639           167.994               Magadan1          5249.812
        55   01 Jun 2027 21:28:03.963   01 Jun 2027 21:30:57.924           173.961            RioGallegos          5436.281
        56   01 Jun 2027 22:09:02.041   01 Jun 2027 22:09:34.518            32.477                Anadyr1          1014.906
        57   01 Jun 2027 22:11:11.884   01 Jun 2027 22:11:19.846             7.962                Norilsk           248.812
        58   01 Jun 2027 22:11:39.262   01 Jun 2027 22:13:25.261           105.999               Magadan1          3312.469
        59   01 Jun 2027 22:13:25.261   01 Jun 2027 22:13:35.740            10.479               Magadan2           327.469
        60   01 Jun 2027 22:14:37.497   01 Jun 2027 22:14:55.483            17.986               Magadan2           562.062
        61   01 Jun 2027 22:15:31.091   01 Jun 2027 22:17:06.890            95.799                Irkutsk          2993.719
        62   01 Jun 2027 22:18:59.791   01 Jun 2027 22:20:19.731            79.940                Novosib          2498.125
        63   01 Jun 2027 22:29:57.540   01 Jun 2027 22:30:23.417            25.877                Sumatra           808.656
        64   01 Jun 2027 22:31:30.997   01 Jun 2027 22:32:40.754            69.757                Sumatra          2179.906
        65   01 Jun 2027 23:43:55.767   01 Jun 2027 23:45:02.844            67.077                Anadyr2          2096.156
        66   01 Jun 2027 23:45:02.844   01 Jun 2027 23:45:33.190            30.346                Anadyr1           948.313
        67   01 Jun 2027 23:46:13.470   01 Jun 2027 23:46:45.067            31.597                Anadyr1           987.406
        68   01 Jun 2027 23:47:07.271   01 Jun 2027 23:47:27.595            20.324                Norilsk           635.125
        69   01 Jun 2027 23:47:46.286   01 Jun 2027 23:48:31.298            45.012               Magadan2          1406.625
        70   01 Jun 2027 23:48:31.298   01 Jun 2027 23:49:19.406            48.108               Magadan1          1503.375
        71   01 Jun 2027 23:50:59.092   01 Jun 2027 23:52:12.960            73.868                Irkutsk          2308.375
        72   01 Jun 2027 23:53:10.987   01 Jun 2027 23:54:42.380            91.393                Novosib          2856.031
        73   01 Jun 2027 23:58:23.146   01 Jun 2027 23:58:32.077             8.931                Novosib           279.094
        74   01 Jun 2027 23:59:19.542   01 Jun 2027 23:59:57.252            37.710                  Delhi          1178.438
        75   02 Jun 2027 00:03:15.740   02 Jun 2027 00:04:18.814            63.074                  Delhi          1971.062
        76   02 Jun 2027 00:40:56.640   02 Jun 2027 00:41:10.010            13.370            RioGallegos           417.813
        77   02 Jun 2027 00:43:38.525   02 Jun 2027 00:44:06.919            28.394            RioGallegos           887.313
        78   02 Jun 2027 01:17:36.248   02 Jun 2027 01:18:30.241            53.993                Anadyr1          1687.281
        79   02 Jun 2027 01:18:58.520   02 Jun 2027 01:19:39.606            41.086                Anadyr1          1283.937
        80   02 Jun 2027 01:20:04.315   02 Jun 2027 01:20:33.515            29.200                Anadyr2           912.500
        81   02 Jun 2027 01:23:07.414   02 Jun 2027 01:23:17.514            10.100                Norilsk           315.625
        82   02 Jun 2027 01:23:28.228   02 Jun 2027 01:24:56.799            88.571               Magadan1          2767.844
        83   02 Jun 2027 01:25:05.477   02 Jun 2027 01:25:13.025             7.548               Magadan1           235.875
        84   02 Jun 2027 01:25:33.720   02 Jun 2027 01:27:07.884            94.164              Murmansk2          2942.625
        85   02 Jun 2027 01:27:27.284   02 Jun 2027 01:27:54.983            27.699                Novosib           865.594
        86   02 Jun 2027 01:29:09.036   02 Jun 2027 01:30:36.624            87.588              Murmansk2          2737.125
        87   02 Jun 2027 01:42:22.142   02 Jun 2027 01:42:26.002             3.860                  Delhi           120.625
        88   02 Jun 2027 01:42:47.572   02 Jun 2027 01:43:14.679            27.107                  Delhi           847.094
        89   02 Jun 2027 02:18:07.430   02 Jun 2027 02:18:51.377            43.947            RioGallegos          1373.344
        90   02 Jun 2027 02:19:25.254   02 Jun 2027 02:19:29.957             4.703            RioGallegos           146.969
        91   02 Jun 2027 02:50:56.517   02 Jun 2027 02:53:27.213           150.696                Anadyr1          4709.250
        92   02 Jun 2027 02:56:21.540   02 Jun 2027 02:57:40.637            79.097               Magadan2          2471.781
        93   02 Jun 2027 03:07:06.069   02 Jun 2027 03:07:18.081            12.012              Murmansk2           375.375
        94   02 Jun 2027 03:07:29.567   02 Jun 2027 03:08:24.457            54.890                Novosib          1715.313
        95   02 Jun 2027 03:08:28.812   02 Jun 2027 03:08:41.088            12.276              Murmansk2           383.625
        96   02 Jun 2027 03:08:41.088   02 Jun 2027 03:09:15.262            34.174              Murmansk1          1067.938
        97   02 Jun 2027 03:09:36.351   02 Jun 2027 03:12:15.888           159.537              Murmansk2          4985.531
        98   02 Jun 2027 03:12:16.511   02 Jun 2027 03:13:21.962            65.451                 Moscow          2045.344
        99   02 Jun 2027 04:25:16.509   02 Jun 2027 04:26:13.092            56.583                Anadyr2          1768.219
       100   02 Jun 2027 04:44:41.888   02 Jun 2027 04:46:16.309            94.421              Murmansk2          2950.656
       101   02 Jun 2027 04:46:30.603   02 Jun 2027 04:46:40.420             9.817                 Moscow           306.781
       102   02 Jun 2027 04:46:46.212   02 Jun 2027 04:48:10.966            84.754                 Moscow          2648.563
       103   02 Jun 2027 06:07:48.202   02 Jun 2027 06:08:05.742            17.540                Anadyr2           548.125
       104   02 Jun 2027 06:08:30.230   02 Jun 2027 06:10:11.134           100.904                Anadyr2          3153.250
       105   02 Jun 2027 06:10:11.134   02 Jun 2027 06:11:07.860            56.726                Anadyr1          1772.688
       106   02 Jun 2027 06:11:19.772   02 Jun 2027 06:11:37.495            17.723               Magadan2           553.844
       107   02 Jun 2027 06:11:48.304   02 Jun 2027 06:12:03.958            15.654               Magadan2           489.188
       108   02 Jun 2027 06:12:59.582   02 Jun 2027 06:13:13.088            13.506                Norilsk           422.063
       109   02 Jun 2027 06:13:36.972   02 Jun 2027 06:13:37.271             0.299               Magadan1             9.344
       110   02 Jun 2027 06:13:42.866   02 Jun 2027 06:14:02.532            19.666              Murmansk2           614.563
       111   02 Jun 2027 06:16:32.467   02 Jun 2027 06:16:46.012            13.545              Murmansk1           423.281
       112   02 Jun 2027 06:17:12.738   02 Jun 2027 06:17:13.924             1.186                 Moscow            37.062
       113   02 Jun 2027 06:17:36.592   02 Jun 2027 06:18:24.816            48.224                 Moscow          1507.000
       114   02 Jun 2027 07:45:05.852   02 Jun 2027 07:45:17.712            11.860                Anadyr1           370.625
       115   02 Jun 2027 07:45:27.004   02 Jun 2027 07:46:30.649            63.645               Magadan1          1988.906
       116   02 Jun 2027 07:46:43.888   02 Jun 2027 07:47:17.294            33.406                Norilsk          1043.938
       117   02 Jun 2027 07:47:55.029   02 Jun 2027 07:49:33.982            98.953               Magadan1          3092.281
       118   02 Jun 2027 07:53:27.706   02 Jun 2027 07:53:56.043            28.337                Norilsk           885.531
       119   02 Jun 2027 08:25:44.076   02 Jun 2027 08:26:52.923            68.847            RioGallegos          2151.469
       120   02 Jun 2027 09:19:28.222   02 Jun 2027 09:20:35.673            67.451                Irkutsk          2107.844
       121   02 Jun 2027 09:21:06.528   02 Jun 2027 09:21:52.365            45.837               Magadan1          1432.406
       122   02 Jun 2027 09:21:52.365   02 Jun 2027 09:23:47.296           114.931               Magadan2          3591.594
       123   02 Jun 2027 09:23:47.296   02 Jun 2027 09:24:49.497            62.201               Magadan1          1943.781
       124   02 Jun 2027 09:25:09.091   02 Jun 2027 09:25:13.262             4.171                Irkutsk           130.344
       125   02 Jun 2027 10:35:55.422   02 Jun 2027 10:37:15.901            80.479                Sumatra          2514.969
       126   02 Jun 2027 10:56:34.609   02 Jun 2027 10:58:57.748           143.139                Novosib          4473.094
       127   02 Jun 2027 10:59:09.369   02 Jun 2027 11:02:22.043           192.674                Norilsk          6021.063
       128   02 Jun 2027 11:37:59.578   02 Jun 2027 11:38:30.530            30.952            RioGallegos           967.250
       129   02 Jun 2027 11:40:12.847   02 Jun 2027 11:41:08.982            56.135            RioGallegos          1754.219
       130   02 Jun 2027 12:12:13.579   02 Jun 2027 12:12:58.945            45.366                Sumatra          1417.688
       131   02 Jun 2027 12:13:59.514   02 Jun 2027 12:15:18.613            79.099                Sumatra          2471.844
       132   02 Jun 2027 12:16:36.405   02 Jun 2027 12:17:17.160            40.755                Sumatra          1273.594
       133   02 Jun 2027 12:26:43.116   02 Jun 2027 12:27:30.062            46.946                Novosib          1467.063
       134   02 Jun 2027 12:28:37.146   02 Jun 2027 12:28:42.859             5.713                Irkutsk           178.531
       135   02 Jun 2027 12:29:06.626   02 Jun 2027 12:30:36.184            89.558                Novosib          2798.687
       136   02 Jun 2027 12:30:38.574   02 Jun 2027 12:31:38.464            59.890                Norilsk          1871.562
       137   02 Jun 2027 12:32:33.240   02 Jun 2027 12:32:40.281             7.041                Norilsk           220.031
       138   02 Jun 2027 12:32:52.014   02 Jun 2027 12:33:22.397            30.383                Norilsk           949.469
       139   02 Jun 2027 13:57:39.442   02 Jun 2027 14:02:16.306           276.864                  Delhi          8652.000
       140   02 Jun 2027 14:06:56.800   02 Jun 2027 14:08:12.422            75.622              Murmansk1          2363.187
       141   02 Jun 2027 14:08:14.148   02 Jun 2027 14:08:42.871            28.723              Murmansk2           897.594
       142   02 Jun 2027 14:09:13.269   02 Jun 2027 14:09:46.879            33.610                Norilsk          1050.312
       143   02 Jun 2027 14:10:05.253   02 Jun 2027 14:10:42.525            37.272                Novosib          1164.750
       144   02 Jun 2027 14:11:22.501   02 Jun 2027 14:11:50.728            28.227                Norilsk           882.094
       145   02 Jun 2027 15:39:55.413   02 Jun 2027 15:41:31.283            95.870                 Moscow          2995.938
       146   02 Jun 2027 15:42:35.948   02 Jun 2027 15:44:25.555           109.607                 Moscow          3425.219
       147   02 Jun 2027 15:44:32.573   02 Jun 2027 15:45:01.349            28.776              Murmansk2           899.250
       148   02 Jun 2027 15:46:08.803   02 Jun 2027 15:47:00.287            51.484              Murmansk1          1608.875
       149   02 Jun 2027 16:00:39.857   02 Jun 2027 16:00:55.772            15.915                Anadyr2           497.344
       150   02 Jun 2027 16:52:56.580   02 Jun 2027 16:55:25.304           148.724               CapeTown          4647.625
       151   02 Jun 2027 17:20:38.200   02 Jun 2027 17:24:36.140           237.940                 Moscow          7435.625
       152   02 Jun 2027 17:24:46.533   02 Jun 2027 17:26:18.568            92.035              Murmansk1          2876.094
       153   02 Jun 2027 17:33:35.787   02 Jun 2027 17:33:37.650             1.863                Anadyr2            58.219
       154   02 Jun 2027 17:38:51.438   02 Jun 2027 17:39:50.141            58.703               Magadan1          1834.469
       155   02 Jun 2027 18:30:08.890   02 Jun 2027 18:31:10.053            61.163               CapeTown          1911.344
       156   02 Jun 2027 19:03:56.931   02 Jun 2027 19:06:00.096           123.165              Murmansk2          3848.906
       157   02 Jun 2027 19:09:27.314   02 Jun 2027 19:11:19.159           111.845                Anadyr2          3495.156
       158   02 Jun 2027 19:11:58.983   02 Jun 2027 19:13:35.218            96.235               Magadan1          3007.344
       159   02 Jun 2027 19:15:08.157   02 Jun 2027 19:15:52.478            44.321               Magadan1          1385.031
       160   02 Jun 2027 20:45:22.239   02 Jun 2027 20:46:56.926            94.687                Anadyr1          2958.969
       161   02 Jun 2027 20:47:00.296   02 Jun 2027 20:47:29.981            29.685                Anadyr2           927.656
       162   02 Jun 2027 20:47:39.070   02 Jun 2027 20:52:04.135           265.065               Magadan1          8283.281
       163   02 Jun 2027 21:39:50.380   02 Jun 2027 21:43:12.646           202.266            RioGallegos          6320.813
       164   02 Jun 2027 22:20:59.196   02 Jun 2027 22:21:42.969            43.773                Anadyr2          1367.906
       165   02 Jun 2027 22:22:49.725   02 Jun 2027 22:23:48.786            59.061                Anadyr2          1845.656
       166   02 Jun 2027 22:23:50.685   02 Jun 2027 22:24:33.513            42.828               Magadan1          1338.375
       167   02 Jun 2027 22:24:33.513   02 Jun 2027 22:25:32.806            59.293               Magadan2          1852.906
       168   02 Jun 2027 22:27:24.088   02 Jun 2027 22:27:47.032            22.944                Irkutsk           717.000
       169   02 Jun 2027 22:28:13.197   02 Jun 2027 22:28:52.321            39.124                Irkutsk          1222.625
       170   02 Jun 2027 22:29:25.476   02 Jun 2027 22:30:01.157            35.681                Novosib          1115.031
       171   02 Jun 2027 22:30:18.867   02 Jun 2027 22:30:21.850             2.983                Novosib            93.219
       172   02 Jun 2027 22:30:51.954   02 Jun 2027 22:31:34.512            42.558                Novosib          1329.938
       173   02 Jun 2027 22:32:12.774   02 Jun 2027 22:32:42.776            30.002                Novosib           937.562
       174   02 Jun 2027 22:41:10.212   02 Jun 2027 22:43:31.293           141.081                Sumatra          4408.781
       175   02 Jun 2027 23:56:28.447   02 Jun 2027 23:57:03.239            34.792                Anadyr1          1087.250
       176   02 Jun 2027 23:58:00.285   02 Jun 2027 23:58:28.079            27.794                Anadyr2           868.563
       177   02 Jun 2027 23:59:09.441   02 Jun 2027 23:59:26.652            17.211                Norilsk           537.844
       178   02 Jun 2027 23:59:48.672   03 Jun 2027 00:01:19.036            90.364               Magadan1          2823.875
       179   03 Jun 2027 00:03:01.715   03 Jun 2027 00:03:59.330            57.615                Irkutsk          1800.469
       180   03 Jun 2027 00:04:12.228   03 Jun 2027 00:05:42.268            90.040                Novosib          2813.750
       181   03 Jun 2027 00:08:54.511   03 Jun 2027 00:09:19.880            25.369                Novosib           792.781
       182   03 Jun 2027 00:10:58.889   03 Jun 2027 00:12:12.075            73.186                  Delhi          2287.062
       183   03 Jun 2027 00:51:29.379   03 Jun 2027 00:52:33.446            64.067            RioGallegos          2002.094
       184   03 Jun 2027 01:29:17.407   03 Jun 2027 01:30:25.762            68.355                Anadyr2          2136.094
       185   03 Jun 2027 01:30:52.576   03 Jun 2027 01:30:58.805             6.229                Anadyr1           194.656
       186   03 Jun 2027 01:31:40.920   03 Jun 2027 01:32:14.656            33.736                Anadyr1          1054.250
       187   03 Jun 2027 01:35:09.042   03 Jun 2027 01:35:19.788            10.746                Norilsk           335.813
       188   03 Jun 2027 01:35:20.179   03 Jun 2027 01:36:59.020            98.841               Magadan1          3088.781
       189   03 Jun 2027 01:37:07.074   03 Jun 2027 01:37:43.678            36.604               Magadan2          1143.875
       190   03 Jun 2027 01:38:24.489   03 Jun 2027 01:39:08.933            44.444              Murmansk2          1388.875
       191   03 Jun 2027 01:39:12.254   03 Jun 2027 01:40:14.204            61.950                Novosib          1935.937
       192   03 Jun 2027 01:40:51.938   03 Jun 2027 01:42:04.439            72.501                Novosib          2265.656
       193   03 Jun 2027 01:47:03.877   03 Jun 2027 01:47:27.906            24.029                  Delhi           750.906
       194   03 Jun 2027 03:02:41.423   03 Jun 2027 03:03:11.330            29.907                Anadyr2           934.594
       195   03 Jun 2027 03:03:11.330   03 Jun 2027 03:04:36.506            85.176                Anadyr1          2661.750
       196   03 Jun 2027 03:19:45.333   03 Jun 2027 03:21:22.021            96.688                Norilsk          3021.500
       197   03 Jun 2027 03:21:24.452   03 Jun 2027 03:22:09.208            44.756                Novosib          1398.625
       198   03 Jun 2027 03:22:17.914   03 Jun 2027 03:24:41.094           143.180                 Moscow          4474.375
       199   03 Jun 2027 03:24:42.547   03 Jun 2027 03:24:58.609            16.062              Murmansk2           501.938
       200   03 Jun 2027 03:25:17.343   03 Jun 2027 03:25:20.365             3.022              Murmansk2            94.438
       201   03 Jun 2027 03:25:29.691   03 Jun 2027 03:27:14.844           105.153                 Moscow          3286.031
       202   03 Jun 2027 03:28:37.901   03 Jun 2027 03:29:03.320            25.419                 Moscow           794.344
       203   03 Jun 2027 03:40:59.847   03 Jun 2027 03:44:14.519           194.672               CapeTown          6083.500
       204   03 Jun 2027 03:47:21.290   03 Jun 2027 03:47:27.367             6.077               CapeTown           189.906
       205   03 Jun 2027 04:37:12.838   03 Jun 2027 04:39:31.270           138.432                Anadyr1          4326.000
       206   03 Jun 2027 04:39:39.213   03 Jun 2027 04:39:56.423            17.210               Magadan2           537.813
       207   03 Jun 2027 04:44:25.098   03 Jun 2027 04:44:39.489            14.391                Anadyr2           449.719
       208   03 Jun 2027 04:44:39.489   03 Jun 2027 04:44:46.464             6.975                Anadyr1           217.969
       209   03 Jun 2027 04:45:23.515   03 Jun 2027 04:45:29.738             6.223               Magadan2           194.469
       210   03 Jun 2027 04:45:49.483   03 Jun 2027 04:46:08.238            18.755                Anadyr2           586.094
       211   03 Jun 2027 04:46:08.238   03 Jun 2027 04:46:19.270            11.032                Anadyr1           344.750
       212   03 Jun 2027 04:56:05.327   03 Jun 2027 04:56:46.687            41.360                Norilsk          1292.500
       213   03 Jun 2027 04:56:47.552   03 Jun 2027 04:57:08.797            21.245              Murmansk2           663.906
       214   03 Jun 2027 04:57:36.534   03 Jun 2027 04:59:59.039           142.505              Murmansk2          4453.281
       215   03 Jun 2027 04:59:59.039   03 Jun 2027 05:00:00.125             1.086              Murmansk1            33.938
       216   03 Jun 2027 05:00:19.149   03 Jun 2027 05:00:53.969            34.820              Murmansk1          1088.125
       217   03 Jun 2027 06:18:56.333   03 Jun 2027 06:19:18.444            22.111               Magadan2           690.969
       218   03 Jun 2027 06:19:38.027   03 Jun 2027 06:22:15.241           157.214                Anadyr1          4912.937
       219   03 Jun 2027 06:22:17.041   03 Jun 2027 06:22:31.694            14.653               Magadan2           457.906
       220   03 Jun 2027 06:22:36.163   03 Jun 2027 06:24:49.879           133.716                Anadyr1          4178.625
       221   03 Jun 2027 06:25:04.644   03 Jun 2027 06:25:32.610            27.966               Magadan1           873.938
       222   03 Jun 2027 07:56:02.640   03 Jun 2027 07:56:42.466            39.826               Magadan2          1244.563
       223   03 Jun 2027 07:57:16.623   03 Jun 2027 07:57:38.745            22.122                Norilsk           691.312
       224   03 Jun 2027 07:57:46.559   03 Jun 2027 08:00:25.284           158.725                Irkutsk          4960.156
       225   03 Jun 2027 08:00:37.637   03 Jun 2027 08:01:59.458            81.821              Murmansk1          2556.906
       226   03 Jun 2027 08:02:20.459   03 Jun 2027 08:03:00.710            40.251              Murmansk1          1257.844
       227   03 Jun 2027 08:06:01.026   03 Jun 2027 08:06:14.577            13.551              Murmansk1           423.469
       228   03 Jun 2027 08:37:21.368   03 Jun 2027 08:37:51.989            30.621            RioGallegos           956.906
       229   03 Jun 2027 08:39:01.330   03 Jun 2027 08:39:18.622            17.292            RioGallegos           540.375
       230   03 Jun 2027 08:39:48.798   03 Jun 2027 08:40:23.107            34.309            RioGallegos          1072.156
       231   03 Jun 2027 09:31:31.911   03 Jun 2027 09:32:53.612            81.701                Irkutsk          2553.156
       232   03 Jun 2027 09:32:54.124   03 Jun 2027 09:36:37.649           223.525               Magadan2          6985.156
       233   03 Jun 2027 09:36:57.810   03 Jun 2027 09:38:02.565            64.755                Norilsk          2023.594
       234   03 Jun 2027 10:12:01.491   03 Jun 2027 10:12:16.256            14.765            RioGallegos           461.406
       235   03 Jun 2027 10:12:54.054   03 Jun 2027 10:13:26.657            32.603            RioGallegos          1018.844
       236   03 Jun 2027 10:47:04.719   03 Jun 2027 10:49:47.189           162.470                Sumatra          5077.187
       237   03 Jun 2027 11:08:00.933   03 Jun 2027 11:08:42.550            41.617                Norilsk          1300.531
       238   03 Jun 2027 11:08:51.782   03 Jun 2027 11:08:55.560             3.778                Novosib           118.063
       239   03 Jun 2027 11:09:02.416   03 Jun 2027 11:09:27.070            24.654                Novosib           770.438
       240   03 Jun 2027 11:09:34.154   03 Jun 2027 11:11:21.262           107.108                Irkutsk          3347.125
       241   03 Jun 2027 11:11:28.891   03 Jun 2027 11:12:18.972            50.081                Norilsk          1565.031
       242   03 Jun 2027 11:12:24.774   03 Jun 2027 11:12:36.530            11.756              Murmansk1           367.375
       243   03 Jun 2027 11:12:36.530   03 Jun 2027 11:12:37.287             0.757              Murmansk2            23.656
       244   03 Jun 2027 11:12:49.237   03 Jun 2027 11:13:39.508            50.271                Novosib          1570.969
       245   03 Jun 2027 11:50:41.273   03 Jun 2027 11:52:05.816            84.543            RioGallegos          2641.969
       246   03 Jun 2027 11:55:20.900   03 Jun 2027 11:55:33.963            13.063            RioGallegos           408.219
       247   03 Jun 2027 12:25:05.389   03 Jun 2027 12:27:07.046           121.657                Sumatra          3801.781
       248   03 Jun 2027 12:38:28.195   03 Jun 2027 12:39:32.873            64.678                Novosib          2021.187
       249   03 Jun 2027 12:41:15.976   03 Jun 2027 12:42:20.355            64.379                Irkutsk          2011.844
       250   03 Jun 2027 12:42:31.736   03 Jun 2027 12:44:24.496           112.760                Norilsk          3523.750
       251   03 Jun 2027 14:11:01.544   03 Jun 2027 14:11:51.202            49.658                  Delhi          1551.812
       252   03 Jun 2027 14:14:22.844   03 Jun 2027 14:15:01.872            39.028                  Delhi          1219.625
       253   03 Jun 2027 14:15:38.759   03 Jun 2027 14:16:45.496            66.737                 Moscow          2085.531
       254   03 Jun 2027 14:18:56.576   03 Jun 2027 14:20:31.257            94.681              Murmansk2          2958.781
       255   03 Jun 2027 14:20:41.812   03 Jun 2027 14:22:17.725            95.913              Murmansk1          2997.281
       256   03 Jun 2027 14:23:05.750   03 Jun 2027 14:23:11.276             5.526                Novosib           172.688
       257   03 Jun 2027 14:23:32.263   03 Jun 2027 14:24:09.169            36.906                Norilsk          1153.313
       258   03 Jun 2027 14:24:46.903   03 Jun 2027 14:26:28.147           101.244                Norilsk          3163.875
       259   03 Jun 2027 15:31:08.251   03 Jun 2027 15:33:38.809           150.558               CapeTown          4704.938
       260   03 Jun 2027 15:53:05.271   03 Jun 2027 15:53:36.218            30.947                 Moscow           967.094
       261   03 Jun 2027 15:55:35.605   03 Jun 2027 15:56:34.465            58.860              Murmansk1          1839.375
       262   03 Jun 2027 15:58:16.275   03 Jun 2027 15:58:30.502            14.227              Murmansk2           444.594
       263   03 Jun 2027 15:59:00.366   03 Jun 2027 15:59:56.102            55.736              Murmansk2          1741.750
       264   03 Jun 2027 16:10:16.147   03 Jun 2027 16:11:43.803            87.656                Anadyr1          2739.250
       265   03 Jun 2027 16:12:41.102   03 Jun 2027 16:14:01.775            80.673                Anadyr1          2521.031
       266   03 Jun 2027 17:05:25.707   03 Jun 2027 17:07:25.867           120.160               CapeTown          3755.000
       267   03 Jun 2027 17:34:20.270   03 Jun 2027 17:34:46.194            25.924              Murmansk2           810.125
       268   03 Jun 2027 17:36:19.110   03 Jun 2027 17:37:44.882            85.772              Murmansk2          2680.375
       269   03 Jun 2027 17:45:35.784   03 Jun 2027 17:47:03.844            88.060                Anadyr1          2751.875
       270   03 Jun 2027 17:47:29.921   03 Jun 2027 17:47:50.870            20.949                Anadyr2           654.656
       271   03 Jun 2027 17:49:48.573   03 Jun 2027 17:51:15.214            86.641               Magadan2          2707.531
       272   03 Jun 2027 17:51:18.083   03 Jun 2027 17:51:42.256            24.173               Magadan2           755.406
       273   03 Jun 2027 19:21:28.950   03 Jun 2027 19:25:14.553           225.603                Anadyr1          7050.094
       274   03 Jun 2027 19:25:39.226   03 Jun 2027 19:28:51.973           192.747               Magadan1          6023.344
       275   03 Jun 2027 20:57:22.899   03 Jun 2027 21:01:00.043           217.144                Anadyr1          6785.750
       276   03 Jun 2027 21:01:00.415   03 Jun 2027 21:01:07.057             6.642                Norilsk           207.563
       277   03 Jun 2027 21:01:14.578   03 Jun 2027 21:03:44.657           150.079               Magadan2          4689.969
       278   03 Jun 2027 21:06:25.900   03 Jun 2027 21:08:21.978           116.078                Irkutsk          3627.437
       279   03 Jun 2027 21:51:40.243   03 Jun 2027 21:53:29.545           109.302            RioGallegos          3415.688
       280   03 Jun 2027 21:57:37.953   03 Jun 2027 21:57:50.224            12.271            RioGallegos           383.469
       281   03 Jun 2027 22:32:55.538   03 Jun 2027 22:33:37.624            42.086                Anadyr1          1315.187
       282   03 Jun 2027 22:35:13.127   03 Jun 2027 22:37:02.818           109.691                Norilsk          3427.844
       283   03 Jun 2027 22:37:07.641   03 Jun 2027 22:37:47.320            39.679               Magadan1          1239.969
       284   03 Jun 2027 22:38:50.033   03 Jun 2027 22:38:58.485             8.452                Norilsk           264.125
       285   03 Jun 2027 22:39:19.035   03 Jun 2027 22:40:11.465            52.430                Irkutsk          1638.438
       286   03 Jun 2027 22:40:46.874   03 Jun 2027 22:41:06.609            19.735                Novosib           616.719
       287   03 Jun 2027 22:41:36.295   03 Jun 2027 22:41:40.967             4.672                Irkutsk           146.000
       288   03 Jun 2027 22:41:58.613   03 Jun 2027 22:42:02.849             4.236                Irkutsk           132.375
       289   03 Jun 2027 22:42:09.326   03 Jun 2027 22:42:19.123             9.797                Novosib           306.156
       290   03 Jun 2027 22:42:26.205   03 Jun 2027 22:43:10.810            44.605                Novosib          1393.906
       291   03 Jun 2027 22:53:00.734   03 Jun 2027 22:55:01.591           120.857                Sumatra          3776.781
       292   04 Jun 2027 00:07:31.216   04 Jun 2027 00:09:48.384           137.168                Anadyr1          4286.500
       293   04 Jun 2027 00:11:11.640   04 Jun 2027 00:11:26.560            14.920                Norilsk           466.250
       294   04 Jun 2027 00:11:50.712   04 Jun 2027 00:14:12.578           141.866               Magadan1          4433.312
       295   04 Jun 2027 00:15:05.122   04 Jun 2027 00:15:49.234            44.112                Irkutsk          1378.500
       296   04 Jun 2027 00:17:27.321   04 Jun 2027 00:18:17.495            50.174                Novosib          1567.937
       297   04 Jun 2027 00:20:01.358   04 Jun 2027 00:20:32.108            30.750                Novosib           960.938
       298   04 Jun 2027 00:22:44.180   04 Jun 2027 00:24:18.003            93.823                  Delhi          2931.969
       299   04 Jun 2027 00:33:01.732   04 Jun 2027 00:34:05.605            63.873                  Delhi          1996.031
       300   04 Jun 2027 01:06:34.735   04 Jun 2027 01:07:11.182            36.447            RioGallegos          1138.969
       301   04 Jun 2027 01:11:41.999   04 Jun 2027 01:12:01.833            19.834            RioGallegos           619.812
       302   04 Jun 2027 01:40:58.433   04 Jun 2027 01:41:06.613             8.180                Anadyr1           255.625
       303   04 Jun 2027 01:41:20.509   04 Jun 2027 01:41:31.061            10.552                Anadyr1           329.750
       304   04 Jun 2027 01:41:39.820   04 Jun 2027 01:42:19.611            39.791                Anadyr1          1243.469
       305   04 Jun 2027 01:43:27.169   04 Jun 2027 01:43:31.893             4.724                Anadyr2           147.625
       306   04 Jun 2027 01:43:42.176   04 Jun 2027 01:43:56.101            13.925                Anadyr1           435.156
       307   04 Jun 2027 01:45:39.620   04 Jun 2027 01:46:04.930            25.310                Anadyr2           790.937
       308   04 Jun 2027 01:46:22.354   04 Jun 2027 01:46:36.574            14.220                Anadyr2           444.375
       309   04 Jun 2027 01:47:08.282   04 Jun 2027 01:48:27.228            78.946               Magadan1          2467.062
       310   04 Jun 2027 01:48:58.882   04 Jun 2027 01:49:08.986            10.104                Norilsk           315.750
       311   04 Jun 2027 01:49:28.848   04 Jun 2027 01:51:04.334            95.486              Murmansk2          2983.937
       312   04 Jun 2027 01:51:25.841   04 Jun 2027 01:52:00.074            34.233                Novosib          1069.781
       313   04 Jun 2027 01:52:28.535   04 Jun 2027 01:52:31.493             2.958              Murmansk1            92.437
       314   04 Jun 2027 01:52:39.599   04 Jun 2027 01:53:09.854            30.255              Murmansk1           945.469
       315   04 Jun 2027 01:54:16.135   04 Jun 2027 01:54:34.552            18.417                 Moscow           575.531
       316   04 Jun 2027 01:55:53.651   04 Jun 2027 01:56:00.602             6.951                 Moscow           217.219
       317   04 Jun 2027 01:58:49.296   04 Jun 2027 01:59:42.100            52.804                  Delhi          1650.125
       318   04 Jun 2027 02:06:32.688   04 Jun 2027 02:06:56.415            23.727                  Delhi           741.469
       319   04 Jun 2027 03:20:35.483   04 Jun 2027 03:20:37.637             2.154               Magadan1            67.312
       320   04 Jun 2027 03:20:53.726   04 Jun 2027 03:21:26.239            32.513               Magadan1          1016.031
       321   04 Jun 2027 03:32:02.054   04 Jun 2027 03:33:15.256            73.202              Murmansk1          2287.562
       322   04 Jun 2027 03:33:16.657   04 Jun 2027 03:34:12.865            56.208              Murmansk2          1756.500
       323   04 Jun 2027 03:34:24.042   04 Jun 2027 03:35:01.637            37.595              Murmansk2          1174.844
       324   04 Jun 2027 03:35:01.637   04 Jun 2027 03:35:20.845            19.208              Murmansk1           600.250
       325   04 Jun 2027 03:35:26.903   04 Jun 2027 03:35:34.450             7.547                 Moscow           235.844
       326   04 Jun 2027 03:35:50.012   04 Jun 2027 03:36:18.626            28.614                Novosib           894.188
       327   04 Jun 2027 03:36:21.412   04 Jun 2027 03:38:29.827           128.415                 Moscow          4012.969
       328   04 Jun 2027 03:52:44.753   04 Jun 2027 03:54:49.257           124.504               CapeTown          3890.750
       329   04 Jun 2027 03:55:30.209   04 Jun 2027 03:56:11.404            41.195               CapeTown          1287.344
       330   04 Jun 2027 04:56:15.581   04 Jun 2027 04:57:31.725            76.144                Anadyr1          2379.500
       331   04 Jun 2027 04:57:31.725   04 Jun 2027 04:57:46.131            14.406                Anadyr2           450.188
       332   04 Jun 2027 04:58:20.872   04 Jun 2027 04:58:36.858            15.986                Anadyr2           499.563
       333   04 Jun 2027 05:08:00.646   04 Jun 2027 05:08:48.442            47.796                Norilsk          1493.625
       334   04 Jun 2027 05:09:10.912   04 Jun 2027 05:09:23.692            12.780              Murmansk1           399.375
       335   04 Jun 2027 05:11:55.831   04 Jun 2027 05:12:09.626            13.795              Murmansk1           431.094
       336   04 Jun 2027 06:31:22.767   04 Jun 2027 06:32:15.824            53.057                Anadyr1          1658.031
       337   04 Jun 2027 06:32:33.892   04 Jun 2027 06:35:38.992           185.100                Anadyr2          5784.375
       338   04 Jun 2027 06:36:20.007   04 Jun 2027 06:36:59.857            39.850                Anadyr2          1245.313
       339   04 Jun 2027 08:05:56.761   04 Jun 2027 08:08:28.164           151.403                Anadyr2          4731.344
       340   04 Jun 2027 08:08:40.789   04 Jun 2027 08:09:53.035            72.246               Magadan2          2257.688
       341   04 Jun 2027 08:10:07.757   04 Jun 2027 08:10:33.048            25.291                Novosib           790.344
       342   04 Jun 2027 08:10:42.885   04 Jun 2027 08:10:48.801             5.916                Norilsk           184.875
       343   04 Jun 2027 08:10:57.249   04 Jun 2027 08:11:59.544            62.295               Magadan2          1946.719
       344   04 Jun 2027 08:12:12.235   04 Jun 2027 08:13:15.546            63.311                Anadyr2          1978.469
       345   04 Jun 2027 08:49:47.684   04 Jun 2027 08:49:53.454             5.770            RioGallegos           180.313
       346   04 Jun 2027 08:50:33.048   04 Jun 2027 08:51:08.577            35.529            RioGallegos          1110.281
       347   04 Jun 2027 09:42:32.872   04 Jun 2027 09:42:49.707            16.835                Novosib           526.094
       348   04 Jun 2027 09:43:06.979   04 Jun 2027 09:43:34.829            27.850                Irkutsk           870.312
       349   04 Jun 2027 09:43:37.798   04 Jun 2027 09:44:20.636            42.838                Norilsk          1338.688
       350   04 Jun 2027 09:44:58.614   04 Jun 2027 09:45:30.448            31.834                Irkutsk           994.812
       351   04 Jun 2027 09:45:31.457   04 Jun 2027 09:45:56.469            25.012               Magadan1           781.625
       352   04 Jun 2027 09:46:21.392   04 Jun 2027 09:46:40.556            19.164                Irkutsk           598.875
       353   04 Jun 2027 09:46:43.436   04 Jun 2027 09:48:21.286            97.850               Magadan2          3057.813
       354   04 Jun 2027 09:48:32.694   04 Jun 2027 09:48:58.111            25.417                Norilsk           794.281
       355   04 Jun 2027 09:48:59.335   04 Jun 2027 09:50:32.398            93.063              Murmansk2          2908.219
       356   04 Jun 2027 10:25:32.394   04 Jun 2027 10:26:09.456            37.062            RioGallegos          1158.187
       357   04 Jun 2027 10:58:58.202   04 Jun 2027 10:59:18.159            19.957                Sumatra           623.656
       358   04 Jun 2027 11:02:04.204   04 Jun 2027 11:02:11.763             7.559                Sumatra           236.219
       359   04 Jun 2027 11:08:49.606   04 Jun 2027 11:09:06.373            16.767                Sumatra           523.969
       360   04 Jun 2027 11:10:02.549   04 Jun 2027 11:12:00.887           118.338                  Delhi          3698.062
       361   04 Jun 2027 11:19:07.147   04 Jun 2027 11:19:48.857            41.710                Irkutsk          1303.437
       362   04 Jun 2027 11:20:11.159   04 Jun 2027 11:20:28.128            16.969                Novosib           530.281
       363   04 Jun 2027 11:20:43.761   04 Jun 2027 11:20:53.393             9.632                Norilsk           301.000
       364   04 Jun 2027 11:20:55.158   04 Jun 2027 11:21:04.097             8.939                Novosib           279.344
       365   04 Jun 2027 11:21:04.497   04 Jun 2027 11:21:26.872            22.375                Norilsk           699.219
       366   04 Jun 2027 11:21:33.621   04 Jun 2027 11:22:25.844            52.223                Irkutsk          1631.969
       367   04 Jun 2027 11:22:34.927   04 Jun 2027 11:22:43.147             8.220              Murmansk1           256.875
       368   04 Jun 2027 11:22:48.429   04 Jun 2027 11:23:44.744            56.315                 Moscow          1759.844
       369   04 Jun 2027 11:24:02.318   04 Jun 2027 11:24:23.383            21.065                 Moscow           658.281
       370   04 Jun 2027 11:24:23.607   04 Jun 2027 11:24:26.539             2.932              Murmansk2            91.625
       371   04 Jun 2027 11:24:30.472   04 Jun 2027 11:24:52.540            22.068                Norilsk           689.625
       372   04 Jun 2027 11:24:54.273   04 Jun 2027 11:24:56.733             2.460              Murmansk1            76.875
       373   04 Jun 2027 11:24:57.618   04 Jun 2027 11:25:21.788            24.170                Norilsk           755.313
       374   04 Jun 2027 11:27:53.360   04 Jun 2027 11:28:13.308            19.948              Murmansk1           623.375
       375   04 Jun 2027 12:03:33.019   04 Jun 2027 12:04:05.862            32.843            RioGallegos          1026.344
       376   04 Jun 2027 12:06:01.382   04 Jun 2027 12:07:20.862            79.480            RioGallegos          2483.750
       377   04 Jun 2027 12:38:33.277   04 Jun 2027 12:39:01.511            28.234                Sumatra           882.312
       378   04 Jun 2027 12:45:39.345   04 Jun 2027 12:46:03.683            24.338                  Delhi           760.562
       379   04 Jun 2027 12:46:18.813   04 Jun 2027 12:47:21.356            62.543                  Delhi          1954.469
       380   04 Jun 2027 12:51:35.135   04 Jun 2027 12:52:07.060            31.925                Novosib           997.656
       381   04 Jun 2027 12:54:50.753   04 Jun 2027 12:56:44.306           113.553                Norilsk          3548.531
       382   04 Jun 2027 12:56:55.670   04 Jun 2027 12:57:31.547            35.877                Norilsk          1121.156
       383   04 Jun 2027 14:27:34.687   04 Jun 2027 14:31:18.118           223.431                 Moscow          6982.219
       384   04 Jun 2027 14:32:17.806   04 Jun 2027 14:33:47.707            89.901              Murmansk1          2809.406
       385   04 Jun 2027 14:34:27.643   04 Jun 2027 14:35:42.301            74.658                Norilsk          2333.062
       386   04 Jun 2027 14:36:49.077   04 Jun 2027 14:38:27.947            98.870                Norilsk          3089.688
       387   04 Jun 2027 14:39:13.776   04 Jun 2027 14:39:56.870            43.094                Norilsk          1346.688
       388   04 Jun 2027 15:42:30.650   04 Jun 2027 15:42:50.363            19.713               CapeTown           616.031
       389   04 Jun 2027 15:46:49.238   04 Jun 2027 15:47:05.459            16.221               CapeTown           506.906
       390   04 Jun 2027 16:04:34.989   04 Jun 2027 16:05:07.082            32.093                 Moscow          1002.906
       391   04 Jun 2027 16:07:50.647   04 Jun 2027 16:09:59.590           128.943              Murmansk2          4029.469
       392   04 Jun 2027 16:22:08.191   04 Jun 2027 16:23:30.272            82.081                Anadyr1          2565.031
       393   04 Jun 2027 16:23:31.915   04 Jun 2027 16:24:42.251            70.336                Anadyr2          2198.000
       394   04 Jun 2027 16:30:56.149   04 Jun 2027 16:31:05.939             9.790                Anadyr2           305.937
       395   04 Jun 2027 17:16:59.151   04 Jun 2027 17:19:16.812           137.661               CapeTown          4301.906
       396   04 Jun 2027 17:46:54.564   04 Jun 2027 17:47:40.989            46.425              Murmansk2          1450.781
       397   04 Jun 2027 17:47:56.389   04 Jun 2027 17:48:20.196            23.807              Murmansk1           743.969
       398   04 Jun 2027 17:49:00.030   04 Jun 2027 17:49:40.791            40.761              Murmansk1          1273.781
       399   04 Jun 2027 17:50:22.693   04 Jun 2027 17:52:01.736            99.043              Murmansk2          3095.094
       400   04 Jun 2027 17:57:36.194   04 Jun 2027 17:57:40.198             4.004                Anadyr2           125.125
       401   04 Jun 2027 17:58:22.228   04 Jun 2027 17:58:45.873            23.645                Anadyr1           738.906
       402   04 Jun 2027 17:59:10.960   04 Jun 2027 17:59:19.298             8.338                Anadyr1           260.562
       403   04 Jun 2027 18:01:02.046   04 Jun 2027 18:01:10.729             8.683                Anadyr2           271.344
       404   04 Jun 2027 18:01:17.619   04 Jun 2027 18:03:04.066           106.447               Magadan1          3326.469
       405   04 Jun 2027 18:03:40.685   04 Jun 2027 18:04:21.400            40.715               Magadan2          1272.344
       406   04 Jun 2027 19:33:30.588   04 Jun 2027 19:35:16.338           105.750                Anadyr1          3304.688
       407   04 Jun 2027 19:35:36.383   04 Jun 2027 19:37:16.016            99.633                Anadyr2          3113.531
       408   04 Jun 2027 19:37:24.645   04 Jun 2027 19:39:34.124           129.479               Magadan1          4046.219
       409   04 Jun 2027 19:41:54.919   04 Jun 2027 19:42:34.808            39.889               Magadan2          1246.531
       410   04 Jun 2027 19:46:37.090   04 Jun 2027 19:46:44.406             7.316               Magadan1           228.625
       411   04 Jun 2027 19:46:44.406   04 Jun 2027 19:47:16.280            31.874               Magadan2           996.063
       412   04 Jun 2027 21:09:23.245   04 Jun 2027 21:11:32.935           129.690                Anadyr1          4052.813
       413   04 Jun 2027 21:11:40.334   04 Jun 2027 21:17:01.232           320.898                Norilsk         10028.062
       414   04 Jun 2027 21:18:33.697   04 Jun 2027 21:19:23.113            49.416                Irkutsk          1544.250
       415   04 Jun 2027 21:22:35.779   04 Jun 2027 21:23:13.575            37.796                Irkutsk          1181.125
       416   04 Jun 2027 21:34:30.649   04 Jun 2027 21:34:45.295            14.646                Sumatra           457.688
       417   04 Jun 2027 22:03:32.731   04 Jun 2027 22:04:06.001            33.270            RioGallegos          1039.688
       418   04 Jun 2027 22:08:58.040   04 Jun 2027 22:09:02.035             3.995            RioGallegos           124.844
       419   04 Jun 2027 22:09:24.325   04 Jun 2027 22:09:38.465            14.140            RioGallegos           441.875
       420   04 Jun 2027 22:12:27.834   04 Jun 2027 22:13:02.632            34.798            RioGallegos          1087.438
       421   04 Jun 2027 22:44:50.973   04 Jun 2027 22:45:38.883            47.910                Anadyr2          1497.188
       422   04 Jun 2027 22:45:42.851   04 Jun 2027 22:47:16.724            93.873                Anadyr1          2933.531
       423   04 Jun 2027 22:47:32.043   04 Jun 2027 22:47:53.347            21.304                Norilsk           665.750
       424   04 Jun 2027 22:48:01.152   04 Jun 2027 22:48:40.263            39.111               Magadan2          1222.219
       425   04 Jun 2027 22:49:01.534   04 Jun 2027 22:49:05.530             3.996               Magadan1           124.875
       426   04 Jun 2027 22:49:27.937   04 Jun 2027 22:49:42.569            14.632               Magadan2           457.250
       427   04 Jun 2027 22:51:15.583   04 Jun 2027 22:52:22.988            67.405                Irkutsk          2106.406
       428   04 Jun 2027 22:54:30.492   04 Jun 2027 22:54:39.874             9.382                Novosib           293.188
       429   04 Jun 2027 22:55:34.865   04 Jun 2027 22:56:09.607            34.742                Novosib          1085.688
       430   04 Jun 2027 22:58:28.071   04 Jun 2027 22:58:57.550            29.479                Novosib           921.219
       431   04 Jun 2027 23:04:57.091   04 Jun 2027 23:05:48.145            51.054                Sumatra          1595.437
       432   04 Jun 2027 23:08:56.913   04 Jun 2027 23:09:21.344            24.431                Sumatra           763.469
       433   04 Jun 2027 23:44:27.505   04 Jun 2027 23:44:45.693            18.188            RioGallegos           568.375
       434   04 Jun 2027 23:45:34.909   04 Jun 2027 23:45:39.332             4.423            RioGallegos           138.219
       435   04 Jun 2027 23:45:48.784   04 Jun 2027 23:46:22.212            33.428            RioGallegos          1044.625
       436   05 Jun 2027 00:19:17.034   05 Jun 2027 00:20:44.408            87.374                Anadyr2          2730.437
       437   05 Jun 2027 00:20:55.102   05 Jun 2027 00:20:59.534             4.432                Anadyr2           138.500
       438   05 Jun 2027 00:21:32.929   05 Jun 2027 00:21:52.071            19.142                Anadyr2           598.188
       439   05 Jun 2027 00:23:13.831   05 Jun 2027 00:23:27.103            13.272                Norilsk           414.750
       440   05 Jun 2027 00:23:52.280   05 Jun 2027 00:25:24.137            91.857               Magadan1          2870.531
       441   05 Jun 2027 00:26:29.328   05 Jun 2027 00:26:49.249            19.921               Magadan2           622.531
       442   05 Jun 2027 00:26:49.249   05 Jun 2027 00:27:34.160            44.911               Magadan1          1403.469
       443   05 Jun 2027 00:27:36.300   05 Jun 2027 00:29:19.028           102.728              Murmansk1          3210.250
       444   05 Jun 2027 00:31:16.646   05 Jun 2027 00:31:38.881            22.235                Novosib           694.844
       445   05 Jun 2027 00:34:34.223   05 Jun 2027 00:35:26.065            51.842                  Delhi          1620.063
       446   05 Jun 2027 00:36:34.130   05 Jun 2027 00:37:16.865            42.735                  Delhi          1335.469
       447   05 Jun 2027 00:42:21.586   05 Jun 2027 00:42:40.088            18.502                  Delhi           578.187
       448   05 Jun 2027 00:44:53.524   05 Jun 2027 00:44:54.832             1.308                  Delhi            40.875
       449   05 Jun 2027 00:46:22.222   05 Jun 2027 00:47:03.199            40.977                  Delhi          1280.531
       450   05 Jun 2027 01:19:14.402   05 Jun 2027 01:19:21.048             6.646            RioGallegos           207.688
       451   05 Jun 2027 01:20:10.726   05 Jun 2027 01:21:03.106            52.380            RioGallegos          1636.875
       452   05 Jun 2027 01:52:39.508   05 Jun 2027 01:52:41.051             1.543                Anadyr1            48.219
       453   05 Jun 2027 01:53:02.486   05 Jun 2027 01:53:35.629            33.143                Anadyr1          1035.719
       454   05 Jun 2027 01:54:11.162   05 Jun 2027 01:54:31.058            19.896                Anadyr2           621.750
       455   05 Jun 2027 01:54:58.179   05 Jun 2027 01:55:07.690             9.511                Anadyr1           297.219
       456   05 Jun 2027 01:55:10.973   05 Jun 2027 01:55:35.750            24.777                Anadyr1           774.281
       457   05 Jun 2027 01:58:22.954   05 Jun 2027 01:59:02.149            39.195                Anadyr1          1224.844
       458   05 Jun 2027 01:59:02.459   05 Jun 2027 01:59:07.771             5.312               Magadan2           166.000
       459   05 Jun 2027 01:59:11.726   05 Jun 2027 01:59:24.587            12.861                Norilsk           401.906
       460   05 Jun 2027 01:59:35.782   05 Jun 2027 01:59:56.051            20.269               Magadan1           633.406
       461   05 Jun 2027 02:00:34.365   05 Jun 2027 02:01:02.043            27.678               Magadan2           864.938
       462   05 Jun 2027 02:01:27.933   05 Jun 2027 02:01:31.289             3.356              Murmansk2           104.875
       463   05 Jun 2027 02:02:12.745   05 Jun 2027 02:03:11.702            58.957              Murmansk1          1842.406
       464   05 Jun 2027 02:03:33.706   05 Jun 2027 02:04:31.054            57.348              Murmansk2          1792.125
       465   05 Jun 2027 02:05:42.269   05 Jun 2027 02:06:04.366            22.097                 Moscow           690.531
       466   05 Jun 2027 02:08:55.979   05 Jun 2027 02:09:29.337            33.358                Novosib          1042.438
       467   05 Jun 2027 02:11:10.230   05 Jun 2027 02:11:20.772            10.542                  Delhi           329.437
       468   05 Jun 2027 02:11:50.306   05 Jun 2027 02:12:05.617            15.311                  Delhi           478.469
       469   05 Jun 2027 02:14:05.813   05 Jun 2027 02:15:29.957            84.144                  Delhi          2629.500
       470   05 Jun 2027 03:44:45.530   05 Jun 2027 03:45:01.157            15.627                 Moscow           488.344
       471   05 Jun 2027 03:45:15.209   05 Jun 2027 03:45:39.029            23.820                 Moscow           744.375
       472   05 Jun 2027 03:45:43.898   05 Jun 2027 03:45:49.634             5.736                Novosib           179.250
       473   05 Jun 2027 03:46:00.209   05 Jun 2027 03:49:48.287           228.078              Murmansk2          7127.437
       474   05 Jun 2027 03:49:48.684   05 Jun 2027 03:52:28.175           159.491                 Moscow          4984.094
       475   05 Jun 2027 04:05:19.416   05 Jun 2027 04:07:15.208           115.792               CapeTown          3618.500
       476   05 Jun 2027 05:07:51.514   05 Jun 2027 05:08:01.132             9.618               Magadan1           300.563
       477   05 Jun 2027 05:08:13.918   05 Jun 2027 05:11:56.107           222.189                Anadyr1          6943.406
       478   05 Jun 2027 05:20:47.918   05 Jun 2027 05:21:03.786            15.868                Norilsk           495.875
       479   05 Jun 2027 05:21:18.628   05 Jun 2027 05:22:15.415            56.787              Murmansk1          1774.594
       480   05 Jun 2027 05:22:40.175   05 Jun 2027 05:22:53.999            13.824              Murmansk1           432.000
       481   05 Jun 2027 05:23:08.903   05 Jun 2027 05:23:18.346             9.443                 Moscow           295.094
       482   05 Jun 2027 05:23:58.453   05 Jun 2027 05:24:26.067            27.614                 Moscow           862.937
