uniorb/output/strategy_1/Drop/Drop_KinoSat_111805.txt

KinoSat_111805
-------------------------
    Access    *     Start Time (UTCG)     *     Stop Time (UTCG)  *   Duration (s)        *       Station  *  Data (Mbytes)
         1   01 Jun 2027 03:05:49.161   01 Jun 2027 03:08:17.626           148.465                Irkutsk          4639.531
         2   01 Jun 2027 03:08:24.522   01 Jun 2027 03:09:22.474            57.952              Murmansk1          1811.000
         3   01 Jun 2027 03:09:35.336   01 Jun 2027 03:10:14.907            39.571              Murmansk1          1236.594
         4   01 Jun 2027 03:10:15.053   01 Jun 2027 03:10:42.698            27.645                Novosib           863.906
         5   01 Jun 2027 03:10:50.603   01 Jun 2027 03:10:55.043             4.440                 Moscow           138.750
         6   01 Jun 2027 03:11:04.398   01 Jun 2027 03:11:48.417            44.019                 Moscow          1375.594
         7   01 Jun 2027 03:11:59.575   01 Jun 2027 03:14:47.886           168.311                  Delhi          5259.719
         8   01 Jun 2027 04:45:16.659   01 Jun 2027 04:45:38.035            21.376              Murmansk1           668.000
         9   01 Jun 2027 04:45:58.626   01 Jun 2027 04:47:08.617            69.991                 Moscow          2187.219
        10   01 Jun 2027 04:47:09.719   01 Jun 2027 04:48:04.355            54.636                Norilsk          1707.375
        11   01 Jun 2027 04:48:04.631   01 Jun 2027 04:48:27.453            22.822              Murmansk2           713.187
        12   01 Jun 2027 04:48:32.847   01 Jun 2027 04:50:41.264           128.417                 Moscow          4013.031
        13   01 Jun 2027 04:51:27.631   01 Jun 2027 04:54:24.632           177.001                 Moscow          5531.281
        14   01 Jun 2027 05:07:00.265   01 Jun 2027 05:10:03.241           182.976               CapeTown          5718.000
        15   01 Jun 2027 05:10:35.853   01 Jun 2027 05:10:53.422            17.569               CapeTown           549.031
        16   01 Jun 2027 05:11:57.106   01 Jun 2027 05:12:52.932            55.826               CapeTown          1744.563
        17   01 Jun 2027 06:23:02.882   01 Jun 2027 06:25:09.069           126.187              Murmansk2          3943.344
        18   01 Jun 2027 06:25:09.069   01 Jun 2027 06:25:28.257            19.188              Murmansk1           599.625
        19   01 Jun 2027 06:25:39.225   01 Jun 2027 06:25:50.110            10.885                 Moscow           340.156
        20   01 Jun 2027 06:26:34.297   01 Jun 2027 06:28:04.092            89.795                 Moscow          2806.094
        21   01 Jun 2027 06:28:43.851   01 Jun 2027 06:29:27.384            43.533                 Moscow          1360.406
        22   01 Jun 2027 06:42:21.451   01 Jun 2027 06:43:48.046            86.595               CapeTown          2706.094
        23   01 Jun 2027 07:45:46.584   01 Jun 2027 07:47:05.865            79.281                Anadyr2          2477.531
        24   01 Jun 2027 07:47:31.040   01 Jun 2027 07:47:44.931            13.891                Anadyr2           434.094
        25   01 Jun 2027 07:47:44.931   01 Jun 2027 07:48:44.326            59.395                Anadyr1          1856.094
        26   01 Jun 2027 09:22:29.747   01 Jun 2027 09:22:55.620            25.873                Anadyr1           808.531
        27   01 Jun 2027 09:23:30.517   01 Jun 2027 09:24:19.271            48.754                Anadyr1          1523.563
        28   01 Jun 2027 09:24:19.271   01 Jun 2027 09:25:26.894            67.623                Anadyr2          2113.219
        29   01 Jun 2027 09:25:34.290   01 Jun 2027 09:25:43.766             9.476               Magadan1           296.125
        30   01 Jun 2027 10:57:45.829   01 Jun 2027 11:02:29.235           283.406               Magadan1          8856.437
        31   01 Jun 2027 13:15:33.909   01 Jun 2027 13:17:38.719           124.810            RioGallegos          3900.312
        32   01 Jun 2027 13:49:48.516   01 Jun 2027 13:53:22.460           213.944                Sumatra          6685.750
        33   01 Jun 2027 14:05:26.495   01 Jun 2027 14:09:55.964           269.469                Irkutsk          8420.906
        34   01 Jun 2027 15:35:12.055   01 Jun 2027 15:39:38.701           266.646                  Delhi          8332.688
        35   01 Jun 2027 15:43:42.579   01 Jun 2027 15:47:39.602           237.023                Novosib          7406.969
        36   01 Jun 2027 17:23:22.297   01 Jun 2027 17:23:33.977            11.680              Murmansk2           365.000
        37   01 Jun 2027 17:23:52.378   01 Jun 2027 17:24:16.326            23.948              Murmansk2           748.375
        38   01 Jun 2027 18:30:34.353   01 Jun 2027 18:32:55.402           141.049               CapeTown          4407.781
        39   01 Jun 2027 18:58:07.880   01 Jun 2027 19:02:10.153           242.273                 Moscow          7571.031
        40   01 Jun 2027 19:03:46.401   01 Jun 2027 19:04:27.857            41.456              Murmansk2          1295.500
        41   01 Jun 2027 19:12:41.093   01 Jun 2027 19:12:52.280            11.187                Anadyr2           349.594
        42   01 Jun 2027 19:16:31.384   01 Jun 2027 19:17:00.542            29.158               Magadan2           911.187
        43   01 Jun 2027 20:07:45.434   01 Jun 2027 20:08:26.541            41.107               CapeTown          1284.594
        44   01 Jun 2027 20:09:00.075   01 Jun 2027 20:11:12.175           132.100               CapeTown          4128.125
        45   01 Jun 2027 20:41:19.671   01 Jun 2027 20:43:49.835           150.164              Murmansk2          4692.625
        46   01 Jun 2027 20:49:36.314   01 Jun 2027 20:51:06.272            89.958               Magadan1          2811.188
        47   01 Jun 2027 20:58:59.552   01 Jun 2027 20:59:08.210             8.658               Magadan2           270.562
        48   01 Jun 2027 22:23:00.452   01 Jun 2027 22:26:46.070           225.618                Anadyr2          7050.562
        49   01 Jun 2027 22:26:47.460   01 Jun 2027 22:29:50.067           182.607                Norilsk          5706.469
        50   01 Jun 2027 22:30:01.249   01 Jun 2027 22:30:52.733            51.484               Magadan1          1608.875
        51   01 Jun 2027 23:17:28.148   01 Jun 2027 23:20:52.587           204.439            RioGallegos          6388.719
        52   01 Jun 2027 23:58:38.247   02 Jun 2027 00:01:50.787           192.540                Anadyr2          6016.875
        53   02 Jun 2027 00:01:56.111   02 Jun 2027 00:02:33.288            37.177                Norilsk          1161.781
        54   02 Jun 2027 00:02:36.580   02 Jun 2027 00:03:16.911            40.331               Magadan1          1260.344
        55   02 Jun 2027 00:03:28.667   02 Jun 2027 00:03:37.931             9.264               Magadan1           289.500
        56   02 Jun 2027 00:04:15.130   02 Jun 2027 00:05:11.058            55.928               Magadan2          1747.750
        57   02 Jun 2027 00:05:51.716   02 Jun 2027 00:06:25.394            33.678                Irkutsk          1052.438
        58   02 Jun 2027 00:07:04.220   02 Jun 2027 00:08:02.431            58.211                Novosib          1819.094
        59   02 Jun 2027 00:18:48.837   02 Jun 2027 00:20:38.073           109.236                Sumatra          3413.625
        60   02 Jun 2027 00:20:59.165   02 Jun 2027 00:21:25.794            26.629                Sumatra           832.156
        61   02 Jun 2027 00:52:42.733   02 Jun 2027 00:53:08.920            26.187            RioGallegos           818.344
        62   02 Jun 2027 00:53:50.765   02 Jun 2027 00:54:41.018            50.253            RioGallegos          1570.406
        63   02 Jun 2027 01:33:24.221   02 Jun 2027 01:34:33.010            68.789                Anadyr1          2149.656
        64   02 Jun 2027 01:35:31.663   02 Jun 2027 01:35:59.981            28.318                Anadyr1           884.937
        65   02 Jun 2027 01:36:46.677   02 Jun 2027 01:38:32.690           106.013                Norilsk          3312.906
        66   02 Jun 2027 01:40:39.464   02 Jun 2027 01:43:50.495           191.031                Irkutsk          5969.719
        67   02 Jun 2027 01:48:37.489   02 Jun 2027 01:49:07.348            29.859                  Delhi           933.094
        68   02 Jun 2027 01:49:17.338   02 Jun 2027 01:49:44.210            26.872                  Delhi           839.750
        69   02 Jun 2027 01:55:51.564   02 Jun 2027 01:57:59.536           127.972                  Delhi          3999.125
        70   02 Jun 2027 01:59:20.056   02 Jun 2027 02:00:55.672            95.616                Sumatra          2988.000
        71   02 Jun 2027 03:18:49.245   02 Jun 2027 03:18:57.273             8.028              Murmansk1           250.875
        72   02 Jun 2027 03:18:57.861   02 Jun 2027 03:19:10.404            12.543                Novosib           391.969
        73   02 Jun 2027 03:19:25.735   02 Jun 2027 03:23:23.391           237.656                Norilsk          7426.750
        74   02 Jun 2027 03:23:40.997   02 Jun 2027 03:24:20.637            39.640                Novosib          1238.750
        75   02 Jun 2027 03:24:36.912   02 Jun 2027 03:24:55.421            18.509                Norilsk           578.406
        76   02 Jun 2027 03:24:56.182   02 Jun 2027 03:26:11.324            75.142                Novosib          2348.188
        77   02 Jun 2027 03:26:33.487   02 Jun 2027 03:28:41.499           128.012                  Delhi          4000.375
        78   02 Jun 2027 03:28:52.481   02 Jun 2027 03:29:16.931            24.450                  Delhi           764.063
        79   02 Jun 2027 04:57:30.657   02 Jun 2027 04:58:10.190            39.533              Murmansk2          1235.406
        80   02 Jun 2027 04:58:10.190   02 Jun 2027 05:00:13.890           123.700              Murmansk1          3865.625
        81   02 Jun 2027 05:00:21.478   02 Jun 2027 05:01:42.651            81.173                 Moscow          2536.656
        82   02 Jun 2027 05:01:57.990   02 Jun 2027 05:02:18.269            20.279              Murmansk1           633.719
        83   02 Jun 2027 05:02:33.350   02 Jun 2027 05:03:49.208            75.858                 Moscow          2370.562
        84   02 Jun 2027 05:18:39.145   02 Jun 2027 05:20:56.310           137.165               CapeTown          4286.406
        85   02 Jun 2027 05:21:55.115   02 Jun 2027 05:22:48.749            53.634               CapeTown          1676.063
        86   02 Jun 2027 05:28:47.964   02 Jun 2027 05:29:48.542            60.578               CapeTown          1893.063
        87   02 Jun 2027 06:33:45.590   02 Jun 2027 06:37:06.675           201.085              Murmansk1          6283.906
        88   02 Jun 2027 06:37:06.675   02 Jun 2027 06:37:39.204            32.529              Murmansk2          1016.531
        89   02 Jun 2027 06:39:56.849   02 Jun 2027 06:40:15.208            18.359                 Moscow           573.719
        90   02 Jun 2027 06:54:43.778   02 Jun 2027 06:55:46.455            62.677               CapeTown          1958.656
        91   02 Jun 2027 06:56:43.669   02 Jun 2027 06:59:00.222           136.553               CapeTown          4267.281
        92   02 Jun 2027 07:57:46.854   02 Jun 2027 08:00:58.600           191.746                Anadyr1          5992.062
        93   02 Jun 2027 08:00:58.600   02 Jun 2027 08:01:27.243            28.643                Anadyr2           895.094
        94   02 Jun 2027 08:02:16.885   02 Jun 2027 08:03:36.399            79.514                Anadyr2          2484.812
        95   02 Jun 2027 08:14:03.244   02 Jun 2027 08:14:57.404            54.160                 Moscow          1692.500
        96   02 Jun 2027 09:31:41.324   02 Jun 2027 09:32:59.008            77.684                Anadyr2          2427.625
        97   02 Jun 2027 09:32:59.008   02 Jun 2027 09:39:04.079           365.071                Anadyr1         11408.469
        98   02 Jun 2027 11:07:59.391   02 Jun 2027 11:10:17.014           137.623               Magadan1          4300.719
        99   02 Jun 2027 11:10:53.573   02 Jun 2027 11:11:29.144            35.571               Magadan1          1111.594
       100   02 Jun 2027 11:14:36.915   02 Jun 2027 11:15:02.878            25.963                Norilsk           811.344
       101   02 Jun 2027 11:15:23.794   02 Jun 2027 11:15:47.719            23.925                Novosib           747.656
       102   02 Jun 2027 11:17:01.489   02 Jun 2027 11:17:16.189            14.700              Murmansk2           459.375
       103   02 Jun 2027 11:49:38.973   02 Jun 2027 11:52:55.028           196.055            RioGallegos          6126.719
       104   02 Jun 2027 12:24:43.196   02 Jun 2027 12:25:26.693            43.497                Sumatra          1359.281
       105   02 Jun 2027 12:28:23.273   02 Jun 2027 12:28:30.984             7.711                Sumatra           240.969
       106   02 Jun 2027 12:30:24.485   02 Jun 2027 12:31:28.861            64.376                Sumatra          2011.750
       107   02 Jun 2027 12:38:20.067   02 Jun 2027 12:42:43.678           263.611                Irkutsk          8237.844
       108   02 Jun 2027 12:42:59.544   02 Jun 2027 12:44:02.255            62.711                Norilsk          1959.719
       109   02 Jun 2027 13:28:15.091   02 Jun 2027 13:34:29.555           374.464            RioGallegos         11702.000
       110   02 Jun 2027 14:02:39.205   02 Jun 2027 14:10:19.669           460.464                Sumatra         14389.500
       111   02 Jun 2027 14:18:29.372   02 Jun 2027 14:22:03.765           214.393                Irkutsk          6699.781
       112   02 Jun 2027 15:48:31.111   02 Jun 2027 15:52:21.336           230.225                  Delhi          7194.531
       113   02 Jun 2027 15:56:54.787   02 Jun 2027 16:00:36.498           221.711                Novosib          6928.469
       114   02 Jun 2027 18:43:05.810   02 Jun 2027 18:44:52.114           106.304               CapeTown          3322.000
       115   02 Jun 2027 19:11:52.347   02 Jun 2027 19:14:33.941           161.594                 Moscow          5049.813
       116   02 Jun 2027 19:15:27.123   02 Jun 2027 19:17:06.691            99.568              Murmansk2          3111.500
       117   02 Jun 2027 19:27:26.441   02 Jun 2027 19:27:29.528             3.087               Magadan2            96.469
       118   02 Jun 2027 20:20:21.406   02 Jun 2027 20:25:14.160           292.754               CapeTown          9148.563
       119   02 Jun 2027 21:01:33.452   02 Jun 2027 21:02:29.023            55.571               Magadan2          1736.594
       120   02 Jun 2027 21:02:29.023   02 Jun 2027 21:03:20.080            51.057               Magadan1          1595.531
       121   02 Jun 2027 21:03:35.718   02 Jun 2027 21:03:51.651            15.933               Magadan1           497.906
       122   02 Jun 2027 21:04:08.068   02 Jun 2027 21:04:28.709            20.641               Magadan1           645.031
       123   02 Jun 2027 22:35:01.351   02 Jun 2027 22:38:46.077           224.726                Anadyr1          7022.688
       124   02 Jun 2027 22:38:50.930   02 Jun 2027 22:39:08.868            17.938               Magadan1           560.562
       125   02 Jun 2027 22:39:13.168   02 Jun 2027 22:40:09.205            56.037                Anadyr2          1751.156
       126   02 Jun 2027 22:40:09.263   02 Jun 2027 22:40:58.712            49.449               Magadan2          1545.281
       127   02 Jun 2027 22:41:20.841   02 Jun 2027 22:41:49.599            28.758               Magadan2           898.688
       128   02 Jun 2027 22:42:26.733   02 Jun 2027 22:42:36.399             9.666               Magadan2           302.063
       129   02 Jun 2027 22:42:54.938   02 Jun 2027 22:42:57.711             2.773               Magadan2            86.656
       130   02 Jun 2027 22:44:00.821   02 Jun 2027 22:44:12.909            12.088               Magadan2           377.750
       131   02 Jun 2027 22:44:27.417   02 Jun 2027 22:46:25.568           118.151                Irkutsk          3692.219
       132   02 Jun 2027 23:29:18.061   02 Jun 2027 23:32:26.751           188.690            RioGallegos          5896.563
       133   03 Jun 2027 00:10:34.851   03 Jun 2027 00:11:17.921            43.070                Anadyr1          1345.937
       134   03 Jun 2027 00:12:03.977   03 Jun 2027 00:13:36.680            92.703                Anadyr2          2896.969
       135   03 Jun 2027 00:13:45.348   03 Jun 2027 00:15:18.696            93.348               Magadan1          2917.125
       136   03 Jun 2027 00:16:01.500   03 Jun 2027 00:16:40.408            38.908               Magadan1          1215.875
       137   03 Jun 2027 00:16:56.784   03 Jun 2027 00:18:27.493            90.709                Irkutsk          2834.656
       138   03 Jun 2027 00:21:33.487   03 Jun 2027 00:21:59.752            26.265                Novosib           820.781
       139   03 Jun 2027 00:30:39.084   03 Jun 2027 00:33:31.961           172.877                Sumatra          5402.406
       140   03 Jun 2027 00:33:38.010   03 Jun 2027 00:33:43.800             5.790                Sumatra           180.938
       141   03 Jun 2027 01:04:44.874   03 Jun 2027 01:06:09.288            84.414            RioGallegos          2637.937
       142   03 Jun 2027 01:14:57.418   03 Jun 2027 01:15:11.361            13.943            RioGallegos           435.719
       143   03 Jun 2027 01:45:11.492   03 Jun 2027 01:45:40.019            28.527                Anadyr2           891.469
       144   03 Jun 2027 01:45:54.615   03 Jun 2027 01:46:34.366            39.751                Anadyr2          1242.219
       145   03 Jun 2027 01:47:19.040   03 Jun 2027 01:47:36.591            17.551                Anadyr1           548.469
       146   03 Jun 2027 01:48:49.090   03 Jun 2027 01:50:35.624           106.534                Norilsk          3329.187
       147   03 Jun 2027 01:52:43.068   03 Jun 2027 01:54:29.286           106.218                Irkutsk          3319.312
       148   03 Jun 2027 01:55:26.874   03 Jun 2027 01:56:20.011            53.137                Novosib          1660.531
       149   03 Jun 2027 01:58:03.638   03 Jun 2027 01:58:57.312            53.674                Novosib          1677.312
       150   03 Jun 2027 02:00:22.613   03 Jun 2027 02:00:59.228            36.615                  Delhi          1144.219
       151   03 Jun 2027 02:09:14.626   03 Jun 2027 02:13:28.566           253.940                Sumatra          7935.625
       152   03 Jun 2027 02:42:39.071   03 Jun 2027 02:43:59.648            80.577            RioGallegos          2518.031
       153   03 Jun 2027 03:30:54.534   03 Jun 2027 03:32:18.959            84.425                Norilsk          2638.281
       154   03 Jun 2027 03:32:23.301   03 Jun 2027 03:34:42.814           139.513                Irkutsk          4359.781
       155   03 Jun 2027 03:34:54.582   03 Jun 2027 03:35:25.649            31.067                Irkutsk           970.844
       156   03 Jun 2027 03:35:32.919   03 Jun 2027 03:36:08.666            35.747              Murmansk1          1117.094
       157   03 Jun 2027 03:36:26.280   03 Jun 2027 03:37:52.884            86.604                Novosib          2706.375
       158   03 Jun 2027 03:40:37.925   03 Jun 2027 03:40:49.661            11.736                Novosib           366.750
       159   03 Jun 2027 03:46:21.019   03 Jun 2027 03:47:26.240            65.221                  Delhi          2038.156
       160   03 Jun 2027 05:09:42.738   03 Jun 2027 05:10:32.902            50.164              Murmansk2          1567.625
       161   03 Jun 2027 05:10:36.960   03 Jun 2027 05:10:50.805            13.845                Novosib           432.656
       162   03 Jun 2027 05:10:54.885   03 Jun 2027 05:12:37.033           102.148                Norilsk          3192.125
       163   03 Jun 2027 05:12:47.515   03 Jun 2027 05:17:01.484           253.969                 Moscow          7936.531
       164   03 Jun 2027 05:17:08.884   03 Jun 2027 05:17:28.614            19.730                 Moscow           616.562
       165   03 Jun 2027 05:17:55.083   03 Jun 2027 05:18:13.202            18.119                 Moscow           566.219
       166   03 Jun 2027 05:30:23.714   03 Jun 2027 05:32:18.396           114.682               CapeTown          3583.813
       167   03 Jun 2027 06:34:32.368   03 Jun 2027 06:36:23.113           110.745                Anadyr1          3460.781
       168   03 Jun 2027 06:37:02.435   03 Jun 2027 06:37:17.973            15.538               Magadan2           485.562
       169   03 Jun 2027 06:37:17.973   03 Jun 2027 06:38:10.818            52.845               Magadan1          1651.406
       170   03 Jun 2027 06:46:00.586   03 Jun 2027 06:49:35.080           214.494              Murmansk1          6702.937
       171   03 Jun 2027 06:49:51.572   03 Jun 2027 06:50:01.739            10.167                 Moscow           317.719
       172   03 Jun 2027 06:52:10.917   03 Jun 2027 06:52:11.324             0.407                 Moscow            12.719
       173   03 Jun 2027 06:52:28.675   03 Jun 2027 06:53:27.521            58.846                 Moscow          1838.938
       174   03 Jun 2027 07:07:13.802   03 Jun 2027 07:07:49.951            36.149               CapeTown          1129.656
       175   03 Jun 2027 07:11:00.559   03 Jun 2027 07:12:14.977            74.418               CapeTown          2325.562
       176   03 Jun 2027 08:08:28.331   03 Jun 2027 08:08:55.710            27.379               Magadan2           855.594
       177   03 Jun 2027 08:09:33.403   03 Jun 2027 08:11:07.673            94.270               Magadan2          2945.938
       178   03 Jun 2027 08:11:07.673   03 Jun 2027 08:12:09.971            62.298               Magadan1          1946.812
       179   03 Jun 2027 08:12:41.143   03 Jun 2027 08:13:15.379            34.236                Anadyr1          1069.875
       180   03 Jun 2027 08:13:57.387   03 Jun 2027 08:14:16.792            19.405                Anadyr1           606.406
       181   03 Jun 2027 09:42:53.252   03 Jun 2027 09:50:55.996           482.744                Anadyr1         15085.750
       182   03 Jun 2027 11:20:57.455   03 Jun 2027 11:26:02.451           304.996               Magadan1          9531.125
       183   03 Jun 2027 11:26:58.125   03 Jun 2027 11:26:59.897             1.772                Irkutsk            55.375
       184   03 Jun 2027 11:27:04.592   03 Jun 2027 11:27:15.005            10.413                Novosib           325.406
       185   03 Jun 2027 11:27:29.322   03 Jun 2027 11:27:36.104             6.782                Norilsk           211.938
       186   03 Jun 2027 11:27:48.020   03 Jun 2027 11:28:23.613            35.593              Murmansk1          1112.281
       187   03 Jun 2027 12:01:45.671   03 Jun 2027 12:02:34.740            49.069            RioGallegos          1533.406
       188   03 Jun 2027 12:04:55.214   03 Jun 2027 12:05:37.504            42.290            RioGallegos          1321.563
       189   03 Jun 2027 12:36:36.442   03 Jun 2027 12:37:12.413            35.971                Sumatra          1124.094
       190   03 Jun 2027 12:39:41.797   03 Jun 2027 12:39:48.336             6.539                Sumatra           204.344
       191   03 Jun 2027 12:43:24.111   03 Jun 2027 12:44:51.783            87.672                Sumatra          2739.750
       192   03 Jun 2027 12:50:34.415   03 Jun 2027 12:51:54.504            80.089                Irkutsk          2502.781
       193   03 Jun 2027 12:52:54.202   03 Jun 2027 12:52:57.231             3.029                Novosib            94.656
       194   03 Jun 2027 12:53:45.950   03 Jun 2027 12:55:10.256            84.306                Irkutsk          2634.563
       195   03 Jun 2027 12:56:01.913   03 Jun 2027 12:56:22.700            20.787                Norilsk           649.594
       196   03 Jun 2027 13:05:58.836   03 Jun 2027 13:06:23.805            24.969                Norilsk           780.281
       197   03 Jun 2027 13:41:06.036   03 Jun 2027 13:42:23.667            77.631            RioGallegos          2425.969
       198   03 Jun 2027 13:43:32.920   03 Jun 2027 13:45:14.371           101.451            RioGallegos          3170.344
       199   03 Jun 2027 14:16:03.464   03 Jun 2027 14:19:47.811           224.347                Sumatra          7010.844
       200   03 Jun 2027 14:30:40.762   03 Jun 2027 14:31:06.206            25.444                Novosib           795.125
       201   03 Jun 2027 14:32:00.100   03 Jun 2027 14:35:31.884           211.784                Irkutsk          6618.250
       202   03 Jun 2027 16:06:24.985   03 Jun 2027 16:06:53.582            28.597                 Moscow           893.656
       203   03 Jun 2027 16:08:35.736   03 Jun 2027 16:09:26.172            50.436              Murmansk1          1576.125
       204   03 Jun 2027 16:09:35.879   03 Jun 2027 16:09:46.157            10.278              Murmansk2           321.188
       205   03 Jun 2027 16:11:04.684   03 Jun 2027 16:12:28.675            83.991                Novosib          2624.719
       206   03 Jun 2027 16:16:00.803   03 Jun 2027 16:17:34.370            93.567                Norilsk          2923.969
       207   03 Jun 2027 17:20:09.920   03 Jun 2027 17:20:24.042            14.122               CapeTown           441.313
       208   03 Jun 2027 17:21:04.550   03 Jun 2027 17:22:43.258            98.708               CapeTown          3084.625
       209   03 Jun 2027 17:42:11.071   03 Jun 2027 17:43:01.066            49.995                 Moscow          1562.344
       210   03 Jun 2027 17:44:08.359   03 Jun 2027 17:46:11.931           123.572                 Moscow          3861.625
       211   03 Jun 2027 17:47:56.539   03 Jun 2027 17:49:36.129            99.590              Murmansk2          3112.187
       212   03 Jun 2027 18:08:29.747   03 Jun 2027 18:08:42.424            12.677                Anadyr2           396.156
       213   03 Jun 2027 18:54:37.046   03 Jun 2027 18:56:41.377           124.331               CapeTown          3885.344
       214   03 Jun 2027 19:00:21.097   03 Jun 2027 19:01:07.745            46.648               CapeTown          1457.750
       215   03 Jun 2027 19:24:29.046   03 Jun 2027 19:25:14.556            45.510              Murmansk1          1422.187
       216   03 Jun 2027 19:25:41.544   03 Jun 2027 19:29:52.160           250.616              Murmansk2          7831.750
       217   03 Jun 2027 19:30:46.193   03 Jun 2027 19:32:00.200            74.007              Murmansk2          2312.719
       218   03 Jun 2027 20:33:17.005   03 Jun 2027 20:36:17.837           180.832               CapeTown          5651.000
       219   03 Jun 2027 21:11:08.665   03 Jun 2027 21:11:51.073            42.408                Anadyr2          1325.250
       220   03 Jun 2027 21:12:04.522   03 Jun 2027 21:12:10.125             5.603                Anadyr2           175.094
       221   03 Jun 2027 21:12:21.079   03 Jun 2027 21:12:56.972            35.893                Anadyr2          1121.656
       222   03 Jun 2027 21:13:31.611   03 Jun 2027 21:14:30.568            58.957               Magadan1          1842.406
       223   03 Jun 2027 21:14:30.568   03 Jun 2027 21:15:43.408            72.840               Magadan2          2276.250
       224   03 Jun 2027 21:15:56.041   03 Jun 2027 21:15:59.189             3.148               Magadan1            98.375
       225   03 Jun 2027 21:16:00.994   03 Jun 2027 21:16:08.045             7.051               Magadan1           220.344
       226   03 Jun 2027 21:16:16.815   03 Jun 2027 21:16:31.377            14.562               Magadan2           455.062
       227   03 Jun 2027 21:18:27.017   03 Jun 2027 21:18:37.330            10.313               Magadan1           322.281
       228   03 Jun 2027 21:19:07.782   03 Jun 2027 21:19:11.682             3.900               Magadan2           121.875
       229   03 Jun 2027 21:19:19.090   03 Jun 2027 21:19:56.562            37.472               Magadan2          1171.000
       230   03 Jun 2027 21:25:26.494   03 Jun 2027 21:25:28.190             1.696               Magadan1            53.000
       231   03 Jun 2027 22:47:01.932   03 Jun 2027 22:50:45.631           223.699                Anadyr1          6990.594
       232   03 Jun 2027 22:50:57.643   03 Jun 2027 22:53:43.766           166.123                Norilsk          5191.344
       233   03 Jun 2027 22:54:22.202   03 Jun 2027 22:54:29.130             6.928               Magadan2           216.500
       234   03 Jun 2027 22:54:39.024   03 Jun 2027 22:54:53.903            14.879               Magadan1           464.969
       235   03 Jun 2027 22:55:02.031   03 Jun 2027 22:56:15.615            73.584                Irkutsk          2299.500
       236   03 Jun 2027 22:56:53.099   03 Jun 2027 22:57:06.130            13.031                Irkutsk           407.219
       237   03 Jun 2027 23:00:14.481   03 Jun 2027 23:00:53.979            39.498                Irkutsk          1234.312
       238   03 Jun 2027 23:12:26.818   03 Jun 2027 23:14:20.507           113.689                Sumatra          3552.781
       239   03 Jun 2027 23:43:20.274   03 Jun 2027 23:44:01.142            40.868            RioGallegos          1277.125
       240   03 Jun 2027 23:52:09.347   03 Jun 2027 23:52:30.170            20.823            RioGallegos           650.719
       241   04 Jun 2027 00:22:30.540   04 Jun 2027 00:22:59.606            29.066                Anadyr1           908.313
       242   04 Jun 2027 00:23:50.264   04 Jun 2027 00:24:39.370            49.106                Anadyr2          1534.562
       243   04 Jun 2027 00:24:51.478   04 Jun 2027 00:26:37.722           106.244                Norilsk          3320.125
       244   04 Jun 2027 00:26:44.419   04 Jun 2027 00:27:22.983            38.564               Magadan2          1205.125
       245   04 Jun 2027 00:27:49.942   04 Jun 2027 00:28:08.901            18.959               Magadan2           592.469
       246   04 Jun 2027 00:28:53.475   04 Jun 2027 00:30:30.396            96.921                Irkutsk          3028.781
       247   04 Jun 2027 00:32:56.819   04 Jun 2027 00:33:05.257             8.438                Novosib           263.687
       248   04 Jun 2027 00:33:32.306   04 Jun 2027 00:33:42.283             9.977                Novosib           311.781
       249   04 Jun 2027 00:34:34.429   04 Jun 2027 00:35:26.028            51.599                Novosib          1612.469
       250   04 Jun 2027 00:39:19.001   04 Jun 2027 00:39:36.928            17.927                Irkutsk           560.219
       251   04 Jun 2027 00:40:02.211   04 Jun 2027 00:40:07.594             5.383                Irkutsk           168.219
       252   04 Jun 2027 00:42:35.236   04 Jun 2027 00:42:55.195            19.959                Sumatra           623.719
       253   04 Jun 2027 00:45:31.802   04 Jun 2027 00:45:44.128            12.326                Sumatra           385.187
       254   04 Jun 2027 00:48:32.075   04 Jun 2027 00:49:19.528            47.453                Sumatra          1482.906
       255   04 Jun 2027 00:52:17.456   04 Jun 2027 00:54:19.743           122.287                Sumatra          3821.469
       256   04 Jun 2027 01:56:57.474   04 Jun 2027 01:57:40.560            43.086                Anadyr2          1346.438
       257   04 Jun 2027 01:57:53.598   04 Jun 2027 01:58:35.718            42.120                Anadyr2          1316.250
       258   04 Jun 2027 02:00:51.503   04 Jun 2027 02:02:11.641            80.138                Norilsk          2504.313
       259   04 Jun 2027 02:02:22.932   04 Jun 2027 02:02:37.195            14.263                Norilsk           445.719
       260   04 Jun 2027 02:04:33.728   04 Jun 2027 02:04:41.188             7.460                Norilsk           233.125
       261   04 Jun 2027 02:04:41.347   04 Jun 2027 02:05:16.188            34.841              Murmansk2          1088.781
       262   04 Jun 2027 02:05:29.472   04 Jun 2027 02:06:25.279            55.807                Novosib          1743.969
       263   04 Jun 2027 02:06:33.239   04 Jun 2027 02:06:33.886             0.647                Novosib            20.219
       264   04 Jun 2027 02:07:01.007   04 Jun 2027 02:07:37.272            36.265                Novosib          1133.281
       265   04 Jun 2027 02:08:10.114   04 Jun 2027 02:08:25.858            15.744                Novosib           492.000
       266   04 Jun 2027 02:10:21.097   04 Jun 2027 02:10:27.685             6.588                Irkutsk           205.875
       267   04 Jun 2027 02:11:20.836   04 Jun 2027 02:11:32.355            11.519                Novosib           359.969
       268   04 Jun 2027 02:12:10.890   04 Jun 2027 02:12:29.820            18.930                Novosib           591.563
       269   04 Jun 2027 02:13:05.668   04 Jun 2027 02:13:40.876            35.208                  Delhi          1100.250
       270   04 Jun 2027 02:19:01.077   04 Jun 2027 02:19:41.231            40.154                  Delhi          1254.813
       271   04 Jun 2027 02:23:38.775   04 Jun 2027 02:25:11.031            92.256                Sumatra          2883.000
       272   04 Jun 2027 02:54:45.514   04 Jun 2027 02:55:28.591            43.077            RioGallegos          1346.156
       273   04 Jun 2027 02:56:36.949   04 Jun 2027 02:57:53.217            76.268            RioGallegos          2383.375
       274   04 Jun 2027 03:01:28.753   04 Jun 2027 03:02:20.091            51.338            RioGallegos          1604.312
       275   04 Jun 2027 03:43:37.312   04 Jun 2027 03:46:35.252           177.940              Murmansk2          5560.625
       276   04 Jun 2027 03:46:36.535   04 Jun 2027 03:47:49.147            72.612                Novosib          2269.125
       277   04 Jun 2027 03:48:16.356   04 Jun 2027 03:48:20.661             4.305              Murmansk1           134.531
       278   04 Jun 2027 03:48:21.943   04 Jun 2027 03:49:18.935            56.992                Novosib          1781.000
       279   04 Jun 2027 03:49:30.528   04 Jun 2027 03:50:19.342            48.814                Novosib          1525.438
       280   04 Jun 2027 03:51:46.660   04 Jun 2027 03:53:59.059           132.399                  Delhi          4137.469
       281   04 Jun 2027 05:21:52.955   04 Jun 2027 05:22:33.845            40.890              Murmansk2          1277.812
       282   04 Jun 2027 05:22:41.195   04 Jun 2027 05:23:48.663            67.468                 Moscow          2108.375
       283   04 Jun 2027 05:24:06.127   04 Jun 2027 05:24:27.312            21.185                Norilsk           662.031
       284   04 Jun 2027 05:24:33.523   04 Jun 2027 05:27:24.282           170.759              Murmansk1          5336.219
       285   04 Jun 2027 05:27:24.282   04 Jun 2027 05:27:25.877             1.595              Murmansk2            49.844
       286   04 Jun 2027 05:27:34.095   04 Jun 2027 05:29:35.780           121.685                 Moscow          3802.656
       287   04 Jun 2027 05:46:12.935   04 Jun 2027 05:46:28.645            15.710               CapeTown           490.938
       288   04 Jun 2027 05:54:42.076   04 Jun 2027 05:54:53.465            11.389               CapeTown           355.906
       289   04 Jun 2027 06:45:57.955   04 Jun 2027 06:46:41.961            44.006                Anadyr2          1375.187
       290   04 Jun 2027 06:46:59.106   04 Jun 2027 06:49:52.515           173.409               Magadan2          5419.031
       291   04 Jun 2027 06:57:35.538   04 Jun 2027 06:58:46.792            71.254              Murmansk2          2226.688
       292   04 Jun 2027 06:58:46.792   04 Jun 2027 06:59:10.402            23.610              Murmansk1           737.813
       293   04 Jun 2027 06:59:14.063   04 Jun 2027 07:01:50.862           156.799                 Moscow          4899.969
       294   04 Jun 2027 07:19:53.598   04 Jun 2027 07:19:58.740             5.142               CapeTown           160.688
       295   04 Jun 2027 07:22:18.476   04 Jun 2027 07:24:39.675           141.199               CapeTown          4412.469
       296   04 Jun 2027 08:19:54.681   04 Jun 2027 08:21:04.419            69.738                Anadyr1          2179.312
       297   04 Jun 2027 08:21:04.419   04 Jun 2027 08:21:45.824            41.405                Anadyr2          1293.906
       298   04 Jun 2027 08:22:07.940   04 Jun 2027 08:22:08.026             0.086               Magadan1             2.688
       299   04 Jun 2027 08:22:40.560   04 Jun 2027 08:25:22.402           161.842                Anadyr1          5057.563
       300   04 Jun 2027 09:54:26.168   04 Jun 2027 09:54:47.385            21.217                Irkutsk           663.031
       301   04 Jun 2027 09:55:31.937   04 Jun 2027 09:56:26.130            54.193               Magadan1          1693.531
       302   04 Jun 2027 09:56:26.130   04 Jun 2027 09:57:16.163            50.033               Magadan2          1563.531
       303   04 Jun 2027 09:57:37.636   04 Jun 2027 09:59:25.035           107.399               Magadan1          3356.219
       304   04 Jun 2027 10:00:03.118   04 Jun 2027 10:00:06.387             3.269                Norilsk           102.156
       305   04 Jun 2027 10:00:11.634   04 Jun 2027 10:02:44.492           152.858                Anadyr1          4776.813
       306   04 Jun 2027 11:18:00.255   04 Jun 2027 11:18:04.765             4.510                Sumatra           140.937
       307   04 Jun 2027 11:31:18.173   04 Jun 2027 11:33:42.928           144.755               Magadan2          4523.594
       308   04 Jun 2027 11:34:27.476   04 Jun 2027 11:34:29.070             1.594                Norilsk            49.812
       309   04 Jun 2027 11:34:36.819   04 Jun 2027 11:37:39.932           183.113               Magadan1          5722.281
       310   04 Jun 2027 11:37:55.386   04 Jun 2027 11:38:14.591            19.205                Norilsk           600.156
       311   04 Jun 2027 11:38:27.584   04 Jun 2027 11:38:27.771             0.187                Norilsk             5.844
       312   04 Jun 2027 11:38:29.964   04 Jun 2027 11:39:05.789            35.825              Murmansk1          1119.531
       313   04 Jun 2027 11:41:40.731   04 Jun 2027 11:41:45.062             4.331              Murmansk2           135.344
       314   04 Jun 2027 11:46:42.120   04 Jun 2027 11:46:45.941             3.821              Murmansk1           119.406
       315   04 Jun 2027 12:13:56.034   04 Jun 2027 12:14:27.155            31.121            RioGallegos           972.531
       316   04 Jun 2027 12:16:54.272   04 Jun 2027 12:17:38.334            44.062            RioGallegos          1376.938
       317   04 Jun 2027 12:48:35.444   04 Jun 2027 12:51:02.815           147.371                Sumatra          4605.344
       318   04 Jun 2027 13:02:52.836   04 Jun 2027 13:03:57.366            64.530                Irkutsk          2016.562
       319   04 Jun 2027 13:04:54.358   04 Jun 2027 13:05:30.326            35.968                Novosib          1124.000
       320   04 Jun 2027 13:07:11.151   04 Jun 2027 13:08:24.994            73.843                Norilsk          2307.594
       321   04 Jun 2027 13:08:49.784   04 Jun 2027 13:10:04.328            74.544                Norilsk          2329.500
       322   04 Jun 2027 13:54:12.003   04 Jun 2027 13:57:36.972           204.969            RioGallegos          6405.281
       323   04 Jun 2027 14:40:45.662   04 Jun 2027 14:40:58.104            12.442                Novosib           388.812
       324   04 Jun 2027 14:42:35.074   04 Jun 2027 14:44:41.480           126.406                Novosib          3950.187
       325   04 Jun 2027 14:45:57.302   04 Jun 2027 14:47:18.414            81.112                Novosib          2534.750
       326   04 Jun 2027 16:17:11.653   04 Jun 2027 16:20:30.087           198.434                 Moscow          6201.062
       327   04 Jun 2027 16:20:38.527   04 Jun 2027 16:21:35.107            56.580              Murmansk1          1768.125
       328   04 Jun 2027 16:24:43.551   04 Jun 2027 16:26:38.679           115.128                Norilsk          3597.750
       329   04 Jun 2027 16:28:19.504   04 Jun 2027 16:30:29.591           130.087                Norilsk          4065.219
       330   04 Jun 2027 17:31:43.075   04 Jun 2027 17:32:12.428            29.353               CapeTown           917.281
       331   04 Jun 2027 17:37:02.976   04 Jun 2027 17:38:18.132            75.156               CapeTown          2348.625
       332   04 Jun 2027 17:54:37.082   04 Jun 2027 17:55:11.476            34.394                 Moscow          1074.812
       333   04 Jun 2027 17:57:44.349   04 Jun 2027 17:58:41.500            57.151              Murmansk2          1785.969
       334   04 Jun 2027 17:59:25.844   04 Jun 2027 17:59:45.430            19.586                 Moscow           612.063
       335   04 Jun 2027 18:01:35.628   04 Jun 2027 18:01:56.708            21.080              Murmansk1           658.750
       336   04 Jun 2027 18:01:58.177   04 Jun 2027 18:02:23.760            25.583                 Moscow           799.469
       337   04 Jun 2027 18:05:42.388   04 Jun 2027 18:07:04.798            82.410              Murmansk2          2575.312
       338   04 Jun 2027 18:16:36.292   04 Jun 2027 18:17:07.685            31.393                Anadyr2           981.031
       339   04 Jun 2027 19:06:42.590   04 Jun 2027 19:08:16.961            94.371               CapeTown          2949.094
       340   04 Jun 2027 19:09:40.815   04 Jun 2027 19:10:25.749            44.934               CapeTown          1404.188
       341   04 Jun 2027 19:37:06.492   04 Jun 2027 19:38:14.469            67.977              Murmansk1          2124.281
       342   04 Jun 2027 19:39:17.726   04 Jun 2027 19:41:52.539           154.813              Murmansk2          4837.906
       343   04 Jun 2027 19:42:29.096   04 Jun 2027 19:42:38.908             9.812              Murmansk1           306.625
       344   04 Jun 2027 19:44:45.204   04 Jun 2027 19:45:02.274            17.070              Murmansk1           533.437
       345   04 Jun 2027 19:50:35.102   04 Jun 2027 19:51:29.642            54.540               Magadan2          1704.375
       346   04 Jun 2027 19:52:17.072   04 Jun 2027 19:53:06.131            49.059               Magadan2          1533.094
       347   04 Jun 2027 21:23:10.498   04 Jun 2027 21:27:03.686           233.188                Anadyr2          7287.125
       348   04 Jun 2027 21:27:11.847   04 Jun 2027 21:28:18.514            66.667               Magadan2          2083.344
       349   04 Jun 2027 21:28:18.514   04 Jun 2027 21:29:11.758            53.244               Magadan1          1663.875
       350   04 Jun 2027 21:30:26.671   04 Jun 2027 21:31:04.734            38.063               Magadan1          1189.469
       351   04 Jun 2027 21:31:14.086   04 Jun 2027 21:31:19.762             5.676               Magadan2           177.375
       352   04 Jun 2027 21:31:30.075   04 Jun 2027 21:32:06.218            36.143               Magadan2          1129.469
       353   04 Jun 2027 21:33:29.900   04 Jun 2027 21:33:57.637            27.737               Magadan2           866.781
       354   04 Jun 2027 21:35:45.415   04 Jun 2027 21:35:46.875             1.460               Magadan1            45.625
       355   04 Jun 2027 21:36:19.592   04 Jun 2027 21:36:48.485            28.893               Magadan1           902.906
       356   04 Jun 2027 22:20:37.524   04 Jun 2027 22:22:14.672            97.148            RioGallegos          3035.875
       357   04 Jun 2027 22:59:02.152   04 Jun 2027 23:02:11.775           189.623                Anadyr2          5925.719
       358   04 Jun 2027 23:02:11.775   04 Jun 2027 23:02:24.094            12.319                Anadyr1           384.969
       359   04 Jun 2027 23:02:35.571   04 Jun 2027 23:02:54.320            18.749                Norilsk           585.906
       360   04 Jun 2027 23:03:08.934   04 Jun 2027 23:04:31.063            82.129               Magadan1          2566.531
       361   04 Jun 2027 23:06:21.149   04 Jun 2027 23:06:28.534             7.385               Magadan1           230.781
       362   04 Jun 2027 23:06:28.534   04 Jun 2027 23:06:31.669             3.135               Magadan2            97.969
       363   04 Jun 2027 23:06:41.553   04 Jun 2027 23:06:53.912            12.359               Magadan1           386.219
       364   04 Jun 2027 23:07:32.079   04 Jun 2027 23:08:51.141            79.062                Irkutsk          2470.688
       365   04 Jun 2027 23:09:14.016   04 Jun 2027 23:09:25.960            11.944                Irkutsk           373.250
       366   04 Jun 2027 23:11:30.324   04 Jun 2027 23:11:51.007            20.683                Irkutsk           646.344
       367   04 Jun 2027 23:22:08.912   04 Jun 2027 23:23:44.754            95.842                Sumatra          2995.063
       368   04 Jun 2027 23:26:34.769   04 Jun 2027 23:27:12.022            37.253                Sumatra          1164.156
       369   04 Jun 2027 23:55:28.043   04 Jun 2027 23:55:36.397             8.354            RioGallegos           261.063
       370   04 Jun 2027 23:58:52.687   04 Jun 2027 23:59:02.375             9.688            RioGallegos           302.750
       371   05 Jun 2027 00:00:53.757   05 Jun 2027 00:01:15.033            21.276            RioGallegos           664.875
       372   05 Jun 2027 00:04:12.316   05 Jun 2027 00:04:23.544            11.228            RioGallegos           350.875
       373   05 Jun 2027 00:34:25.224   05 Jun 2027 00:34:55.712            30.488                Anadyr1           952.750
       374   05 Jun 2027 00:35:03.708   05 Jun 2027 00:35:50.274            46.566                Anadyr2          1455.187
       375   05 Jun 2027 00:36:08.201   05 Jun 2027 00:37:12.269            64.068                Anadyr1          2002.125
       376   05 Jun 2027 00:37:24.378   05 Jun 2027 00:38:39.980            75.602                Norilsk          2362.563
       377   05 Jun 2027 00:38:44.161   05 Jun 2027 00:39:19.497            35.336               Magadan1          1104.250
       378   05 Jun 2027 00:39:40.512   05 Jun 2027 00:40:03.352            22.840               Magadan2           713.750
       379   05 Jun 2027 00:40:51.521   05 Jun 2027 00:42:23.645            92.124                Irkutsk          2878.875
       380   05 Jun 2027 00:44:42.116   05 Jun 2027 00:45:21.739            39.623                Novosib          1238.219
       381   05 Jun 2027 00:45:52.498   05 Jun 2027 00:46:06.486            13.988                Novosib           437.125
       382   05 Jun 2027 00:47:45.192   05 Jun 2027 00:49:27.404           102.212                Novosib          3194.125
       383   05 Jun 2027 00:57:05.992   05 Jun 2027 00:57:44.518            38.526                Sumatra          1203.937
       384   05 Jun 2027 01:03:27.762   05 Jun 2027 01:04:16.878            49.116                Sumatra          1534.875
       385   05 Jun 2027 01:36:48.588   05 Jun 2027 01:37:37.995            49.407            RioGallegos          1543.969
       386   05 Jun 2027 02:08:42.267   05 Jun 2027 02:08:48.957             6.690                Anadyr1           209.063
       387   05 Jun 2027 02:09:15.633   05 Jun 2027 02:09:40.792            25.159                Anadyr1           786.219
       388   05 Jun 2027 02:09:53.069   05 Jun 2027 02:10:37.022            43.953                Anadyr1          1373.531
       389   05 Jun 2027 02:12:53.877   05 Jun 2027 02:14:05.393            71.516                Norilsk          2234.875
       390   05 Jun 2027 02:16:05.742   05 Jun 2027 02:16:42.755            37.013              Murmansk1          1156.656
       391   05 Jun 2027 02:16:43.583   05 Jun 2027 02:17:44.421            60.838                Novosib          1901.188
       392   05 Jun 2027 02:18:10.496   05 Jun 2027 02:18:32.193            21.697                Irkutsk           678.031
       393   05 Jun 2027 02:18:48.366   05 Jun 2027 02:19:22.140            33.774                Novosib          1055.438
       394   05 Jun 2027 02:24:06.639   05 Jun 2027 02:24:56.740            50.101                  Delhi          1565.656
       395   05 Jun 2027 02:31:00.541   05 Jun 2027 02:31:51.691            51.150                  Delhi          1598.438
       396   05 Jun 2027 03:05:43.828   05 Jun 2027 03:06:40.321            56.493            RioGallegos          1765.406
       397   05 Jun 2027 03:07:21.864   05 Jun 2027 03:10:18.932           177.068            RioGallegos          5533.375
       398   05 Jun 2027 03:55:49.548   05 Jun 2027 03:57:25.127            95.579                Irkutsk          2986.844
       399   05 Jun 2027 03:57:50.783   05 Jun 2027 03:58:21.346            30.563              Murmansk2           955.094
       400   05 Jun 2027 03:58:22.696   05 Jun 2027 04:00:27.259           124.563                Irkutsk          3892.594
       401   05 Jun 2027 05:34:25.352   05 Jun 2027 05:36:35.658           130.306                Novosib          4072.063
       402   05 Jun 2027 05:36:46.221   05 Jun 2027 05:37:10.065            23.844              Murmansk1           745.125
       403   05 Jun 2027 05:37:34.943   05 Jun 2027 05:39:37.240           122.297              Murmansk2          3821.781
       404   05 Jun 2027 05:39:42.491   05 Jun 2027 05:41:17.606            95.115                 Moscow          2972.344
       405   05 Jun 2027 05:41:39.910   05 Jun 2027 05:41:47.428             7.518                 Moscow           234.938
       406   05 Jun 2027 05:42:20.515   05 Jun 2027 05:43:07.118            46.603                 Moscow          1456.344
       407   05 Jun 2027 05:54:08.540   05 Jun 2027 05:57:02.345           173.805               CapeTown          5431.406
       408   05 Jun 2027 06:58:30.222   05 Jun 2027 06:59:20.210            49.988               Magadan1          1562.125
       409   05 Jun 2027 06:59:20.210   05 Jun 2027 07:01:58.217           158.007               Magadan2          4937.719
       410   05 Jun 2027 07:02:22.841   05 Jun 2027 07:02:35.091            12.250                Anadyr1           382.813
       411   05 Jun 2027 07:03:09.699   05 Jun 2027 07:03:37.532            27.833                Anadyr2           869.781
       412   05 Jun 2027 08:33:20.048   05 Jun 2027 08:33:22.537             2.489                Anadyr2            77.781
       413   05 Jun 2027 08:33:22.537   05 Jun 2027 08:33:44.267            21.730                Anadyr1           679.063
       414   05 Jun 2027 08:34:07.981   05 Jun 2027 08:34:22.008            14.027                Norilsk           438.344
       415   05 Jun 2027 08:34:23.910   05 Jun 2027 08:37:09.085           165.175                Anadyr1          5161.719
       416   05 Jun 2027 10:07:33.173   05 Jun 2027 10:09:03.016            89.843               Magadan1          2807.594
       417   05 Jun 2027 10:09:03.016   05 Jun 2027 10:09:12.135             9.119               Magadan2           284.969
       418   05 Jun 2027 10:09:12.135   05 Jun 2027 10:11:24.911           132.776               Magadan1          4149.250
       419   05 Jun 2027 10:11:50.622   05 Jun 2027 10:14:27.481           156.859                Anadyr1          4901.844
       420   05 Jun 2027 10:14:50.307   05 Jun 2027 10:15:10.369            20.062                Norilsk           626.938
       421   05 Jun 2027 10:17:29.360   05 Jun 2027 10:18:00.934            31.574              Murmansk1           986.687
       422   05 Jun 2027 10:50:12.557   05 Jun 2027 10:50:34.782            22.225            RioGallegos           694.531
       423   05 Jun 2027 10:52:18.295   05 Jun 2027 10:52:57.762            39.467            RioGallegos          1233.344
       424   05 Jun 2027 11:27:31.649   05 Jun 2027 11:29:24.584           112.935                Sumatra          3529.219
       425   05 Jun 2027 11:44:12.709   05 Jun 2027 11:44:23.480            10.771                Norilsk           336.594
       426   05 Jun 2027 11:44:26.671   05 Jun 2027 11:44:56.454            29.783                Norilsk           930.719
       427   05 Jun 2027 11:45:46.318   05 Jun 2027 11:46:01.226            14.908                Irkutsk           465.875
       428   05 Jun 2027 11:46:08.708   05 Jun 2027 11:46:27.508            18.800                Norilsk           587.500
       429   05 Jun 2027 11:46:32.447   05 Jun 2027 11:47:50.448            78.001                Irkutsk          2437.531
       430   05 Jun 2027 11:48:06.871   05 Jun 2027 11:48:08.306             1.435                Norilsk            44.844
       431   05 Jun 2027 11:48:12.208   05 Jun 2027 11:48:21.934             9.726                Norilsk           303.937
       432   05 Jun 2027 11:48:25.335   05 Jun 2027 11:49:03.501            38.166               Magadan2          1192.687
       433   05 Jun 2027 11:49:08.597   05 Jun 2027 11:49:15.497             6.900                Novosib           215.625
       434   05 Jun 2027 11:49:28.044   05 Jun 2027 11:49:59.729            31.685                Novosib           990.156
       435   05 Jun 2027 11:50:10.326   05 Jun 2027 11:50:21.917            11.591                Irkutsk           362.219
       436   05 Jun 2027 11:50:27.606   05 Jun 2027 11:51:01.221            33.615              Murmansk2          1050.469
       437   05 Jun 2027 11:51:01.221   05 Jun 2027 11:51:35.091            33.870              Murmansk1          1058.438
       438   05 Jun 2027 12:26:10.287   05 Jun 2027 12:27:31.614            81.327            RioGallegos          2541.469
       439   05 Jun 2027 12:34:42.233   05 Jun 2027 12:35:40.604            58.371            RioGallegos          1824.094
       440   05 Jun 2027 13:00:40.147   05 Jun 2027 13:01:52.876            72.729                Sumatra          2272.781
       441   05 Jun 2027 13:09:46.226   05 Jun 2027 13:10:11.224            24.998                Sumatra           781.187
       442   05 Jun 2027 13:15:15.727   05 Jun 2027 13:16:03.598            47.871                Irkutsk          1495.969
       443   05 Jun 2027 13:16:34.996   05 Jun 2027 13:17:07.178            32.182                Irkutsk          1005.688
       444   05 Jun 2027 13:17:47.391   05 Jun 2027 13:18:09.728            22.337                Novosib           698.031
       445   05 Jun 2027 13:19:14.742   05 Jun 2027 13:20:16.646            61.904                Irkutsk          1934.500
       446   05 Jun 2027 13:23:01.942   05 Jun 2027 13:23:28.032            26.090                Irkutsk           815.313
       447   05 Jun 2027 13:24:58.286   05 Jun 2027 13:25:45.229            46.943                Irkutsk          1466.969
       448   05 Jun 2027 13:33:48.905   05 Jun 2027 13:34:03.753            14.848              Murmansk2           464.000
       449   05 Jun 2027 14:07:52.483   05 Jun 2027 14:11:07.577           195.094            RioGallegos          6096.688
       450   05 Jun 2027 14:53:12.677   05 Jun 2027 14:53:53.726            41.049                Novosib          1282.781
       451   05 Jun 2027 14:56:41.251   05 Jun 2027 15:00:26.916           225.665                Novosib          7052.031
       452   05 Jun 2027 15:06:34.450   05 Jun 2027 15:07:05.434            30.984                Norilsk           968.250
       453   05 Jun 2027 16:29:13.196   05 Jun 2027 16:32:09.327           176.131                 Moscow          5504.094
       454   05 Jun 2027 16:32:42.909   05 Jun 2027 16:33:33.517            50.608              Murmansk1          1581.500
       455   05 Jun 2027 16:37:30.007   05 Jun 2027 16:42:01.512           271.505                Norilsk          8484.531
       456   05 Jun 2027 17:52:57.055   05 Jun 2027 17:53:31.061            34.006               CapeTown          1062.688
       457   05 Jun 2027 18:07:08.065   05 Jun 2027 18:08:19.674            71.609                 Moscow          2237.781
       458   05 Jun 2027 18:10:03.555   05 Jun 2027 18:11:20.246            76.691              Murmansk1          2396.594
       459   05 Jun 2027 18:13:34.329   05 Jun 2027 18:14:31.878            57.549              Murmansk2          1798.406
       460   05 Jun 2027 18:18:40.672   05 Jun 2027 18:19:29.674            49.002              Murmansk1          1531.312
       461   05 Jun 2027 18:28:37.169   05 Jun 2027 18:28:44.276             7.107                Anadyr1           222.094
       462   05 Jun 2027 18:28:51.590   05 Jun 2027 18:29:30.151            38.561                Anadyr1          1205.031
       463   05 Jun 2027 18:33:07.957   05 Jun 2027 18:33:16.459             8.502                Anadyr1           265.688
       464   05 Jun 2027 19:18:51.063   05 Jun 2027 19:20:30.851            99.788               CapeTown          3118.375
       465   05 Jun 2027 19:27:28.479   05 Jun 2027 19:27:56.333            27.854               CapeTown           870.437
       466   05 Jun 2027 19:49:47.664   05 Jun 2027 19:51:34.250           106.586              Murmansk2          3330.813
       467   05 Jun 2027 19:51:58.534   05 Jun 2027 19:54:27.771           149.237              Murmansk1          4663.656
       468   05 Jun 2027 19:55:20.817   05 Jun 2027 19:56:46.165            85.348              Murmansk2          2667.125
       469   05 Jun 2027 20:09:19.688   05 Jun 2027 20:09:30.552            10.864               Magadan1           339.500
       470   05 Jun 2027 20:10:18.007   05 Jun 2027 20:10:24.316             6.309               Magadan2           197.156
       471   05 Jun 2027 20:11:19.143   05 Jun 2027 20:11:20.236             1.093               Magadan1            34.156
       472   05 Jun 2027 21:35:12.264   05 Jun 2027 21:36:51.305            99.041                Anadyr2          3095.031
       473   05 Jun 2027 21:37:00.633   05 Jun 2027 21:38:59.948           119.315                Anadyr1          3728.594
       474   05 Jun 2027 21:39:14.536   05 Jun 2027 21:42:48.363           213.827               Magadan1          6682.094
       475   05 Jun 2027 21:42:48.363   05 Jun 2027 21:42:57.721             9.358               Magadan2           292.437
       476   05 Jun 2027 21:45:41.388   05 Jun 2027 21:47:13.547            92.159               Magadan2          2879.969
       477   05 Jun 2027 22:31:19.837   05 Jun 2027 22:33:52.535           152.698            RioGallegos          4771.813
       478   05 Jun 2027 23:11:01.939   05 Jun 2027 23:12:52.183           110.244                Anadyr2          3445.125
       479   05 Jun 2027 23:13:08.151   05 Jun 2027 23:14:12.522            64.371                Norilsk          2011.594
       480   05 Jun 2027 23:14:35.135   05 Jun 2027 23:15:12.442            37.307               Magadan2          1165.844
       481   05 Jun 2027 23:15:48.217   05 Jun 2027 23:16:24.540            36.323               Magadan1          1135.094
       482   05 Jun 2027 23:17:43.652   05 Jun 2027 23:18:29.260            45.608               Magadan2          1425.250
