uniorb/output/strategy_1/Drop/Drop_KinoSat_110301.txt

KinoSat_110301
-------------------------
    Access    *     Start Time (UTCG)     *     Stop Time (UTCG)  *   Duration (s)        *       Station  *  Data (Mbytes)
         1   01 Jun 2027 03:00:13.544   01 Jun 2027 03:00:55.137            41.593               Magadan1          5199.125
         2   01 Jun 2027 03:00:58.708   01 Jun 2027 03:01:31.758            33.050               Magadan2          3358.375
         3   01 Jun 2027 03:01:41.989   01 Jun 2027 03:02:26.641            44.652               Magadan2          5115.500
         4   01 Jun 2027 03:02:40.007   01 Jun 2027 03:02:47.840             7.833                Anadyr2           979.125
         5   01 Jun 2027 03:03:11.353   01 Jun 2027 03:03:34.709            23.356               Magadan1          2919.500
         6   01 Jun 2027 03:03:34.709   01 Jun 2027 03:04:17.469            42.760               Magadan2          5345.000
         7   01 Jun 2027 03:04:44.483   01 Jun 2027 03:05:05.109            20.626               Magadan2          2578.250
         8   01 Jun 2027 03:05:37.230   01 Jun 2027 03:06:10.503            33.273               Magadan1          4159.125
         9   01 Jun 2027 03:41:12.632   01 Jun 2027 03:43:52.948           160.316            RioGallegos         20039.500
        10   01 Jun 2027 04:18:11.355   01 Jun 2027 04:20:54.098           162.743                Sumatra         10434.000
        11   01 Jun 2027 04:37:34.423   01 Jun 2027 04:37:58.037            23.614                Norilsk          2951.750
        12   01 Jun 2027 04:38:02.266   01 Jun 2027 04:38:13.295            11.029               Magadan2          1378.625
        13   01 Jun 2027 04:38:13.295   01 Jun 2027 04:38:53.158            39.863               Magadan1          4982.875
        14   01 Jun 2027 04:38:58.187   01 Jun 2027 04:39:08.451            10.264               Magadan1          1283.000
        15   01 Jun 2027 04:39:15.880   01 Jun 2027 04:39:44.796            28.916                Novosib          3614.500
        16   01 Jun 2027 04:40:00.016   01 Jun 2027 04:40:18.169            18.153                Norilsk          2269.125
        17   01 Jun 2027 04:40:32.174   01 Jun 2027 04:41:51.288            79.114                Irkutsk          9889.250
        18   01 Jun 2027 04:42:18.909   01 Jun 2027 04:43:21.241            62.332              Murmansk2          7791.500
        19   01 Jun 2027 05:17:23.185   01 Jun 2027 05:18:07.711            44.526            RioGallegos          5565.750
        20   01 Jun 2027 05:51:48.763   01 Jun 2027 05:52:16.150            27.387                Sumatra          3423.375
        21   01 Jun 2027 05:54:11.749   01 Jun 2027 05:54:44.528            32.779                Sumatra          4097.375
        22   01 Jun 2027 06:02:35.064   01 Jun 2027 06:04:46.901           131.837                  Delhi         16479.625
        23   01 Jun 2027 06:14:52.758   01 Jun 2027 06:15:09.599            16.841                Norilsk          2105.125
        24   01 Jun 2027 06:15:17.918   01 Jun 2027 06:16:30.910            72.992                Irkutsk          9124.000
        25   01 Jun 2027 06:17:07.646   01 Jun 2027 06:17:36.295            28.649              Murmansk1          3581.125
        26   01 Jun 2027 06:17:37.511   01 Jun 2027 06:18:19.058            41.547                Norilsk          5193.375
        27   01 Jun 2027 06:20:28.780   01 Jun 2027 06:20:34.120             5.340              Murmansk1           667.500
        28   01 Jun 2027 07:36:23.429   01 Jun 2027 07:38:47.025           143.596                  Delhi         17949.500
        29   01 Jun 2027 07:50:47.360   01 Jun 2027 07:50:59.408            12.048                Novosib          1506.000
        30   01 Jun 2027 07:51:37.967   01 Jun 2027 07:52:02.438            24.471                Novosib          3058.875
        31   01 Jun 2027 07:52:22.800   01 Jun 2027 07:52:38.067            15.267                 Moscow          1908.375
        32   01 Jun 2027 07:52:54.269   01 Jun 2027 07:53:47.791            53.522                Novosib          6690.250
        33   01 Jun 2027 07:53:59.670   01 Jun 2027 07:54:26.907            27.237                 Moscow          3404.625
        34   01 Jun 2027 09:27:32.565   01 Jun 2027 09:27:48.756            16.191              Murmansk1          2023.875
        35   01 Jun 2027 09:28:11.046   01 Jun 2027 09:29:45.872            94.826              Murmansk2         11853.250
        36   01 Jun 2027 09:30:48.117   01 Jun 2027 09:30:54.557             6.440                 Moscow           805.000
        37   01 Jun 2027 09:31:58.992   01 Jun 2027 09:32:33.824            34.832                 Moscow          4354.000
        38   01 Jun 2027 10:34:23.354   01 Jun 2027 10:36:49.733           146.379               CapeTown         18297.375
        39   01 Jun 2027 10:38:35.547   01 Jun 2027 10:40:30.953           115.406               CapeTown         14425.750
        40   01 Jun 2027 11:14:41.860   01 Jun 2027 11:19:15.525           273.665                Anadyr2         34208.125
        41   01 Jun 2027 11:22:37.743   01 Jun 2027 11:24:02.745            85.002                Anadyr1         10625.250
        42   01 Jun 2027 12:53:24.023   01 Jun 2027 12:57:38.303           254.280               Magadan1         31785.000
        43   01 Jun 2027 15:22:10.675   01 Jun 2027 15:25:28.627           197.952            RioGallegos         24744.000
        44   01 Jun 2027 16:09:22.801   01 Jun 2027 16:11:05.105           102.304                Irkutsk         12788.000
        45   01 Jun 2027 16:13:02.891   01 Jun 2027 16:15:01.358           118.467                Irkutsk         14808.375
        46   01 Jun 2027 16:23:46.091   01 Jun 2027 16:26:47.447           181.356                Sumatra         22669.500
        47   01 Jun 2027 17:47:36.986   01 Jun 2027 17:48:49.240            72.254                Novosib          9031.750
        48   01 Jun 2027 17:54:03.514   01 Jun 2027 17:56:35.776           152.262                  Delhi         19032.750
        49   01 Jun 2027 17:58:16.778   01 Jun 2027 18:00:49.087           152.309                  Delhi         19038.625
        50   01 Jun 2027 20:58:50.943   01 Jun 2027 21:00:42.036           111.093                 Moscow          1454.376
        51   02 Jun 2027 03:15:31.030   02 Jun 2027 03:15:41.195            10.165               Magadan1          1270.625
        52   02 Jun 2027 03:15:48.804   02 Jun 2027 03:16:45.143            56.339               Magadan2          7042.375
        53   02 Jun 2027 03:16:55.814   02 Jun 2027 03:18:06.177            70.363               Magadan2          8795.375
        54   02 Jun 2027 04:30:52.032   02 Jun 2027 04:32:42.339           110.307                Sumatra         13788.375
        55   02 Jun 2027 04:50:27.763   02 Jun 2027 04:52:29.625           121.862                Novosib         15232.750
        56   02 Jun 2027 04:52:57.945   02 Jun 2027 04:54:27.956            90.011                Novosib         11251.375
        57   02 Jun 2027 04:54:41.219   02 Jun 2027 04:55:03.217            21.998                Norilsk          2749.750
        58   02 Jun 2027 05:29:43.173   02 Jun 2027 05:31:14.102            90.929            RioGallegos         11366.125
        59   02 Jun 2027 06:10:16.672   02 Jun 2027 06:10:54.136            37.464                Sumatra          4683.000
        60   02 Jun 2027 06:18:50.541   02 Jun 2027 06:19:02.280            11.739                  Delhi          1467.375
        61   02 Jun 2027 06:19:58.052   02 Jun 2027 06:20:28.999            30.947                  Delhi          3868.375
        62   02 Jun 2027 06:26:26.272   02 Jun 2027 06:27:02.233            35.961                 Moscow          4495.125
        63   02 Jun 2027 06:27:19.005   02 Jun 2027 06:27:34.012            15.007              Murmansk2          1875.875
        64   02 Jun 2027 06:27:49.864   02 Jun 2027 06:28:22.278            32.414                Norilsk          4051.750
        65   02 Jun 2027 06:28:25.456   02 Jun 2027 06:28:29.128             3.672                Novosib           459.000
        66   02 Jun 2027 06:28:34.670   02 Jun 2027 06:30:13.719            99.049              Murmansk2         12381.125
        67   02 Jun 2027 06:30:35.425   02 Jun 2027 06:30:52.432            17.007                Novosib          2125.875
        68   02 Jun 2027 06:31:06.769   02 Jun 2027 06:31:12.553             5.784                Novosib           723.000
        69   02 Jun 2027 07:48:47.425   02 Jun 2027 07:50:26.986            99.561                  Delhi         12445.125
        70   02 Jun 2027 08:03:37.609   02 Jun 2027 08:04:35.534            57.925              Murmansk1          7240.625
        71   02 Jun 2027 08:04:40.267   02 Jun 2027 08:05:04.525            24.258                Novosib          3032.250
        72   02 Jun 2027 08:05:22.363   02 Jun 2027 08:05:43.543            21.180                Novosib          2647.500
        73   02 Jun 2027 08:06:01.212   02 Jun 2027 08:07:59.532           118.320                Norilsk         14790.000
        74   02 Jun 2027 09:52:40.966   02 Jun 2027 09:53:59.769            78.803                Anadyr2          9850.375
        75   02 Jun 2027 10:46:10.903   02 Jun 2027 10:48:31.944           141.041               CapeTown         17630.125
        76   02 Jun 2027 10:50:35.577   02 Jun 2027 10:51:23.050            47.473               CapeTown          5934.125
        77   02 Jun 2027 11:26:39.042   02 Jun 2027 11:28:02.312            83.270                Anadyr1         10408.750
        78   02 Jun 2027 11:29:33.052   02 Jun 2027 11:31:50.944           137.892                Anadyr2         17236.500
        79   02 Jun 2027 11:36:03.737   02 Jun 2027 11:37:33.389            89.652                Anadyr1         11206.500
        80   02 Jun 2027 13:05:14.266   02 Jun 2027 13:09:35.146           260.880               Magadan2         32610.000
        81   02 Jun 2027 15:33:37.661   02 Jun 2027 15:37:18.620           220.959            RioGallegos         27619.875
        82   02 Jun 2027 16:23:14.035   02 Jun 2027 16:26:48.702           214.667                Irkutsk         26833.375
        83   02 Jun 2027 16:35:43.971   02 Jun 2027 16:36:47.550            63.579                Sumatra          7947.375
        84   02 Jun 2027 16:41:40.880   02 Jun 2027 16:42:50.274            69.394                Sumatra          8674.250
        85   02 Jun 2027 17:57:26.668   02 Jun 2027 17:59:12.338           105.670                Novosib         13208.750
        86   02 Jun 2027 18:05:10.914   02 Jun 2027 18:06:28.178            77.264                  Delhi          9658.000
        87   02 Jun 2027 21:08:14.968   02 Jun 2027 21:08:51.333            36.365              Murmansk1          4545.625
        88   02 Jun 2027 21:09:48.984   02 Jun 2027 21:12:45.933           176.949                 Moscow         22118.625
        89   02 Jun 2027 21:35:34.712   02 Jun 2027 21:36:33.411            58.699               CapeTown          7337.375
        90   03 Jun 2027 03:28:58.629   03 Jun 2027 03:29:26.501            27.872               Magadan2          3484.000
        91   03 Jun 2027 04:04:58.890   03 Jun 2027 04:05:06.029             7.139            RioGallegos           892.375
        92   03 Jun 2027 04:40:51.348   03 Jun 2027 04:44:10.237           198.889                Sumatra         24861.125
        93   03 Jun 2027 05:02:31.202   03 Jun 2027 05:03:24.909            53.707                Norilsk          6713.375
        94   03 Jun 2027 05:03:34.269   03 Jun 2027 05:04:35.791            61.522              Murmansk2          7690.250
        95   03 Jun 2027 05:04:41.548   03 Jun 2027 05:05:26.459            44.911              Murmansk2          5613.875
        96   03 Jun 2027 05:05:54.775   03 Jun 2027 05:07:00.788            66.013              Murmansk1          8251.625
        97   03 Jun 2027 05:07:23.274   03 Jun 2027 05:07:49.840            26.566                Norilsk          3320.750
        98   03 Jun 2027 05:42:07.953   03 Jun 2027 05:42:56.519            48.566            RioGallegos          6070.750
        99   03 Jun 2027 06:16:21.279   03 Jun 2027 06:16:33.290            12.011                Sumatra          1501.375
       100   03 Jun 2027 06:19:01.763   03 Jun 2027 06:20:13.208            71.445                Sumatra          8930.625
       101   03 Jun 2027 06:24:22.381   03 Jun 2027 06:24:50.649            28.268                  Delhi          3533.500
       102   03 Jun 2027 06:27:03.493   03 Jun 2027 06:28:49.153           105.660                  Delhi         13207.500
       103   03 Jun 2027 06:40:04.142   03 Jun 2027 06:40:41.797            37.655              Murmansk1          4706.875
       104   03 Jun 2027 06:40:44.407   03 Jun 2027 06:42:55.724           131.317                Novosib         16414.625
       105   03 Jun 2027 08:02:14.240   03 Jun 2027 08:02:43.565            29.325                  Delhi          3665.625
       106   03 Jun 2027 08:15:47.995   03 Jun 2027 08:16:36.867            48.872              Murmansk2          6109.000
       107   03 Jun 2027 08:17:02.625   03 Jun 2027 08:17:09.889             7.264                Norilsk           908.000
       108   03 Jun 2027 08:17:13.768   03 Jun 2027 08:18:10.829            57.061              Murmansk2          7132.625
       109   03 Jun 2027 08:18:10.829   03 Jun 2027 08:18:56.249            45.420              Murmansk1          5677.500
       110   03 Jun 2027 11:00:18.252   03 Jun 2027 11:01:16.594            58.342               CapeTown          7292.750
       111   03 Jun 2027 11:38:37.127   03 Jun 2027 11:39:46.117            68.990                Anadyr1          8623.750
       112   03 Jun 2027 11:40:03.869   03 Jun 2027 11:43:45.794           221.925                Anadyr2         27740.625
       113   03 Jun 2027 13:17:06.923   03 Jun 2027 13:21:32.968           266.045               Magadan1         33255.625
       114   03 Jun 2027 15:45:14.908   03 Jun 2027 15:49:11.146           236.238            RioGallegos         29529.750
       115   03 Jun 2027 15:51:09.253   03 Jun 2027 15:51:53.418            44.165            RioGallegos          5520.625
       116   03 Jun 2027 16:33:31.888   03 Jun 2027 16:35:19.522           107.634                Irkutsk         13454.250
       117   03 Jun 2027 16:36:28.427   03 Jun 2027 16:36:54.274            25.847                Irkutsk          3230.875
       118   03 Jun 2027 16:46:38.258   03 Jun 2027 16:48:16.049            97.791                Sumatra         12223.875
       119   03 Jun 2027 16:57:52.749   03 Jun 2027 16:58:09.180            16.431                Sumatra          2053.875
       120   03 Jun 2027 18:08:16.969   03 Jun 2027 18:10:40.295           143.326                Novosib         17915.750
       121   03 Jun 2027 18:16:35.482   03 Jun 2027 18:18:27.879           112.397                  Delhi         14049.625
       122   03 Jun 2027 18:22:59.298   03 Jun 2027 18:24:15.868            76.570                  Delhi          9571.250
       123   03 Jun 2027 19:50:18.596   03 Jun 2027 19:51:16.422            57.826                 Moscow          7228.250
       124   03 Jun 2027 21:21:43.647   03 Jun 2027 21:23:44.946           121.299                 Moscow         15162.375
       125   03 Jun 2027 21:46:34.489   03 Jun 2027 21:48:31.329           116.840               CapeTown         14605.000
       126   03 Jun 2027 21:53:17.147   03 Jun 2027 21:53:23.669             6.522               CapeTown           815.250
       127   04 Jun 2027 03:40:30.361   04 Jun 2027 03:41:52.366            82.005               Magadan1         10250.625
       128   04 Jun 2027 04:52:27.220   04 Jun 2027 04:56:36.272           249.052                Sumatra         31131.500
       129   04 Jun 2027 05:14:37.160   04 Jun 2027 05:16:09.168            92.008                Irkutsk         11501.000
       130   04 Jun 2027 05:16:16.862   04 Jun 2027 05:16:41.912            25.050                Novosib          3131.250
       131   04 Jun 2027 05:17:14.955   04 Jun 2027 05:18:32.869            77.914                Novosib          9739.250
       132   04 Jun 2027 05:54:38.232   04 Jun 2027 05:54:42.161             3.929            RioGallegos           491.125
       133   04 Jun 2027 05:56:34.692   04 Jun 2027 05:57:21.426            46.734            RioGallegos          5841.750
       134   04 Jun 2027 06:28:49.715   04 Jun 2027 06:29:50.086            60.371                Sumatra          7546.375
       135   04 Jun 2027 06:36:11.448   04 Jun 2027 06:37:22.233            70.785                  Delhi          8848.125
       136   04 Jun 2027 06:51:45.322   04 Jun 2027 06:52:18.162            32.840                 Moscow          4105.000
       137   04 Jun 2027 06:52:44.059   04 Jun 2027 06:53:10.805            26.746              Murmansk1          3343.250
       138   04 Jun 2027 06:53:15.509   04 Jun 2027 06:54:28.574            73.065                 Moscow          9133.125
       139   04 Jun 2027 08:14:04.470   04 Jun 2027 08:14:46.611            42.141                  Delhi          5267.625
       140   04 Jun 2027 08:26:28.560   04 Jun 2027 08:28:11.578           103.018                 Moscow         12877.250
       141   04 Jun 2027 08:28:27.873   04 Jun 2027 08:28:51.166            23.293                Norilsk          2911.625
       142   04 Jun 2027 08:28:59.461   04 Jun 2027 08:29:22.075            22.614              Murmansk2          2826.750
       143   04 Jun 2027 08:29:22.075   04 Jun 2027 08:29:44.739            22.664              Murmansk1          2833.000
       144   04 Jun 2027 08:29:53.401   04 Jun 2027 08:30:22.785            29.384                 Moscow          3673.000
       145   04 Jun 2027 08:30:53.516   04 Jun 2027 08:31:29.520            36.004                 Moscow          4500.500
       146   04 Jun 2027 09:38:09.668   04 Jun 2027 09:39:40.265            90.597               CapeTown         11324.625
       147   04 Jun 2027 10:18:16.590   04 Jun 2027 10:19:22.044            65.454                Anadyr2          8181.750
       148   04 Jun 2027 10:21:21.758   04 Jun 2027 10:22:05.530            43.772                Anadyr2          5471.500
       149   04 Jun 2027 11:10:33.177   04 Jun 2027 11:11:53.965            80.788               CapeTown         10098.500
       150   04 Jun 2027 11:50:35.933   04 Jun 2027 11:51:34.858            58.925                Anadyr1          7365.625
       151   04 Jun 2027 11:52:23.786   04 Jun 2027 11:52:26.911             3.125                Anadyr2           390.625
       152   04 Jun 2027 11:53:47.712   04 Jun 2027 11:55:15.990            88.278                Anadyr2         11034.750
       153   04 Jun 2027 11:56:15.032   04 Jun 2027 11:58:09.590           114.558                Anadyr2         14319.750
       154   04 Jun 2027 13:29:01.414   04 Jun 2027 13:31:58.433           177.019               Magadan2         22127.375
       155   04 Jun 2027 15:56:58.289   04 Jun 2027 16:03:03.973           365.684            RioGallegos         45710.500
       156   04 Jun 2027 16:44:27.889   04 Jun 2027 16:46:01.953            94.064                Irkutsk         11758.000
       157   04 Jun 2027 16:47:21.703   04 Jun 2027 16:47:36.585            14.882                Irkutsk          1860.250
       158   04 Jun 2027 16:48:57.544   04 Jun 2027 16:49:42.547            45.003                Novosib          5625.375
       159   04 Jun 2027 16:58:18.029   04 Jun 2027 17:00:13.498           115.469                Sumatra         14433.625
       160   04 Jun 2027 17:00:38.531   04 Jun 2027 17:04:09.039           210.508                Sumatra         26313.500
       161   04 Jun 2027 18:28:10.121   04 Jun 2027 18:29:11.918            61.797                  Delhi          7724.625
       162   04 Jun 2027 18:30:22.287   04 Jun 2027 18:32:06.367           104.080                  Delhi         13010.000
       163   04 Jun 2027 20:00:30.721   04 Jun 2027 20:03:02.169           151.448                 Moscow         18931.000
       164   04 Jun 2027 21:43:20.853   04 Jun 2027 21:45:34.575           133.722                 Moscow         16715.250
       165   04 Jun 2027 22:04:13.772   04 Jun 2027 22:04:36.719            22.947               CapeTown          2868.375
       166   05 Jun 2027 03:51:37.982   05 Jun 2027 03:51:47.475             9.493               Magadan1          1186.625
       167   05 Jun 2027 03:52:17.393   05 Jun 2027 03:53:42.315            84.922               Magadan2         10615.250
       168   05 Jun 2027 04:30:32.089   05 Jun 2027 04:31:41.626            69.537            RioGallegos          8692.125
       169   05 Jun 2027 04:32:15.468   05 Jun 2027 04:32:27.771            12.303            RioGallegos          1537.875
       170   05 Jun 2027 04:34:03.660   05 Jun 2027 04:34:14.179            10.519            RioGallegos          1314.875
       171   05 Jun 2027 04:41:06.995   05 Jun 2027 04:41:50.219            43.224            RioGallegos          5403.000
       172   05 Jun 2027 05:04:10.539   05 Jun 2027 05:04:52.476            41.937                Sumatra          5242.125
       173   05 Jun 2027 05:06:00.263   05 Jun 2027 05:08:41.667           161.404                Sumatra         20175.500
       174   05 Jun 2027 05:19:25.485   05 Jun 2027 05:21:48.252           142.767                  Delhi         17845.875
       175   05 Jun 2027 05:27:11.031   05 Jun 2027 05:28:30.567            79.536                Novosib          9942.000
       176   05 Jun 2027 05:29:00.432   05 Jun 2027 05:30:11.814            71.382                Irkutsk          8922.750
       177   05 Jun 2027 05:30:45.589   05 Jun 2027 05:31:20.743            35.154                Novosib          4394.250
       178   05 Jun 2027 06:09:25.291   05 Jun 2027 06:10:13.115            47.824            RioGallegos          5978.000
       179   05 Jun 2027 06:41:30.281   05 Jun 2027 06:41:55.364            25.083                Sumatra          3135.375
       180   05 Jun 2027 06:48:05.882   05 Jun 2027 06:49:58.219           112.337                  Delhi         14042.125
       181   05 Jun 2027 07:04:30.203   05 Jun 2027 07:04:55.535            25.332                Novosib          3166.500
       182   05 Jun 2027 07:05:01.828   05 Jun 2027 07:05:16.390            14.562                 Moscow          1820.250
       183   05 Jun 2027 07:05:26.323   05 Jun 2027 07:06:20.687            54.364                Novosib          6795.500
       184   05 Jun 2027 07:06:52.155   05 Jun 2027 07:07:37.012            44.857                Novosib          5607.125
       185   05 Jun 2027 08:27:07.106   05 Jun 2027 08:27:35.897            28.791                  Delhi          3598.875
       186   05 Jun 2027 08:35:42.495   05 Jun 2027 08:35:44.746             2.251                 Moscow           281.375
       187   05 Jun 2027 08:35:51.270   05 Jun 2027 08:36:03.418            12.148                 Moscow          1518.500
       188   05 Jun 2027 08:36:20.303   05 Jun 2027 08:38:20.133           119.830              Murmansk1         14978.750
       189   05 Jun 2027 08:38:31.626   05 Jun 2027 08:39:09.362            37.736              Murmansk2          4717.000
       190   05 Jun 2027 08:39:15.752   05 Jun 2027 08:39:46.380            30.628              Murmansk1          3828.500
       191   05 Jun 2027 08:40:02.856   05 Jun 2027 08:40:43.729            40.873                Novosib          5109.125
       192   05 Jun 2027 08:40:44.159   05 Jun 2027 08:40:56.129            11.970              Murmansk2          1496.250
       193   05 Jun 2027 08:41:00.205   05 Jun 2027 08:41:08.034             7.829                Norilsk           978.625
       194   05 Jun 2027 08:41:12.523   05 Jun 2027 08:41:32.010            19.487              Murmansk2          2435.875
       195   05 Jun 2027 08:41:35.115   05 Jun 2027 08:41:52.519            17.404                Norilsk          2175.500
       196   05 Jun 2027 08:41:59.211   05 Jun 2027 08:42:00.651             1.440                Norilsk           180.000
       197   05 Jun 2027 08:42:10.839   05 Jun 2027 08:44:07.978           117.139                 Moscow         14642.375
       198   05 Jun 2027 09:48:40.233   05 Jun 2027 09:51:21.671           161.438               CapeTown         20179.750
       199   05 Jun 2027 10:27:23.608   05 Jun 2027 10:30:04.686           161.078                Anadyr2         20134.750
       200   05 Jun 2027 12:04:47.104   05 Jun 2027 12:05:32.976            45.872                Anadyr1          5734.000
       201   05 Jun 2027 12:05:32.976   05 Jun 2027 12:07:16.766           103.790                Anadyr2         12973.750
       202   05 Jun 2027 12:09:18.031   05 Jun 2027 12:09:19.220             1.189               Magadan1           148.625
       203   05 Jun 2027 13:40:57.336   05 Jun 2027 13:45:30.919           273.583               Magadan1         34197.875
       204   05 Jun 2027 13:49:28.870   05 Jun 2027 13:50:19.256            50.386               Magadan1          6298.250
       205   05 Jun 2027 16:08:45.852   05 Jun 2027 16:11:27.004           161.152            RioGallegos         20144.000
       206   05 Jun 2027 16:12:31.541   05 Jun 2027 16:14:33.461           121.920            RioGallegos         15240.000
       207   05 Jun 2027 16:56:21.391   05 Jun 2027 16:58:26.698           125.307                Irkutsk         15663.375
       208   05 Jun 2027 17:01:29.905   05 Jun 2027 17:03:58.855           148.950                Novosib         18618.750
       209   05 Jun 2027 17:12:53.564   05 Jun 2027 17:14:46.566           113.002                Sumatra         14125.250
       210   05 Jun 2027 18:39:51.761   05 Jun 2027 18:44:04.237           252.476                  Delhi         31559.500
       211   05 Jun 2027 20:11:13.268   05 Jun 2027 20:14:52.906           219.638                 Moscow         27454.750
       212   05 Jun 2027 22:09:51.799   05 Jun 2027 22:09:56.776             4.977               CapeTown           622.125
       213   05 Jun 2027 22:12:17.784   05 Jun 2027 22:14:08.920           111.136               CapeTown         13892.000
       214   06 Jun 2027 04:03:39.945   06 Jun 2027 04:04:32.714            52.769               Magadan2          6596.125
       215   06 Jun 2027 04:04:47.641   06 Jun 2027 04:05:02.389            14.748               Magadan2          1843.500
       216   06 Jun 2027 04:05:56.169   06 Jun 2027 04:06:54.477            58.308                Novosib          7288.500
       217   06 Jun 2027 04:10:38.695   06 Jun 2027 04:10:55.006            16.311              Murmansk2          2038.875
       218   06 Jun 2027 04:41:25.353   06 Jun 2027 04:42:01.307            35.954            RioGallegos          4494.250
       219   06 Jun 2027 04:44:15.644   06 Jun 2027 04:44:33.479            17.835            RioGallegos          2229.375
       220   06 Jun 2027 04:45:13.179   06 Jun 2027 04:45:58.985            45.806            RioGallegos          5725.750
       221   06 Jun 2027 04:52:52.165   06 Jun 2027 04:53:25.750            33.585            RioGallegos          4198.125
       222   06 Jun 2027 05:16:00.239   06 Jun 2027 05:17:26.395            86.156                Sumatra         10769.500
       223   06 Jun 2027 05:28:05.517   06 Jun 2027 05:29:38.486            92.969                  Delhi         11621.125
       224   06 Jun 2027 05:39:09.840   06 Jun 2027 05:39:31.606            21.766                Norilsk          2720.750
       225   06 Jun 2027 05:39:36.078   06 Jun 2027 05:41:00.207            84.129                Novosib         10516.125
       226   06 Jun 2027 05:41:29.943   06 Jun 2027 05:41:58.376            28.433                Norilsk          3554.125
       227   06 Jun 2027 05:42:18.704   06 Jun 2027 05:42:37.586            18.882                Norilsk          2360.250
       228   06 Jun 2027 05:43:18.961   06 Jun 2027 05:43:44.109            25.148                Novosib          3143.500
       229   06 Jun 2027 06:20:00.253   06 Jun 2027 06:20:32.318            32.065            RioGallegos          4008.125
       230   06 Jun 2027 06:54:31.565   06 Jun 2027 06:54:39.238             7.673                Sumatra           959.125
       231   06 Jun 2027 06:57:21.170   06 Jun 2027 06:57:26.791             5.621                Sumatra           702.625
       232   06 Jun 2027 07:00:05.601   06 Jun 2027 07:01:08.177            62.576                  Delhi          7822.000
       233   06 Jun 2027 07:08:06.138   06 Jun 2027 07:09:33.639            87.501                  Delhi         10937.625
       234   06 Jun 2027 07:16:06.874   06 Jun 2027 07:16:27.985            21.111                 Moscow          2638.875
       235   06 Jun 2027 07:16:36.299   06 Jun 2027 07:16:54.512            18.213                Novosib          2276.625
       236   06 Jun 2027 07:17:05.980   06 Jun 2027 07:17:14.731             8.751                 Moscow          1093.875
       237   06 Jun 2027 07:17:37.702   06 Jun 2027 07:19:19.545           101.843                Novosib         12730.375
       238   06 Jun 2027 07:19:29.445   06 Jun 2027 07:20:02.462            33.017              Murmansk2          4127.125
       239   06 Jun 2027 08:40:53.767   06 Jun 2027 08:41:38.560            44.793                  Delhi          5599.125
       240   06 Jun 2027 08:47:40.373   06 Jun 2027 08:47:56.961            16.588                 Moscow          2073.500
       241   06 Jun 2027 08:48:15.279   06 Jun 2027 08:51:01.892           166.613                 Moscow         20826.625
       242   06 Jun 2027 08:51:17.028   06 Jun 2027 08:51:46.130            29.102              Murmansk1          3637.750
       243   06 Jun 2027 08:51:55.082   06 Jun 2027 08:52:37.281            42.199              Murmansk1          5274.875
       244   06 Jun 2027 08:52:50.241   06 Jun 2027 08:53:36.600            46.359              Murmansk2          5794.875
       245   06 Jun 2027 08:53:45.887   06 Jun 2027 08:54:55.016            69.129                 Moscow          8641.125
       246   06 Jun 2027 09:59:51.653   06 Jun 2027 10:03:08.238           196.585               CapeTown         24573.125
       247   06 Jun 2027 10:39:13.331   06 Jun 2027 10:40:51.620            98.289                Anadyr1         12286.125
       248   06 Jun 2027 10:41:46.930   06 Jun 2027 10:43:34.441           107.511                Anadyr1         13438.875
       249   06 Jun 2027 12:14:59.850   06 Jun 2027 12:15:20.817            20.967                Anadyr1          2620.875
       250   06 Jun 2027 12:18:36.319   06 Jun 2027 12:21:59.946           203.627               Magadan2         25453.375
       251   06 Jun 2027 13:52:54.411   06 Jun 2027 13:55:05.465           131.054               Magadan2         16381.750
       252   06 Jun 2027 14:00:38.864   06 Jun 2027 14:02:20.743           101.879               Magadan1         12734.875
       253   06 Jun 2027 15:34:57.445   06 Jun 2027 15:37:41.292           163.847                Irkutsk         20480.875
       254   06 Jun 2027 16:20:36.492   06 Jun 2027 16:22:09.567            93.075            RioGallegos         11634.375
       255   06 Jun 2027 16:23:28.785   06 Jun 2027 16:24:04.384            35.599            RioGallegos          4449.875
       256   06 Jun 2027 17:08:16.689   06 Jun 2027 17:10:04.851           108.162                Irkutsk         13520.250
       257   06 Jun 2027 17:10:42.898   06 Jun 2027 17:13:20.383           157.485                Novosib         19685.625
       258   06 Jun 2027 17:23:57.199   06 Jun 2027 17:25:02.267            65.068                Sumatra          8133.500
       259   06 Jun 2027 18:47:12.611   06 Jun 2027 18:48:44.991            92.380                Novosib         11547.500
       260   06 Jun 2027 18:51:38.761   06 Jun 2027 18:53:54.675           135.914                  Delhi         16989.250
       261   06 Jun 2027 20:22:49.636   06 Jun 2027 20:26:45.294           235.658                 Moscow         29457.250
       262   06 Jun 2027 22:04:49.949   06 Jun 2027 22:05:35.306            45.357                 Moscow          5669.625
       263   06 Jun 2027 22:21:38.728   06 Jun 2027 22:22:21.280            42.552               CapeTown          5319.000
       264   06 Jun 2027 22:22:48.654   06 Jun 2027 22:24:05.363            76.709               CapeTown          9588.625
       265   07 Jun 2027 03:58:48.840   07 Jun 2027 03:59:42.630            53.790                Sumatra          6723.750
       266   07 Jun 2027 04:16:15.411   07 Jun 2027 04:16:37.640            22.229               Magadan1          2778.625
       267   07 Jun 2027 04:16:57.201   07 Jun 2027 04:17:04.395             7.194               Magadan2           899.250
       268   07 Jun 2027 04:17:32.442   07 Jun 2027 04:18:22.602            50.160                Irkutsk          6270.000
       269   07 Jun 2027 04:18:31.245   07 Jun 2027 04:18:38.708             7.463                Norilsk           932.875
       270   07 Jun 2027 04:19:25.319   07 Jun 2027 04:19:37.540            12.221                Novosib          1527.625
       271   07 Jun 2027 04:20:07.368   07 Jun 2027 04:20:16.543             9.175                Norilsk          1146.875
       272   07 Jun 2027 04:21:25.867   07 Jun 2027 04:21:50.437            24.570                Norilsk          3071.250
       273   07 Jun 2027 04:21:55.165   07 Jun 2027 04:22:40.619            45.454              Murmansk1          5681.750
       274   07 Jun 2027 04:53:10.640   07 Jun 2027 04:53:48.896            38.256            RioGallegos          4782.000
       275   07 Jun 2027 05:27:55.752   07 Jun 2027 05:30:29.494           153.742                Sumatra         19217.750
       276   07 Jun 2027 05:38:23.841   07 Jun 2027 05:39:24.633            60.792                  Delhi          7599.000
       277   07 Jun 2027 05:43:56.056   07 Jun 2027 05:45:49.698           113.642                  Delhi         14205.250
       278   07 Jun 2027 05:51:18.243   07 Jun 2027 05:51:53.477            35.234                Irkutsk          4404.250
       279   07 Jun 2027 05:52:18.912   07 Jun 2027 05:52:51.074            32.162              Murmansk2          4020.250
       280   07 Jun 2027 05:53:08.162   07 Jun 2027 05:53:46.970            38.808                Norilsk          4851.000
       281   07 Jun 2027 05:53:52.459   07 Jun 2027 05:55:00.643            68.184                Novosib          8523.000
       282   07 Jun 2027 06:33:32.333   07 Jun 2027 06:34:27.593            55.260            RioGallegos          6907.500
       283   07 Jun 2027 07:12:10.702   07 Jun 2027 07:12:29.886            19.184                  Delhi          2398.000
       284   07 Jun 2027 07:13:42.089   07 Jun 2027 07:15:03.894            81.805                  Delhi         10225.625
       285   07 Jun 2027 07:28:15.393   07 Jun 2027 07:28:32.147            16.754                 Moscow          2094.250
       286   07 Jun 2027 07:28:42.518   07 Jun 2027 07:30:14.191            91.673                 Moscow         11459.125
       287   07 Jun 2027 07:30:43.651   07 Jun 2027 07:31:28.690            45.039                Novosib          5629.875
       288   07 Jun 2027 09:00:20.296   07 Jun 2027 09:02:44.207           143.911                 Moscow         17988.875
       289   07 Jun 2027 09:03:16.686   07 Jun 2027 09:04:28.697            72.011                 Moscow          9001.375
       290   07 Jun 2027 09:04:32.059   07 Jun 2027 09:05:02.541            30.482                 Moscow          3810.250
       291   07 Jun 2027 09:05:15.756   07 Jun 2027 09:05:54.340            38.584                Norilsk          4823.000
       292   07 Jun 2027 09:06:06.330   07 Jun 2027 09:07:16.936            70.606                 Moscow          8825.750
       293   07 Jun 2027 10:11:18.753   07 Jun 2027 10:14:58.933           220.180               CapeTown         27522.500
       294   07 Jun 2027 10:52:56.659   07 Jun 2027 10:55:32.363           155.704                Anadyr2         19463.000
       295   07 Jun 2027 12:26:35.424   07 Jun 2027 12:27:16.495            41.071                Anadyr1          5133.875
       296   07 Jun 2027 12:30:09.706   07 Jun 2027 12:34:03.256           233.550               Magadan1         29193.750
       297   07 Jun 2027 14:04:52.421   07 Jun 2027 14:06:00.717            68.296               Magadan2          8537.000
       298   07 Jun 2027 14:07:41.662   07 Jun 2027 14:09:31.207           109.545               Magadan1         13693.125
       299   07 Jun 2027 15:46:08.845   07 Jun 2027 15:49:33.806           204.961                Irkutsk         25620.125
       300   07 Jun 2027 16:02:24.981   07 Jun 2027 16:05:04.694           159.713                Sumatra         19964.125
       301   07 Jun 2027 17:21:14.919   07 Jun 2027 17:25:13.208           238.289                Novosib         29786.125
       302   07 Jun 2027 17:34:08.175   07 Jun 2027 17:35:16.690            68.515                Sumatra          8564.375
       303   07 Jun 2027 17:43:32.790   07 Jun 2027 17:45:31.115           118.325                Sumatra         14790.625
       304   07 Jun 2027 19:03:30.154   07 Jun 2027 19:05:31.852           121.698                  Delhi         15212.250
       305   07 Jun 2027 19:06:22.385   07 Jun 2027 19:06:55.057            32.672                  Delhi          4084.000
       306   07 Jun 2027 20:32:58.419   07 Jun 2027 20:33:55.702            57.283              Murmansk2          7160.375
       307   07 Jun 2027 20:34:32.739   07 Jun 2027 20:35:43.734            70.995                 Moscow          8874.375
       308   07 Jun 2027 20:36:40.217   07 Jun 2027 20:38:39.605           119.388                 Moscow         14923.500
       309   07 Jun 2027 22:33:30.737   07 Jun 2027 22:34:54.009            83.272               CapeTown         10409.000
       310   08 Jun 2027 04:07:33.652   08 Jun 2027 04:09:26.895           113.243                Sumatra         14155.375
       311   08 Jun 2027 04:11:18.007   08 Jun 2027 04:13:37.150           139.143                Sumatra         17392.875
       312   08 Jun 2027 04:29:39.333   08 Jun 2027 04:30:32.584            53.251                Norilsk          6656.375
       313   08 Jun 2027 04:30:35.004   08 Jun 2027 04:31:28.871            53.867                Novosib          6733.375
       314   08 Jun 2027 05:05:22.412   08 Jun 2027 05:05:39.647            17.235            RioGallegos          2154.375
       315   08 Jun 2027 05:39:56.847   08 Jun 2027 05:42:08.669           131.822                Sumatra         16477.750
       316   08 Jun 2027 05:49:45.714   08 Jun 2027 05:50:28.065            42.351                  Delhi          5293.875
       317   08 Jun 2027 05:53:22.720   08 Jun 2027 05:56:05.103           162.383                  Delhi         20297.875
       318   08 Jun 2027 06:03:20.096   08 Jun 2027 06:03:56.211            36.115                Norilsk          4514.375
       319   08 Jun 2027 06:04:00.471   08 Jun 2027 06:04:35.733            35.262                Novosib          4407.750
       320   08 Jun 2027 06:04:50.226   08 Jun 2027 06:05:08.255            18.029                Irkutsk          2253.625
       321   08 Jun 2027 06:05:35.499   08 Jun 2027 06:05:58.657            23.158                Norilsk          2894.750
       322   08 Jun 2027 06:06:09.920   08 Jun 2027 06:06:21.671            11.751              Murmansk2          1468.875
       323   08 Jun 2027 06:06:21.671   08 Jun 2027 06:06:55.097            33.426              Murmansk1          4178.250
       324   08 Jun 2027 06:46:15.232   08 Jun 2027 06:46:42.458            27.226            RioGallegos          3403.250
       325   08 Jun 2027 07:24:21.458   08 Jun 2027 07:27:10.773           169.315                  Delhi         21164.375
       326   08 Jun 2027 07:39:50.828   08 Jun 2027 07:41:55.766           124.938                Novosib         15617.250
       327   08 Jun 2027 09:12:33.857   08 Jun 2027 09:13:03.242            29.385                 Moscow          3673.125
       328   08 Jun 2027 09:13:19.972   08 Jun 2027 09:13:42.266            22.294              Murmansk2          2786.750
       329   08 Jun 2027 09:13:56.852   08 Jun 2027 09:14:47.766            50.914              Murmansk1          6364.250
       330   08 Jun 2027 09:15:19.961   08 Jun 2027 09:17:16.811           116.850              Murmansk2         14606.250
       331   08 Jun 2027 09:18:08.337   08 Jun 2027 09:19:14.994            66.657                 Moscow          8332.125
       332   08 Jun 2027 10:22:55.102   08 Jun 2027 10:25:12.572           137.470               CapeTown         17183.750
       333   08 Jun 2027 10:25:58.257   08 Jun 2027 10:26:53.100            54.843               CapeTown          6855.375
       334   08 Jun 2027 11:03:00.461   08 Jun 2027 11:05:33.710           153.249                Anadyr1         19156.125
       335   08 Jun 2027 11:05:52.488   08 Jun 2027 11:07:31.044            98.556                Anadyr2         12319.500
       336   08 Jun 2027 11:07:47.868   08 Jun 2027 11:08:22.183            34.315                Anadyr1          4289.375
       337   08 Jun 2027 12:41:51.634   08 Jun 2027 12:42:09.257            17.623               Magadan2          2202.875
       338   08 Jun 2027 12:43:28.695   08 Jun 2027 12:47:06.693           217.998               Magadan1         27249.750
       339   08 Jun 2027 14:16:51.206   08 Jun 2027 14:17:50.204            58.998               Magadan1          7374.750
       340   08 Jun 2027 14:26:24.511   08 Jun 2027 14:26:25.245             0.734               Magadan2            91.750
       341   08 Jun 2027 15:11:20.388   08 Jun 2027 15:13:56.478           156.090            RioGallegos         19511.250
       342   08 Jun 2027 15:57:38.950   08 Jun 2027 16:01:24.536           225.586                Irkutsk         28198.250
       343   08 Jun 2027 16:12:55.654   08 Jun 2027 16:15:16.900           141.246                Sumatra         17655.750
       344   08 Jun 2027 17:32:59.065   08 Jun 2027 17:35:11.820           132.755                Novosib         16594.375
       345   08 Jun 2027 17:43:55.570   08 Jun 2027 17:45:58.433           122.863                  Delhi         15357.875
       346   08 Jun 2027 19:15:25.345   08 Jun 2027 19:16:21.498            56.153                  Delhi          7019.125
       347   08 Jun 2027 19:17:01.972   08 Jun 2027 19:17:55.717            53.745                  Delhi          6718.125
       348   08 Jun 2027 19:22:49.145   08 Jun 2027 19:23:01.077            11.932                  Delhi          1491.500
       349   08 Jun 2027 19:26:13.353   08 Jun 2027 19:26:19.266             5.913                  Delhi           739.125
       350   08 Jun 2027 20:42:27.225   08 Jun 2027 20:42:52.343            25.118              Murmansk1          3139.750
       351   08 Jun 2027 20:44:45.486   08 Jun 2027 20:45:12.242            26.756              Murmansk2          3344.500
       352   08 Jun 2027 20:46:20.191   08 Jun 2027 20:48:50.266           150.075                 Moscow         18759.375
       353   08 Jun 2027 22:45:27.695   08 Jun 2027 22:46:37.994            70.299               CapeTown          8787.375
       354   09 Jun 2027 03:04:06.654   09 Jun 2027 03:04:40.055            33.401                Anadyr1          4175.125
       355   09 Jun 2027 03:04:44.485   09 Jun 2027 03:05:21.533            37.048               Magadan2          4631.000
       356   09 Jun 2027 03:05:27.805   09 Jun 2027 03:06:25.162            57.357               Magadan1          7169.625
       357   09 Jun 2027 03:41:27.204   09 Jun 2027 03:41:27.575             0.371            RioGallegos            46.375
       358   09 Jun 2027 04:18:25.281   09 Jun 2027 04:21:08.667           163.386                Sumatra         20423.250
       359   09 Jun 2027 04:37:48.213   09 Jun 2027 04:38:52.717            64.504                Irkutsk          8063.000
       360   09 Jun 2027 04:39:09.671   09 Jun 2027 04:40:20.873            71.202                Irkutsk          8900.250
       361   09 Jun 2027 04:40:52.515   09 Jun 2027 04:41:00.794             8.279              Murmansk1          1034.875
       362   09 Jun 2027 04:41:09.726   09 Jun 2027 04:42:11.023            61.297              Murmansk1          7662.125
       363   09 Jun 2027 05:18:21.947   09 Jun 2027 05:19:49.377            87.430            RioGallegos         10928.750
       364   09 Jun 2027 05:52:03.611   09 Jun 2027 05:52:29.140            25.529                Sumatra          3191.125
       365   09 Jun 2027 06:02:50.038   09 Jun 2027 06:03:18.403            28.365                  Delhi          3545.625
       366   09 Jun 2027 06:06:26.185   09 Jun 2027 06:08:03.219            97.034                  Delhi         12129.250
       367   09 Jun 2027 06:14:53.899   09 Jun 2027 06:16:13.924            80.025                 Moscow         10003.125
       368   09 Jun 2027 06:16:38.343   09 Jun 2027 06:17:41.436            63.093                Novosib          7886.625
       369   09 Jun 2027 06:18:06.286   09 Jun 2027 06:18:18.600            12.314                Novosib          1539.250
       370   09 Jun 2027 06:18:22.019   09 Jun 2027 06:18:38.372            16.353                 Moscow          2044.125
       371   09 Jun 2027 06:18:51.059   09 Jun 2027 06:18:56.940             5.881              Murmansk2           735.125
       372   09 Jun 2027 06:19:21.803   09 Jun 2027 06:20:13.320            51.517                Norilsk          6439.625
       373   09 Jun 2027 07:36:38.427   09 Jun 2027 07:37:36.576            58.149                  Delhi          7268.625
       374   09 Jun 2027 07:39:34.560   09 Jun 2027 07:41:06.889            92.329                  Delhi         11541.125
       375   09 Jun 2027 07:51:13.698   09 Jun 2027 07:51:52.633            38.935                Novosib          4866.875
       376   09 Jun 2027 07:52:03.308   09 Jun 2027 07:52:50.474            47.166              Murmansk1          5895.750
       377   09 Jun 2027 07:52:51.721   09 Jun 2027 07:53:13.279            21.558                 Moscow          2694.750
       378   09 Jun 2027 07:53:27.962   09 Jun 2027 07:54:37.158            69.196              Murmansk2          8649.500
       379   09 Jun 2027 09:26:12.123   09 Jun 2027 09:26:42.051            29.928              Murmansk1          3741.000
       380   09 Jun 2027 09:27:21.560   09 Jun 2027 09:30:00.436           158.876              Murmansk2         19859.500
       381   09 Jun 2027 09:31:02.601   09 Jun 2027 09:31:08.781             6.180                 Moscow           772.500
       382   09 Jun 2027 10:34:37.855   09 Jun 2027 10:38:50.348           252.493               CapeTown         31561.625
       383   09 Jun 2027 11:14:56.514   09 Jun 2027 11:16:41.893           105.379                Anadyr2         13172.375
       384   09 Jun 2027 11:17:37.667   09 Jun 2027 11:19:30.334           112.667                Anadyr1         14083.375
       385   09 Jun 2027 12:53:38.564   09 Jun 2027 12:57:53.057           254.493               Magadan2         31811.625
       386   09 Jun 2027 14:28:50.651   09 Jun 2027 14:29:42.302            51.651               Magadan1          6456.375
       387   09 Jun 2027 15:22:24.789   09 Jun 2027 15:25:43.242           198.453            RioGallegos         24806.625
       388   09 Jun 2027 16:09:39.919   09 Jun 2027 16:11:20.314           100.395                Irkutsk         12549.375
       389   09 Jun 2027 16:15:16.587   09 Jun 2027 16:15:46.385            29.798                Irkutsk          3724.750
       390   09 Jun 2027 16:24:00.143   09 Jun 2027 16:27:02.071           181.928                Sumatra         22741.000
       391   09 Jun 2027 17:44:47.237   09 Jun 2027 17:47:21.195           153.958                Novosib         19244.750
       392   09 Jun 2027 17:54:17.275   09 Jun 2027 17:56:50.308           153.033                  Delhi         19129.125
       393   09 Jun 2027 17:58:32.097   09 Jun 2027 18:01:04.924           152.827                  Delhi         19103.375
       394   09 Jun 2027 20:59:08.326   09 Jun 2027 20:59:11.193             2.867              Murmansk2           358.375
       395   09 Jun 2027 21:00:57.132   09 Jun 2027 21:02:32.584            95.452                 Moscow         11931.500
       396   09 Jun 2027 21:24:19.355   09 Jun 2027 21:24:47.704            28.349               CapeTown          3543.625
       397   10 Jun 2027 03:13:52.923   10 Jun 2027 03:14:16.419            23.496                Anadyr1          2937.000
       398   10 Jun 2027 03:14:24.461   10 Jun 2027 03:15:07.618            43.157               Magadan2          5394.625
       399   10 Jun 2027 03:15:31.544   10 Jun 2027 03:15:45.922            14.378               Magadan2          1797.250
       400   10 Jun 2027 03:15:55.907   10 Jun 2027 03:16:02.353             6.446               Magadan2           805.750
       401   10 Jun 2027 03:16:07.641   10 Jun 2027 03:16:47.493            39.852                Anadyr1          4981.500
       402   10 Jun 2027 03:16:52.142   10 Jun 2027 03:17:10.924            18.782               Magadan2          2347.750
       403   10 Jun 2027 03:17:11.115   10 Jun 2027 03:18:20.822            69.707               Magadan2          8713.375
       404   10 Jun 2027 04:29:38.966   10 Jun 2027 04:31:06.862            87.896                Sumatra         10987.000
       405   10 Jun 2027 04:49:58.011   10 Jun 2027 04:52:28.386           150.375                Irkutsk         18796.875
       406   10 Jun 2027 04:52:44.685   10 Jun 2027 04:52:55.200            10.515                Novosib          1314.375
       407   10 Jun 2027 04:53:24.951   10 Jun 2027 04:53:57.920            32.969                Norilsk          4121.125
       408   10 Jun 2027 04:54:11.573   10 Jun 2027 04:54:21.197             9.624              Murmansk2          1203.000
       409   10 Jun 2027 04:54:35.718   10 Jun 2027 04:54:40.500             4.782                Norilsk           597.750
       410   10 Jun 2027 04:54:57.664   10 Jun 2027 04:55:18.907            21.243                Norilsk          2655.375
       411   10 Jun 2027 05:29:58.196   10 Jun 2027 05:31:28.542            90.346            RioGallegos         11293.250
       412   10 Jun 2027 06:04:16.466   10 Jun 2027 06:05:06.154            49.688                Sumatra          6211.000
       413   10 Jun 2027 06:15:06.409   10 Jun 2027 06:17:00.201           113.792                  Delhi         14224.000
       414   10 Jun 2027 06:26:45.662   10 Jun 2027 06:27:18.505            32.843                 Moscow          4105.375
       415   10 Jun 2027 06:27:26.039   10 Jun 2027 06:27:51.769            25.730                 Moscow          3216.250
       416   10 Jun 2027 06:28:13.316   10 Jun 2027 06:29:21.006            67.690                Irkutsk          8461.250
       417   10 Jun 2027 06:30:48.223   10 Jun 2027 06:31:14.302            26.079                 Moscow          3259.875
       418   10 Jun 2027 07:49:02.533   10 Jun 2027 07:50:42.429            99.896                  Delhi         12487.000
       419   10 Jun 2027 08:02:40.499   10 Jun 2027 08:05:19.067           158.568                Novosib         19821.000
       420   10 Jun 2027 08:05:55.314   10 Jun 2027 08:06:25.346            30.032              Murmansk1          3754.000
       421   10 Jun 2027 08:06:43.571   10 Jun 2027 08:07:08.542            24.971                Norilsk          3121.375
       422   10 Jun 2027 09:37:29.716   10 Jun 2027 09:37:32.698             2.982                 Moscow           372.750
       423   10 Jun 2027 09:39:48.046   10 Jun 2027 09:40:47.381            59.335              Murmansk2          7416.875
       424   10 Jun 2027 09:52:54.767   10 Jun 2027 09:54:15.407            80.640                Anadyr2         10080.000
       425   10 Jun 2027 09:54:48.040   10 Jun 2027 09:56:00.000            71.959                Anadyr2          8994.875
       426   10 Jun 2027 10:46:25.463   10 Jun 2027 10:48:46.949           141.486               CapeTown         17685.750
       427   10 Jun 2027 11:26:53.711   10 Jun 2027 11:28:16.703            82.992                Anadyr2         10374.000
       428   10 Jun 2027 11:29:48.236   10 Jun 2027 11:31:30.124           101.888                Anadyr1         12736.000
       429   10 Jun 2027 13:05:28.844   10 Jun 2027 13:11:06.536           337.692               Magadan2         42211.500
       430   10 Jun 2027 15:33:51.978   10 Jun 2027 15:37:33.289           221.311            RioGallegos         27663.875
       431   10 Jun 2027 16:21:10.789   10 Jun 2027 16:23:29.168           138.379                Irkutsk         17297.375
       432   10 Jun 2027 16:25:12.556   10 Jun 2027 16:27:02.917           110.361                Irkutsk         13795.125
       433   10 Jun 2027 16:35:20.974   10 Jun 2027 16:37:02.315           101.341                Sumatra         12667.625
       434   10 Jun 2027 16:41:55.826   10 Jun 2027 16:43:03.584            67.758                Sumatra          8469.750
       435   10 Jun 2027 18:03:45.832   10 Jun 2027 18:05:46.017           120.185                Novosib         15023.125
       436   10 Jun 2027 18:06:43.209   10 Jun 2027 18:08:36.229           113.020                  Delhi         14127.500
       437   10 Jun 2027 21:10:03.600   10 Jun 2027 21:11:35.430            91.830                 Moscow         11478.750
       438   10 Jun 2027 21:35:19.609   10 Jun 2027 21:36:48.381            88.772               CapeTown         11096.500
       439   10 Jun 2027 21:38:55.359   10 Jun 2027 21:41:25.592           150.233               CapeTown         18779.125
       440   11 Jun 2027 03:27:48.381   11 Jun 2027 03:28:03.846            15.465               Magadan2          1933.125
       441   11 Jun 2027 03:28:37.133   11 Jun 2027 03:30:14.981            97.848               Magadan2         12231.000
       442   11 Jun 2027 04:42:56.261   11 Jun 2027 04:44:26.540            90.279                Sumatra         11284.875
       443   11 Jun 2027 05:02:21.850   11 Jun 2027 05:03:05.263            43.413                Novosib          5426.625
       444   11 Jun 2027 05:03:15.107   11 Jun 2027 05:05:47.781           152.674                Irkutsk         19084.250
       445   11 Jun 2027 05:42:23.050   11 Jun 2027 05:43:11.002            47.952            RioGallegos          5994.000
       446   11 Jun 2027 06:16:36.328   11 Jun 2027 06:16:47.727            11.399                Sumatra          1424.875
       447   11 Jun 2027 06:18:29.923   11 Jun 2027 06:19:16.579            46.656                Sumatra          5832.000
       448   11 Jun 2027 06:24:36.897   11 Jun 2027 06:26:56.649           139.752                  Delhi         17469.000
       449   11 Jun 2027 06:40:25.025   11 Jun 2027 06:41:24.816            59.791                Irkutsk          7473.875
       450   11 Jun 2027 06:41:31.834   11 Jun 2027 06:42:16.824            44.990              Murmansk1          5623.750
       451   11 Jun 2027 06:42:59.824   11 Jun 2027 06:43:25.116            25.292                 Moscow          3161.500
       452   11 Jun 2027 08:01:35.374   11 Jun 2027 08:02:55.976            80.602                  Delhi         10075.250
       453   11 Jun 2027 08:14:42.648   11 Jun 2027 08:15:02.775            20.127                Norilsk          2515.875
       454   11 Jun 2027 08:15:03.194   11 Jun 2027 08:15:28.441            25.247              Murmansk2          3155.875
       455   11 Jun 2027 08:15:33.251   11 Jun 2027 08:16:41.082            67.831                 Moscow          8478.875
       456   11 Jun 2027 08:17:05.838   11 Jun 2027 08:17:24.817            18.979                Norilsk          2372.375
       457   11 Jun 2027 08:17:34.598   11 Jun 2027 08:18:15.865            41.267                Novosib          5158.375
       458   11 Jun 2027 08:18:26.083   11 Jun 2027 08:18:45.455            19.372              Murmansk2          2421.500
       459   11 Jun 2027 10:04:14.689   11 Jun 2027 10:06:41.943           147.254                Anadyr1         18406.750
       460   11 Jun 2027 10:58:17.014   11 Jun 2027 11:00:32.786           135.772               CapeTown         16971.500
       461   11 Jun 2027 11:09:48.312   11 Jun 2027 11:10:19.249            30.937               CapeTown          3867.125
       462   11 Jun 2027 11:38:51.809   11 Jun 2027 11:40:00.584            68.775                Anadyr2          8596.875
       463   11 Jun 2027 11:41:56.582   11 Jun 2027 11:43:30.308            93.726                Anadyr1         11715.750
       464   11 Jun 2027 13:17:21.536   11 Jun 2027 13:20:16.418           174.882               Magadan1         21860.250
       465   11 Jun 2027 13:21:11.293   11 Jun 2027 13:23:04.360           113.067               Magadan2         14133.375
       466   11 Jun 2027 15:45:29.336   11 Jun 2027 15:49:25.855           236.519            RioGallegos         29564.875
       467   11 Jun 2027 15:51:24.488   11 Jun 2027 15:52:07.211            42.723            RioGallegos          5340.375
       468   11 Jun 2027 16:32:51.175   11 Jun 2027 16:33:47.070            55.895                Irkutsk          6986.875
       469   11 Jun 2027 16:35:34.587   11 Jun 2027 16:37:09.046            94.459                Irkutsk         11807.375
       470   11 Jun 2027 16:46:52.625   11 Jun 2027 16:48:31.135            98.510                Sumatra         12313.750
       471   11 Jun 2027 16:58:07.260   11 Jun 2027 16:58:24.172            16.912                Sumatra          2114.000
       472   11 Jun 2027 18:08:31.591   11 Jun 2027 18:10:54.352           142.761                Novosib         17845.125
       473   11 Jun 2027 18:16:49.765   11 Jun 2027 18:20:26.724           216.959                  Delhi         27119.875
       474   11 Jun 2027 19:49:26.411   11 Jun 2027 19:50:34.247            67.836                 Moscow          8479.500
       475   11 Jun 2027 21:21:58.287   11 Jun 2027 21:23:59.976           121.689                 Moscow         15211.125
       476   11 Jun 2027 21:48:10.579   11 Jun 2027 21:48:46.245            35.666               CapeTown          4458.250
       477   11 Jun 2027 21:53:32.056   11 Jun 2027 21:55:25.986           113.930               CapeTown         14241.250
       478   12 Jun 2027 03:40:20.641   12 Jun 2027 03:40:45.059            24.418               Magadan1          3052.250
       479   12 Jun 2027 03:41:16.725   12 Jun 2027 03:42:07.210            50.485               Magadan2          6310.625
       480   12 Jun 2027 04:20:32.568   12 Jun 2027 04:21:29.248            56.680            RioGallegos          7085.000
       481   12 Jun 2027 04:52:41.641   12 Jun 2027 04:54:39.221           117.580                Sumatra         14697.500
       482   12 Jun 2027 04:56:51.139   12 Jun 2027 04:57:55.624            64.485                Sumatra          8060.625
