uniorb/output/strategy_1/Drop/Drop_KinoSat_111103.txt

KinoSat_111103
-------------------------
    Access    *     Start Time (UTCG)     *     Stop Time (UTCG)  *   Duration (s)        *       Station  *  Data (Mbytes)
         1   01 Jun 2027 03:44:27.866   01 Jun 2027 03:45:56.590            88.724               Magadan1          2772.625
         2   01 Jun 2027 03:55:47.754   01 Jun 2027 03:56:07.222            19.468                Norilsk           608.375
         3   01 Jun 2027 03:56:09.370   01 Jun 2027 03:56:23.616            14.246              Murmansk2           445.187
         4   01 Jun 2027 03:59:00.151   01 Jun 2027 03:59:23.223            23.072              Murmansk1           721.000
         5   01 Jun 2027 03:59:23.223   01 Jun 2027 03:59:33.022             9.799              Murmansk2           306.219
         6   01 Jun 2027 05:18:06.956   01 Jun 2027 05:18:56.787            49.831                Anadyr1          1557.219
         7   01 Jun 2027 05:19:19.434   01 Jun 2027 05:24:30.062           310.628               Magadan1          9707.125
         8   01 Jun 2027 06:53:32.272   01 Jun 2027 06:54:10.347            38.075                Irkutsk          1189.844
         9   01 Jun 2027 06:54:19.374   01 Jun 2027 06:54:38.629            19.255                Anadyr1           601.719
        10   01 Jun 2027 06:55:05.473   01 Jun 2027 06:58:28.189           202.716               Magadan2          6334.875
        11   01 Jun 2027 06:58:38.138   01 Jun 2027 06:58:53.664            15.526                Norilsk           485.188
        12   01 Jun 2027 06:59:07.863   01 Jun 2027 07:00:39.866            92.003                Novosib          2875.094
        13   01 Jun 2027 07:00:45.716   01 Jun 2027 07:02:10.590            84.874              Murmansk1          2652.313
        14   01 Jun 2027 07:02:10.590   01 Jun 2027 07:03:13.623            63.033              Murmansk2          1969.781
        15   01 Jun 2027 07:03:21.296   01 Jun 2027 07:03:45.937            24.641              Murmansk2           770.031
        16   01 Jun 2027 07:04:11.886   01 Jun 2027 07:04:19.346             7.460              Murmansk1           233.125
        17   01 Jun 2027 07:36:18.398   01 Jun 2027 07:37:54.003            95.605            RioGallegos          2987.656
        18   01 Jun 2027 08:31:05.452   01 Jun 2027 08:34:25.272           199.820                Irkutsk          6244.375
        19   01 Jun 2027 08:34:34.926   01 Jun 2027 08:34:49.884            14.958              Murmansk1           467.438
        20   01 Jun 2027 08:34:56.043   01 Jun 2027 08:35:22.525            26.482               Magadan2           827.562
        21   01 Jun 2027 08:35:22.525   01 Jun 2027 08:35:35.722            13.197               Magadan1           412.406
        22   01 Jun 2027 08:35:43.279   01 Jun 2027 08:36:07.910            24.631                Irkutsk           769.719
        23   01 Jun 2027 08:36:12.703   01 Jun 2027 08:36:50.020            37.317              Murmansk1          1166.156
        24   01 Jun 2027 08:36:56.136   01 Jun 2027 08:37:58.322            62.186                Novosib          1943.312
        25   01 Jun 2027 08:39:01.857   01 Jun 2027 08:39:08.389             6.532              Murmansk1           204.125
        26   01 Jun 2027 08:39:39.073   01 Jun 2027 08:40:32.277            53.204              Murmansk1          1662.625
        27   01 Jun 2027 09:12:29.459   01 Jun 2027 09:13:25.083            55.624            RioGallegos          1738.250
        28   01 Jun 2027 09:46:18.223   01 Jun 2027 09:47:31.459            73.236                Sumatra          2288.625
        29   01 Jun 2027 09:56:52.877   01 Jun 2027 09:56:56.479             3.602                  Delhi           112.563
        30   01 Jun 2027 10:08:04.838   01 Jun 2027 10:12:34.063           269.225                Norilsk          8413.281
        31   01 Jun 2027 10:12:42.253   01 Jun 2027 10:13:30.661            48.408                Norilsk          1512.750
        32   01 Jun 2027 10:51:09.107   01 Jun 2027 10:51:30.008            20.901            RioGallegos           653.156
        33   01 Jun 2027 11:29:17.576   01 Jun 2027 11:29:23.628             6.052                Sumatra           189.125
        34   01 Jun 2027 11:30:31.750   01 Jun 2027 11:32:51.071           139.321                  Delhi          4353.781
        35   01 Jun 2027 11:46:19.799   01 Jun 2027 11:48:47.720           147.921                Norilsk          4622.531
        36   01 Jun 2027 11:48:49.538   01 Jun 2027 11:51:33.689           164.151                 Moscow          5129.719
        37   01 Jun 2027 13:15:50.526   01 Jun 2027 13:16:25.899            35.373                 Moscow          1105.406
        38   01 Jun 2027 13:17:29.453   01 Jun 2027 13:18:49.839            80.386                 Moscow          2512.063
        39   01 Jun 2027 13:19:14.988   01 Jun 2027 13:22:31.125           196.137              Murmansk2          6129.281
        40   01 Jun 2027 13:23:20.957   01 Jun 2027 13:24:30.905            69.948                Norilsk          2185.875
        41   01 Jun 2027 13:25:41.697   01 Jun 2027 13:27:49.115           127.418                Norilsk          3981.813
        42   01 Jun 2027 14:29:44.716   01 Jun 2027 14:31:22.039            97.323               CapeTown          3041.344
        43   01 Jun 2027 14:34:47.201   01 Jun 2027 14:35:13.480            26.279               CapeTown           821.219
        44   01 Jun 2027 14:36:20.591   01 Jun 2027 14:36:38.905            18.314               CapeTown           572.312
        45   01 Jun 2027 14:38:58.900   01 Jun 2027 14:39:26.225            27.325               CapeTown           853.906
        46   01 Jun 2027 14:52:19.446   01 Jun 2027 14:52:56.604            37.158                 Moscow          1161.188
        47   01 Jun 2027 14:55:15.538   01 Jun 2027 14:57:38.813           143.275              Murmansk1          4477.344
        48   01 Jun 2027 15:04:59.032   01 Jun 2027 15:05:24.648            25.616              Murmansk2           800.500
        49   01 Jun 2027 15:05:44.286   01 Jun 2027 15:06:09.818            25.532              Murmansk2           797.875
        50   01 Jun 2027 15:06:09.818   01 Jun 2027 15:06:33.835            24.017              Murmansk1           750.531
        51   01 Jun 2027 15:09:28.274   01 Jun 2027 15:11:25.610           117.336                Anadyr2          3666.750
        52   01 Jun 2027 15:12:38.962   01 Jun 2027 15:13:08.133            29.171                Anadyr2           911.594
        53   01 Jun 2027 15:13:35.125   01 Jun 2027 15:13:57.528            22.403                Anadyr1           700.094
        54   01 Jun 2027 15:13:58.483   01 Jun 2027 15:14:13.351            14.868                Anadyr1           464.625
        55   01 Jun 2027 15:14:40.812   01 Jun 2027 15:15:29.681            48.869                Anadyr1          1527.156
        56   01 Jun 2027 15:17:16.254   01 Jun 2027 15:17:58.244            41.990                Anadyr2          1312.187
        57   01 Jun 2027 16:15:58.603   01 Jun 2027 16:16:34.515            35.912               CapeTown          1122.250
        58   01 Jun 2027 16:34:24.864   01 Jun 2027 16:35:13.998            49.134              Murmansk2          1535.438
        59   01 Jun 2027 16:35:31.610   01 Jun 2027 16:35:52.533            20.923              Murmansk2           653.844
        60   01 Jun 2027 16:36:35.326   01 Jun 2027 16:37:06.427            31.101              Murmansk1           971.906
        61   01 Jun 2027 16:38:14.665   01 Jun 2027 16:39:15.110            60.445              Murmansk2          1888.906
        62   01 Jun 2027 16:40:44.181   01 Jun 2027 16:41:22.649            38.468              Murmansk1          1202.125
        63   01 Jun 2027 16:44:57.322   01 Jun 2027 16:46:11.156            73.834                Anadyr1          2307.313
        64   01 Jun 2027 16:47:39.859   01 Jun 2027 16:48:01.865            22.006                Anadyr2           687.687
        65   01 Jun 2027 16:48:34.093   01 Jun 2027 16:50:41.744           127.651               Magadan2          3989.094
        66   01 Jun 2027 16:50:41.744   01 Jun 2027 16:51:19.986            38.242               Magadan1          1195.062
        67   01 Jun 2027 16:53:48.263   01 Jun 2027 16:55:24.440            96.177               Magadan2          3005.531
        68   01 Jun 2027 18:20:51.572   01 Jun 2027 18:24:28.928           217.356                Anadyr1          6792.375
        69   01 Jun 2027 18:24:43.394   01 Jun 2027 18:25:43.676            60.282               Magadan1          1883.812
        70   01 Jun 2027 18:26:49.957   01 Jun 2027 18:28:20.646            90.689               Magadan2          2834.031
        71   01 Jun 2027 18:32:37.577   01 Jun 2027 18:33:20.855            43.278               Magadan1          1352.437
        72   01 Jun 2027 18:35:02.466   01 Jun 2027 18:35:12.476            10.010               Magadan1           312.812
        73   01 Jun 2027 19:56:43.506   01 Jun 2027 19:58:44.724           121.218                Anadyr1          3788.062
        74   01 Jun 2027 19:58:51.438   01 Jun 2027 20:00:50.587           119.149                Anadyr2          3723.406
        75   01 Jun 2027 20:01:00.366   01 Jun 2027 20:02:09.667            69.301               Magadan2          2165.656
        76   01 Jun 2027 20:02:21.468   01 Jun 2027 20:03:55.229            93.761                Norilsk          2930.031
        77   01 Jun 2027 20:04:35.551   01 Jun 2027 20:05:06.535            30.984                Irkutsk           968.250
        78   01 Jun 2027 20:05:15.012   01 Jun 2027 20:05:31.571            16.559                Norilsk           517.469
        79   01 Jun 2027 20:07:00.106   01 Jun 2027 20:08:19.497            79.391                Irkutsk          2480.969
        80   01 Jun 2027 20:09:08.269   01 Jun 2027 20:10:29.117            80.848                Irkutsk          2526.500
        81   01 Jun 2027 20:21:07.451   01 Jun 2027 20:21:55.126            47.675                Sumatra          1489.844
        82   01 Jun 2027 20:23:08.403   01 Jun 2027 20:24:39.703            91.300                Sumatra          2853.125
        83   01 Jun 2027 21:34:35.957   01 Jun 2027 21:35:15.617            39.660                Norilsk          1239.375
        84   01 Jun 2027 21:35:19.866   01 Jun 2027 21:35:24.776             4.910                Norilsk           153.438
        85   01 Jun 2027 21:35:44.873   01 Jun 2027 21:36:36.797            51.924                Norilsk          1622.625
        86   01 Jun 2027 21:39:24.207   01 Jun 2027 21:39:32.570             8.363               Magadan1           261.344
        87   01 Jun 2027 21:39:39.127   01 Jun 2027 21:41:09.396            90.269                Novosib          2820.906
        88   01 Jun 2027 21:43:46.584   01 Jun 2027 21:44:12.473            25.889                Novosib           809.031
        89   01 Jun 2027 21:45:47.234   01 Jun 2027 21:46:35.110            47.876                Novosib          1496.125
        90   01 Jun 2027 21:50:15.820   01 Jun 2027 21:51:05.946            50.126                Irkutsk          1566.438
        91   01 Jun 2027 21:54:32.142   01 Jun 2027 21:55:09.278            37.136                Sumatra          1160.500
        92   01 Jun 2027 21:58:27.524   01 Jun 2027 21:59:02.222            34.698                Sumatra          1084.313
        93   01 Jun 2027 22:02:44.662   01 Jun 2027 22:04:25.611           100.949                Sumatra          3154.656
        94   01 Jun 2027 23:10:35.196   01 Jun 2027 23:12:16.950           101.754                Norilsk          3179.813
        95   01 Jun 2027 23:12:36.399   01 Jun 2027 23:13:21.437            45.038               Magadan1          1407.438
        96   01 Jun 2027 23:14:19.010   01 Jun 2027 23:16:34.740           135.730              Murmansk1          4241.562
        97   01 Jun 2027 23:16:34.740   01 Jun 2027 23:16:59.207            24.467              Murmansk2           764.594
        98   01 Jun 2027 23:21:53.273   01 Jun 2027 23:23:00.681            67.408                  Delhi          2106.500
        99   01 Jun 2027 23:28:11.107   01 Jun 2027 23:28:36.239            25.132                  Delhi           785.375
       100   01 Jun 2027 23:29:57.297   01 Jun 2027 23:30:38.451            41.154                  Delhi          1286.063
       101   02 Jun 2027 00:10:47.131   02 Jun 2027 00:11:47.030            59.899            RioGallegos          1871.844
       102   02 Jun 2027 00:39:55.020   02 Jun 2027 00:40:08.857            13.837                Anadyr1           432.406
       103   02 Jun 2027 00:41:17.257   02 Jun 2027 00:42:21.078            63.821                Anadyr1          1994.406
       104   02 Jun 2027 00:45:38.673   02 Jun 2027 00:46:10.393            31.720                Anadyr1           991.250
       105   02 Jun 2027 00:46:23.440   02 Jun 2027 00:48:30.408           126.968               Magadan2          3967.750
       106   02 Jun 2027 00:48:30.408   02 Jun 2027 00:48:56.165            25.757               Magadan1           804.906
       107   02 Jun 2027 00:48:56.673   02 Jun 2027 00:51:27.435           150.762              Murmansk2          4711.312
       108   02 Jun 2027 00:56:27.512   02 Jun 2027 00:57:26.686            59.174                 Moscow          1849.187
       109   02 Jun 2027 01:04:41.548   02 Jun 2027 01:04:58.247            16.699                  Delhi           521.844
       110   02 Jun 2027 01:20:27.161   02 Jun 2027 01:21:23.816            56.655               CapeTown          1770.469
       111   02 Jun 2027 01:21:47.796   02 Jun 2027 01:21:54.249             6.453               CapeTown           201.656
       112   02 Jun 2027 01:23:33.097   02 Jun 2027 01:23:35.060             1.963               CapeTown            61.344
       113   02 Jun 2027 01:23:49.294   02 Jun 2027 01:24:31.358            42.064               CapeTown          1314.500
       114   02 Jun 2027 02:13:32.216   02 Jun 2027 02:14:59.618            87.402                Anadyr1          2731.313
       115   02 Jun 2027 02:16:10.705   02 Jun 2027 02:16:22.934            12.229                Anadyr1           382.156
       116   02 Jun 2027 02:16:50.016   02 Jun 2027 02:16:58.016             8.000                Anadyr2           250.000
       117   02 Jun 2027 02:17:56.836   02 Jun 2027 02:19:16.756            79.920               Magadan1          2497.500
       118   02 Jun 2027 02:21:45.565   02 Jun 2027 02:22:06.349            20.784               Magadan2           649.500
       119   02 Jun 2027 02:22:21.022   02 Jun 2027 02:22:47.342            26.320                Norilsk           822.500
       120   02 Jun 2027 02:24:41.382   02 Jun 2027 02:25:35.093            53.711              Murmansk1          1678.469
       121   02 Jun 2027 02:25:35.093   02 Jun 2027 02:26:19.096            44.003              Murmansk2          1375.094
       122   02 Jun 2027 02:29:38.809   02 Jun 2027 02:30:35.532            56.723                Novosib          1772.594
       123   02 Jun 2027 02:33:04.357   02 Jun 2027 02:34:15.637            71.280                Novosib          2227.500
       124   02 Jun 2027 02:58:37.436   02 Jun 2027 02:58:54.098            16.662               CapeTown           520.687
       125   02 Jun 2027 03:00:27.477   02 Jun 2027 03:01:24.989            57.512               CapeTown          1797.250
       126   02 Jun 2027 03:55:18.445   02 Jun 2027 03:55:22.641             4.196               Magadan1           131.125
       127   02 Jun 2027 03:55:31.776   02 Jun 2027 03:59:19.836           228.060               Magadan1          7126.875
       128   02 Jun 2027 03:59:45.181   02 Jun 2027 04:00:15.435            30.254                Anadyr2           945.438
       129   02 Jun 2027 05:31:17.324   02 Jun 2027 05:36:55.950           338.626               Magadan1         10582.062
       130   02 Jun 2027 07:05:23.084   02 Jun 2027 07:06:28.366            65.282               Magadan2          2040.063
       131   02 Jun 2027 07:06:28.366   02 Jun 2027 07:07:28.342            59.976               Magadan1          1874.250
       132   02 Jun 2027 07:07:40.530   02 Jun 2027 07:08:31.186            50.656                Norilsk          1583.000
       133   02 Jun 2027 07:08:33.913   02 Jun 2027 07:09:54.549            80.636                Novosib          2519.875
       134   02 Jun 2027 07:10:00.056   02 Jun 2027 07:10:38.413            38.357                Norilsk          1198.656
       135   02 Jun 2027 07:10:39.090   02 Jun 2027 07:11:13.688            34.598               Magadan2          1081.187
       136   02 Jun 2027 07:11:13.688   02 Jun 2027 07:11:47.454            33.766               Magadan1          1055.188
       137   02 Jun 2027 07:11:54.601   02 Jun 2027 07:14:00.246           125.645              Murmansk2          3926.406
       138   02 Jun 2027 07:48:03.177   02 Jun 2027 07:50:02.642           119.465            RioGallegos          3733.281
       139   02 Jun 2027 08:43:17.876   02 Jun 2027 08:44:12.023            54.147               Magadan1          1692.094
       140   02 Jun 2027 08:44:13.858   02 Jun 2027 08:45:21.772            67.914               Magadan1          2122.312
       141   02 Jun 2027 08:45:35.137   02 Jun 2027 08:47:08.890            93.753               Magadan1          2929.781
       142   02 Jun 2027 08:47:24.799   02 Jun 2027 08:48:42.432            77.633              Murmansk1          2426.031
       143   02 Jun 2027 08:48:42.432   02 Jun 2027 08:48:48.706             6.274              Murmansk2           196.062
       144   02 Jun 2027 08:49:30.616   02 Jun 2027 08:49:59.684            29.068              Murmansk2           908.375
       145   02 Jun 2027 09:24:19.376   02 Jun 2027 09:24:49.793            30.417            RioGallegos           950.531
       146   02 Jun 2027 09:25:01.850   02 Jun 2027 09:25:22.324            20.474            RioGallegos           639.813
       147   02 Jun 2027 09:58:18.607   02 Jun 2027 09:58:29.003            10.396                Sumatra           324.875
       148   02 Jun 2027 09:58:33.289   02 Jun 2027 09:59:46.643            73.354                Sumatra          2292.313
       149   02 Jun 2027 10:08:46.007   02 Jun 2027 10:09:02.429            16.422                  Delhi           513.187
       150   02 Jun 2027 10:18:24.846   02 Jun 2027 10:18:39.490            14.644                  Delhi           457.625
       151   02 Jun 2027 10:20:23.270   02 Jun 2027 10:22:57.872           154.602                Novosib          4831.313
       152   02 Jun 2027 10:23:06.530   02 Jun 2027 10:26:56.257           229.727              Murmansk2          7178.969
       153   02 Jun 2027 11:42:41.744   02 Jun 2027 11:43:23.049            41.305                  Delhi          1290.781
       154   02 Jun 2027 11:44:38.885   02 Jun 2027 11:45:34.226            55.341                  Delhi          1729.406
       155   02 Jun 2027 11:57:49.214   02 Jun 2027 11:59:03.961            74.747              Murmansk1          2335.844
       156   02 Jun 2027 11:59:14.509   02 Jun 2027 12:01:45.975           151.466                Novosib          4733.312
       157   02 Jun 2027 12:02:01.362   02 Jun 2027 12:03:39.069            97.707                 Moscow          3053.344
       158   02 Jun 2027 12:03:41.730   02 Jun 2027 12:04:21.042            39.312              Murmansk1          1228.500
       159   02 Jun 2027 12:04:21.042   02 Jun 2027 12:04:45.275            24.233              Murmansk2           757.281
       160   02 Jun 2027 12:05:12.991   02 Jun 2027 12:05:42.124            29.133                Norilsk           910.406
       161   02 Jun 2027 12:05:50.229   02 Jun 2027 12:06:41.629            51.400              Murmansk2          1606.250
       162   02 Jun 2027 12:06:58.294   02 Jun 2027 12:07:19.351            21.057              Murmansk2           658.031
       163   02 Jun 2027 12:07:19.351   02 Jun 2027 12:07:23.083             3.732              Murmansk1           116.625
       164   02 Jun 2027 13:26:54.125   02 Jun 2027 13:35:57.202           543.077                 Moscow         16971.156
       165   02 Jun 2027 13:36:06.285   02 Jun 2027 13:36:51.602            45.317                Norilsk          1416.156
       166   02 Jun 2027 13:37:36.595   02 Jun 2027 13:37:43.174             6.579              Murmansk2           205.594
       167   02 Jun 2027 13:37:51.742   02 Jun 2027 13:38:58.307            66.565                 Moscow          2080.156
       168   02 Jun 2027 13:39:16.394   02 Jun 2027 13:40:53.966            97.572                Norilsk          3049.125
       169   02 Jun 2027 13:41:30.346   02 Jun 2027 13:43:14.250           103.904              Murmansk1          3247.000
       170   02 Jun 2027 13:43:14.250   02 Jun 2027 13:43:17.889             3.639              Murmansk2           113.719
       171   02 Jun 2027 14:45:54.631   02 Jun 2027 14:47:54.014           119.383               CapeTown          3730.719
       172   02 Jun 2027 14:48:18.893   02 Jun 2027 14:50:39.761           140.868               CapeTown          4402.125
       173   02 Jun 2027 14:51:31.922   02 Jun 2027 14:52:09.170            37.248               CapeTown          1164.000
       174   02 Jun 2027 15:11:55.139   02 Jun 2027 15:12:12.262            17.123                 Moscow           535.094
       175   02 Jun 2027 15:12:48.466   02 Jun 2027 15:13:54.788            66.322                 Moscow          2072.562
       176   02 Jun 2027 15:14:53.667   02 Jun 2027 15:15:10.391            16.724                 Moscow           522.625
       177   02 Jun 2027 15:15:44.763   02 Jun 2027 15:19:15.800           211.037              Murmansk2          6594.906
       178   02 Jun 2027 15:25:05.848   02 Jun 2027 15:25:38.164            32.316                Anadyr2          1009.875
       179   02 Jun 2027 15:25:48.799   02 Jun 2027 15:25:55.207             6.408                Anadyr2           200.250
       180   02 Jun 2027 15:26:12.155   02 Jun 2027 15:27:35.557            83.402                Anadyr2          2606.312
       181   02 Jun 2027 15:27:35.557   02 Jun 2027 15:28:26.172            50.615                Anadyr1          1581.719
       182   02 Jun 2027 15:28:58.987   02 Jun 2027 15:29:55.171            56.184                Anadyr2          1755.750
       183   02 Jun 2027 15:30:19.559   02 Jun 2027 15:30:41.663            22.104                Anadyr2           690.750
       184   02 Jun 2027 15:30:41.663   02 Jun 2027 15:30:48.956             7.293                Anadyr1           227.906
       185   02 Jun 2027 15:30:51.408   02 Jun 2027 15:30:53.956             2.548                Anadyr1            79.625
       186   02 Jun 2027 16:50:17.925   02 Jun 2027 16:51:14.761            56.836              Murmansk2          1776.125
       187   02 Jun 2027 16:51:56.192   02 Jun 2027 16:52:01.958             5.766              Murmansk2           180.187
       188   02 Jun 2027 16:52:54.024   02 Jun 2027 16:54:54.561           120.537              Murmansk2          3766.781
       189   02 Jun 2027 17:01:07.829   02 Jun 2027 17:01:20.648            12.819                Anadyr2           400.594
       190   02 Jun 2027 17:01:42.623   02 Jun 2027 17:02:13.055            30.432               Magadan2           951.000
       191   02 Jun 2027 17:02:31.074   02 Jun 2027 17:03:11.240            40.166               Magadan1          1255.188
       192   02 Jun 2027 17:03:38.452   02 Jun 2027 17:03:48.984            10.532               Magadan2           329.125
       193   02 Jun 2027 17:03:57.771   02 Jun 2027 17:04:36.694            38.923               Magadan1          1216.344
       194   02 Jun 2027 17:04:45.516   02 Jun 2027 17:04:54.942             9.426               Magadan1           294.562
       195   02 Jun 2027 17:05:26.518   02 Jun 2027 17:05:58.980            32.462                Anadyr1          1014.438
       196   02 Jun 2027 17:06:01.547   02 Jun 2027 17:06:33.136            31.589                Anadyr2           987.156
       197   02 Jun 2027 17:06:38.624   02 Jun 2027 17:07:20.587            41.963               Magadan2          1311.344
       198   02 Jun 2027 17:07:46.698   02 Jun 2027 17:08:34.727            48.029                Anadyr2          1500.906
       199   02 Jun 2027 17:09:08.930   02 Jun 2027 17:09:36.044            27.114                Anadyr1           847.312
       200   02 Jun 2027 18:32:53.019   02 Jun 2027 18:34:09.166            76.147                Anadyr2          2379.594
       201   02 Jun 2027 18:34:14.291   02 Jun 2027 18:34:24.578            10.287                Anadyr2           321.469
       202   02 Jun 2027 18:35:11.383   02 Jun 2027 18:35:36.824            25.441                Anadyr1           795.031
       203   02 Jun 2027 18:35:41.034   02 Jun 2027 18:36:31.275            50.241               Magadan2          1570.031
       204   02 Jun 2027 18:37:27.050   02 Jun 2027 18:37:59.426            32.376               Magadan1          1011.750
       205   02 Jun 2027 18:38:16.393   02 Jun 2027 18:38:31.114            14.721               Magadan1           460.031
       206   02 Jun 2027 18:39:04.104   02 Jun 2027 18:40:11.208            67.104               Magadan2          2097.000
       207   02 Jun 2027 18:41:00.334   02 Jun 2027 18:41:11.995            11.661               Magadan2           364.406
       208   02 Jun 2027 18:41:50.879   02 Jun 2027 18:41:57.072             6.193                Anadyr2           193.531
       209   02 Jun 2027 18:42:17.179   02 Jun 2027 18:43:02.541            45.362               Magadan1          1417.562
       210   02 Jun 2027 18:43:28.743   02 Jun 2027 18:43:39.369            10.626               Magadan2           332.062
       211   02 Jun 2027 18:44:04.641   02 Jun 2027 18:44:27.464            22.823               Magadan2           713.219
       212   02 Jun 2027 18:44:47.457   02 Jun 2027 18:44:57.435             9.978                Anadyr2           311.812
       213   02 Jun 2027 18:45:19.104   02 Jun 2027 18:45:35.985            16.881               Magadan2           527.531
       214   02 Jun 2027 18:46:07.934   02 Jun 2027 18:46:36.802            28.868               Magadan1           902.125
       215   02 Jun 2027 18:47:40.837   02 Jun 2027 18:47:44.256             3.419               Magadan1           106.844
       216   02 Jun 2027 19:29:53.356   02 Jun 2027 19:31:13.164            79.808            RioGallegos          2494.000
       217   02 Jun 2027 19:31:54.235   02 Jun 2027 19:32:23.613            29.378            RioGallegos           918.062
       218   02 Jun 2027 19:32:47.331   02 Jun 2027 19:33:16.363            29.032            RioGallegos           907.250
       219   02 Jun 2027 20:09:57.487   02 Jun 2027 20:10:28.903            31.416                Anadyr1           981.750
       220   02 Jun 2027 20:10:55.782   02 Jun 2027 20:11:59.999            64.217                Norilsk          2006.781
       221   02 Jun 2027 20:12:31.117   02 Jun 2027 20:13:04.994            33.877                Norilsk          1058.656
       222   02 Jun 2027 20:13:39.826   02 Jun 2027 20:14:17.080            37.254                Norilsk          1164.187
       223   02 Jun 2027 20:15:54.337   02 Jun 2027 20:16:26.463            32.126                Norilsk          1003.938
       224   02 Jun 2027 20:16:36.836   02 Jun 2027 20:17:16.683            39.847                Norilsk          1245.219
       225   02 Jun 2027 20:19:03.469   02 Jun 2027 20:19:55.235            51.766                Irkutsk          1617.688
       226   02 Jun 2027 20:20:24.163   02 Jun 2027 20:21:08.502            44.339                Irkutsk          1385.594
       227   02 Jun 2027 20:22:52.994   02 Jun 2027 20:22:54.287             1.293                Irkutsk            40.406
       228   02 Jun 2027 20:31:28.117   02 Jun 2027 20:33:21.030           112.913                Sumatra          3528.531
       229   02 Jun 2027 20:34:27.468   02 Jun 2027 20:35:25.431            57.963                Sumatra          1811.344
       230   02 Jun 2027 20:36:27.166   02 Jun 2027 20:37:35.230            68.064                Sumatra          2127.000
       231   02 Jun 2027 21:46:58.335   02 Jun 2027 21:47:15.568            17.233                Norilsk           538.531
       232   02 Jun 2027 21:48:06.785   02 Jun 2027 21:48:08.921             2.136               Magadan2            66.750
       233   02 Jun 2027 21:48:22.203   02 Jun 2027 21:48:36.617            14.414                Norilsk           450.437
       234   02 Jun 2027 21:49:39.180   02 Jun 2027 21:49:58.485            19.305               Magadan2           603.281
       235   02 Jun 2027 21:50:27.436   02 Jun 2027 21:50:52.555            25.119                Anadyr2           784.969
       236   02 Jun 2027 21:51:22.742   02 Jun 2027 21:52:49.571            86.829                Novosib          2713.406
       237   02 Jun 2027 21:55:01.112   02 Jun 2027 21:56:08.059            66.947                Novosib          2092.094
       238   02 Jun 2027 21:58:19.269   02 Jun 2027 21:58:31.736            12.467                Novosib           389.594
       239   02 Jun 2027 21:58:59.574   02 Jun 2027 21:59:01.846             2.272                Irkutsk            71.000
       240   02 Jun 2027 21:59:21.730   02 Jun 2027 22:00:07.573            45.843                Irkutsk          1432.594
       241   02 Jun 2027 22:01:32.209   02 Jun 2027 22:03:17.477           105.268                Irkutsk          3289.625
       242   02 Jun 2027 22:04:50.977   02 Jun 2027 22:05:04.586            13.609                  Delhi           425.281
       243   02 Jun 2027 22:50:12.863   02 Jun 2027 22:50:32.945            20.082            RioGallegos           627.562
       244   02 Jun 2027 23:18:38.261   02 Jun 2027 23:18:50.624            12.363                Anadyr1           386.344
       245   02 Jun 2027 23:19:11.490   02 Jun 2027 23:20:28.806            77.316                Anadyr2          2416.125
       246   02 Jun 2027 23:22:37.189   02 Jun 2027 23:23:09.762            32.573                Norilsk          1017.906
       247   02 Jun 2027 23:23:12.233   02 Jun 2027 23:23:17.845             5.612               Magadan2           175.375
       248   02 Jun 2027 23:23:17.845   02 Jun 2027 23:23:28.652            10.807               Magadan1           337.719
       249   02 Jun 2027 23:23:46.868   02 Jun 2027 23:24:18.399            31.531                Norilsk           985.344
       250   02 Jun 2027 23:24:37.566   02 Jun 2027 23:25:04.431            26.865               Magadan1           839.531
       251   02 Jun 2027 23:25:46.621   02 Jun 2027 23:26:06.147            19.526               Magadan1           610.187
       252   02 Jun 2027 23:26:07.261   02 Jun 2027 23:27:17.870            70.609              Murmansk1          2206.531
       253   02 Jun 2027 23:27:28.547   02 Jun 2027 23:28:19.788            51.241              Murmansk2          1601.281
       254   02 Jun 2027 23:28:32.172   02 Jun 2027 23:30:05.061            92.889              Murmansk2          2902.781
       255   02 Jun 2027 23:38:57.725   02 Jun 2027 23:39:16.297            18.572                Novosib           580.375
       256   02 Jun 2027 23:40:46.889   02 Jun 2027 23:42:01.643            74.754                  Delhi          2336.063
       257   03 Jun 2027 00:22:42.399   03 Jun 2027 00:23:15.913            33.514            RioGallegos          1047.313
       258   03 Jun 2027 00:51:36.421   03 Jun 2027 00:51:56.756            20.335                Anadyr1           635.469
       259   03 Jun 2027 00:52:38.771   03 Jun 2027 00:53:18.532            39.761                Anadyr1          1242.531
       260   03 Jun 2027 00:54:15.133   03 Jun 2027 00:54:22.999             7.866                Anadyr2           245.812
       261   03 Jun 2027 00:54:26.933   03 Jun 2027 00:54:41.429            14.496                Anadyr2           453.000
       262   03 Jun 2027 00:57:14.485   03 Jun 2027 00:57:43.183            28.698                Anadyr1           896.813
       263   03 Jun 2027 00:57:43.231   03 Jun 2027 00:59:15.633            92.402               Magadan2          2887.562
       264   03 Jun 2027 00:59:15.633   03 Jun 2027 00:59:23.754             8.121               Magadan1           253.781
       265   03 Jun 2027 00:59:58.439   03 Jun 2027 01:00:22.253            23.814               Magadan2           744.187
       266   03 Jun 2027 01:00:48.985   03 Jun 2027 01:02:05.236            76.251              Murmansk1          2382.844
       267   03 Jun 2027 01:04:48.275   03 Jun 2027 01:04:57.677             9.402                 Moscow           293.812
       268   03 Jun 2027 01:05:25.778   03 Jun 2027 01:05:33.761             7.983              Murmansk2           249.469
       269   03 Jun 2027 01:05:46.987   03 Jun 2027 01:05:57.877            10.890              Murmansk1           340.313
       270   03 Jun 2027 01:06:17.362   03 Jun 2027 01:06:29.807            12.445              Murmansk2           388.906
       271   03 Jun 2027 01:08:20.402   03 Jun 2027 01:08:42.535            22.133                Novosib           691.656
       272   03 Jun 2027 01:09:36.117   03 Jun 2027 01:09:51.505            15.388                 Moscow           480.875
       273   03 Jun 2027 01:10:34.744   03 Jun 2027 01:10:54.871            20.127                 Moscow           628.969
       274   03 Jun 2027 01:12:00.640   03 Jun 2027 01:13:21.515            80.875                 Moscow          2527.344
       275   03 Jun 2027 01:35:01.636   03 Jun 2027 01:36:13.663            72.027               CapeTown          2250.844
       276   03 Jun 2027 02:25:21.088   03 Jun 2027 02:27:00.456            99.368                Anadyr2          3105.250
       277   03 Jun 2027 02:27:57.754   03 Jun 2027 02:28:18.147            20.393                Anadyr1           637.281
       278   03 Jun 2027 02:29:25.792   03 Jun 2027 02:29:53.842            28.050               Magadan1           876.562
       279   03 Jun 2027 02:29:53.842   03 Jun 2027 02:30:02.787             8.945               Magadan2           279.531
       280   03 Jun 2027 02:30:07.952   03 Jun 2027 02:30:45.491            37.539               Magadan2          1173.094
       281   03 Jun 2027 02:33:12.980   03 Jun 2027 02:33:20.543             7.563               Magadan1           236.344
       282   03 Jun 2027 02:34:08.966   03 Jun 2027 02:34:38.487            29.521               Magadan1           922.531
       283   03 Jun 2027 02:35:44.614   03 Jun 2027 02:35:50.854             6.240                Norilsk           195.000
       284   03 Jun 2027 02:36:03.901   03 Jun 2027 02:36:21.830            17.929                Norilsk           560.281
       285   03 Jun 2027 02:36:55.730   03 Jun 2027 02:37:02.023             6.293              Murmansk2           196.656
       286   03 Jun 2027 02:38:08.711   03 Jun 2027 02:38:32.614            23.903                Norilsk           746.969
       287   03 Jun 2027 02:39:46.353   03 Jun 2027 02:40:21.805            35.452              Murmansk1          1107.875
       288   03 Jun 2027 02:42:27.900   03 Jun 2027 02:42:53.459            25.559                 Moscow           798.719
       289   03 Jun 2027 02:44:26.519   03 Jun 2027 02:44:41.605            15.086                 Moscow           471.438
       290   03 Jun 2027 02:45:54.571   03 Jun 2027 02:46:34.425            39.854                 Moscow          1245.437
       291   03 Jun 2027 02:50:47.939   03 Jun 2027 02:51:24.465            36.526                 Moscow          1141.438
       292   03 Jun 2027 02:52:15.852   03 Jun 2027 02:52:50.396            34.544                 Moscow          1079.500
       293   03 Jun 2027 03:14:18.724   03 Jun 2027 03:15:59.236           100.512               CapeTown          3141.000
       294   03 Jun 2027 04:07:20.053   03 Jun 2027 04:11:06.657           226.604               Magadan2          7081.375
       295   03 Jun 2027 04:11:31.361   03 Jun 2027 04:13:29.631           118.270                Anadyr1          3695.938
       296   03 Jun 2027 05:44:43.323   03 Jun 2027 05:44:52.882             9.559               Magadan1           298.719
       297   03 Jun 2027 05:45:15.551   03 Jun 2027 05:49:07.131           231.580               Magadan1          7236.875
       298   03 Jun 2027 05:49:35.456   03 Jun 2027 05:50:00.594            25.138                Norilsk           785.562
       299   03 Jun 2027 05:50:21.506   03 Jun 2027 05:50:22.216             0.710                Norilsk            22.187
       300   03 Jun 2027 05:54:22.722   03 Jun 2027 05:54:31.637             8.915                Norilsk           278.594
       301   03 Jun 2027 05:58:45.135   03 Jun 2027 05:59:31.600            46.465              Murmansk2          1452.031
       302   03 Jun 2027 06:27:17.706   03 Jun 2027 06:28:07.059            49.353            RioGallegos          1542.281
       303   03 Jun 2027 06:29:07.020   03 Jun 2027 06:29:41.282            34.262            RioGallegos          1070.687
       304   03 Jun 2027 06:33:24.956   03 Jun 2027 06:33:30.918             5.962            RioGallegos           186.312
       305   03 Jun 2027 06:34:28.503   03 Jun 2027 06:34:30.174             1.671            RioGallegos            52.219
       306   03 Jun 2027 07:18:08.363   03 Jun 2027 07:18:27.488            19.125               Magadan2           597.656
       307   03 Jun 2027 07:18:40.774   03 Jun 2027 07:18:58.427            17.653                Anadyr2           551.656
       308   03 Jun 2027 07:19:22.163   03 Jun 2027 07:23:03.029           220.866               Magadan2          6902.062
       309   03 Jun 2027 07:23:03.029   03 Jun 2027 07:23:48.321            45.292               Magadan1          1415.375
       310   03 Jun 2027 07:23:50.344   03 Jun 2027 07:23:57.909             7.565                Anadyr2           236.406
       311   03 Jun 2027 07:24:00.940   03 Jun 2027 07:24:15.972            15.032                Novosib           469.750
       312   03 Jun 2027 07:24:22.274   03 Jun 2027 07:24:24.576             2.302                Irkutsk            71.938
       313   03 Jun 2027 07:24:28.928   03 Jun 2027 07:25:50.581            81.653              Murmansk1          2551.656
       314   03 Jun 2027 07:25:50.581   03 Jun 2027 07:26:04.875            14.294              Murmansk2           446.687
       315   03 Jun 2027 07:26:21.479   03 Jun 2027 07:27:16.063            54.584              Murmansk2          1705.750
       316   03 Jun 2027 07:27:18.136   03 Jun 2027 07:27:28.408            10.272                Norilsk           321.000
       317   03 Jun 2027 07:27:49.778   03 Jun 2027 07:28:43.634            53.856                Norilsk          1683.000
       318   03 Jun 2027 08:40:42.482   03 Jun 2027 08:41:36.800            54.318                Sumatra          1697.437
       319   03 Jun 2027 08:55:53.079   03 Jun 2027 09:00:49.463           296.384                Irkutsk          9262.000
       320   03 Jun 2027 10:10:24.660   03 Jun 2027 10:10:37.038            12.378                Sumatra           386.813
       321   03 Jun 2027 10:13:22.701   03 Jun 2027 10:14:51.772            89.071                Sumatra          2783.469
       322   03 Jun 2027 10:19:54.278   03 Jun 2027 10:20:06.642            12.364                  Delhi           386.375
       323   03 Jun 2027 10:21:09.219   03 Jun 2027 10:21:14.107             4.888                  Delhi           152.750
       324   03 Jun 2027 10:30:48.114   03 Jun 2027 10:30:57.879             9.765                  Delhi           305.156
       325   03 Jun 2027 10:32:08.773   03 Jun 2027 10:33:13.556            64.783                Norilsk          2024.469
       326   03 Jun 2027 10:33:18.406   03 Jun 2027 10:34:13.980            55.574              Murmansk2          1736.688
       327   03 Jun 2027 10:34:18.167   03 Jun 2027 10:35:07.709            49.542              Murmansk1          1548.187
       328   03 Jun 2027 10:35:22.981   03 Jun 2027 10:37:10.725           107.744                Novosib          3367.000
       329   03 Jun 2027 11:18:49.992   03 Jun 2027 11:19:43.490            53.498            RioGallegos          1671.812
       330   03 Jun 2027 11:54:57.863   03 Jun 2027 11:56:23.947            86.084                  Delhi          2690.125
       331   03 Jun 2027 11:59:40.993   03 Jun 2027 12:00:06.096            25.103                  Delhi           784.469
       332   03 Jun 2027 12:06:30.676   03 Jun 2027 12:06:47.769            17.093                Novosib           534.156
       333   03 Jun 2027 12:07:32.073   03 Jun 2027 12:08:07.382            35.309                Novosib          1103.406
       334   03 Jun 2027 12:10:13.135   03 Jun 2027 12:10:22.700             9.565                Norilsk           298.906
       335   03 Jun 2027 12:10:42.501   03 Jun 2027 12:10:52.839            10.338                Novosib           323.063
       336   03 Jun 2027 12:11:53.888   03 Jun 2027 12:12:03.102             9.214              Murmansk1           287.937
       337   03 Jun 2027 12:12:08.206   03 Jun 2027 12:12:13.637             5.431                Norilsk           169.719
       338   03 Jun 2027 12:12:25.547   03 Jun 2027 12:13:05.370            39.823                Novosib          1244.469
       339   03 Jun 2027 12:15:30.278   03 Jun 2027 12:15:36.645             6.367              Murmansk1           198.969
       340   03 Jun 2027 12:15:43.517   03 Jun 2027 12:16:01.308            17.791              Murmansk1           555.969
       341   03 Jun 2027 12:17:48.301   03 Jun 2027 12:18:10.088            21.787              Murmansk2           680.844
       342   03 Jun 2027 12:19:10.463   03 Jun 2027 12:19:24.323            13.860              Murmansk1           433.125
       343   03 Jun 2027 13:38:56.364   03 Jun 2027 13:42:06.889           190.525                 Moscow          5953.906
       344   03 Jun 2027 13:42:26.770   03 Jun 2027 13:43:56.164            89.394              Murmansk1          2793.563
       345   03 Jun 2027 13:44:03.443   03 Jun 2027 13:44:37.209            33.766              Murmansk1          1055.188
       346   03 Jun 2027 13:46:06.730   03 Jun 2027 13:46:56.341            49.611              Murmansk2          1550.344
       347   03 Jun 2027 13:49:00.322   03 Jun 2027 13:49:36.815            36.493                Norilsk          1140.406
       348   03 Jun 2027 14:53:02.117   03 Jun 2027 14:54:40.877            98.760               CapeTown          3086.250
       349   03 Jun 2027 14:54:57.118   03 Jun 2027 14:55:27.171            30.053               CapeTown           939.156
       350   03 Jun 2027 14:56:27.788   03 Jun 2027 14:57:19.340            51.552               CapeTown          1611.000
       351   03 Jun 2027 15:02:52.463   03 Jun 2027 15:03:32.536            40.073               CapeTown          1252.281
       352   03 Jun 2027 15:19:52.609   03 Jun 2027 15:20:47.893            55.284              Murmansk1          1727.625
       353   03 Jun 2027 15:23:59.791   03 Jun 2027 15:24:44.338            44.547              Murmansk1          1392.094
       354   03 Jun 2027 15:28:12.521   03 Jun 2027 15:29:28.325            75.804              Murmansk1          2368.875
       355   03 Jun 2027 15:33:18.805   03 Jun 2027 15:34:18.798            59.993                Anadyr2          1874.781
       356   03 Jun 2027 15:37:51.108   03 Jun 2027 15:38:05.381            14.273                Anadyr1           446.031
       357   03 Jun 2027 15:38:13.544   03 Jun 2027 15:38:24.396            10.852                Anadyr1           339.125
       358   03 Jun 2027 15:38:42.753   03 Jun 2027 15:40:12.331            89.578                Anadyr2          2799.312
       359   03 Jun 2027 16:39:23.443   03 Jun 2027 16:39:37.141            13.698               CapeTown           428.063
       360   03 Jun 2027 16:59:45.656   03 Jun 2027 17:02:22.792           157.136              Murmansk1          4910.500
       361   03 Jun 2027 17:03:46.017   03 Jun 2027 17:04:27.009            40.992              Murmansk1          1281.000
       362   03 Jun 2027 17:08:58.888   03 Jun 2027 17:09:19.296            20.408                Anadyr1           637.750
       363   03 Jun 2027 17:10:37.172   03 Jun 2027 17:11:00.273            23.101                Anadyr2           721.906
       364   03 Jun 2027 17:12:01.872   03 Jun 2027 17:12:30.558            28.686               Magadan2           896.437
       365   03 Jun 2027 17:14:18.307   03 Jun 2027 17:15:49.465            91.158               Magadan1          2848.688
       366   03 Jun 2027 17:16:57.073   03 Jun 2027 17:17:48.850            51.777               Magadan2          1618.031
       367   03 Jun 2027 18:44:54.397   03 Jun 2027 18:46:51.954           117.557                Anadyr1          3673.656
       368   03 Jun 2027 18:47:10.358   03 Jun 2027 18:48:00.308            49.950                Anadyr2          1560.937
       369   03 Jun 2027 18:48:01.884   03 Jun 2027 18:50:12.147           130.263               Magadan2          4070.719
       370   03 Jun 2027 18:50:18.106   03 Jun 2027 18:51:03.909            45.803               Magadan2          1431.344
       371   03 Jun 2027 18:55:40.285   03 Jun 2027 18:55:42.509             2.224               Magadan1            69.500
       372   03 Jun 2027 18:56:13.158   03 Jun 2027 18:56:15.238             2.080               Magadan1            65.000
       373   03 Jun 2027 18:56:25.834   03 Jun 2027 18:57:15.448            49.614               Magadan1          1550.437
       374   03 Jun 2027 19:40:52.093   03 Jun 2027 19:43:34.659           162.566            RioGallegos          5080.187
       375   03 Jun 2027 19:46:07.963   03 Jun 2027 19:46:59.190            51.227            RioGallegos          1600.844
       376   03 Jun 2027 20:22:52.439   03 Jun 2027 20:25:06.340           133.901                Norilsk          4184.406
       377   03 Jun 2027 20:25:22.705   03 Jun 2027 20:26:11.617            48.912                Norilsk          1528.500
       378   03 Jun 2027 20:27:42.385   03 Jun 2027 20:28:32.392            50.007                Irkutsk          1562.719
       379   03 Jun 2027 20:29:47.293   03 Jun 2027 20:30:27.525            40.232                Norilsk          1257.250
       380   03 Jun 2027 20:30:43.607   03 Jun 2027 20:31:00.296            16.689                Irkutsk           521.531
       381   03 Jun 2027 20:32:06.720   03 Jun 2027 20:32:57.203            50.483                Irkutsk          1577.594
       382   03 Jun 2027 20:42:29.270   03 Jun 2027 20:44:56.465           147.195                Sumatra          4599.844
       383   03 Jun 2027 20:47:50.391   03 Jun 2027 20:48:20.617            30.226                Sumatra           944.563
       384   03 Jun 2027 21:59:15.181   03 Jun 2027 22:00:00.261            45.080                Norilsk          1408.750
       385   03 Jun 2027 22:00:29.435   03 Jun 2027 22:00:37.022             7.587                Norilsk           237.094
       386   03 Jun 2027 22:00:54.490   03 Jun 2027 22:01:39.171            44.681               Magadan1          1396.281
       387   03 Jun 2027 22:02:33.028   03 Jun 2027 22:03:56.350            83.322                Irkutsk          2603.813
       388   03 Jun 2027 22:04:10.840   03 Jun 2027 22:04:27.095            16.255                Novosib           507.969
       389   03 Jun 2027 22:09:23.934   03 Jun 2027 22:10:28.238            64.304                Novosib          2009.500
       390   03 Jun 2027 22:12:48.885   03 Jun 2027 22:15:18.028           149.143                  Delhi          4660.719
       391   03 Jun 2027 22:15:47.396   03 Jun 2027 22:18:01.202           133.806                  Delhi          4181.438
       392   03 Jun 2027 23:35:14.959   03 Jun 2027 23:35:39.635            24.676               Magadan2           771.125
       393   03 Jun 2027 23:37:31.611   03 Jun 2027 23:39:17.637           106.026              Murmansk2          3313.312
       394   03 Jun 2027 23:39:57.476   03 Jun 2027 23:42:34.174           156.698              Murmansk1          4896.813
       395   03 Jun 2027 23:55:21.867   03 Jun 2027 23:55:42.300            20.433                  Delhi           638.531
       396   04 Jun 2027 01:03:18.284   04 Jun 2027 01:04:39.640            81.356                Anadyr2          2542.375
       397   04 Jun 2027 01:05:19.856   04 Jun 2027 01:06:26.604            66.748                Anadyr1          2085.875
       398   04 Jun 2027 01:09:17.609   04 Jun 2027 01:11:04.893           107.284               Magadan2          3352.625
       399   04 Jun 2027 01:11:23.507   04 Jun 2027 01:13:02.646            99.139               Magadan2          3098.094
       400   04 Jun 2027 01:13:24.720   04 Jun 2027 01:15:05.254           100.534              Murmansk1          3141.688
       401   04 Jun 2027 01:22:07.312   04 Jun 2027 01:22:12.952             5.640                 Moscow           176.250
       402   04 Jun 2027 01:23:44.854   04 Jun 2027 01:25:49.866           125.012                 Moscow          3906.625
       403   04 Jun 2027 02:37:11.387   04 Jun 2027 02:39:46.125           154.738                Anadyr2          4835.563
       404   04 Jun 2027 02:40:55.680   04 Jun 2027 02:41:23.726            28.046               Magadan2           876.437
       405   04 Jun 2027 02:43:21.437   04 Jun 2027 02:43:51.749            30.312               Magadan2           947.250
       406   04 Jun 2027 02:48:12.137   04 Jun 2027 02:48:21.133             8.996                Norilsk           281.125
       407   04 Jun 2027 02:48:44.964   04 Jun 2027 02:49:05.946            20.982              Murmansk2           655.687
       408   04 Jun 2027 02:49:09.930   04 Jun 2027 02:50:25.979            76.049              Murmansk1          2376.531
       409   04 Jun 2027 02:51:19.855   04 Jun 2027 02:52:00.082            40.227                Novosib          1257.094
       410   04 Jun 2027 02:55:16.503   04 Jun 2027 02:55:30.368            13.865                 Moscow           433.281
       411   04 Jun 2027 03:15:51.449   04 Jun 2027 03:16:26.215            34.766               CapeTown          1086.437
       412   04 Jun 2027 03:16:40.900   04 Jun 2027 03:18:21.263           100.363               CapeTown          3136.344
       413   04 Jun 2027 04:19:20.000   04 Jun 2027 04:19:27.938             7.938               Magadan2           248.063
       414   04 Jun 2027 04:19:49.102   04 Jun 2027 04:21:58.100           128.998                Anadyr1          4031.187
       415   04 Jun 2027 04:21:58.100   04 Jun 2027 04:22:17.534            19.434                Anadyr2           607.312
       416   04 Jun 2027 04:22:43.622   04 Jun 2027 04:23:29.799            46.177               Magadan1          1443.031
       417   04 Jun 2027 04:23:29.799   04 Jun 2027 04:24:15.852            46.053               Magadan2          1439.156
       418   04 Jun 2027 05:56:36.558   04 Jun 2027 05:59:38.814           182.256                Anadyr1          5695.500
       419   04 Jun 2027 05:59:38.814   04 Jun 2027 06:00:38.487            59.673                Anadyr2          1864.781
       420   04 Jun 2027 07:31:08.251   04 Jun 2027 07:31:40.317            32.066                Norilsk          1002.062
       421   04 Jun 2027 07:31:58.072   04 Jun 2027 07:35:05.018           186.946                Anadyr2          5842.062
       422   04 Jun 2027 07:35:09.639   04 Jun 2027 07:35:33.823            24.184                Irkutsk           755.750
       423   04 Jun 2027 07:35:34.615   04 Jun 2027 07:36:47.410            72.795              Murmansk2          2274.844
       424   04 Jun 2027 08:11:42.331   04 Jun 2027 08:13:32.735           110.404            RioGallegos          3450.125
       425   04 Jun 2027 08:48:07.042   04 Jun 2027 08:48:55.671            48.629                Sumatra          1519.656
       426   04 Jun 2027 09:06:50.352   04 Jun 2027 09:07:07.597            17.245                Irkutsk           538.906
       427   04 Jun 2027 09:07:09.117   04 Jun 2027 09:08:13.208            64.091                Irkutsk          2002.844
       428   04 Jun 2027 09:08:24.888   04 Jun 2027 09:08:29.533             4.645                Irkutsk           145.156
       429   04 Jun 2027 09:08:37.748   04 Jun 2027 09:08:57.346            19.598                Novosib           612.437
       430   04 Jun 2027 09:08:58.885   04 Jun 2027 09:09:42.044            43.159                Irkutsk          1348.719
       431   04 Jun 2027 09:09:51.122   04 Jun 2027 09:10:14.359            23.237                Novosib           726.156
       432   04 Jun 2027 09:10:21.800   04 Jun 2027 09:11:07.330            45.530              Murmansk1          1422.812
       433   04 Jun 2027 09:11:10.705   04 Jun 2027 09:12:06.794            56.089                Norilsk          1752.781
       434   04 Jun 2027 09:12:07.872   04 Jun 2027 09:12:30.513            22.641              Murmansk1           707.531
       435   04 Jun 2027 09:12:41.192   04 Jun 2027 09:12:55.049            13.857                Novosib           433.031
       436   04 Jun 2027 09:13:11.575   04 Jun 2027 09:13:18.856             7.281              Murmansk2           227.531
       437   04 Jun 2027 09:13:18.930   04 Jun 2027 09:14:14.153            55.223                Novosib          1725.719
       438   04 Jun 2027 09:48:17.305   04 Jun 2027 09:48:26.014             8.709            RioGallegos           272.156
       439   04 Jun 2027 09:50:27.896   04 Jun 2027 09:50:52.686            24.790            RioGallegos           774.688
       440   04 Jun 2027 10:22:36.741   04 Jun 2027 10:23:50.178            73.437                Sumatra          2294.906
       441   04 Jun 2027 10:31:28.367   04 Jun 2027 10:32:07.084            38.717                  Delhi          1209.906
       442   04 Jun 2027 10:43:14.638   04 Jun 2027 10:43:17.371             2.733                Irkutsk            85.406
       443   04 Jun 2027 10:43:46.251   04 Jun 2027 10:44:08.796            22.545                Irkutsk           704.531
       444   04 Jun 2027 10:44:10.807   04 Jun 2027 10:44:27.982            17.175                Norilsk           536.719
       445   04 Jun 2027 10:44:33.681   04 Jun 2027 10:44:34.681             1.000                Novosib            31.250
       446   04 Jun 2027 10:44:38.213   04 Jun 2027 10:45:12.228            34.015                Irkutsk          1062.969
       447   04 Jun 2027 10:45:17.073   04 Jun 2027 10:46:11.183            54.110              Murmansk2          1690.937
       448   04 Jun 2027 10:46:15.591   04 Jun 2027 10:46:15.979             0.388                Novosib            12.125
       449   04 Jun 2027 10:46:18.749   04 Jun 2027 10:46:31.347            12.598              Murmansk2           393.687
       450   04 Jun 2027 10:46:31.347   04 Jun 2027 10:47:09.034            37.687              Murmansk1          1177.719
       451   04 Jun 2027 10:47:11.111   04 Jun 2027 10:48:03.729            52.618                 Moscow          1644.313
       452   04 Jun 2027 12:07:20.979   04 Jun 2027 12:09:12.910           111.931                  Delhi          3497.844
       453   04 Jun 2027 12:11:18.029   04 Jun 2027 12:11:21.399             3.370                  Delhi           105.312
       454   04 Jun 2027 12:11:46.255   04 Jun 2027 12:12:33.768            47.513                  Delhi          1484.781
       455   04 Jun 2027 12:15:38.221   04 Jun 2027 12:16:58.176            79.955                Novosib          2498.594
       456   04 Jun 2027 12:18:40.847   04 Jun 2027 12:19:04.056            23.209              Murmansk2           725.281
       457   04 Jun 2027 12:19:04.056   04 Jun 2027 12:20:06.864            62.808              Murmansk1          1962.750
       458   04 Jun 2027 12:29:58.610   04 Jun 2027 12:30:16.498            17.888              Murmansk1           559.000
       459   04 Jun 2027 13:51:01.578   04 Jun 2027 13:54:14.671           193.093                 Moscow          6034.156
       460   04 Jun 2027 13:54:33.081   04 Jun 2027 13:56:21.007           107.926              Murmansk2          3372.688
       461   04 Jun 2027 13:56:34.275   04 Jun 2027 13:57:16.967            42.692              Murmansk1          1334.125
       462   04 Jun 2027 14:00:26.103   04 Jun 2027 14:01:33.882            67.779                Norilsk          2118.094
       463   04 Jun 2027 14:02:14.289   04 Jun 2027 14:02:39.262            24.973                Norilsk           780.406
       464   04 Jun 2027 14:11:23.456   04 Jun 2027 14:14:09.878           166.422                Anadyr2          5200.688
       465   04 Jun 2027 15:13:38.102   04 Jun 2027 15:14:16.347            38.245               CapeTown          1195.156
       466   04 Jun 2027 15:32:14.426   04 Jun 2027 15:32:34.101            19.675              Murmansk1           614.844
       467   04 Jun 2027 15:33:02.391   04 Jun 2027 15:33:42.641            40.250              Murmansk2          1257.812
       468   04 Jun 2027 15:33:59.628   04 Jun 2027 15:35:40.797           101.169              Murmansk2          3161.531
       469   04 Jun 2027 15:45:16.020   04 Jun 2027 15:47:27.415           131.395                Anadyr2          4106.094
       470   04 Jun 2027 16:45:23.717   04 Jun 2027 16:45:30.616             6.899               CapeTown           215.594
       471   04 Jun 2027 16:46:38.340   04 Jun 2027 16:46:46.139             7.799               CapeTown           243.719
       472   04 Jun 2027 16:47:05.962   04 Jun 2027 16:48:14.258            68.296               CapeTown          2134.250
       473   04 Jun 2027 17:12:32.956   04 Jun 2027 17:14:29.333           116.377              Murmansk2          3636.781
       474   04 Jun 2027 17:15:48.053   04 Jun 2027 17:17:24.963            96.910              Murmansk2          3028.437
       475   04 Jun 2027 17:20:59.997   04 Jun 2027 17:21:15.328            15.331                Anadyr1           479.094
       476   04 Jun 2027 17:21:15.328   04 Jun 2027 17:21:53.222            37.894                Anadyr2          1184.187
       477   04 Jun 2027 17:23:51.925   04 Jun 2027 17:24:32.201            40.276               Magadan1          1258.625
       478   04 Jun 2027 17:26:03.497   04 Jun 2027 17:27:47.564           104.067               Magadan1          3252.094
       479   04 Jun 2027 18:56:55.658   04 Jun 2027 18:58:53.538           117.880                Anadyr1          3683.750
       480   04 Jun 2027 18:58:58.373   04 Jun 2027 19:00:36.569            98.196                Anadyr2          3068.625
       481   04 Jun 2027 19:00:36.619   04 Jun 2027 19:01:28.242            51.623               Magadan2          1613.219
       482   04 Jun 2027 19:01:59.270   04 Jun 2027 19:02:21.302            22.032               Magadan2           688.500
