uniorb/output/strategy_1/Drop/Drop_KinoSat_110104.txt

KinoSat_110104
-------------------------
    Access    *     Start Time (UTCG)     *     Stop Time (UTCG)  *   Duration (s)        *       Station  *  Data (Mbytes)
         1   01 Jun 2027 04:18:48.844   01 Jun 2027 04:19:18.513            29.669                Norilsk          3708.625
         2   01 Jun 2027 04:19:21.035   01 Jun 2027 04:19:51.911            30.876                Novosib          3859.500
         3   01 Jun 2027 04:20:15.365   01 Jun 2027 04:20:41.539            26.174              Murmansk2          3271.750
         4   01 Jun 2027 04:20:44.897   01 Jun 2027 04:21:00.543            15.646              Murmansk2          1955.750
         5   01 Jun 2027 04:21:07.622   01 Jun 2027 04:21:43.728            36.106              Murmansk2          4513.250
         6   01 Jun 2027 04:21:58.761   01 Jun 2027 04:22:50.694            51.933                Irkutsk          6491.625
         7   01 Jun 2027 04:23:09.819   01 Jun 2027 04:23:29.032            19.213              Murmansk2          2401.625
         8   01 Jun 2027 04:23:55.760   01 Jun 2027 04:24:22.166            26.406                Norilsk          3300.750
         9   01 Jun 2027 04:24:44.748   01 Jun 2027 04:24:50.438             5.690                Norilsk           711.250
        10   01 Jun 2027 05:00:56.571   01 Jun 2027 05:02:34.135            97.564            RioGallegos         12195.500
        11   01 Jun 2027 05:35:37.104   01 Jun 2027 05:37:53.696           136.592                Sumatra         17074.000
        12   01 Jun 2027 05:40:49.146   01 Jun 2027 05:42:44.116           114.970                  Delhi         14371.250
        13   01 Jun 2027 05:48:36.131   01 Jun 2027 05:50:28.472           112.341                  Delhi         14042.625
        14   01 Jun 2027 05:58:32.519   01 Jun 2027 05:59:15.086            42.567                Novosib          5320.875
        15   01 Jun 2027 05:59:28.088   01 Jun 2027 05:59:46.107            18.019              Murmansk1          2252.375
        16   01 Jun 2027 07:22:36.256   01 Jun 2027 07:24:17.068           100.812                  Delhi         12601.500
        17   01 Jun 2027 07:30:30.049   01 Jun 2027 07:31:06.625            36.576                 Moscow          4572.000
        18   01 Jun 2027 07:31:25.452   01 Jun 2027 07:31:42.162            16.710                Novosib          2088.750
        19   01 Jun 2027 07:31:57.091   01 Jun 2027 07:32:35.499            38.408                Norilsk          4801.000
        20   01 Jun 2027 07:32:46.441   01 Jun 2027 07:34:14.224            87.783              Murmansk2         10972.875
        21   01 Jun 2027 07:34:34.633   01 Jun 2027 07:34:44.993            10.360                Norilsk          1295.000
        22   01 Jun 2027 07:34:49.424   01 Jun 2027 07:36:32.402           102.978                 Moscow         12872.250
        23   01 Jun 2027 08:40:24.249   01 Jun 2027 08:43:20.632           176.383               CapeTown         22047.875
        24   01 Jun 2027 08:48:04.909   01 Jun 2027 08:49:27.442            82.533               CapeTown         10316.625
        25   01 Jun 2027 10:55:17.840   01 Jun 2027 10:55:39.816            21.976                Anadyr1          2747.000
        26   01 Jun 2027 12:33:36.409   01 Jun 2027 12:33:42.714             6.305               Magadan2           788.125
        27   01 Jun 2027 12:34:38.172   01 Jun 2027 12:35:53.492            75.320               Magadan1          9415.000
        28   01 Jun 2027 12:38:57.385   01 Jun 2027 12:42:21.117           203.732               Magadan2         25466.500
        29   01 Jun 2027 15:01:17.018   01 Jun 2027 15:02:59.556           102.538            RioGallegos         12817.250
        30   01 Jun 2027 15:06:09.365   01 Jun 2027 15:06:42.875            33.510            RioGallegos          4188.750
        31   01 Jun 2027 15:48:58.342   01 Jun 2027 15:50:32.041            93.699                Irkutsk         11712.375
        32   01 Jun 2027 15:57:53.578   01 Jun 2027 15:59:45.269           111.691                Irkutsk         13961.375
        33   01 Jun 2027 16:02:39.023   01 Jun 2027 16:05:46.327           187.304                Sumatra         23413.000
        34   01 Jun 2027 17:27:40.404   01 Jun 2027 17:29:47.096           126.692                Novosib         15836.500
        35   01 Jun 2027 17:32:18.740   01 Jun 2027 17:38:01.853           343.113                  Delhi         27910.500
        36   02 Jun 2027 05:52:55.757   02 Jun 2027 05:57:41.305           285.548                  Delhi         35693.500
        37   02 Jun 2027 06:09:38.285   02 Jun 2027 06:10:30.254            51.969                Norilsk          6496.125
        38   02 Jun 2027 06:10:33.275   02 Jun 2027 06:10:41.055             7.780              Murmansk2           972.500
        39   02 Jun 2027 07:42:19.287   02 Jun 2027 07:43:11.873            52.586                 Moscow          6573.250
        40   02 Jun 2027 07:43:36.288   02 Jun 2027 07:44:02.225            25.937              Murmansk1          3242.125
        41   02 Jun 2027 07:44:02.225   02 Jun 2027 07:44:43.675            41.450              Murmansk2          5181.250
        42   02 Jun 2027 07:45:01.902   02 Jun 2027 07:45:57.549            55.647                 Moscow          6955.875
        43   02 Jun 2027 07:46:07.770   02 Jun 2027 07:47:19.250            71.480              Murmansk1          8935.000
        44   02 Jun 2027 08:51:54.276   02 Jun 2027 08:59:19.731           445.455               CapeTown         55681.875
        45   02 Jun 2027 12:51:53.567   02 Jun 2027 12:52:29.038            35.471               Magadan2          4433.875
        46   02 Jun 2027 12:55:07.213   02 Jun 2027 12:55:08.367             1.154               Magadan1           144.250
        47   02 Jun 2027 15:13:10.651   02 Jun 2027 15:15:30.442           139.791            RioGallegos         17473.875
        48   02 Jun 2027 15:20:43.158   02 Jun 2027 15:22:41.392           118.234            RioGallegos         14779.250
        49   02 Jun 2027 16:00:55.528   02 Jun 2027 16:02:06.252            70.724                Irkutsk          8840.500
        50   02 Jun 2027 16:03:49.063   02 Jun 2027 16:05:57.758           128.695                Irkutsk         16086.875
        51   02 Jun 2027 16:14:38.866   02 Jun 2027 16:17:07.765           148.899                Sumatra         18612.375
        52   02 Jun 2027 17:39:44.651   02 Jun 2027 17:41:42.364           117.713                Novosib         14714.125
        53   02 Jun 2027 17:44:11.243   02 Jun 2027 17:47:08.387           177.144                  Delhi         22143.000
        54   02 Jun 2027 20:50:17.474   02 Jun 2027 20:50:52.435            34.961                 Moscow          4370.125
        55   02 Jun 2027 20:51:21.743   02 Jun 2027 20:53:29.275           127.532                 Moscow         15941.500
        56   03 Jun 2027 03:10:16.165   03 Jun 2027 03:10:54.069            37.904                Norilsk          4738.000
        57   03 Jun 2027 03:11:05.185   03 Jun 2027 03:11:29.992            24.807              Murmansk2          3100.875
        58   03 Jun 2027 03:11:41.824   03 Jun 2027 03:12:27.134            45.310                Novosib          5663.750
        59   03 Jun 2027 03:46:08.977   03 Jun 2027 03:48:31.602           142.625            RioGallegos         17828.125
        60   03 Jun 2027 03:50:01.006   03 Jun 2027 03:50:25.698            24.692            RioGallegos          3086.500
        61   03 Jun 2027 04:20:40.892   03 Jun 2027 04:22:41.599           120.707                Sumatra         15088.375
        62   03 Jun 2027 04:42:58.691   03 Jun 2027 04:43:25.265            26.574              Murmansk1          3321.750
        63   03 Jun 2027 04:43:34.104   03 Jun 2027 04:43:44.014             9.910              Murmansk2          1238.750
        64   03 Jun 2027 04:43:45.946   03 Jun 2027 04:45:07.091            81.145                Irkutsk         10143.125
        65   03 Jun 2027 04:45:29.755   03 Jun 2027 04:45:34.566             4.811              Murmansk1           601.375
        66   03 Jun 2027 04:45:41.746   03 Jun 2027 04:46:18.881            37.135                Novosib          4641.875
        67   03 Jun 2027 04:46:23.569   03 Jun 2027 04:47:16.681            53.112                Novosib          6639.000
        68   03 Jun 2027 04:48:19.432   03 Jun 2027 04:48:37.790            18.358                Novosib          2294.750
        69   03 Jun 2027 06:05:08.149   03 Jun 2027 06:07:33.222           145.073                  Delhi         18134.125
        70   03 Jun 2027 06:11:19.653   03 Jun 2027 06:12:19.774            60.121                  Delhi          7515.125
        71   03 Jun 2027 06:19:50.712   03 Jun 2027 06:20:09.859            19.147              Murmansk2          2393.375
        72   03 Jun 2027 06:20:26.577   03 Jun 2027 06:20:59.840            33.263              Murmansk2          4157.875
        73   03 Jun 2027 06:21:14.999   03 Jun 2027 06:22:21.249            66.250                Norilsk          8281.250
        74   03 Jun 2027 06:22:28.415   03 Jun 2027 06:23:06.431            38.016                Novosib          4752.000
        75   03 Jun 2027 07:55:17.668   03 Jun 2027 07:56:13.275            55.607                 Moscow          6950.875
        76   03 Jun 2027 07:56:34.981   03 Jun 2027 07:57:26.406            51.425              Murmansk2          6428.125
        77   03 Jun 2027 07:57:52.330   03 Jun 2027 07:58:47.605            55.275                 Moscow          6909.375
        78   03 Jun 2027 09:03:32.593   03 Jun 2027 09:10:01.782           389.189               CapeTown         48648.625
        79   03 Jun 2027 11:22:46.470   03 Jun 2027 11:22:53.203             6.733               Magadan2           841.625
        80   03 Jun 2027 12:57:33.722   03 Jun 2027 13:00:10.964           157.242               Magadan2         19655.250
        81   03 Jun 2027 14:53:47.649   03 Jun 2027 14:54:47.969            60.320                Sumatra          7540.000
        82   03 Jun 2027 15:25:06.100   03 Jun 2027 15:26:46.631           100.531            RioGallegos         12566.375
        83   03 Jun 2027 15:33:56.758   03 Jun 2027 15:35:57.908           121.150            RioGallegos         15143.750
        84   03 Jun 2027 16:17:51.603   03 Jun 2027 16:20:01.413           129.810                Irkutsk         16226.250
        85   03 Jun 2027 16:26:44.346   03 Jun 2027 16:28:19.622            95.276                Sumatra         11909.500
        86   03 Jun 2027 17:49:19.707   03 Jun 2027 17:49:58.180            38.473                Novosib          4809.125
        87   03 Jun 2027 17:51:59.955   03 Jun 2027 17:52:53.012            53.057                Novosib          6632.125
        88   03 Jun 2027 17:56:07.440   03 Jun 2027 17:58:30.368           142.928                  Delhi         17866.000
        89   03 Jun 2027 18:03:18.745   03 Jun 2027 18:05:41.364           142.619                  Delhi         17827.375
        90   03 Jun 2027 21:02:17.762   03 Jun 2027 21:02:43.957            26.195                 Moscow          3274.375
        91   03 Jun 2027 21:05:34.966   03 Jun 2027 21:05:56.824            21.858                 Moscow          2732.250
        92   03 Jun 2027 21:28:27.037   03 Jun 2027 21:30:21.529           114.492               CapeTown         14311.500
        93   04 Jun 2027 02:59:21.289   04 Jun 2027 03:01:22.176           120.887                Sumatra         15110.875
        94   04 Jun 2027 03:22:27.580   04 Jun 2027 03:23:14.096            46.516                Novosib          5814.500
        95   04 Jun 2027 03:24:48.223   04 Jun 2027 03:25:18.166            29.943              Murmansk1          3742.875
        96   04 Jun 2027 03:58:25.861   04 Jun 2027 04:00:03.768            97.907            RioGallegos         12238.375
        97   04 Jun 2027 04:32:49.285   04 Jun 2027 04:34:31.154           101.869                Sumatra         12733.625
        98   04 Jun 2027 04:35:39.521   04 Jun 2027 04:37:30.259           110.738                Sumatra         13842.250
        99   04 Jun 2027 04:55:33.604   04 Jun 2027 04:55:46.106            12.502                Novosib          1562.750
       100   04 Jun 2027 04:55:48.292   04 Jun 2027 04:57:37.517           109.225                Irkutsk         13653.125
       101   04 Jun 2027 04:57:58.485   04 Jun 2027 04:58:13.036            14.551                Norilsk          1818.875
       102   04 Jun 2027 04:58:30.227   04 Jun 2027 04:59:12.514            42.287                Norilsk          5285.875
       103   04 Jun 2027 06:17:26.967   04 Jun 2027 06:19:41.295           134.328                  Delhi         16791.000
       104   04 Jun 2027 06:19:47.761   04 Jun 2027 06:22:57.932           190.171                  Delhi         23771.375
       105   04 Jun 2027 06:32:57.504   04 Jun 2027 06:33:45.971            48.467              Murmansk1          6058.375
       106   04 Jun 2027 06:34:01.991   04 Jun 2027 06:35:41.208            99.217                Novosib         12402.125
       107   04 Jun 2027 08:08:23.479   04 Jun 2027 08:09:14.123            50.644                 Moscow          6330.500
       108   04 Jun 2027 08:09:26.855   04 Jun 2027 08:09:57.029            30.174              Murmansk2          3771.750
       109   04 Jun 2027 09:15:16.814   04 Jun 2027 09:21:16.540           359.726               CapeTown         44965.750
       110   04 Jun 2027 11:31:19.818   04 Jun 2027 11:31:29.114             9.296                Anadyr2          1162.000
       111   04 Jun 2027 11:32:39.604   04 Jun 2027 11:34:27.705           108.101                Anadyr1         13512.625
       112   04 Jun 2027 13:09:33.377   04 Jun 2027 13:10:01.993            28.616               Magadan1          3577.000
       113   04 Jun 2027 13:10:19.035   04 Jun 2027 13:15:35.528           316.493               Magadan2         39561.625
       114   04 Jun 2027 15:04:49.087   04 Jun 2027 15:08:08.555           199.468                Sumatra         24933.500
       115   04 Jun 2027 15:13:11.538   04 Jun 2027 15:13:36.074            24.536                Sumatra          3067.000
       116   04 Jun 2027 16:29:47.178   04 Jun 2027 16:31:27.117            99.939                Irkutsk         12492.375
       117   04 Jun 2027 16:38:55.794   04 Jun 2027 16:38:57.770             1.976                Sumatra           247.000
       118   04 Jun 2027 16:39:57.886   04 Jun 2027 16:42:07.695           129.809                  Delhi         16226.125
       119   04 Jun 2027 18:00:47.155   04 Jun 2027 18:01:11.705            24.550                Novosib          3068.750
       120   04 Jun 2027 18:02:29.631   04 Jun 2027 18:04:05.022            95.391                Novosib         11923.875
       121   04 Jun 2027 18:08:07.048   04 Jun 2027 18:09:46.067            99.019                  Delhi         12377.375
       122   04 Jun 2027 18:15:40.555   04 Jun 2027 18:17:43.589           123.034                  Delhi         15379.250
       123   04 Jun 2027 19:42:39.187   04 Jun 2027 19:44:17.532            98.345                 Moscow         12293.125
       124   04 Jun 2027 21:23:54.415   04 Jun 2027 21:24:08.234            13.819                 Moscow          1727.375
       125   04 Jun 2027 21:38:15.837   04 Jun 2027 21:39:43.020            87.183               CapeTown         10897.875
       126   04 Jun 2027 21:43:57.919   04 Jun 2027 21:46:04.573           126.654               CapeTown         15831.750
       127   05 Jun 2027 03:10:11.716   05 Jun 2027 03:15:29.396           317.680                Sumatra         39710.000
       128   05 Jun 2027 03:17:47.512   05 Jun 2027 03:18:48.306            60.794                Sumatra          7599.250
       129   05 Jun 2027 03:34:54.572   05 Jun 2027 03:35:12.793            18.221                Norilsk          2277.625
       130   05 Jun 2027 04:10:47.184   05 Jun 2027 04:12:43.490           116.306            RioGallegos         14538.250
       131   05 Jun 2027 04:14:10.176   05 Jun 2027 04:14:43.435            33.259            RioGallegos          4157.375
       132   05 Jun 2027 04:45:03.974   05 Jun 2027 04:45:31.580            27.606                Sumatra          3450.750
       133   05 Jun 2027 04:47:04.342   05 Jun 2027 04:47:26.547            22.205                Sumatra          2775.625
       134   05 Jun 2027 04:52:27.175   05 Jun 2027 04:52:35.993             8.818                Sumatra          1102.250
       135   05 Jun 2027 05:00:51.527   05 Jun 2027 05:00:55.968             4.441                  Delhi           555.125
       136   05 Jun 2027 05:07:53.936   05 Jun 2027 05:08:09.698            15.762                Irkutsk          1970.250
       137   05 Jun 2027 05:08:22.576   05 Jun 2027 05:08:30.754             8.178              Murmansk1          1022.250
       138   05 Jun 2027 05:08:40.662   05 Jun 2027 05:09:54.923            74.261                Novosib          9282.625
       139   05 Jun 2027 05:10:14.334   05 Jun 2027 05:10:18.899             4.565                Irkutsk           570.625
       140   05 Jun 2027 05:10:24.358   05 Jun 2027 05:10:41.317            16.959              Murmansk1          2119.875
       141   05 Jun 2027 05:11:25.807   05 Jun 2027 05:11:38.346            12.539                Norilsk          1567.375
       142   05 Jun 2027 05:11:47.790   05 Jun 2027 05:12:27.467            39.677                Novosib          4959.625
       143   05 Jun 2027 05:12:34.312   05 Jun 2027 05:12:38.696             4.384                Novosib           548.000
       144   05 Jun 2027 05:14:38.631   05 Jun 2027 05:15:01.279            22.648              Murmansk1          2831.000
       145   05 Jun 2027 06:29:53.276   05 Jun 2027 06:33:18.850           205.574                  Delhi         25696.750
       146   05 Jun 2027 06:44:21.897   05 Jun 2027 06:44:53.856            31.959              Murmansk1          3994.875
       147   05 Jun 2027 06:45:04.029   05 Jun 2027 06:45:11.743             7.714                Norilsk           964.250
       148   05 Jun 2027 06:45:18.227   05 Jun 2027 06:45:26.615             8.388              Murmansk1          1048.500
       149   05 Jun 2027 06:45:32.324   05 Jun 2027 06:45:32.432             0.108                Norilsk            13.500
       150   05 Jun 2027 06:45:33.133   05 Jun 2027 06:45:53.178            20.045                Novosib          2505.625
       151   05 Jun 2027 06:46:02.770   05 Jun 2027 06:47:02.085            59.315              Murmansk2          7414.375
       152   05 Jun 2027 06:47:09.546   05 Jun 2027 06:47:54.611            45.065                Norilsk          5633.125
       153   05 Jun 2027 09:27:05.611   05 Jun 2027 09:32:45.460           339.849               CapeTown         42481.125
       154   05 Jun 2027 10:17:07.485   05 Jun 2027 10:17:08.935             1.450                Anadyr1           181.250
       155   05 Jun 2027 11:43:20.917   05 Jun 2027 11:43:27.508             6.591                Anadyr1           823.875
       156   05 Jun 2027 11:44:17.776   05 Jun 2027 11:45:04.451            46.675                Anadyr2          5834.375
       157   05 Jun 2027 11:46:23.579   05 Jun 2027 11:48:25.335           121.756               Magadan1         15219.500
       158   05 Jun 2027 13:21:33.565   05 Jun 2027 13:24:23.990           170.425               Magadan2         21303.125
       159   05 Jun 2027 13:28:57.729   05 Jun 2027 13:31:08.547           130.818               Magadan1         16352.250
       160   05 Jun 2027 15:05:03.115   05 Jun 2027 15:05:29.112            25.997                Irkutsk          3249.625
       161   05 Jun 2027 15:15:55.221   05 Jun 2027 15:23:37.277           462.056                Sumatra         57757.000
       162   05 Jun 2027 16:41:19.397   05 Jun 2027 16:43:49.441           150.044                Novosib         18755.500
       163   05 Jun 2027 16:45:56.922   05 Jun 2027 16:46:16.089            19.167                  Delhi          2395.875
       164   05 Jun 2027 16:50:36.195   05 Jun 2027 16:55:05.007           268.812                  Delhi         33601.500
       165   05 Jun 2027 21:29:37.483   05 Jun 2027 21:31:05.898            88.415                 Moscow         11051.875
       166   05 Jun 2027 21:50:22.363   05 Jun 2027 21:51:14.911            52.548               CapeTown          6568.500
       167   05 Jun 2027 22:00:31.528   05 Jun 2027 22:02:39.730           128.202               CapeTown         16025.250
       168   06 Jun 2027 03:23:07.582   06 Jun 2027 03:28:51.355           343.773                Sumatra         42971.625
       169   06 Jun 2027 04:59:06.788   06 Jun 2027 05:01:28.729           141.941                Sumatra         17742.625
       170   06 Jun 2027 05:05:16.325   06 Jun 2027 05:08:03.738           167.413                  Delhi         20926.625
       171   06 Jun 2027 05:21:38.412   06 Jun 2027 05:22:10.553            32.141                Novosib          4017.625
       172   06 Jun 2027 05:22:38.352   06 Jun 2027 05:22:42.489             4.137              Murmansk1           517.125
       173   06 Jun 2027 05:23:06.813   06 Jun 2027 05:23:33.333            26.520                Novosib          3315.000
       174   06 Jun 2027 05:24:56.988   06 Jun 2027 05:25:19.913            22.925              Murmansk1          2865.625
       175   06 Jun 2027 05:25:33.570   06 Jun 2027 05:26:14.638            41.068              Murmansk1          5133.500
       176   06 Jun 2027 06:42:28.944   06 Jun 2027 06:44:15.287           106.343                  Delhi         13292.875
       177   06 Jun 2027 06:48:37.186   06 Jun 2027 06:48:40.750             3.564                  Delhi           445.500
       178   06 Jun 2027 06:56:20.312   06 Jun 2027 06:56:48.968            28.656              Murmansk1          3582.000
       179   06 Jun 2027 06:57:10.774   06 Jun 2027 06:58:05.079            54.305                Norilsk          6788.125
       180   06 Jun 2027 06:58:08.256   06 Jun 2027 06:59:03.541            55.285                 Moscow          6910.625
       181   06 Jun 2027 09:38:58.172   06 Jun 2027 09:42:15.166           196.994               CapeTown         24624.250
       182   06 Jun 2027 10:23:03.675   06 Jun 2027 10:24:27.258            83.583                Anadyr1         10447.875
       183   06 Jun 2027 10:29:02.312   06 Jun 2027 10:29:46.722            44.410                Anadyr1          5551.250
       184   06 Jun 2027 11:55:22.149   06 Jun 2027 11:55:26.563             4.414                Anadyr1           551.750
       185   06 Jun 2027 11:58:04.889   06 Jun 2027 12:01:30.724           205.835               Magadan2         25729.375
       186   06 Jun 2027 13:33:34.213   06 Jun 2027 13:35:19.738           105.525               Magadan1         13190.625
       187   06 Jun 2027 13:38:49.611   06 Jun 2027 13:41:12.441           142.830               Magadan1         17853.750
       188   06 Jun 2027 15:17:12.667   06 Jun 2027 15:18:43.885            91.218                Irkutsk         11402.250
       189   06 Jun 2027 15:27:29.306   06 Jun 2027 15:29:20.870           111.564                Sumatra         13945.500
       190   06 Jun 2027 15:31:46.555   06 Jun 2027 15:34:16.213           149.658                Sumatra         18707.250
       191   06 Jun 2027 16:52:09.553   06 Jun 2027 16:54:06.355           116.802                Novosib         14600.250
       192   06 Jun 2027 16:57:24.858   06 Jun 2027 17:05:02.874           458.016                  Delhi         57252.000
       193   06 Jun 2027 20:08:08.587   06 Jun 2027 20:10:34.647           146.060                 Moscow         18257.500
       194   06 Jun 2027 22:02:36.460   06 Jun 2027 22:02:53.074            16.614               CapeTown          2076.750
       195   06 Jun 2027 22:05:07.757   06 Jun 2027 22:06:58.851           111.094               CapeTown         13886.750
       196   07 Jun 2027 03:33:19.355   07 Jun 2027 03:39:47.733           388.378                Sumatra         48547.250
       197   07 Jun 2027 04:37:29.560   07 Jun 2027 04:38:25.047            55.487            RioGallegos          6935.875
       198   07 Jun 2027 05:09:57.547   07 Jun 2027 05:11:43.335           105.788                Sumatra         13223.500
       199   07 Jun 2027 05:17:06.963   07 Jun 2027 05:20:10.996           184.033                  Delhi         23004.125
       200   07 Jun 2027 05:34:12.455   07 Jun 2027 05:35:12.444            59.989                Norilsk          7498.625
       201   07 Jun 2027 05:36:25.422   07 Jun 2027 05:36:36.498            11.076                Novosib          1384.500
       202   07 Jun 2027 05:38:11.766   07 Jun 2027 05:38:34.173            22.407                Norilsk          2800.875
       203   07 Jun 2027 06:55:17.579   07 Jun 2027 06:57:37.944           140.365                  Delhi         17545.625
       204   07 Jun 2027 07:08:41.907   07 Jun 2027 07:09:10.201            28.294                Norilsk          3536.750
       205   07 Jun 2027 07:09:13.527   07 Jun 2027 07:09:52.995            39.468              Murmansk1          4933.500
       206   07 Jun 2027 07:10:03.326   07 Jun 2027 07:11:01.218            57.892                Novosib          7236.500
       207   07 Jun 2027 07:11:12.792   07 Jun 2027 07:12:11.225            58.433                 Moscow          7304.125
       208   07 Jun 2027 09:50:53.981   07 Jun 2027 09:53:08.972           134.991               CapeTown         16873.875
       209   07 Jun 2027 10:31:33.199   07 Jun 2027 10:31:37.707             4.508                Anadyr1           563.500
       210   07 Jun 2027 10:31:37.707   07 Jun 2027 10:32:09.996            32.289                Anadyr2          4036.125
       211   07 Jun 2027 10:33:30.706   07 Jun 2027 10:36:27.076           176.370                Anadyr2         22046.250
       212   07 Jun 2027 12:07:23.482   07 Jun 2027 12:08:15.055            51.573                Anadyr1          6446.625
       213   07 Jun 2027 12:09:57.589   07 Jun 2027 12:11:50.837           113.248               Magadan2         14156.000
       214   07 Jun 2027 12:14:26.725   07 Jun 2027 12:14:49.799            23.074               Magadan2          2884.250
       215   07 Jun 2027 12:16:03.456   07 Jun 2027 12:18:33.087           149.631               Magadan1         18703.875
       216   07 Jun 2027 13:45:35.248   07 Jun 2027 13:45:46.972            11.724               Magadan2          1465.500
       217   07 Jun 2027 13:47:43.795   07 Jun 2027 13:48:54.922            71.127               Magadan1          8890.875
       218   07 Jun 2027 14:40:02.140   07 Jun 2027 14:41:10.376            68.236            RioGallegos          8529.500
       219   07 Jun 2027 15:28:45.803   07 Jun 2027 15:30:05.726            79.923                Irkutsk          9990.375
       220   07 Jun 2027 15:30:46.303   07 Jun 2027 15:33:43.298           176.995                Irkutsk         22124.375
       221   07 Jun 2027 15:41:41.133   07 Jun 2027 15:45:23.997           222.864                Sumatra         27858.000
       222   07 Jun 2027 17:06:16.701   07 Jun 2027 17:09:17.811           181.110                Novosib         22638.750
       223   07 Jun 2027 17:10:19.560   07 Jun 2027 17:15:38.067           318.507                  Delhi         39813.375
       224   07 Jun 2027 20:14:36.464   07 Jun 2027 20:15:53.639            77.175                 Moscow          9646.875
       225   07 Jun 2027 20:17:08.134   07 Jun 2027 20:19:40.536           152.402                 Moscow         19050.250
       226   07 Jun 2027 22:22:12.418   07 Jun 2027 22:24:02.187           109.769               CapeTown         13721.125
       227   08 Jun 2027 03:45:04.614   08 Jun 2027 03:47:48.547           163.933                Sumatra         20491.625
       228   08 Jun 2027 04:48:24.553   08 Jun 2027 04:49:06.360            41.807            RioGallegos          5225.875
       229   08 Jun 2027 04:49:26.445   08 Jun 2027 04:49:42.748            16.303            RioGallegos          2037.875
       230   08 Jun 2027 04:54:25.668   08 Jun 2027 04:54:37.645            11.977            RioGallegos          1497.125
       231   08 Jun 2027 04:55:09.894   08 Jun 2027 04:55:38.178            28.284            RioGallegos          3535.500
       232   08 Jun 2027 05:22:42.832   08 Jun 2027 05:24:31.988           109.156                Sumatra         13644.500
       233   08 Jun 2027 05:29:02.937   08 Jun 2027 05:31:42.613           159.676                  Delhi         19959.500
       234   08 Jun 2027 05:46:16.406   08 Jun 2027 05:46:45.094            28.688                Norilsk          3586.000
       235   08 Jun 2027 05:48:54.822   08 Jun 2027 05:49:16.357            21.535                Norilsk          2691.875
       236   08 Jun 2027 05:52:29.798   08 Jun 2027 05:52:33.417             3.619              Murmansk1           452.375
       237   08 Jun 2027 07:08:28.143   08 Jun 2027 07:10:06.875            98.732                  Delhi         12341.500
       238   08 Jun 2027 07:12:16.398   08 Jun 2027 07:13:00.505            44.107                  Delhi          5513.375
       239   08 Jun 2027 07:18:25.557   08 Jun 2027 07:18:58.039            32.482                 Moscow          4060.250
       240   08 Jun 2027 07:18:58.809   08 Jun 2027 07:19:06.341             7.532                Novosib           941.500
       241   08 Jun 2027 07:19:19.951   08 Jun 2027 07:20:08.473            48.522                 Moscow          6065.250
       242   08 Jun 2027 07:20:13.773   08 Jun 2027 07:20:35.742            21.969              Murmansk1          2746.125
       243   08 Jun 2027 07:20:45.310   08 Jun 2027 07:21:09.984            24.674                Norilsk          3084.250
       244   08 Jun 2027 07:21:20.686   08 Jun 2027 07:21:38.109            17.423                 Moscow          2177.875
       245   08 Jun 2027 07:21:40.892   08 Jun 2027 07:22:36.042            55.150              Murmansk2          6893.750
       246   08 Jun 2027 07:22:59.714   08 Jun 2027 07:23:05.554             5.840              Murmansk2           730.000
       247   08 Jun 2027 07:23:07.210   08 Jun 2027 07:23:35.076            27.866                 Moscow          3483.250
       248   08 Jun 2027 07:23:46.848   08 Jun 2027 07:25:12.019            85.171                Norilsk         10646.375
       249   08 Jun 2027 08:29:21.386   08 Jun 2027 08:30:15.498            54.112               CapeTown          6764.000
       250   08 Jun 2027 10:02:52.723   08 Jun 2027 10:04:27.945            95.222               CapeTown         11902.750
       251   08 Jun 2027 10:12:28.221   08 Jun 2027 10:13:38.836            70.615               CapeTown          8826.875
       252   08 Jun 2027 10:43:32.791   08 Jun 2027 10:45:08.054            95.263                Anadyr1         11907.875
       253   08 Jun 2027 10:49:28.612   08 Jun 2027 10:52:44.594           195.982                Anadyr2         24497.750
       254   08 Jun 2027 12:21:53.922   08 Jun 2027 12:23:15.120            81.198               Magadan2         10149.750
       255   08 Jun 2027 12:27:06.042   08 Jun 2027 12:27:43.140            37.098               Magadan2          4637.250
       256   08 Jun 2027 12:29:41.060   08 Jun 2027 12:31:26.151           105.091               Magadan1         13136.375
       257   08 Jun 2027 14:10:23.163   08 Jun 2027 14:10:29.343             6.180               Magadan2           772.500
       258   08 Jun 2027 14:50:21.991   08 Jun 2027 14:54:30.350           248.359            RioGallegos         31044.875
       259   08 Jun 2027 15:37:17.436   08 Jun 2027 15:39:25.224           127.788                Irkutsk         15973.500
       260   08 Jun 2027 15:50:59.601   08 Jun 2027 15:53:54.334           174.733                Sumatra         21841.625
       261   08 Jun 2027 17:13:05.151   08 Jun 2027 17:14:18.030            72.879                Novosib          9109.875
       262   08 Jun 2027 17:19:18.048   08 Jun 2027 17:22:08.047           169.999                Novosib         21249.875
       263   08 Jun 2027 17:22:48.432   08 Jun 2027 17:26:49.468           241.036                  Delhi         30129.500
       264   08 Jun 2027 18:56:39.775   08 Jun 2027 18:58:37.227           117.452                  Delhi         14681.500
       265   08 Jun 2027 20:26:47.435   08 Jun 2027 20:27:33.133            45.698                 Moscow          5712.250
       266   08 Jun 2027 22:02:28.150   08 Jun 2027 22:03:28.696            60.546                 Moscow          7568.250
       267   08 Jun 2027 22:27:24.405   08 Jun 2027 22:28:50.029            85.624               CapeTown         10703.000
       268   09 Jun 2027 03:56:56.060   09 Jun 2027 04:01:28.650           272.590                Sumatra         34073.750
       269   09 Jun 2027 05:35:54.068   09 Jun 2027 05:38:08.135           134.067                Sumatra         16758.375
       270   09 Jun 2027 05:41:04.211   09 Jun 2027 05:42:58.273           114.062                  Delhi         14257.750
       271   09 Jun 2027 05:58:26.803   09 Jun 2027 06:00:00.660            93.857              Murmansk1         11732.125
       272   09 Jun 2027 07:22:59.296   09 Jun 2027 07:24:24.338            85.042                  Delhi         10630.250
       273   09 Jun 2027 07:30:18.285   09 Jun 2027 07:30:54.033            35.748                 Moscow          4468.500
       274   09 Jun 2027 07:31:21.542   09 Jun 2027 07:33:24.447           122.905              Murmansk1         15363.125
       275   09 Jun 2027 07:33:38.115   09 Jun 2027 07:34:55.369            77.254                 Moscow          9656.750
       276   09 Jun 2027 07:35:01.883   09 Jun 2027 07:35:46.076            44.193              Murmansk1          5524.125
       277   09 Jun 2027 08:40:38.473   09 Jun 2027 08:43:50.385           191.912               CapeTown         23989.000
       278   09 Jun 2027 08:48:12.792   09 Jun 2027 08:49:43.452            90.660               CapeTown         11332.500
       279   09 Jun 2027 10:58:06.957   09 Jun 2027 10:58:17.642            10.685                Anadyr1          1335.625
       280   09 Jun 2027 11:02:45.842   09 Jun 2027 11:03:04.013            18.171               Magadan1          2271.375
       281   09 Jun 2027 11:04:29.371   09 Jun 2027 11:05:07.609            38.238                Anadyr1          4779.750
       282   09 Jun 2027 11:05:22.797   09 Jun 2027 11:07:43.610           140.813                Anadyr1         17601.625
       283   09 Jun 2027 12:33:51.337   09 Jun 2027 12:34:52.605            61.268               Magadan2          7658.500
       284   09 Jun 2027 12:39:11.465   09 Jun 2027 12:41:51.227           159.762               Magadan2         19970.250
       285   09 Jun 2027 14:14:22.452   09 Jun 2027 14:14:50.545            28.093               Magadan2          3511.625
       286   09 Jun 2027 15:03:15.091   09 Jun 2027 15:05:38.250           143.159            RioGallegos         17894.875
       287   09 Jun 2027 15:06:32.242   09 Jun 2027 15:06:57.372            25.130            RioGallegos          3141.250
       288   09 Jun 2027 15:49:13.244   09 Jun 2027 15:50:46.297            93.053                Irkutsk         11631.625
       289   09 Jun 2027 15:54:20.714   09 Jun 2027 15:55:23.654            62.940                Irkutsk          7867.500
       290   09 Jun 2027 15:58:09.140   09 Jun 2027 15:58:45.420            36.280                Irkutsk          4535.000
       291   09 Jun 2027 16:02:53.944   09 Jun 2027 16:06:01.398           187.454                Sumatra         23431.750
       292   09 Jun 2027 17:27:55.663   09 Jun 2027 17:30:01.818           126.155                Novosib         15769.375
       293   09 Jun 2027 17:32:33.519   09 Jun 2027 17:38:16.193           342.674                  Delhi         42834.250
       294   09 Jun 2027 20:37:55.239   09 Jun 2027 20:39:02.365            67.126              Murmansk2          8390.750
       295   09 Jun 2027 20:41:35.670   09 Jun 2027 20:43:28.733           113.063                 Moscow         14132.875
       296   09 Jun 2027 22:40:01.090   09 Jun 2027 22:40:46.380            45.290               CapeTown          5661.250
       297   10 Jun 2027 04:08:53.229   10 Jun 2027 04:11:53.279           180.050                Sumatra         22506.250
       298   10 Jun 2027 04:35:01.187   10 Jun 2027 04:35:26.915            25.728              Murmansk1          3216.000
       299   10 Jun 2027 04:35:30.464   10 Jun 2027 04:36:24.266            53.802                Novosib          6725.250
       300   10 Jun 2027 05:53:10.938   10 Jun 2027 05:56:12.724           181.786                  Delhi         22723.250
       301   10 Jun 2027 05:58:43.923   10 Jun 2027 06:00:58.707           134.784                  Delhi         16848.000
       302   10 Jun 2027 06:09:53.335   10 Jun 2027 06:10:22.179            28.844                Norilsk          3605.500
       303   10 Jun 2027 06:10:40.699   10 Jun 2027 06:12:05.199            84.500                Novosib         10562.500
       304   10 Jun 2027 07:42:15.300   10 Jun 2027 07:42:33.954            18.654                 Moscow          2331.750
       305   10 Jun 2027 07:42:48.752   10 Jun 2027 07:44:16.633            87.881              Murmansk1         10985.125
       306   10 Jun 2027 07:44:36.553   10 Jun 2027 07:45:22.786            46.233              Murmansk2          5779.125
       307   10 Jun 2027 07:45:28.157   10 Jun 2027 07:45:57.652            29.495                 Moscow          3686.875
       308   10 Jun 2027 07:46:11.411   10 Jun 2027 07:47:32.179            80.768                 Moscow         10096.000
       309   10 Jun 2027 08:52:08.716   10 Jun 2027 08:59:32.577           443.861               CapeTown         55482.625
       310   10 Jun 2027 12:45:49.641   10 Jun 2027 12:46:36.822            47.181               Magadan2          5897.625
       311   10 Jun 2027 12:46:54.190   10 Jun 2027 12:48:26.371            92.181               Magadan1         11522.625
       312   10 Jun 2027 12:50:03.688   10 Jun 2027 12:52:43.146           159.458               Magadan2         19932.250
       313   10 Jun 2027 15:13:25.511   10 Jun 2027 15:15:44.315           138.804            RioGallegos         17350.500
       314   10 Jun 2027 15:20:59.142   10 Jun 2027 15:22:56.283           117.141            RioGallegos         14642.625
       315   10 Jun 2027 16:01:10.460   10 Jun 2027 16:02:20.646            70.186                Irkutsk          8773.250
       316   10 Jun 2027 16:04:04.318   10 Jun 2027 16:06:12.452           128.134                Irkutsk         16016.750
       317   10 Jun 2027 16:14:53.909   10 Jun 2027 16:17:21.659           147.750                Sumatra         18468.750
       318   10 Jun 2027 17:40:00.297   10 Jun 2027 17:41:57.114           116.817                Novosib         14602.125
       319   10 Jun 2027 17:44:26.106   10 Jun 2027 17:47:23.605           177.499                  Delhi         22187.375
       320   10 Jun 2027 17:53:00.144   10 Jun 2027 17:53:57.353            57.209                  Delhi          7151.125
       321   10 Jun 2027 20:47:23.579   10 Jun 2027 20:48:04.691            41.112              Murmansk2          5139.000
       322   10 Jun 2027 20:50:08.280   10 Jun 2027 20:51:38.953            90.673              Murmansk2         11334.125
       323   10 Jun 2027 20:53:44.410   10 Jun 2027 20:54:26.664            42.254                 Moscow          5281.750
       324   10 Jun 2027 21:17:50.149   10 Jun 2027 21:19:52.476           122.327               CapeTown         15290.875
       325   11 Jun 2027 03:07:58.010   11 Jun 2027 03:08:22.678            24.668               Magadan1          3083.500
       326   11 Jun 2027 03:08:42.614   11 Jun 2027 03:09:26.682            44.068               Magadan1          5508.500
       327   11 Jun 2027 03:10:17.967   11 Jun 2027 03:10:42.777            24.810                Irkutsk          3101.250
       328   11 Jun 2027 03:10:48.284   11 Jun 2027 03:11:08.333            20.049              Murmansk1          2506.125
       329   11 Jun 2027 03:11:09.369   11 Jun 2027 03:11:33.676            24.307                Norilsk          3038.375
       330   11 Jun 2027 03:13:51.758   11 Jun 2027 03:14:28.635            36.877                Norilsk          4609.625
       331   11 Jun 2027 03:46:24.268   11 Jun 2027 03:48:45.860           141.592            RioGallegos         17699.000
       332   11 Jun 2027 03:50:15.760   11 Jun 2027 03:50:44.515            28.755            RioGallegos          3594.375
       333   11 Jun 2027 04:20:55.990   11 Jun 2027 04:22:55.628           119.638                Sumatra         14954.750
       334   11 Jun 2027 04:43:18.518   11 Jun 2027 04:43:23.675             5.157                 Moscow           644.625
       335   11 Jun 2027 04:43:32.633   11 Jun 2027 04:43:58.057            25.424                Novosib          3178.000
       336   11 Jun 2027 04:44:00.396   11 Jun 2027 04:44:28.564            28.168                 Moscow          3521.000
       337   11 Jun 2027 04:44:30.889   11 Jun 2027 04:45:33.960            63.071                Novosib          7883.875
       338   11 Jun 2027 04:45:53.695   11 Jun 2027 04:46:03.133             9.438                Novosib          1179.750
       339   11 Jun 2027 04:46:09.286   11 Jun 2027 04:46:25.414            16.128              Murmansk1          2016.000
       340   11 Jun 2027 04:46:33.358   11 Jun 2027 04:47:35.023            61.665                Novosib          7708.125
       341   11 Jun 2027 04:48:34.165   11 Jun 2027 04:48:40.930             6.765                Novosib           845.625
       342   11 Jun 2027 05:27:42.871   11 Jun 2027 05:27:54.943            12.072            RioGallegos          1509.000
       343   11 Jun 2027 05:31:19.522   11 Jun 2027 05:31:32.373            12.851            RioGallegos          1606.375
       344   11 Jun 2027 06:05:23.457   11 Jun 2027 06:09:51.397           267.940                  Delhi         33492.500
       345   11 Jun 2027 06:20:58.944   11 Jun 2027 06:21:07.835             8.891                 Moscow          1111.375
       346   11 Jun 2027 06:21:16.604   11 Jun 2027 06:21:47.925            31.321              Murmansk1          3915.125
       347   11 Jun 2027 06:21:47.925   11 Jun 2027 06:22:10.878            22.953              Murmansk2          2869.125
       348   11 Jun 2027 06:22:18.946   11 Jun 2027 06:22:29.609            10.663                 Moscow          1332.875
       349   11 Jun 2027 06:22:38.026   11 Jun 2027 06:23:20.743            42.717              Murmansk1          5339.625
       350   11 Jun 2027 06:23:22.072   11 Jun 2027 06:23:59.770            37.698                Novosib          4712.250
       351   11 Jun 2027 07:55:16.777   11 Jun 2027 07:56:49.918            93.141              Murmansk2         11642.625
       352   11 Jun 2027 07:56:56.050   11 Jun 2027 07:57:20.595            24.545              Murmansk1          3068.125
       353   11 Jun 2027 07:57:31.175   11 Jun 2027 07:58:10.054            38.879                 Moscow          4859.875
       354   11 Jun 2027 09:03:47.180   11 Jun 2027 09:10:15.635           388.455               CapeTown         48556.875
       355   11 Jun 2027 11:19:33.898   11 Jun 2027 11:20:26.663            52.765                Anadyr1          6595.625
       356   11 Jun 2027 12:57:48.685   11 Jun 2027 13:04:10.890           382.205               Magadan2         47775.625
       357   11 Jun 2027 14:54:00.988   11 Jun 2027 14:55:11.618            70.630                Sumatra          8828.750
       358   11 Jun 2027 15:25:20.999   11 Jun 2027 15:27:00.847            99.848            RioGallegos         12481.000
       359   11 Jun 2027 15:34:12.357   11 Jun 2027 15:36:12.253           119.896            RioGallegos         14987.000
       360   11 Jun 2027 16:26:59.507   11 Jun 2027 16:28:33.757            94.250                Sumatra         11781.250
       361   11 Jun 2027 16:34:41.509   11 Jun 2027 16:36:42.732           121.223                Sumatra         15152.875
       362   11 Jun 2027 17:50:13.379   11 Jun 2027 17:52:15.077           121.698                Novosib         15212.250
       363   11 Jun 2027 17:56:22.379   11 Jun 2027 17:58:44.304           141.925                  Delhi         17740.625
       364   11 Jun 2027 21:02:32.758   11 Jun 2027 21:02:58.557            25.799                 Moscow          3224.875
       365   11 Jun 2027 21:04:09.478   11 Jun 2027 21:05:50.042           100.564                 Moscow         12570.500
       366   11 Jun 2027 21:12:07.984   11 Jun 2027 21:12:27.867            19.883                 Moscow          2485.375
       367   11 Jun 2027 21:28:36.803   11 Jun 2027 21:29:39.303            62.500               CapeTown          7812.500
       368   11 Jun 2027 21:30:38.608   11 Jun 2027 21:31:35.043            56.435               CapeTown          7054.375
       369   12 Jun 2027 02:59:33.678   12 Jun 2027 03:01:47.561           133.883                Sumatra         16735.375
       370   12 Jun 2027 03:21:58.624   12 Jun 2027 03:22:33.165            34.541              Murmansk2          4317.625
       371   12 Jun 2027 03:22:51.853   12 Jun 2027 03:23:46.803            54.950                Novosib          6868.750
       372   12 Jun 2027 03:23:57.906   12 Jun 2027 03:24:20.756            22.850              Murmansk2          2856.250
       373   12 Jun 2027 03:26:42.713   12 Jun 2027 03:27:02.654            19.941              Murmansk2          2492.625
       374   12 Jun 2027 03:58:41.239   12 Jun 2027 04:00:18.070            96.831            RioGallegos         12103.875
       375   12 Jun 2027 04:33:04.512   12 Jun 2027 04:35:54.298           169.786                Sumatra         21223.250
       376   12 Jun 2027 04:55:27.739   12 Jun 2027 04:56:03.487            35.748              Murmansk1          4468.500
       377   12 Jun 2027 04:56:23.324   12 Jun 2027 04:56:51.310            27.986                Norilsk          3498.250
       378   12 Jun 2027 04:57:09.234   12 Jun 2027 04:58:27.172            77.938              Murmansk1          9742.250
       379   12 Jun 2027 04:58:28.982   12 Jun 2027 04:58:47.729            18.747                Norilsk          2343.375
       380   12 Jun 2027 04:59:02.581   12 Jun 2027 04:59:07.338             4.757              Murmansk1           594.625
       381   12 Jun 2027 05:00:39.537   12 Jun 2027 05:00:53.583            14.046                Novosib          1755.750
       382   12 Jun 2027 05:02:45.398   12 Jun 2027 05:02:57.157            11.759              Murmansk1          1469.875
       383   12 Jun 2027 06:17:42.418   12 Jun 2027 06:21:52.079           249.661                  Delhi         31207.625
       384   12 Jun 2027 06:32:32.327   12 Jun 2027 06:33:14.605            42.278                 Moscow          5284.750
       385   12 Jun 2027 06:33:27.762   12 Jun 2027 06:34:39.589            71.827                 Moscow          8978.375
       386   12 Jun 2027 08:08:39.107   12 Jun 2027 08:09:57.112            78.005                 Moscow          9750.625
       387   12 Jun 2027 09:15:31.511   12 Jun 2027 09:21:30.728           359.217               CapeTown         44902.125
       388   12 Jun 2027 11:31:34.819   12 Jun 2027 11:34:42.871           188.052                Anadyr2         23506.500
       389   12 Jun 2027 13:09:48.355   12 Jun 2027 13:12:52.110           183.755               Magadan1         22969.375
       390   12 Jun 2027 13:13:30.424   12 Jun 2027 13:14:39.898            69.474               Magadan1          8684.250
       391   12 Jun 2027 15:05:00.119   12 Jun 2027 15:08:37.427           217.308                Sumatra         27163.500
       392   12 Jun 2027 15:13:17.877   12 Jun 2027 15:13:50.376            32.499                Sumatra          4062.375
       393   12 Jun 2027 16:34:43.189   12 Jun 2027 16:35:14.692            31.503                Irkutsk          3937.875
       394   12 Jun 2027 16:36:19.044   12 Jun 2027 16:38:00.775           101.731                Irkutsk         12716.375
       395   12 Jun 2027 16:40:10.158   12 Jun 2027 16:42:24.133           133.975                  Delhi         16746.875
       396   12 Jun 2027 18:01:02.154   12 Jun 2027 18:01:26.312            24.158                Novosib          3019.750
       397   12 Jun 2027 18:02:44.752   12 Jun 2027 18:04:20.080            95.328                Novosib         11916.000
       398   12 Jun 2027 18:08:22.059   12 Jun 2027 18:11:34.677           192.618                  Delhi         24077.250
       399   12 Jun 2027 19:42:34.651   12 Jun 2027 19:44:32.024           117.373                 Moscow         14671.625
       400   12 Jun 2027 21:38:28.953   12 Jun 2027 21:39:57.283            88.330               CapeTown         11041.250
       401   12 Jun 2027 21:41:38.862   12 Jun 2027 21:43:22.909           104.047               CapeTown         13005.875
       402   13 Jun 2027 03:10:25.951   13 Jun 2027 03:16:21.152           355.201                Sumatra         44400.125
       403   13 Jun 2027 03:17:30.902   13 Jun 2027 03:18:59.770            88.868                Sumatra         11108.500
       404   13 Jun 2027 03:36:53.864   13 Jun 2027 03:37:02.346             8.482                Norilsk          1060.250
       405   13 Jun 2027 04:13:07.661   13 Jun 2027 04:13:18.901            11.240            RioGallegos          1405.000
       406   13 Jun 2027 04:15:23.126   13 Jun 2027 04:15:24.234             1.108            RioGallegos           138.500
       407   13 Jun 2027 04:20:57.795   13 Jun 2027 04:21:11.536            13.741            RioGallegos          1717.625
       408   13 Jun 2027 04:22:25.137   13 Jun 2027 04:22:29.218             4.081            RioGallegos           510.125
       409   13 Jun 2027 04:45:19.341   13 Jun 2027 04:47:41.193           141.852                Sumatra         17731.500
       410   13 Jun 2027 04:52:50.852   13 Jun 2027 04:55:03.218           132.366                Sumatra         16545.750
       411   13 Jun 2027 05:08:21.621   13 Jun 2027 05:10:30.155           128.534                Irkutsk         16066.750
       412   13 Jun 2027 06:30:08.900   13 Jun 2027 06:31:40.898            91.998                  Delhi         11499.750
       413   13 Jun 2027 06:45:03.956   13 Jun 2027 06:46:36.067            92.111                 Moscow         11513.875
       414   13 Jun 2027 06:47:16.673   13 Jun 2027 06:48:37.831            81.158              Murmansk2         10144.750
       415   13 Jun 2027 09:27:20.397   13 Jun 2027 09:29:50.569           150.172               CapeTown         18771.500
       416   13 Jun 2027 10:17:24.946   13 Jun 2027 10:17:46.448            21.502                Anadyr1          2687.750
       417   13 Jun 2027 11:43:35.923   13 Jun 2027 11:43:42.197             6.274                Anadyr1           784.250
       418   13 Jun 2027 11:44:33.832   13 Jun 2027 11:44:46.531            12.699                Anadyr2          1587.375
       419   13 Jun 2027 11:45:19.494   13 Jun 2027 11:46:50.346            90.852                Anadyr1         11356.500
       420   13 Jun 2027 11:51:08.047   13 Jun 2027 11:52:27.308            79.261                Anadyr2          9907.625
       421   13 Jun 2027 13:21:48.555   13 Jun 2027 13:24:37.929           169.374               Magadan1         21171.750
       422   13 Jun 2027 13:25:00.700   13 Jun 2027 13:26:21.712            81.012               Magadan2         10126.500
       423   13 Jun 2027 14:57:47.077   13 Jun 2027 14:58:21.434            34.357               Magadan2          4294.625
       424   13 Jun 2027 15:05:06.137   13 Jun 2027 15:05:53.046            46.909                Irkutsk          5863.625
       425   13 Jun 2027 15:16:09.567   13 Jun 2027 15:23:50.268           460.701                Sumatra         57587.625
       426   13 Jun 2027 16:40:58.488   13 Jun 2027 16:44:14.278           195.790                Novosib         24473.750
       427   13 Jun 2027 16:46:11.101   13 Jun 2027 16:46:47.549            36.448                  Delhi          4556.000
       428   13 Jun 2027 16:50:42.009   13 Jun 2027 16:55:19.378           277.369                  Delhi         34671.125
       429   13 Jun 2027 19:55:43.718   13 Jun 2027 19:56:16.073            32.355                 Moscow          4044.375
       430   13 Jun 2027 19:57:25.748   13 Jun 2027 19:58:54.436            88.688                 Moscow         11086.000
       431   13 Jun 2027 21:50:37.583   13 Jun 2027 21:53:08.437           150.854               CapeTown         18856.750
