uniorb/output/strategy_1/Drop/Drop_KinoSat_111202.txt

KinoSat_111202
-------------------------
    Access    *     Start Time (UTCG)     *     Stop Time (UTCG)  *   Duration (s)        *       Station  *  Data (Mbytes)
         1   01 Jun 2027 04:02:15.920   01 Jun 2027 04:02:40.091            24.171                Norilsk           755.344
         2   01 Jun 2027 04:02:54.296   01 Jun 2027 04:03:22.862            28.566                 Moscow           892.688
         3   01 Jun 2027 04:03:28.501   01 Jun 2027 04:04:49.821            81.320                 Moscow          2541.250
         4   01 Jun 2027 04:04:58.196   01 Jun 2027 04:05:59.554            61.358              Murmansk2          1917.437
         5   01 Jun 2027 04:06:15.914   01 Jun 2027 04:06:50.988            35.074              Murmansk2          1096.063
         6   01 Jun 2027 04:09:25.971   01 Jun 2027 04:09:45.160            19.189                 Moscow           599.656
         7   01 Jun 2027 05:25:40.504   01 Jun 2027 05:27:07.007            86.503                Anadyr1          2703.219
         8   01 Jun 2027 05:27:19.929   01 Jun 2027 05:28:25.867            65.938                Anadyr2          2060.562
         9   01 Jun 2027 05:28:54.730   01 Jun 2027 05:30:45.352           110.622               Magadan2          3456.937
        10   01 Jun 2027 07:02:14.053   01 Jun 2027 07:03:01.790            47.737                Anadyr1          1491.781
        11   01 Jun 2027 07:03:09.745   01 Jun 2027 07:03:59.610            49.865                Irkutsk          1558.281
        12   01 Jun 2027 07:04:11.887   01 Jun 2027 07:06:16.657           124.770                Norilsk          3899.063
        13   01 Jun 2027 07:07:02.863   01 Jun 2027 07:08:12.849            69.986                Norilsk          2187.063
        14   01 Jun 2027 07:42:38.862   01 Jun 2027 07:43:00.881            22.019            RioGallegos           688.094
        15   01 Jun 2027 07:43:20.570   01 Jun 2027 07:44:06.522            45.952            RioGallegos          1436.000
        16   01 Jun 2027 07:45:28.930   01 Jun 2027 07:45:40.470            11.540            RioGallegos           360.625
        17   01 Jun 2027 08:36:32.280   01 Jun 2027 08:36:34.182             1.902                Novosib            59.437
        18   01 Jun 2027 08:36:48.075   01 Jun 2027 08:39:43.950           175.875                Irkutsk          5496.094
        19   01 Jun 2027 08:39:47.646   01 Jun 2027 08:41:50.861           123.215               Magadan2          3850.469
        20   01 Jun 2027 08:42:03.155   01 Jun 2027 08:43:15.997            72.842                Novosib          2276.313
        21   01 Jun 2027 09:20:25.074   01 Jun 2027 09:20:47.752            22.678            RioGallegos           708.688
        22   01 Jun 2027 09:52:17.757   01 Jun 2027 09:54:55.900           158.143                Sumatra          4941.969
        23   01 Jun 2027 10:13:30.661   01 Jun 2027 10:14:42.944            72.283                Norilsk          2258.844
        24   01 Jun 2027 10:14:53.613   01 Jun 2027 10:16:05.598            71.985                Novosib          2249.531
        25   01 Jun 2027 10:16:16.838   01 Jun 2027 10:16:23.410             6.572                Novosib           205.375
        26   01 Jun 2027 10:16:24.959   01 Jun 2027 10:16:51.767            26.808              Murmansk1           837.750
        27   01 Jun 2027 10:16:51.767   01 Jun 2027 10:17:53.442            61.675              Murmansk2          1927.344
        28   01 Jun 2027 10:17:58.374   01 Jun 2027 10:18:43.289            44.915                 Moscow          1403.594
        29   01 Jun 2027 10:55:30.820   01 Jun 2027 10:55:43.665            12.845            RioGallegos           401.406
        30   01 Jun 2027 11:29:48.421   01 Jun 2027 11:32:20.435           152.014                Sumatra          4750.437
        31   01 Jun 2027 11:38:12.781   01 Jun 2027 11:39:14.169            61.388                  Delhi          1918.375
        32   01 Jun 2027 11:51:30.938   01 Jun 2027 11:52:27.163            56.225                Irkutsk          1757.031
        33   01 Jun 2027 11:52:51.863   01 Jun 2027 11:53:38.545            46.682              Murmansk2          1458.813
        34   01 Jun 2027 11:53:40.710   01 Jun 2027 11:53:54.023            13.313                Norilsk           416.031
        35   01 Jun 2027 11:54:02.797   01 Jun 2027 11:54:14.291            11.494                 Moscow           359.188
        36   01 Jun 2027 11:54:22.085   01 Jun 2027 11:55:08.602            46.517              Murmansk1          1453.656
        37   01 Jun 2027 11:55:11.721   01 Jun 2027 11:55:37.420            25.699                 Moscow           803.094
        38   01 Jun 2027 13:16:06.711   01 Jun 2027 13:16:50.530            43.819                  Delhi          1369.344
        39   01 Jun 2027 13:19:31.144   01 Jun 2027 13:20:12.495            41.351                  Delhi          1292.219
        40   01 Jun 2027 13:20:49.606   01 Jun 2027 13:23:11.432           141.826                 Moscow          4432.063
        41   01 Jun 2027 13:23:59.297   01 Jun 2027 13:25:08.072            68.775                Novosib          2149.219
        42   01 Jun 2027 13:25:20.854   01 Jun 2027 13:26:33.650            72.796              Murmansk1          2274.875
        43   01 Jun 2027 13:26:37.373   01 Jun 2027 13:27:14.647            37.274              Murmansk2          1164.813
        44   01 Jun 2027 13:27:17.513   01 Jun 2027 13:28:11.954            54.441                Novosib          1701.281
        45   01 Jun 2027 13:29:22.763   01 Jun 2027 13:29:54.812            32.049                Norilsk          1001.531
        46   01 Jun 2027 13:31:32.835   01 Jun 2027 13:32:08.083            35.248                Norilsk          1101.500
        47   01 Jun 2027 13:33:40.041   01 Jun 2027 13:34:24.222            44.181                Norilsk          1380.656
        48   01 Jun 2027 13:35:06.961   01 Jun 2027 13:35:22.207            15.246              Murmansk1           476.438
        49   01 Jun 2027 13:35:55.017   01 Jun 2027 13:37:00.975            65.958              Murmansk2          2061.188
        50   01 Jun 2027 14:36:38.905   01 Jun 2027 14:38:58.900           139.995               CapeTown          4374.844
        51   01 Jun 2027 14:40:22.593   01 Jun 2027 14:40:29.070             6.477               CapeTown           202.406
        52   01 Jun 2027 14:41:30.714   01 Jun 2027 14:43:30.443           119.729               CapeTown          3741.531
        53   01 Jun 2027 15:01:48.375   01 Jun 2027 15:02:39.685            51.310                 Moscow          1603.438
        54   01 Jun 2027 15:03:44.472   01 Jun 2027 15:03:51.853             7.381              Murmansk2           230.656
        55   01 Jun 2027 15:04:09.273   01 Jun 2027 15:04:59.032            49.759              Murmansk2          1554.969
        56   01 Jun 2027 15:06:09.818   01 Jun 2027 15:06:33.835            24.017              Murmansk2           750.531
        57   01 Jun 2027 15:07:03.437   01 Jun 2027 15:07:46.019            42.582                 Moscow          1330.688
        58   01 Jun 2027 15:08:16.988   01 Jun 2027 15:09:14.416            57.428                 Moscow          1794.625
        59   01 Jun 2027 15:10:23.644   01 Jun 2027 15:10:31.958             8.314              Murmansk2           259.812
        60   01 Jun 2027 15:11:08.122   01 Jun 2027 15:11:48.489            40.367              Murmansk1          1261.469
        61   01 Jun 2027 15:12:24.634   01 Jun 2027 15:12:59.380            34.746              Murmansk1          1085.813
        62   01 Jun 2027 15:15:29.681   01 Jun 2027 15:16:38.787            69.106                Anadyr1          2159.562
        63   01 Jun 2027 15:18:34.974   01 Jun 2027 15:19:51.738            76.764                Anadyr2          2398.875
        64   01 Jun 2027 15:19:51.738   01 Jun 2027 15:20:25.448            33.710                Anadyr1          1053.437
        65   01 Jun 2027 15:21:00.354   01 Jun 2027 15:21:43.811            43.457                Anadyr2          1358.031
        66   01 Jun 2027 15:22:40.717   01 Jun 2027 15:23:12.246            31.529                Anadyr2           985.281
        67   01 Jun 2027 16:39:15.691   01 Jun 2027 16:39:39.280            23.589              Murmansk2           737.156
        68   01 Jun 2027 16:40:18.765   01 Jun 2027 16:41:55.930            97.165                 Moscow          3036.406
        69   01 Jun 2027 16:44:18.433   01 Jun 2027 16:44:29.616            11.183              Murmansk1           349.469
        70   01 Jun 2027 16:45:02.155   01 Jun 2027 16:45:28.468            26.313              Murmansk1           822.281
        71   01 Jun 2027 16:46:17.487   01 Jun 2027 16:47:13.924            56.437              Murmansk1          1763.656
        72   01 Jun 2027 16:47:13.924   01 Jun 2027 16:47:51.345            37.421              Murmansk2          1169.406
        73   01 Jun 2027 16:52:35.139   01 Jun 2027 16:52:49.428            14.289                Anadyr2           446.531
        74   01 Jun 2027 16:53:32.587   01 Jun 2027 16:54:07.171            34.584                Anadyr2          1080.750
        75   01 Jun 2027 16:54:32.274   01 Jun 2027 16:54:56.474            24.200                Anadyr2           756.250
        76   01 Jun 2027 16:55:18.729   01 Jun 2027 16:56:45.444            86.715               Magadan1          2709.844
        77   01 Jun 2027 16:57:24.340   01 Jun 2027 16:57:50.344            26.004               Magadan2           812.625
        78   01 Jun 2027 16:59:17.448   01 Jun 2027 16:59:29.306            11.858               Magadan2           370.562
        79   01 Jun 2027 16:59:35.071   01 Jun 2027 17:00:00.780            25.709                Anadyr2           803.406
        80   01 Jun 2027 17:00:35.299   01 Jun 2027 17:01:05.222            29.923                Anadyr1           935.094
        81   01 Jun 2027 17:01:58.034   01 Jun 2027 17:02:29.720            31.686                Anadyr1           990.187
        82   01 Jun 2027 18:26:36.519   01 Jun 2027 18:29:57.224           200.705                Anadyr2          6272.031
        83   01 Jun 2027 18:30:08.937   01 Jun 2027 18:30:57.325            48.388               Magadan1          1512.125
        84   01 Jun 2027 18:31:37.556   01 Jun 2027 18:32:30.413            52.857               Magadan1          1651.781
        85   01 Jun 2027 18:34:05.279   01 Jun 2027 18:34:20.719            15.440               Magadan2           482.500
        86   01 Jun 2027 18:35:18.680   01 Jun 2027 18:35:28.816            10.136                Anadyr2           316.750
        87   01 Jun 2027 18:35:30.933   01 Jun 2027 18:35:39.486             8.553               Magadan1           267.281
        88   01 Jun 2027 18:36:05.590   01 Jun 2027 18:37:47.906           102.316               Magadan1          3197.375
        89   01 Jun 2027 20:02:30.685   01 Jun 2027 20:06:41.254           250.569                Anadyr1          7830.281
        90   01 Jun 2027 20:06:44.598   01 Jun 2027 20:08:31.123           106.525                Norilsk          3328.906
        91   01 Jun 2027 20:12:22.687   01 Jun 2027 20:12:36.954            14.267               Magadan2           445.844
        92   01 Jun 2027 20:13:26.197   01 Jun 2027 20:13:54.823            28.626               Magadan2           894.563
        93   01 Jun 2027 20:15:06.695   01 Jun 2027 20:15:10.095             3.400               Magadan2           106.250
        94   01 Jun 2027 20:15:16.350   01 Jun 2027 20:15:20.937             4.587               Magadan2           143.344
        95   01 Jun 2027 20:15:26.542   01 Jun 2027 20:15:30.027             3.485               Magadan1           108.906
        96   01 Jun 2027 20:15:30.027   01 Jun 2027 20:15:36.368             6.341               Magadan2           198.156
        97   01 Jun 2027 20:16:07.910   01 Jun 2027 20:16:39.657            31.747               Magadan1           992.094
        98   01 Jun 2027 20:56:52.949   01 Jun 2027 20:57:29.603            36.654            RioGallegos          1145.438
        99   01 Jun 2027 20:57:54.384   01 Jun 2027 20:58:46.687            52.303            RioGallegos          1634.469
       100   01 Jun 2027 20:59:51.385   01 Jun 2027 21:00:17.831            26.446            RioGallegos           826.437
       101   01 Jun 2027 21:01:44.910   01 Jun 2027 21:02:33.688            48.778            RioGallegos          1524.312
       102   01 Jun 2027 21:04:06.346   01 Jun 2027 21:05:40.364            94.018            RioGallegos          2938.062
       103   01 Jun 2027 21:40:51.863   01 Jun 2027 21:41:57.562            65.699               Magadan2          2053.094
       104   01 Jun 2027 21:42:15.757   01 Jun 2027 21:42:27.271            11.514               Magadan2           359.812
       105   01 Jun 2027 21:43:38.698   01 Jun 2027 21:44:11.506            32.808                Norilsk          1025.250
       106   01 Jun 2027 21:44:29.555   01 Jun 2027 21:44:32.547             2.992                Irkutsk            93.500
       107   01 Jun 2027 21:44:50.139   01 Jun 2027 21:45:10.882            20.743                Norilsk           648.219
       108   01 Jun 2027 21:45:39.003   01 Jun 2027 21:46:23.037            44.034                Irkutsk          1376.062
       109   01 Jun 2027 21:48:14.733   01 Jun 2027 21:48:19.230             4.497                Novosib           140.531
       110   01 Jun 2027 21:48:55.866   01 Jun 2027 21:49:27.920            32.054                Novosib          1001.687
       111   01 Jun 2027 21:50:28.309   01 Jun 2027 21:50:29.551             1.242                Novosib            38.813
       112   01 Jun 2027 21:51:07.726   01 Jun 2027 21:51:20.605            12.879                Irkutsk           402.469
       113   01 Jun 2027 21:51:49.490   01 Jun 2027 21:51:58.775             9.285                Irkutsk           290.156
       114   01 Jun 2027 21:52:39.917   01 Jun 2027 21:53:16.576            36.659                Irkutsk          1145.594
       115   01 Jun 2027 21:53:37.316   01 Jun 2027 21:53:41.345             4.029                Irkutsk           125.906
       116   01 Jun 2027 21:54:21.001   01 Jun 2027 21:54:59.898            38.897                Irkutsk          1215.531
       117   01 Jun 2027 22:04:25.611   01 Jun 2027 22:05:00.910            35.299                Sumatra          1103.094
       118   01 Jun 2027 22:06:29.063   01 Jun 2027 22:07:41.437            72.374                Sumatra          2261.687
       119   01 Jun 2027 22:43:55.747   01 Jun 2027 22:44:19.660            23.913            RioGallegos           747.281
       120   01 Jun 2027 23:13:10.678   01 Jun 2027 23:14:05.628            54.950                Anadyr2          1717.187
       121   01 Jun 2027 23:14:17.796   01 Jun 2027 23:15:02.272            44.476                Anadyr1          1389.875
       122   01 Jun 2027 23:16:19.144   01 Jun 2027 23:16:41.379            22.235                Norilsk           694.844
       123   01 Jun 2027 23:16:57.326   01 Jun 2027 23:17:36.454            39.128               Magadan1          1222.750
       124   01 Jun 2027 23:18:19.257   01 Jun 2027 23:19:10.047            50.790                Norilsk          1587.187
       125   01 Jun 2027 23:20:17.041   01 Jun 2027 23:20:45.269            28.228                Novosib           882.125
       126   01 Jun 2027 23:21:57.757   01 Jun 2027 23:22:02.650             4.893                Novosib           152.906
       127   01 Jun 2027 23:22:49.575   01 Jun 2027 23:23:16.975            27.400                Irkutsk           856.250
       128   01 Jun 2027 23:23:18.204   01 Jun 2027 23:25:29.659           131.455                Novosib          4107.969
       129   01 Jun 2027 23:34:19.388   01 Jun 2027 23:34:41.347            21.959                  Delhi           686.219
       130   01 Jun 2027 23:35:14.723   01 Jun 2027 23:36:49.422            94.699                  Delhi          2959.344
       131   02 Jun 2027 00:17:45.624   02 Jun 2027 00:17:56.137            10.513            RioGallegos           328.531
       132   02 Jun 2027 00:18:08.857   02 Jun 2027 00:18:25.494            16.637            RioGallegos           519.906
       133   02 Jun 2027 00:46:14.453   02 Jun 2027 00:46:17.503             3.050                Anadyr2            95.312
       134   02 Jun 2027 00:46:33.414   02 Jun 2027 00:47:03.214            29.800                Anadyr1           931.250
       135   02 Jun 2027 00:47:38.589   02 Jun 2027 00:48:00.022            21.433                Anadyr2           669.781
       136   02 Jun 2027 00:48:47.132   02 Jun 2027 00:49:00.919            13.787                Anadyr1           430.844
       137   02 Jun 2027 00:49:14.627   02 Jun 2027 00:49:33.606            18.979                Anadyr2           593.094
       138   02 Jun 2027 00:50:52.806   02 Jun 2027 00:51:52.421            59.615                Anadyr2          1862.969
       139   02 Jun 2027 00:52:18.121   02 Jun 2027 00:52:35.947            17.826                Norilsk           557.063
       140   02 Jun 2027 00:52:36.322   02 Jun 2027 00:53:19.533            43.211               Magadan1          1350.344
       141   02 Jun 2027 00:53:25.792   02 Jun 2027 00:53:55.613            29.821               Magadan1           931.906
       142   02 Jun 2027 00:54:31.780   02 Jun 2027 00:54:50.713            18.933               Magadan2           591.656
       143   02 Jun 2027 00:55:20.779   02 Jun 2027 00:56:39.087            78.308              Murmansk2          2447.125
       144   02 Jun 2027 00:58:34.540   02 Jun 2027 00:58:46.530            11.990              Murmansk2           374.687
       145   02 Jun 2027 00:58:58.837   02 Jun 2027 00:59:39.466            40.629              Murmansk2          1269.656
       146   02 Jun 2027 01:03:09.110   02 Jun 2027 01:03:22.061            12.951              Murmansk1           404.719
       147   02 Jun 2027 01:04:58.247   02 Jun 2027 01:05:26.748            28.501                  Delhi           890.656
       148   02 Jun 2027 01:07:43.776   02 Jun 2027 01:08:05.736            21.960                Novosib           686.250
       149   02 Jun 2027 01:09:37.337   02 Jun 2027 01:10:05.438            28.101                  Delhi           878.156
       150   02 Jun 2027 01:14:25.165   02 Jun 2027 01:15:03.160            37.995                  Delhi          1187.344
       151   02 Jun 2027 02:19:41.405   02 Jun 2027 02:22:19.658           158.253                Anadyr2          4945.406
       152   02 Jun 2027 02:22:30.872   02 Jun 2027 02:22:51.920            21.048                Anadyr1           657.750
       153   02 Jun 2027 02:24:38.241   02 Jun 2027 02:25:50.683            72.442               Magadan1          2263.812
       154   02 Jun 2027 02:27:27.805   02 Jun 2027 02:27:37.716             9.911               Magadan1           309.719
       155   02 Jun 2027 02:28:04.565   02 Jun 2027 02:28:36.694            32.129                Norilsk          1004.031
       156   02 Jun 2027 02:30:25.923   02 Jun 2027 02:31:17.067            51.144              Murmansk2          1598.250
       157   02 Jun 2027 02:31:45.443   02 Jun 2027 02:32:37.134            51.691              Murmansk2          1615.344
       158   02 Jun 2027 02:35:40.509   02 Jun 2027 02:36:10.835            30.326                Novosib           947.687
       159   02 Jun 2027 02:37:22.798   02 Jun 2027 02:37:56.629            33.831                Novosib          1057.219
       160   02 Jun 2027 02:40:07.560   02 Jun 2027 02:40:36.970            29.410                Novosib           919.063
       161   02 Jun 2027 02:45:39.967   02 Jun 2027 02:46:01.787            21.820                 Moscow           681.875
       162   02 Jun 2027 03:04:20.136   02 Jun 2027 03:04:37.121            16.985               CapeTown           530.781
       163   02 Jun 2027 03:05:59.190   02 Jun 2027 03:06:17.371            18.181               CapeTown           568.156
       164   02 Jun 2027 03:06:51.130   02 Jun 2027 03:07:23.205            32.075               CapeTown          1002.344
       165   02 Jun 2027 04:01:22.967   02 Jun 2027 04:02:14.651            51.684               Magadan2          1615.125
       166   02 Jun 2027 04:02:24.014   02 Jun 2027 04:02:52.525            28.511               Magadan2           890.969
       167   02 Jun 2027 04:14:02.655   02 Jun 2027 04:14:28.561            25.906                Norilsk           809.563
       168   02 Jun 2027 04:14:40.680   02 Jun 2027 04:17:16.561           155.881              Murmansk2          4871.281
       169   02 Jun 2027 04:18:22.179   02 Jun 2027 04:19:21.556            59.377              Murmansk2          1855.531
       170   02 Jun 2027 05:36:51.552   02 Jun 2027 05:39:21.012           149.460                Anadyr1          4670.625
       171   02 Jun 2027 05:39:27.706   02 Jun 2027 05:42:11.919           164.213               Magadan2          5131.656
       172   02 Jun 2027 07:12:38.483   02 Jun 2027 07:14:47.415           128.932                Irkutsk          4029.125
       173   02 Jun 2027 07:14:58.383   02 Jun 2027 07:15:22.972            24.589                Anadyr1           768.406
       174   02 Jun 2027 07:15:22.972   02 Jun 2027 07:16:02.217            39.245                Anadyr2          1226.406
       175   02 Jun 2027 07:16:22.370   02 Jun 2027 07:16:55.659            33.289               Magadan2          1040.281
       176   02 Jun 2027 07:17:17.961   02 Jun 2027 07:17:28.255            10.294                Anadyr2           321.687
       177   02 Jun 2027 07:17:28.255   02 Jun 2027 07:18:03.627            35.372                Anadyr1          1105.375
       178   02 Jun 2027 07:54:18.115   02 Jun 2027 07:54:58.477            40.362            RioGallegos          1261.313
       179   02 Jun 2027 08:49:12.515   02 Jun 2027 08:53:36.506           263.991               Magadan1          8249.719
       180   02 Jun 2027 08:54:07.561   02 Jun 2027 08:55:41.266            93.705                Novosib          2928.281
       181   02 Jun 2027 08:55:47.416   02 Jun 2027 08:56:51.030            63.614                Norilsk          1987.938
       182   02 Jun 2027 08:56:51.940   02 Jun 2027 08:58:57.716           125.776              Murmansk2          3930.500
       183   02 Jun 2027 09:29:13.186   02 Jun 2027 09:31:20.444           127.258            RioGallegos          3976.812
       184   02 Jun 2027 10:04:08.596   02 Jun 2027 10:06:08.086           119.490                Sumatra          3734.063
       185   02 Jun 2027 10:26:05.861   02 Jun 2027 10:27:34.301            88.440                Novosib          2763.750
       186   02 Jun 2027 10:27:42.078   02 Jun 2027 10:28:23.539            41.461                Irkutsk          1295.656
       187   02 Jun 2027 10:28:25.440   02 Jun 2027 10:30:14.880           109.440              Murmansk1          3420.000
       188   02 Jun 2027 10:30:19.188   02 Jun 2027 10:30:38.475            19.287                 Moscow           602.719
       189   02 Jun 2027 10:30:54.276   02 Jun 2027 10:31:49.073            54.797              Murmansk2          1712.406
       190   02 Jun 2027 11:10:06.669   02 Jun 2027 11:10:32.046            25.377            RioGallegos           793.031
       191   02 Jun 2027 11:11:23.272   02 Jun 2027 11:12:30.006            66.734            RioGallegos          2085.437
       192   02 Jun 2027 11:42:55.515   02 Jun 2027 11:44:12.290            76.775                Sumatra          2399.219
       193   02 Jun 2027 11:46:06.867   02 Jun 2027 11:47:10.744            63.877                Sumatra          1996.156
       194   02 Jun 2027 12:01:22.804   02 Jun 2027 12:02:00.174            37.370                Irkutsk          1167.813
       195   02 Jun 2027 13:45:41.966   02 Jun 2027 13:46:32.594            50.628                Norilsk          1582.125
       196   02 Jun 2027 13:47:51.277   02 Jun 2027 13:48:02.234            10.957              Murmansk1           342.406
       197   02 Jun 2027 13:48:37.673   02 Jun 2027 13:49:02.555            24.882              Murmansk1           777.563
       198   02 Jun 2027 15:17:34.692   02 Jun 2027 15:17:55.385            20.693                 Moscow           646.656
       199   02 Jun 2027 15:18:27.017   02 Jun 2027 15:20:25.803           118.786                 Moscow          3712.063
       200   02 Jun 2027 15:20:45.985   02 Jun 2027 15:21:09.825            23.840                 Moscow           745.000
       201   02 Jun 2027 15:22:39.340   02 Jun 2027 15:25:01.039           141.699              Murmansk2          4428.094
       202   02 Jun 2027 15:31:13.447   02 Jun 2027 15:31:53.063            39.616                Anadyr2          1238.000
       203   02 Jun 2027 15:32:08.788   02 Jun 2027 15:33:00.920            52.132                Anadyr2          1629.125
       204   02 Jun 2027 15:33:58.961   02 Jun 2027 15:34:25.796            26.835                Anadyr2           838.594
       205   02 Jun 2027 15:35:13.723   02 Jun 2027 15:35:43.711            29.988                Anadyr1           937.125
       206   02 Jun 2027 15:35:43.711   02 Jun 2027 15:35:48.115             4.404                Anadyr2           137.625
       207   02 Jun 2027 15:35:56.630   02 Jun 2027 15:35:56.699             0.069                Anadyr1             2.156
       208   02 Jun 2027 16:33:43.749   02 Jun 2027 16:34:49.462            65.713               CapeTown          2053.531
       209   02 Jun 2027 16:57:06.609   02 Jun 2027 16:57:30.629            24.020              Murmansk2           750.625
       210   02 Jun 2027 16:58:24.005   02 Jun 2027 17:00:47.834           143.829              Murmansk2          4494.656
       211   02 Jun 2027 17:10:01.257   02 Jun 2027 17:10:08.973             7.716                Anadyr2           241.125
       212   02 Jun 2027 17:10:27.068   02 Jun 2027 17:10:51.956            24.888                Anadyr2           777.750
       213   02 Jun 2027 17:11:09.407   02 Jun 2027 17:12:19.216            69.809                Anadyr1          2181.531
       214   02 Jun 2027 17:13:06.202   02 Jun 2027 17:13:28.780            22.578                Anadyr2           705.563
       215   02 Jun 2027 17:13:42.507   02 Jun 2027 17:14:26.433            43.926                Anadyr2          1372.688
       216   02 Jun 2027 18:38:38.056   02 Jun 2027 18:39:40.139            62.083                Anadyr2          1940.094
       217   02 Jun 2027 18:39:55.009   02 Jun 2027 18:40:27.388            32.379                Anadyr1          1011.844
       218   02 Jun 2027 18:40:40.551   02 Jun 2027 18:40:44.709             4.158                Anadyr2           129.938
       219   02 Jun 2027 18:40:58.281   02 Jun 2027 18:41:07.794             9.513                Anadyr2           297.281
       220   02 Jun 2027 18:41:11.995   02 Jun 2027 18:41:46.318            34.323               Magadan2          1072.594
       221   02 Jun 2027 18:42:17.179   02 Jun 2027 18:42:32.063            14.884               Magadan2           465.125
       222   02 Jun 2027 18:43:18.700   02 Jun 2027 18:43:39.369            20.669               Magadan1           645.906
       223   02 Jun 2027 18:44:04.641   02 Jun 2027 18:44:27.464            22.823               Magadan1           713.219
       224   02 Jun 2027 18:44:45.533   02 Jun 2027 18:44:47.457             1.924                Anadyr2            60.125
       225   02 Jun 2027 18:44:54.035   02 Jun 2027 18:45:19.104            25.069               Magadan1           783.406
       226   02 Jun 2027 18:45:35.902   02 Jun 2027 18:46:09.301            33.399                Anadyr2          1043.719
       227   02 Jun 2027 18:47:22.008   02 Jun 2027 18:47:46.844            24.836                Anadyr1           776.125
       228   02 Jun 2027 18:48:30.242   02 Jun 2027 18:49:35.412            65.170               Magadan1          2036.563
       229   02 Jun 2027 18:50:13.991   02 Jun 2027 18:50:36.976            22.985               Magadan2           718.281
       230   02 Jun 2027 18:51:16.526   02 Jun 2027 18:51:30.066            13.540                Anadyr1           423.125
       231   02 Jun 2027 18:52:57.747   02 Jun 2027 18:53:07.691             9.944               Magadan2           310.750
       232   02 Jun 2027 20:14:31.065   02 Jun 2027 20:16:36.565           125.500                Anadyr2          3921.875
       233   02 Jun 2027 20:16:40.454   02 Jun 2027 20:17:58.768            78.314                Anadyr1          2447.312
       234   02 Jun 2027 20:18:15.328   02 Jun 2027 20:19:28.099            72.771                Norilsk          2274.094
       235   02 Jun 2027 20:19:36.867   02 Jun 2027 20:20:27.444            50.577                Norilsk          1580.531
       236   02 Jun 2027 20:21:36.042   02 Jun 2027 20:22:40.567            64.525                Norilsk          2016.406
       237   02 Jun 2027 20:24:26.133   02 Jun 2027 20:24:53.473            27.340                Irkutsk           854.375
       238   02 Jun 2027 20:25:13.967   02 Jun 2027 20:25:28.214            14.247                Irkutsk           445.219
       239   02 Jun 2027 20:26:12.083   02 Jun 2027 20:26:36.567            24.484                Irkutsk           765.125
       240   02 Jun 2027 20:29:37.312   02 Jun 2027 20:29:38.348             1.036               Magadan2            32.375
       241   02 Jun 2027 21:09:47.688   02 Jun 2027 21:09:48.684             0.996            RioGallegos            31.125
       242   02 Jun 2027 21:11:36.370   02 Jun 2027 21:11:48.048            11.678            RioGallegos           364.938
       243   02 Jun 2027 21:12:18.660   02 Jun 2027 21:13:36.720            78.060            RioGallegos          2439.375
       244   02 Jun 2027 21:16:05.771   02 Jun 2027 21:17:11.095            65.324            RioGallegos          2041.375
       245   02 Jun 2027 21:19:01.054   02 Jun 2027 21:19:20.093            19.039            RioGallegos           594.969
       246   02 Jun 2027 21:50:58.633   02 Jun 2027 21:51:28.433            29.800                Anadyr1           931.250
       247   02 Jun 2027 21:52:14.089   02 Jun 2027 21:52:21.670             7.581                Anadyr1           236.906
       248   02 Jun 2027 21:52:22.437   02 Jun 2027 21:52:46.393            23.956                Norilsk           748.625
       249   02 Jun 2027 21:53:21.827   02 Jun 2027 21:54:19.901            58.074                Norilsk          1814.813
       250   02 Jun 2027 21:56:01.792   02 Jun 2027 21:56:28.012            26.220               Magadan2           819.375
       251   02 Jun 2027 21:57:02.612   02 Jun 2027 21:57:16.411            13.799               Magadan1           431.219
       252   02 Jun 2027 21:57:29.171   02 Jun 2027 21:57:42.645            13.474                Irkutsk           421.063
       253   02 Jun 2027 21:58:10.546   02 Jun 2027 21:58:19.269             8.723                Novosib           272.594
       254   02 Jun 2027 21:58:31.736   02 Jun 2027 21:58:43.738            12.002                Novosib           375.063
       255   02 Jun 2027 21:59:30.428   02 Jun 2027 21:59:51.704            21.276               Magadan1           664.875
       256   02 Jun 2027 22:00:21.746   02 Jun 2027 22:00:52.214            30.468                Novosib           952.125
       257   02 Jun 2027 22:01:01.464   02 Jun 2027 22:01:42.045            40.581                Novosib          1268.156
       258   02 Jun 2027 22:04:25.005   02 Jun 2027 22:04:26.868             1.863                Novosib            58.219
       259   02 Jun 2027 22:05:03.061   02 Jun 2027 22:05:18.457            15.396                Irkutsk           481.125
       260   02 Jun 2027 22:08:11.923   02 Jun 2027 22:08:46.535            34.612                Irkutsk          1081.625
       261   02 Jun 2027 22:14:29.386   02 Jun 2027 22:16:09.478           100.092                Sumatra          3127.875
       262   02 Jun 2027 22:19:39.731   02 Jun 2027 22:20:00.253            20.522                Sumatra           641.312
       263   02 Jun 2027 22:22:30.034   02 Jun 2027 22:22:49.373            19.339                Sumatra           604.344
       264   02 Jun 2027 23:24:30.911   02 Jun 2027 23:24:48.566            17.655                Anadyr2           551.719
       265   02 Jun 2027 23:26:06.799   02 Jun 2027 23:26:32.396            25.597                Anadyr2           799.906
       266   02 Jun 2027 23:26:47.328   02 Jun 2027 23:27:26.567            39.239                Anadyr1          1226.219
       267   02 Jun 2027 23:27:36.636   02 Jun 2027 23:27:38.789             2.153                Anadyr1            67.281
       268   02 Jun 2027 23:28:21.229   02 Jun 2027 23:29:53.326            92.097                Norilsk          2878.031
       269   02 Jun 2027 23:30:29.626   02 Jun 2027 23:30:32.796             3.170               Magadan2            99.062
       270   02 Jun 2027 23:30:48.741   02 Jun 2027 23:31:02.446            13.705               Magadan2           428.281
       271   02 Jun 2027 23:31:40.296   02 Jun 2027 23:31:52.886            12.590               Magadan1           393.437
       272   02 Jun 2027 23:32:09.976   02 Jun 2027 23:32:16.773             6.797                Norilsk           212.406
       273   02 Jun 2027 23:32:28.225   02 Jun 2027 23:32:52.072            23.847               Magadan2           745.219
       274   02 Jun 2027 23:33:34.746   02 Jun 2027 23:33:42.326             7.580                Irkutsk           236.875
       275   02 Jun 2027 23:34:23.199   02 Jun 2027 23:35:19.748            56.549               Magadan2          1767.156
       276   02 Jun 2027 23:37:23.772   02 Jun 2027 23:37:40.423            16.651                Novosib           520.344
       277   02 Jun 2027 23:38:23.464   02 Jun 2027 23:39:02.880            39.416                Irkutsk          1231.750
       278   02 Jun 2027 23:40:52.010   02 Jun 2027 23:41:48.509            56.499                Novosib          1765.594
       279   02 Jun 2027 23:45:58.428   02 Jun 2027 23:46:32.577            34.149                  Delhi          1067.156
       280   02 Jun 2027 23:47:20.847   02 Jun 2027 23:47:30.680             9.833                  Delhi           307.281
       281   02 Jun 2027 23:49:14.338   02 Jun 2027 23:50:14.975            60.637                  Delhi          1894.906
       282   03 Jun 2027 00:57:55.476   03 Jun 2027 00:59:12.238            76.762                Anadyr1          2398.813
       283   03 Jun 2027 01:00:30.614   03 Jun 2027 01:00:45.138            14.524                Anadyr2           453.875
       284   03 Jun 2027 01:00:52.097   03 Jun 2027 01:01:18.600            26.503                Anadyr2           828.219
       285   03 Jun 2027 01:02:54.122   03 Jun 2027 01:03:38.499            44.377                Anadyr2          1386.781
       286   03 Jun 2027 01:04:00.489   03 Jun 2027 01:04:01.963             1.474                Anadyr2            46.063
       287   03 Jun 2027 01:04:05.822   03 Jun 2027 01:05:24.732            78.910               Magadan1          2465.937
       288   03 Jun 2027 01:05:47.759   03 Jun 2027 01:06:18.684            30.925                Norilsk           966.406
       289   03 Jun 2027 01:06:37.024   03 Jun 2027 01:07:15.615            38.591              Murmansk1          1205.969
       290   03 Jun 2027 01:10:16.524   03 Jun 2027 01:10:32.380            15.856              Murmansk2           495.500
       291   03 Jun 2027 01:10:59.214   03 Jun 2027 01:11:17.614            18.400              Murmansk1           575.000
       292   03 Jun 2027 01:11:40.940   03 Jun 2027 01:12:42.118            61.178              Murmansk1          1911.812
       293   03 Jun 2027 01:15:58.841   03 Jun 2027 01:16:05.121             6.280              Murmansk1           196.250
       294   03 Jun 2027 01:17:14.104   03 Jun 2027 01:17:31.875            17.771                Novosib           555.344
       295   03 Jun 2027 01:19:15.444   03 Jun 2027 01:19:43.923            28.479                Novosib           889.969
       296   03 Jun 2027 01:22:14.204   03 Jun 2027 01:22:26.513            12.309                  Delhi           384.656
       297   03 Jun 2027 01:23:19.917   03 Jun 2027 01:23:53.840            33.923                  Delhi          1060.094
       298   03 Jun 2027 01:41:18.690   03 Jun 2027 01:42:30.799            72.109               CapeTown          2253.406
       299   03 Jun 2027 02:31:28.100   03 Jun 2027 02:32:34.097            65.997                Anadyr2          2062.406
       300   03 Jun 2027 02:32:34.124   03 Jun 2027 02:33:32.708            58.584                Anadyr1          1830.750
       301   03 Jun 2027 02:36:06.172   03 Jun 2027 02:36:58.516            52.344               Magadan2          1635.750
       302   03 Jun 2027 02:39:17.638   03 Jun 2027 02:39:30.537            12.899               Magadan1           403.094
       303   03 Jun 2027 02:39:30.537   03 Jun 2027 02:39:36.715             6.178               Magadan2           193.062
       304   03 Jun 2027 02:40:03.222   03 Jun 2027 02:40:38.587            35.365                Norilsk          1105.156
       305   03 Jun 2027 02:42:27.602   03 Jun 2027 02:42:54.797            27.195              Murmansk1           849.844
       306   03 Jun 2027 02:43:52.832   03 Jun 2027 02:44:29.963            37.131              Murmansk2          1160.344
       307   03 Jun 2027 02:46:46.933   03 Jun 2027 02:48:00.068            73.135              Murmansk2          2285.469
       308   03 Jun 2027 02:53:45.727   03 Jun 2027 02:54:12.087            26.360                 Moscow           823.750
       309   03 Jun 2027 02:56:39.667   03 Jun 2027 02:57:17.731            38.064                 Moscow          1189.500
       310   03 Jun 2027 04:12:58.691   03 Jun 2027 04:16:49.751           231.060               Magadan2          7220.625
       311   03 Jun 2027 04:17:23.409   03 Jun 2027 04:17:32.923             9.514                Anadyr2           297.312
       312   03 Jun 2027 04:17:48.408   03 Jun 2027 04:18:02.725            14.317                Anadyr1           447.406
       313   03 Jun 2027 04:25:12.779   03 Jun 2027 04:26:30.751            77.972              Murmansk2          2436.625
       314   03 Jun 2027 04:26:54.187   03 Jun 2027 04:29:11.189           137.002              Murmansk2          4281.313
       315   03 Jun 2027 05:49:07.131   03 Jun 2027 05:54:51.657           344.526               Magadan1         10766.438
       316   03 Jun 2027 07:23:48.321   03 Jun 2027 07:24:48.447            60.126               Magadan2          1878.938
       317   03 Jun 2027 07:24:55.011   03 Jun 2027 07:25:20.401            25.390               Magadan2           793.438
       318   03 Jun 2027 07:25:26.048   03 Jun 2027 07:25:35.884             9.836                Irkutsk           307.375
       319   03 Jun 2027 07:25:37.207   03 Jun 2027 07:29:30.206           232.999                Anadyr2          7281.219
       320   03 Jun 2027 07:29:47.781   03 Jun 2027 07:29:55.050             7.269                Irkutsk           227.156
       321   03 Jun 2027 07:30:02.175   03 Jun 2027 07:30:40.530            38.355                Norilsk          1198.594
       322   03 Jun 2027 07:30:57.810   03 Jun 2027 07:31:19.806            21.996                Norilsk           687.375
       323   03 Jun 2027 07:32:14.106   03 Jun 2027 07:33:03.012            48.906                Norilsk          1528.313
       324   03 Jun 2027 08:06:00.691   03 Jun 2027 08:07:17.790            77.099            RioGallegos          2409.344
       325   03 Jun 2027 08:45:25.070   03 Jun 2027 08:45:50.082            25.012                Sumatra           781.625
       326   03 Jun 2027 09:00:49.463   03 Jun 2027 09:01:02.020            12.557                Irkutsk           392.406
       327   03 Jun 2027 09:01:11.931   03 Jun 2027 09:04:05.025           173.094               Magadan2          5409.187
       328   03 Jun 2027 09:04:05.025   03 Jun 2027 09:05:16.251            71.226               Magadan1          2225.812
       329   03 Jun 2027 09:05:51.507   03 Jun 2027 09:06:11.488            19.981                Novosib           624.406
       330   03 Jun 2027 09:06:20.448   03 Jun 2027 09:06:22.384             1.936                Irkutsk            60.500
       331   03 Jun 2027 09:06:24.084   03 Jun 2027 09:09:40.955           196.871                Norilsk          6152.219
       332   03 Jun 2027 09:10:47.946   03 Jun 2027 09:11:11.203            23.257              Murmansk2           726.781
       333   03 Jun 2027 09:11:51.404   03 Jun 2027 09:12:05.941            14.537              Murmansk1           454.281
       334   03 Jun 2027 09:12:46.809   03 Jun 2027 09:13:13.698            26.889              Murmansk1           840.281
       335   03 Jun 2027 09:41:21.991   03 Jun 2027 09:42:07.452            45.461            RioGallegos          1420.656
       336   03 Jun 2027 09:43:06.481   03 Jun 2027 09:43:15.915             9.434            RioGallegos           294.813
       337   03 Jun 2027 09:45:26.541   03 Jun 2027 09:45:32.980             6.439            RioGallegos           201.219
       338   03 Jun 2027 09:50:15.773   03 Jun 2027 09:50:38.123            22.350            RioGallegos           698.438
       339   03 Jun 2027 10:16:05.225   03 Jun 2027 10:16:33.532            28.307                Sumatra           884.594
       340   03 Jun 2027 10:16:54.475   03 Jun 2027 10:18:41.762           107.287                Sumatra          3352.719
       341   03 Jun 2027 10:36:08.551   03 Jun 2027 10:36:10.931             2.380                  Delhi            74.375
       342   03 Jun 2027 10:37:04.821   03 Jun 2027 10:37:07.215             2.394                Irkutsk            74.812
       343   03 Jun 2027 10:37:10.725   03 Jun 2027 10:37:22.497            11.772                Novosib           367.875
       344   03 Jun 2027 10:37:30.428   03 Jun 2027 10:38:04.551            34.123                Norilsk          1066.344
       345   03 Jun 2027 10:38:10.194   03 Jun 2027 10:38:17.920             7.726                Novosib           241.438
       346   03 Jun 2027 10:38:18.879   03 Jun 2027 10:38:44.226            25.347                Norilsk           792.094
       347   03 Jun 2027 10:38:46.033   03 Jun 2027 10:39:57.976            71.943                Irkutsk          2248.219
       348   03 Jun 2027 10:40:05.234   03 Jun 2027 10:40:24.370            19.136                Norilsk           598.000
       349   03 Jun 2027 10:40:26.177   03 Jun 2027 10:41:10.505            44.328              Murmansk1          1385.250
       350   03 Jun 2027 10:41:10.505   03 Jun 2027 10:41:36.611            26.106              Murmansk2           815.812
       351   03 Jun 2027 10:41:41.817   03 Jun 2027 10:41:51.450             9.633              Murmansk1           301.031
       352   03 Jun 2027 10:41:51.450   03 Jun 2027 10:42:03.439            11.989              Murmansk2           374.656
       353   03 Jun 2027 10:42:07.948   03 Jun 2027 10:43:20.051            72.103                Novosib          2253.219
       354   03 Jun 2027 10:47:32.068   03 Jun 2027 10:48:11.945            39.877              Murmansk1          1246.156
       355   03 Jun 2027 11:21:17.306   03 Jun 2027 11:21:59.694            42.388            RioGallegos          1324.625
       356   03 Jun 2027 11:23:19.261   03 Jun 2027 11:24:29.205            69.944            RioGallegos          2185.750
       357   03 Jun 2027 12:02:37.401   03 Jun 2027 12:03:25.290            47.889                  Delhi          1496.531
       358   03 Jun 2027 12:08:07.382   03 Jun 2027 12:09:15.246            67.864                Novosib          2120.750
       359   03 Jun 2027 12:10:52.839   03 Jun 2027 12:12:24.438            91.599                Novosib          2862.469
       360   03 Jun 2027 12:17:58.230   03 Jun 2027 12:18:45.957            47.727                Norilsk          1491.469
       361   03 Jun 2027 13:44:41.760   03 Jun 2027 13:48:34.728           232.968                 Moscow          7280.250
       362   03 Jun 2027 13:48:55.402   03 Jun 2027 13:50:42.586           107.184              Murmansk2          3349.500
       363   03 Jun 2027 13:51:07.808   03 Jun 2027 13:51:20.653            12.845              Murmansk2           401.406
       364   03 Jun 2027 13:52:00.055   03 Jun 2027 13:53:09.705            69.650                Norilsk          2176.563
       365   03 Jun 2027 14:59:23.205   03 Jun 2027 15:02:25.944           182.739               CapeTown          5710.594
       366   03 Jun 2027 15:04:36.272   03 Jun 2027 15:05:39.952            63.680               CapeTown          1990.000
       367   03 Jun 2027 15:25:34.258   03 Jun 2027 15:25:43.109             8.851              Murmansk2           276.594
       368   03 Jun 2027 15:26:42.780   03 Jun 2027 15:27:26.929            44.149              Murmansk1          1379.656
       369   03 Jun 2027 15:29:28.325   03 Jun 2027 15:29:44.258            15.933              Murmansk1           497.906
       370   03 Jun 2027 15:34:01.695   03 Jun 2027 15:34:40.958            39.263              Murmansk2          1226.969
       371   03 Jun 2027 15:39:13.517   03 Jun 2027 15:39:36.720            23.203                Anadyr1           725.094
       372   03 Jun 2027 15:40:12.331   03 Jun 2027 15:41:50.385            98.054                Anadyr2          3064.188
       373   03 Jun 2027 15:43:40.329   03 Jun 2027 15:43:51.351            11.022                Anadyr2           344.438
       374   03 Jun 2027 15:48:18.808   03 Jun 2027 15:48:34.284            15.476                Anadyr1           483.625
       375   03 Jun 2027 16:37:13.721   03 Jun 2027 16:38:19.509            65.788               CapeTown          2055.875
       376   03 Jun 2027 17:04:24.075   03 Jun 2027 17:05:53.786            89.711              Murmansk2          2803.469
       377   03 Jun 2027 17:06:48.917   03 Jun 2027 17:07:58.489            69.572              Murmansk1          2174.125
       378   03 Jun 2027 17:09:06.172   03 Jun 2027 17:09:32.815            26.643              Murmansk2           832.594
       379   03 Jun 2027 17:14:44.915   03 Jun 2027 17:15:52.067            67.152                Anadyr1          2098.500
       380   03 Jun 2027 17:18:14.399   03 Jun 2027 17:19:54.942           100.543               Magadan1          3141.969
       381   03 Jun 2027 17:20:59.481   03 Jun 2027 17:21:29.349            29.868               Magadan2           933.375
       382   03 Jun 2027 18:50:39.575   03 Jun 2027 18:54:29.868           230.293                Anadyr2          7196.656
       383   03 Jun 2027 18:54:49.412   03 Jun 2027 18:56:35.215           105.803                Anadyr1          3306.344
       384   03 Jun 2027 18:57:15.448   03 Jun 2027 18:58:10.614            55.166               Magadan2          1723.938
       385   03 Jun 2027 18:59:35.451   03 Jun 2027 18:59:37.747             2.296               Magadan1            71.750
       386   03 Jun 2027 20:26:31.107   03 Jun 2027 20:30:44.743           253.636                Anadyr2          7926.125
       387   03 Jun 2027 20:30:55.188   03 Jun 2027 20:32:25.220            90.032                Norilsk          2813.500
       388   03 Jun 2027 20:32:37.845   03 Jun 2027 20:33:11.291            33.446               Magadan1          1045.187
       389   03 Jun 2027 20:34:11.032   03 Jun 2027 20:36:27.478           136.446                Irkutsk          4263.938
       390   03 Jun 2027 20:38:35.690   03 Jun 2027 20:40:09.352            93.662                Irkutsk          2926.937
       391   03 Jun 2027 20:50:14.609   03 Jun 2027 20:51:29.948            75.339                Sumatra          2354.344
       392   03 Jun 2027 20:55:16.995   03 Jun 2027 20:55:41.321            24.326                Sumatra           760.187
       393   03 Jun 2027 22:02:44.937   03 Jun 2027 22:03:29.708            44.771                Anadyr2          1399.094
       394   03 Jun 2027 22:04:13.985   03 Jun 2027 22:04:19.810             5.825                Anadyr2           182.031
       395   03 Jun 2027 22:04:23.711   03 Jun 2027 22:05:05.400            41.689                Norilsk          1302.781
       396   03 Jun 2027 22:05:18.164   03 Jun 2027 22:05:36.767            18.603                Norilsk           581.344
       397   03 Jun 2027 22:05:40.287   03 Jun 2027 22:05:56.818            16.531                Norilsk           516.594
       398   03 Jun 2027 22:06:28.512   03 Jun 2027 22:06:35.695             7.183               Magadan2           224.469
       399   03 Jun 2027 22:08:22.533   03 Jun 2027 22:09:43.039            80.506                Irkutsk          2515.813
       400   03 Jun 2027 22:10:28.238   03 Jun 2027 22:12:08.360           100.122                Novosib          3128.813
       401   03 Jun 2027 22:22:05.640   03 Jun 2027 22:22:20.033            14.393                Sumatra           449.781
       402   03 Jun 2027 22:27:58.341   03 Jun 2027 22:27:59.734             1.393                Sumatra            43.531
       403   03 Jun 2027 22:28:42.533   03 Jun 2027 22:30:04.021            81.488                Sumatra          2546.500
       404   03 Jun 2027 23:36:16.026   03 Jun 2027 23:36:43.004            26.978                Anadyr2           843.063
       405   03 Jun 2027 23:38:07.824   03 Jun 2027 23:39:02.092            54.268                Anadyr1          1695.875
       406   03 Jun 2027 23:40:23.297   03 Jun 2027 23:41:56.058            92.761                Norilsk          2898.781
       407   03 Jun 2027 23:42:16.393   03 Jun 2027 23:42:32.331            15.938               Magadan1           498.063
       408   03 Jun 2027 23:43:52.409   03 Jun 2027 23:46:53.250           180.841              Murmansk2          5651.281
       409   03 Jun 2027 23:51:38.656   03 Jun 2027 23:52:38.321            59.665                  Delhi          1864.531
       410   03 Jun 2027 23:54:57.221   03 Jun 2027 23:55:21.867            24.646                  Delhi           770.187
       411   03 Jun 2027 23:58:33.467   03 Jun 2027 23:59:15.821            42.354                  Delhi          1323.562
       412   04 Jun 2027 00:36:21.520   04 Jun 2027 00:36:25.479             3.959            RioGallegos           123.719
       413   04 Jun 2027 00:38:24.282   04 Jun 2027 00:38:37.426            13.144            RioGallegos           410.750
       414   04 Jun 2027 00:41:07.179   04 Jun 2027 00:41:30.619            23.440            RioGallegos           732.500
       415   04 Jun 2027 01:09:36.669   04 Jun 2027 01:10:01.219            24.550                Anadyr2           767.187
       416   04 Jun 2027 01:10:30.990   04 Jun 2027 01:10:37.788             6.798                Anadyr2           212.438
       417   04 Jun 2027 01:11:23.498   04 Jun 2027 01:12:19.590            56.092                Anadyr2          1752.875
       418   04 Jun 2027 01:12:23.307   04 Jun 2027 01:12:37.400            14.093                Anadyr1           440.406
       419   04 Jun 2027 01:15:25.853   04 Jun 2027 01:15:47.792            21.939                Anadyr1           685.594
       420   04 Jun 2027 01:15:59.808   04 Jun 2027 01:18:08.258           128.450               Magadan2          4014.063
       421   04 Jun 2027 01:18:36.379   04 Jun 2027 01:19:24.102            47.723              Murmansk1          1491.344
       422   04 Jun 2027 01:20:13.615   04 Jun 2027 01:21:42.190            88.575                Novosib          2767.969
       423   04 Jun 2027 01:22:39.132   04 Jun 2027 01:23:44.854            65.722                 Moscow          2053.813
       424   04 Jun 2027 01:49:50.088   04 Jun 2027 01:50:57.073            66.985               CapeTown          2093.281
       425   04 Jun 2027 02:43:16.063   04 Jun 2027 02:43:30.573            14.510                Anadyr2           453.438
       426   04 Jun 2027 02:43:42.902   04 Jun 2027 02:45:31.511           108.609                Anadyr1          3394.031
       427   04 Jun 2027 02:46:32.909   04 Jun 2027 02:46:39.184             6.275                Anadyr1           196.094
       428   04 Jun 2027 02:47:34.590   04 Jun 2027 02:48:38.395            63.805               Magadan1          1993.906
       429   04 Jun 2027 02:51:21.622   04 Jun 2027 02:51:33.247            11.625               Magadan1           363.281
       430   04 Jun 2027 02:52:01.413   04 Jun 2027 02:52:12.673            11.260                Norilsk           351.875
       431   04 Jun 2027 02:54:29.378   04 Jun 2027 02:55:58.539            89.161              Murmansk2          2786.281
       432   04 Jun 2027 02:57:19.060   04 Jun 2027 02:57:29.709            10.649              Murmansk2           332.781
       433   04 Jun 2027 02:57:38.109   04 Jun 2027 02:58:22.606            44.497                Novosib          1390.531
       434   04 Jun 2027 02:58:47.701   04 Jun 2027 02:58:55.715             8.014                 Moscow           250.437
       435   04 Jun 2027 03:00:30.916   04 Jun 2027 03:01:07.505            36.589                Norilsk          1143.406
       436   04 Jun 2027 03:01:14.848   04 Jun 2027 03:01:49.270            34.422                Norilsk          1075.688
       437   04 Jun 2027 03:02:09.111   04 Jun 2027 03:02:51.771            42.660                Novosib          1333.125
       438   04 Jun 2027 03:03:10.915   04 Jun 2027 03:03:48.663            37.748                Norilsk          1179.625
       439   04 Jun 2027 03:03:49.120   04 Jun 2027 03:04:05.115            15.995                Novosib           499.844
       440   04 Jun 2027 03:04:05.268   04 Jun 2027 03:05:36.391            91.123              Murmansk1          2847.594
       441   04 Jun 2027 03:05:58.120   04 Jun 2027 03:06:06.759             8.639              Murmansk1           269.969
       442   04 Jun 2027 03:06:15.673   04 Jun 2027 03:06:49.701            34.028              Murmansk1          1063.375
       443   04 Jun 2027 04:18:19.804   04 Jun 2027 04:19:49.102            89.298                Anadyr1          2790.563
       444   04 Jun 2027 04:19:49.102   04 Jun 2027 04:20:07.302            18.200                Anadyr2           568.750
       445   04 Jun 2027 04:25:06.770   04 Jun 2027 04:26:58.263           111.493               Magadan1          3484.156
       446   04 Jun 2027 04:26:58.263   04 Jun 2027 04:28:32.713            94.450               Magadan2          2951.563
       447   04 Jun 2027 04:28:40.446   04 Jun 2027 04:29:54.635            74.189                Norilsk          2318.406
       448   04 Jun 2027 04:30:27.375   04 Jun 2027 04:30:38.671            11.296              Murmansk1           353.000
       449   04 Jun 2027 04:30:47.335   04 Jun 2027 04:30:53.281             5.946              Murmansk2           185.812
       450   04 Jun 2027 05:59:38.814   04 Jun 2027 06:00:38.487            59.673                Anadyr1          1864.781
       451   04 Jun 2027 06:00:54.981   04 Jun 2027 06:03:04.636           129.655               Magadan1          4051.719
       452   04 Jun 2027 06:03:09.530   04 Jun 2027 06:03:49.158            39.628                Norilsk          1238.375
       453   04 Jun 2027 06:03:50.353   04 Jun 2027 06:06:05.907           135.554               Magadan1          4236.062
       454   04 Jun 2027 07:35:08.974   04 Jun 2027 07:35:09.639             0.665                Irkutsk            20.781
       455   04 Jun 2027 07:35:15.958   04 Jun 2027 07:36:09.113            53.155               Magadan1          1661.094
       456   04 Jun 2027 07:36:12.118   04 Jun 2027 07:36:16.065             3.947                Norilsk           123.344
       457   04 Jun 2027 07:36:21.041   04 Jun 2027 07:40:05.775           224.734               Magadan1          7022.938
       458   04 Jun 2027 07:40:12.021   04 Jun 2027 07:40:16.979             4.958                Anadyr1           154.937
       459   04 Jun 2027 07:40:17.064   04 Jun 2027 07:40:35.085            18.021               Magadan2           563.156
       460   04 Jun 2027 07:40:40.059   04 Jun 2027 07:41:22.636            42.577                Irkutsk          1330.531
       461   04 Jun 2027 07:41:32.145   04 Jun 2027 07:42:00.966            28.821                Anadyr2           900.656
       462   04 Jun 2027 07:42:04.494   04 Jun 2027 07:42:06.353             1.859                Novosib            58.094
       463   04 Jun 2027 07:42:07.868   04 Jun 2027 07:42:55.974            48.106                Novosib          1503.312
       464   04 Jun 2027 07:43:33.773   04 Jun 2027 07:44:01.950            28.177              Murmansk2           880.531
       465   04 Jun 2027 07:44:04.551   04 Jun 2027 07:44:21.887            17.336              Murmansk2           541.750
       466   04 Jun 2027 08:17:46.517   04 Jun 2027 08:18:40.273            53.756            RioGallegos          1679.875
       467   04 Jun 2027 08:55:28.899   04 Jun 2027 08:57:12.836           103.937                Sumatra          3248.031
       468   04 Jun 2027 09:11:34.760   04 Jun 2027 09:13:54.518           139.758               Magadan1          4367.437
       469   04 Jun 2027 09:14:14.153   04 Jun 2027 09:15:17.557            63.404                Novosib          1981.375
       470   04 Jun 2027 09:15:21.030   04 Jun 2027 09:16:31.340            70.310                Irkutsk          2197.188
       471   04 Jun 2027 09:16:40.972   04 Jun 2027 09:17:02.474            21.502                Norilsk           671.938
       472   04 Jun 2027 09:17:06.354   04 Jun 2027 09:17:18.502            12.148                Norilsk           379.625
       473   04 Jun 2027 09:17:22.669   04 Jun 2027 09:18:00.080            37.411                Irkutsk          1169.094
       474   04 Jun 2027 09:18:00.199   04 Jun 2027 09:18:22.131            21.932              Murmansk1           685.375
       475   04 Jun 2027 09:18:50.819   04 Jun 2027 09:19:08.844            18.025                Norilsk           563.281
       476   04 Jun 2027 09:19:11.782   04 Jun 2027 09:19:46.136            34.354              Murmansk1          1073.562
       477   04 Jun 2027 09:53:34.553   04 Jun 2027 09:53:57.089            22.536            RioGallegos           704.250
       478   04 Jun 2027 09:54:45.006   04 Jun 2027 09:55:14.639            29.633            RioGallegos           926.031
       479   04 Jun 2027 09:56:22.325   04 Jun 2027 09:56:34.312            11.987            RioGallegos           374.594
       480   04 Jun 2027 10:28:07.469   04 Jun 2027 10:29:22.235            74.766                Sumatra          2336.437
       481   04 Jun 2027 10:37:02.713   04 Jun 2027 10:37:07.331             4.618                Sumatra           144.312
       482   04 Jun 2027 10:37:49.953   04 Jun 2027 10:38:35.684            45.731                  Delhi          1429.094
