uniorb/output/strategy_1/Drop/Drop_KinoSat_111303.txt

KinoSat_111303
-------------------------
    Access    *     Start Time (UTCG)     *     Stop Time (UTCG)  *   Duration (s)        *       Station  *  Data (Mbytes)
         1   01 Jun 2027 03:49:36.889   01 Jun 2027 03:49:58.094            21.205                Norilsk           662.656
         2   01 Jun 2027 03:50:02.441   01 Jun 2027 03:51:11.319            68.878                 Moscow          2152.437
         3   01 Jun 2027 03:51:21.780   01 Jun 2027 03:52:32.163            70.383              Murmansk1          2199.469
         4   01 Jun 2027 03:52:32.163   01 Jun 2027 03:53:25.628            53.465              Murmansk2          1670.781
         5   01 Jun 2027 03:53:42.087   01 Jun 2027 03:53:45.065             2.978              Murmansk1            93.063
         6   01 Jun 2027 03:53:46.894   01 Jun 2027 03:54:19.558            32.664                 Moscow          1020.750
         7   01 Jun 2027 04:08:05.193   01 Jun 2027 04:10:37.699           152.506               CapeTown          4765.812
         8   01 Jun 2027 05:11:34.294   01 Jun 2027 05:11:41.962             7.668               Magadan2           239.625
         9   01 Jun 2027 05:11:52.678   01 Jun 2027 05:12:04.905            12.227               Magadan2           382.094
        10   01 Jun 2027 05:12:17.982   01 Jun 2027 05:16:04.857           226.875                Anadyr2          7089.844
        11   01 Jun 2027 05:16:04.857   01 Jun 2027 05:16:30.320            25.463                Anadyr1           795.719
        12   01 Jun 2027 05:17:38.990   01 Jun 2027 05:17:44.524             5.534                Anadyr1           172.937
        13   01 Jun 2027 06:48:35.213   01 Jun 2027 06:49:12.117            36.904               Magadan1          1153.250
        14   01 Jun 2027 06:49:23.722   01 Jun 2027 06:49:56.683            32.961                Norilsk          1030.031
        15   01 Jun 2027 06:50:02.873   01 Jun 2027 06:50:18.089            15.216                Irkutsk           475.500
        16   01 Jun 2027 06:50:42.000   01 Jun 2027 06:53:29.310           167.310                Anadyr1          5228.438
        17   01 Jun 2027 06:53:38.357   01 Jun 2027 06:53:47.781             9.424              Murmansk2           294.500
        18   01 Jun 2027 06:53:47.781   01 Jun 2027 06:54:16.124            28.343              Murmansk1           885.719
        19   01 Jun 2027 06:54:16.124   01 Jun 2027 06:54:41.199            25.075              Murmansk2           783.594
        20   01 Jun 2027 06:57:18.015   01 Jun 2027 06:58:14.321            56.306                 Moscow          1759.562
        21   01 Jun 2027 07:30:51.125   01 Jun 2027 07:31:31.572            40.447            RioGallegos          1263.969
        22   01 Jun 2027 08:22:31.262   01 Jun 2027 08:22:35.190             3.928                Norilsk           122.750
        23   01 Jun 2027 08:22:45.857   01 Jun 2027 08:27:37.747           291.890               Magadan2          9121.562
        24   01 Jun 2027 08:27:47.776   01 Jun 2027 08:29:32.957           105.181              Murmansk1          3286.906
        25   01 Jun 2027 09:04:11.379   01 Jun 2027 09:04:47.878            36.499            RioGallegos          1140.594
        26   01 Jun 2027 09:05:52.851   01 Jun 2027 09:06:10.462            17.611            RioGallegos           550.344
        27   01 Jun 2027 09:40:16.784   01 Jun 2027 09:40:39.183            22.399                Sumatra           699.969
        28   01 Jun 2027 10:00:07.867   01 Jun 2027 10:04:09.991           242.124                Novosib          7566.375
        29   01 Jun 2027 10:04:11.452   01 Jun 2027 10:05:04.447            52.995                Irkutsk          1656.094
        30   01 Jun 2027 10:05:54.094   01 Jun 2027 10:06:00.293             6.199              Murmansk2           193.719
        31   01 Jun 2027 10:07:49.195   01 Jun 2027 10:08:20.235            31.040              Murmansk1           970.000
        32   01 Jun 2027 10:40:32.522   01 Jun 2027 10:40:49.916            17.394            RioGallegos           543.563
        33   01 Jun 2027 10:41:18.571   01 Jun 2027 10:41:49.253            30.682            RioGallegos           958.813
        34   01 Jun 2027 10:42:20.372   01 Jun 2027 10:42:41.088            20.716            RioGallegos           647.375
        35   01 Jun 2027 10:43:10.156   01 Jun 2027 10:44:00.015            49.859            RioGallegos          1558.094
        36   01 Jun 2027 11:14:51.614   01 Jun 2027 11:15:23.518            31.904                Sumatra           997.000
        37   01 Jun 2027 11:17:24.635   01 Jun 2027 11:18:57.179            92.544                Sumatra          2892.000
        38   01 Jun 2027 11:37:20.496   01 Jun 2027 11:37:26.442             5.946              Murmansk1           185.813
        39   01 Jun 2027 11:37:38.308   01 Jun 2027 11:41:23.872           225.564              Murmansk2          7048.875
        40   01 Jun 2027 11:41:25.167   01 Jun 2027 11:43:25.345           120.178                 Moscow          3755.562
        41   01 Jun 2027 12:59:36.786   01 Jun 2027 13:01:49.103           132.317                  Delhi          4134.906
        42   01 Jun 2027 13:07:54.580   01 Jun 2027 13:08:21.098            26.518                Novosib           828.687
        43   01 Jun 2027 13:09:12.012   01 Jun 2027 13:09:25.992            13.980                 Moscow           436.875
        44   01 Jun 2027 13:09:47.081   01 Jun 2027 13:10:55.984            68.903                Novosib          2153.219
        45   01 Jun 2027 13:11:14.681   01 Jun 2027 13:13:22.321           127.640              Murmansk1          3988.750
        46   01 Jun 2027 13:13:59.323   01 Jun 2027 13:15:05.835            66.512                Norilsk          2078.500
        47   01 Jun 2027 13:17:19.053   01 Jun 2027 13:17:36.464            17.411                Norilsk           544.094
        48   01 Jun 2027 14:43:15.570   01 Jun 2027 14:46:28.194           192.624                 Moscow          6019.500
        49   01 Jun 2027 14:46:47.076   01 Jun 2027 14:50:21.159           214.083              Murmansk2          6690.094
        50   01 Jun 2027 14:53:52.065   01 Jun 2027 14:54:25.974            33.909                Norilsk          1059.656
        51   01 Jun 2027 14:55:55.621   01 Jun 2027 14:56:48.088            52.467                Norilsk          1639.594
        52   01 Jun 2027 15:03:28.584   01 Jun 2027 15:04:09.538            40.954                Anadyr2          1279.812
        53   01 Jun 2027 15:04:26.058   01 Jun 2027 15:04:38.409            12.351                Anadyr2           385.969
        54   01 Jun 2027 15:05:05.210   01 Jun 2027 15:06:05.449            60.239                Anadyr2          1882.469
        55   01 Jun 2027 15:57:01.529   01 Jun 2027 15:57:56.474            54.945               CapeTown          1717.031
        56   01 Jun 2027 15:58:48.046   01 Jun 2027 15:58:49.683             1.637               CapeTown            51.156
        57   01 Jun 2027 15:59:21.782   01 Jun 2027 16:00:07.862            46.080               CapeTown          1440.000
        58   01 Jun 2027 16:21:56.808   01 Jun 2027 16:22:07.477            10.669                 Moscow           333.406
        59   01 Jun 2027 16:24:29.617   01 Jun 2027 16:25:27.143            57.526              Murmansk2          1797.687
        60   01 Jun 2027 16:26:16.648   01 Jun 2027 16:26:54.293            37.645              Murmansk1          1176.406
        61   01 Jun 2027 16:28:02.416   01 Jun 2027 16:28:38.963            36.547              Murmansk2          1142.094
        62   01 Jun 2027 16:33:52.797   01 Jun 2027 16:35:31.610            98.813              Murmansk1          3087.906
        63   01 Jun 2027 16:37:28.829   01 Jun 2027 16:37:53.291            24.462                Anadyr1           764.438
        64   01 Jun 2027 16:38:27.908   01 Jun 2027 16:38:40.606            12.698                Anadyr1           396.812
        65   01 Jun 2027 16:42:17.724   01 Jun 2027 16:42:57.780            40.056                Anadyr2          1251.750
        66   01 Jun 2027 16:45:03.997   01 Jun 2027 16:45:23.209            19.212                Anadyr2           600.375
        67   01 Jun 2027 16:46:46.634   01 Jun 2027 16:47:01.837            15.203                Anadyr1           475.094
        68   01 Jun 2027 16:48:01.865   01 Jun 2027 16:48:23.567            21.702                Anadyr2           678.188
        69   01 Jun 2027 17:33:02.752   01 Jun 2027 17:33:56.398            53.646               CapeTown          1676.438
        70   01 Jun 2027 17:37:05.281   01 Jun 2027 17:37:33.298            28.017               CapeTown           875.531
        71   01 Jun 2027 17:40:31.460   01 Jun 2027 17:41:19.779            48.319               CapeTown          1509.969
        72   01 Jun 2027 18:04:49.829   01 Jun 2027 18:05:23.309            33.480              Murmansk2          1046.250
        73   01 Jun 2027 18:05:23.309   01 Jun 2027 18:08:36.169           192.860              Murmansk1          6026.875
        74   01 Jun 2027 18:09:13.948   01 Jun 2027 18:09:54.000            40.052              Murmansk1          1251.625
        75   01 Jun 2027 18:16:04.096   01 Jun 2027 18:17:25.888            81.792               Magadan2          2556.000
        76   01 Jun 2027 18:18:51.357   01 Jun 2027 18:19:02.845            11.488               Magadan1           359.000
        77   01 Jun 2027 18:23:09.573   01 Jun 2027 18:23:18.502             8.929               Magadan1           279.031
        78   01 Jun 2027 18:23:47.054   01 Jun 2027 18:23:57.172            10.118               Magadan2           316.187
        79   01 Jun 2027 18:24:06.667   01 Jun 2027 18:24:28.674            22.007               Magadan1           687.719
        80   01 Jun 2027 18:25:43.676   01 Jun 2027 18:26:06.090            22.414               Magadan2           700.437
        81   01 Jun 2027 19:49:09.354   01 Jun 2027 19:51:14.901           125.547                Anadyr1          3923.344
        82   01 Jun 2027 19:51:25.945   01 Jun 2027 19:52:55.735            89.790                Anadyr2          2805.937
        83   01 Jun 2027 19:53:17.585   01 Jun 2027 19:55:53.532           155.947               Magadan1          4873.344
        84   01 Jun 2027 19:56:13.399   01 Jun 2027 19:56:22.820             9.421               Magadan1           294.406
        85   01 Jun 2027 19:56:50.884   01 Jun 2027 19:57:01.148            10.264               Magadan1           320.750
        86   01 Jun 2027 19:58:32.418   01 Jun 2027 19:59:12.719            40.301               Magadan1          1259.406
        87   01 Jun 2027 20:02:16.928   01 Jun 2027 20:02:27.361            10.433               Magadan1           326.031
        88   01 Jun 2027 20:03:00.483   01 Jun 2027 20:04:02.420            61.937               Magadan1          1935.531
        89   01 Jun 2027 20:44:31.798   01 Jun 2027 20:45:00.759            28.961            RioGallegos           905.031
        90   01 Jun 2027 20:45:29.841   01 Jun 2027 20:47:17.296           107.455            RioGallegos          3357.969
        91   01 Jun 2027 20:50:26.558   01 Jun 2027 20:50:52.312            25.754            RioGallegos           804.812
        92   01 Jun 2027 21:24:54.997   01 Jun 2027 21:25:27.822            32.825                Anadyr2          1025.781
        93   01 Jun 2027 21:27:03.075   01 Jun 2027 21:30:13.852           190.777                Norilsk          5961.781
        94   01 Jun 2027 21:30:36.621   01 Jun 2027 21:30:46.596             9.975                Norilsk           311.719
        95   01 Jun 2027 21:31:38.316   01 Jun 2027 21:32:49.574            71.258                Irkutsk          2226.813
        96   01 Jun 2027 21:34:33.097   01 Jun 2027 21:34:59.721            26.624                Irkutsk           832.000
        97   01 Jun 2027 21:40:04.293   01 Jun 2027 21:40:55.965            51.672                Irkutsk          1614.750
        98   01 Jun 2027 21:45:58.495   01 Jun 2027 21:47:36.519            98.024                Sumatra          3063.250
        99   01 Jun 2027 21:51:19.705   01 Jun 2027 21:52:17.718            58.013                Sumatra          1812.906
       100   01 Jun 2027 21:56:28.661   01 Jun 2027 21:56:34.163             5.502                Sumatra           171.938
       101   01 Jun 2027 23:00:01.595   01 Jun 2027 23:01:10.305            68.710                Anadyr1          2147.187
       102   01 Jun 2027 23:02:54.078   01 Jun 2027 23:03:57.992            63.914                Norilsk          1997.312
       103   01 Jun 2027 23:04:08.199   01 Jun 2027 23:04:24.675            16.476               Magadan2           514.875
       104   01 Jun 2027 23:04:55.484   01 Jun 2027 23:05:21.423            25.939               Magadan1           810.594
       105   01 Jun 2027 23:06:46.636   01 Jun 2027 23:07:18.415            31.779                Irkutsk           993.094
       106   01 Jun 2027 23:07:31.201   01 Jun 2027 23:08:37.424            66.223                Novosib          2069.469
       107   01 Jun 2027 23:10:14.198   01 Jun 2027 23:10:19.474             5.276                Novosib           164.875
       108   01 Jun 2027 23:10:54.316   01 Jun 2027 23:11:04.005             9.689                Novosib           302.781
       109   01 Jun 2027 23:12:22.978   01 Jun 2027 23:12:58.435            35.457                Novosib          1108.031
       110   01 Jun 2027 23:15:57.890   01 Jun 2027 23:16:42.864            44.974                Novosib          1405.438
       111   01 Jun 2027 23:16:53.995   01 Jun 2027 23:19:14.431           140.436                  Delhi          4388.625
       112   02 Jun 2027 00:03:30.598   02 Jun 2027 00:04:38.859            68.261            RioGallegos          2133.156
       113   02 Jun 2027 00:34:34.351   02 Jun 2027 00:35:08.298            33.947                Anadyr1          1060.844
       114   02 Jun 2027 00:35:39.435   02 Jun 2027 00:36:06.273            26.838                Anadyr2           838.687
       115   02 Jun 2027 00:36:47.469   02 Jun 2027 00:36:55.117             7.648                Anadyr1           239.000
       116   02 Jun 2027 00:38:07.428   02 Jun 2027 00:38:26.030            18.602                Anadyr1           581.313
       117   02 Jun 2027 00:38:54.529   02 Jun 2027 00:39:10.554            16.025                Norilsk           500.781
       118   02 Jun 2027 00:39:24.463   02 Jun 2027 00:41:37.197           132.734               Magadan2          4147.938
       119   02 Jun 2027 00:42:00.997   02 Jun 2027 00:43:38.040            97.043              Murmansk2          3032.594
       120   02 Jun 2027 00:43:59.482   02 Jun 2027 00:44:05.899             6.417              Murmansk2           200.531
       121   02 Jun 2027 00:44:24.015   02 Jun 2027 00:45:05.896            41.881              Murmansk2          1308.781
       122   02 Jun 2027 00:48:14.614   02 Jun 2027 00:48:20.542             5.928              Murmansk1           185.250
       123   02 Jun 2027 00:50:01.805   02 Jun 2027 00:50:06.177             4.372                  Delhi           136.625
       124   02 Jun 2027 00:50:08.291   02 Jun 2027 00:52:19.902           131.611                  Delhi          4112.844
       125   02 Jun 2027 01:01:06.690   02 Jun 2027 01:01:51.975            45.285                  Delhi          1415.156
       126   02 Jun 2027 01:33:38.589   02 Jun 2027 01:34:06.139            27.550            RioGallegos           860.938
       127   02 Jun 2027 01:36:10.104   02 Jun 2027 01:36:50.342            40.238            RioGallegos          1257.438
       128   02 Jun 2027 02:07:13.010   02 Jun 2027 02:08:28.420            75.410                Anadyr2          2356.563
       129   02 Jun 2027 02:10:49.597   02 Jun 2027 02:10:56.659             7.062                Anadyr1           220.688
       130   02 Jun 2027 02:11:58.947   02 Jun 2027 02:12:10.732            11.785                Anadyr1           368.281
       131   02 Jun 2027 02:13:01.430   02 Jun 2027 02:13:33.371            31.941               Magadan1           998.156
       132   02 Jun 2027 02:13:42.477   02 Jun 2027 02:13:58.500            16.023               Magadan2           500.719
       133   02 Jun 2027 02:14:04.652   02 Jun 2027 02:14:10.572             5.920               Magadan1           185.000
       134   02 Jun 2027 02:14:47.722   02 Jun 2027 02:15:11.286            23.564                Norilsk           736.375
       135   02 Jun 2027 02:16:12.774   02 Jun 2027 02:16:21.429             8.655                Norilsk           270.469
       136   02 Jun 2027 02:16:35.870   02 Jun 2027 02:16:56.835            20.965                Norilsk           655.156
       137   02 Jun 2027 02:17:03.068   02 Jun 2027 02:18:25.059            81.991              Murmansk2          2562.219
       138   02 Jun 2027 02:18:52.701   02 Jun 2027 02:19:53.720            61.019                Novosib          1906.844
       139   02 Jun 2027 02:25:32.256   02 Jun 2027 02:25:54.247            21.991                 Moscow           687.219
       140   02 Jun 2027 02:26:49.914   02 Jun 2027 02:26:57.877             7.963                Novosib           248.844
       141   02 Jun 2027 02:28:04.652   02 Jun 2027 02:28:35.247            30.595                Novosib           956.094
       142   02 Jun 2027 02:32:21.137   02 Jun 2027 02:32:57.851            36.714                  Delhi          1147.313
       143   02 Jun 2027 02:49:48.619   02 Jun 2027 02:50:28.910            40.291               CapeTown          1259.094
       144   02 Jun 2027 02:53:05.532   02 Jun 2027 02:54:59.578           114.046               CapeTown          3563.937
       145   02 Jun 2027 04:01:19.363   02 Jun 2027 04:01:46.839            27.476                Norilsk           858.625
       146   02 Jun 2027 04:01:50.984   02 Jun 2027 04:02:36.200            45.216              Murmansk1          1413.000
       147   02 Jun 2027 04:02:44.208   02 Jun 2027 04:02:56.732            12.524              Murmansk2           391.375
       148   02 Jun 2027 04:03:05.397   02 Jun 2027 04:03:58.648            53.251                 Moscow          1664.094
       149   02 Jun 2027 04:03:59.948   02 Jun 2027 04:04:39.937            39.989              Murmansk2          1249.656
       150   02 Jun 2027 04:06:54.211   02 Jun 2027 04:06:57.013             2.802                 Moscow            87.563
       151   02 Jun 2027 05:23:30.558   02 Jun 2027 05:23:56.749            26.191                Anadyr2           818.469
       152   02 Jun 2027 05:24:15.374   02 Jun 2027 05:26:53.033           157.659               Magadan2          4926.844
       153   02 Jun 2027 07:00:59.425   02 Jun 2027 07:01:11.508            12.083               Magadan2           377.594
       154   02 Jun 2027 07:01:13.372   02 Jun 2027 07:04:39.118           205.746                Anadyr1          6429.563
       155   02 Jun 2027 08:36:35.229   02 Jun 2027 08:41:56.736           321.507                Novosib         10047.094
       156   02 Jun 2027 09:51:42.940   02 Jun 2027 09:52:49.796            66.856                Sumatra          2089.250
       157   02 Jun 2027 10:12:15.757   02 Jun 2027 10:12:40.502            24.745                Irkutsk           773.281
       158   02 Jun 2027 10:13:03.320   02 Jun 2027 10:14:59.343           116.023                Norilsk          3625.719
       159   02 Jun 2027 10:15:12.186   02 Jun 2027 10:17:30.651           138.465              Murmansk1          4327.031
       160   02 Jun 2027 10:17:30.651   02 Jun 2027 10:17:55.482            24.831              Murmansk2           775.969
       161   02 Jun 2027 10:18:41.412   02 Jun 2027 10:19:47.225            65.813              Murmansk2          2056.656
       162   02 Jun 2027 10:52:57.268   02 Jun 2027 10:53:57.712            60.444            RioGallegos          1888.875
       163   02 Jun 2027 10:55:39.209   02 Jun 2027 10:55:55.371            16.162            RioGallegos           505.062
       164   02 Jun 2027 10:57:01.815   02 Jun 2027 10:57:51.730            49.915            RioGallegos          1559.844
       165   02 Jun 2027 11:27:11.369   02 Jun 2027 11:28:42.367            90.998                Sumatra          2843.688
       166   02 Jun 2027 11:48:16.466   02 Jun 2027 11:48:48.543            32.077                Irkutsk          1002.406
       167   02 Jun 2027 11:49:28.377   02 Jun 2027 11:50:07.234            38.857                Irkutsk          1214.281
       168   02 Jun 2027 11:50:49.063   02 Jun 2027 11:51:21.919            32.856                Novosib          1026.750
       169   02 Jun 2027 11:51:44.597   02 Jun 2027 11:53:22.741            98.144                Novosib          3067.000
       170   02 Jun 2027 11:53:23.379   02 Jun 2027 11:54:45.185            81.806              Murmansk2          2556.437
       171   02 Jun 2027 13:12:09.333   02 Jun 2027 13:15:17.371           188.038                  Delhi          5876.188
       172   02 Jun 2027 13:16:02.917   02 Jun 2027 13:17:14.996            72.079                  Delhi          2252.469
       173   02 Jun 2027 13:20:35.286   02 Jun 2027 13:20:41.489             6.203                Novosib           193.844
       174   02 Jun 2027 13:21:17.300   02 Jun 2027 13:21:53.969            36.669                Novosib          1145.906
       175   02 Jun 2027 13:22:45.615   02 Jun 2027 13:23:47.506            61.891                Novosib          1934.094
       176   02 Jun 2027 13:24:06.304   02 Jun 2027 13:24:47.906            41.602              Murmansk1          1300.063
       177   02 Jun 2027 13:25:03.866   02 Jun 2027 13:26:05.110            61.244                Novosib          1913.875
       178   02 Jun 2027 13:27:11.644   02 Jun 2027 13:27:24.888            13.244                Norilsk           413.875
       179   02 Jun 2027 13:28:27.011   02 Jun 2027 13:29:14.920            47.909                Norilsk          1497.156
       180   02 Jun 2027 14:55:24.236   02 Jun 2027 14:57:19.023           114.787                 Moscow          3587.094
       181   02 Jun 2027 14:58:27.992   02 Jun 2027 14:59:42.108            74.116                 Moscow          2316.125
       182   02 Jun 2027 15:00:04.672   02 Jun 2027 15:02:19.870           135.198              Murmansk1          4224.937
       183   02 Jun 2027 15:02:19.870   02 Jun 2027 15:03:58.661            98.791              Murmansk2          3087.219
       184   02 Jun 2027 15:05:49.484   02 Jun 2027 15:05:58.618             9.134              Murmansk1           285.437
       185   02 Jun 2027 15:06:10.452   02 Jun 2027 15:06:16.109             5.657              Murmansk1           176.781
       186   02 Jun 2027 15:06:25.486   02 Jun 2027 15:06:53.157            27.671                 Moscow           864.719
       187   02 Jun 2027 15:07:50.670   02 Jun 2027 15:08:10.086            19.416              Murmansk1           606.750
       188   02 Jun 2027 15:08:13.010   02 Jun 2027 15:08:46.131            33.121                Norilsk          1035.031
       189   02 Jun 2027 15:09:47.757   02 Jun 2027 15:10:21.083            33.326              Murmansk1          1041.438
       190   02 Jun 2027 15:14:49.028   02 Jun 2027 15:17:04.631           135.603                Anadyr1          4237.594
       191   02 Jun 2027 15:17:04.631   02 Jun 2027 15:17:53.079            48.448                Anadyr2          1514.000
       192   02 Jun 2027 15:19:01.820   02 Jun 2027 15:19:24.835            23.015                Anadyr2           719.219
       193   02 Jun 2027 16:17:11.149   02 Jun 2027 16:18:23.311            72.162               CapeTown          2255.062
       194   02 Jun 2027 16:20:47.186   02 Jun 2027 16:21:18.397            31.211               CapeTown           975.344
       195   02 Jun 2027 16:34:49.093   02 Jun 2027 16:35:32.211            43.118                 Moscow          1347.438
       196   02 Jun 2027 16:38:18.714   02 Jun 2027 16:39:30.602            71.888              Murmansk1          2246.500
       197   02 Jun 2027 16:42:07.945   02 Jun 2027 16:42:38.466            30.521              Murmansk2           953.781
       198   02 Jun 2027 16:43:48.532   02 Jun 2027 16:44:02.361            13.829              Murmansk1           432.156
       199   02 Jun 2027 16:44:39.938   02 Jun 2027 16:45:23.216            43.278              Murmansk2          1352.437
       200   02 Jun 2027 16:45:54.808   02 Jun 2027 16:46:49.636            54.828              Murmansk1          1713.375
       201   02 Jun 2027 16:51:03.535   02 Jun 2027 16:51:12.582             9.047                Anadyr1           282.719
       202   02 Jun 2027 16:51:16.148   02 Jun 2027 16:51:17.854             1.706                Anadyr1            53.312
       203   02 Jun 2027 16:51:17.854   02 Jun 2027 16:51:50.291            32.437                Anadyr2          1013.656
       204   02 Jun 2027 16:52:58.004   02 Jun 2027 16:53:55.510            57.506                Anadyr1          1797.062
       205   02 Jun 2027 16:55:22.315   02 Jun 2027 16:55:29.265             6.950                Anadyr1           217.188
       206   02 Jun 2027 16:55:50.295   02 Jun 2027 16:56:31.100            40.805                Anadyr1          1275.156
       207   02 Jun 2027 16:57:21.559   02 Jun 2027 16:57:54.553            32.994                Anadyr2          1031.062
       208   02 Jun 2027 16:57:54.553   02 Jun 2027 16:58:11.817            17.264                Anadyr1           539.500
       209   02 Jun 2027 16:59:00.752   02 Jun 2027 16:59:20.185            19.433                Anadyr1           607.281
       210   02 Jun 2027 16:59:46.165   02 Jun 2027 16:59:52.881             6.716                Anadyr2           209.875
       211   02 Jun 2027 16:59:52.881   02 Jun 2027 17:00:17.058            24.177                Anadyr1           755.531
       212   02 Jun 2027 17:00:37.322   02 Jun 2027 17:00:47.490            10.168                Anadyr1           317.750
       213   02 Jun 2027 18:17:44.474   02 Jun 2027 18:22:40.787           296.313              Murmansk1          9259.781
       214   02 Jun 2027 18:27:56.977   02 Jun 2027 18:28:12.673            15.696               Magadan1           490.500
       215   02 Jun 2027 18:29:12.578   02 Jun 2027 18:29:20.841             8.263               Magadan1           258.219
       216   02 Jun 2027 18:30:07.537   02 Jun 2027 18:30:11.777             4.240                Anadyr1           132.500
       217   02 Jun 2027 18:30:34.462   02 Jun 2027 18:31:00.730            26.268                Anadyr1           820.875
       218   02 Jun 2027 18:32:02.969   02 Jun 2027 18:32:09.883             6.914               Magadan1           216.063
       219   02 Jun 2027 18:32:35.302   02 Jun 2027 18:33:26.963            51.661               Magadan1          1614.406
       220   02 Jun 2027 18:34:09.166   02 Jun 2027 18:34:14.291             5.125                Anadyr2           160.156
       221   02 Jun 2027 18:34:50.405   02 Jun 2027 18:35:11.383            20.978                Anadyr1           655.562
       222   02 Jun 2027 18:35:36.824   02 Jun 2027 18:36:05.236            28.412                Anadyr1           887.875
       223   02 Jun 2027 18:36:12.644   02 Jun 2027 18:36:47.084            34.440                Anadyr1          1076.250
       224   02 Jun 2027 18:37:27.050   02 Jun 2027 18:37:59.426            32.376               Magadan2          1011.750
       225   02 Jun 2027 18:38:16.393   02 Jun 2027 18:38:31.114            14.721               Magadan2           460.031
       226   02 Jun 2027 20:01:10.553   02 Jun 2027 20:03:16.587           126.034                Anadyr2          3938.562
       227   02 Jun 2027 20:03:25.689   02 Jun 2027 20:05:21.128           115.439                Anadyr1          3607.469
       228   02 Jun 2027 20:05:25.672   02 Jun 2027 20:06:25.431            59.759               Magadan1          1867.469
       229   02 Jun 2027 20:07:45.216   02 Jun 2027 20:08:34.409            49.193                Anadyr1          1537.281
       230   02 Jun 2027 20:09:29.038   02 Jun 2027 20:09:49.112            20.074               Magadan1           627.312
       231   02 Jun 2027 20:10:16.829   02 Jun 2027 20:10:33.192            16.363               Magadan2           511.344
       232   02 Jun 2027 20:10:48.078   02 Jun 2027 20:10:52.243             4.165               Magadan2           130.156
       233   02 Jun 2027 20:11:16.174   02 Jun 2027 20:11:47.958            31.784               Magadan1           993.250
       234   02 Jun 2027 20:12:23.683   02 Jun 2027 20:13:35.773            72.090               Magadan1          2252.813
       235   02 Jun 2027 20:14:43.957   02 Jun 2027 20:15:48.533            64.576               Magadan1          2018.000
       236   02 Jun 2027 20:59:01.904   02 Jun 2027 20:59:16.534            14.630            RioGallegos           457.187
       237   02 Jun 2027 20:59:29.136   02 Jun 2027 20:59:42.347            13.211            RioGallegos           412.844
       238   02 Jun 2027 20:59:57.522   02 Jun 2027 21:00:52.953            55.431            RioGallegos          1732.219
       239   02 Jun 2027 21:02:14.089   02 Jun 2027 21:02:36.331            22.242            RioGallegos           695.062
       240   02 Jun 2027 21:02:47.144   02 Jun 2027 21:04:10.876            83.732            RioGallegos          2616.625
       241   02 Jun 2027 21:39:02.305   02 Jun 2027 21:39:28.115            25.810                Norilsk           806.563
       242   02 Jun 2027 21:40:01.271   02 Jun 2027 21:40:27.911            26.640               Magadan1           832.500
       243   02 Jun 2027 21:40:45.186   02 Jun 2027 21:40:56.821            11.635                Norilsk           363.594
       244   02 Jun 2027 21:41:28.015   02 Jun 2027 21:41:49.253            21.238               Magadan2           663.687
       245   02 Jun 2027 21:42:12.780   02 Jun 2027 21:42:26.754            13.974                Norilsk           436.688
       246   02 Jun 2027 21:42:55.096   02 Jun 2027 21:43:18.026            22.930               Magadan2           716.563
       247   02 Jun 2027 21:44:22.009   02 Jun 2027 21:45:55.557            93.548                Irkutsk          2923.375
       248   02 Jun 2027 21:49:14.134   02 Jun 2027 21:49:37.728            23.594                Irkutsk           737.312
       249   02 Jun 2027 21:50:37.720   02 Jun 2027 21:50:48.431            10.711               Magadan2           334.719
       250   02 Jun 2027 21:51:05.260   02 Jun 2027 21:51:19.087            13.827               Magadan1           432.094
       251   02 Jun 2027 21:52:35.387   02 Jun 2027 21:53:35.544            60.157                Irkutsk          1879.906
       252   02 Jun 2027 22:03:32.528   02 Jun 2027 22:04:01.021            28.493                Sumatra           890.406
       253   02 Jun 2027 22:04:36.950   02 Jun 2027 22:06:47.349           130.399                Sumatra          4074.969
       254   02 Jun 2027 23:11:52.064   02 Jun 2027 23:12:10.331            18.267                Anadyr2           570.844
       255   02 Jun 2027 23:12:13.564   02 Jun 2027 23:13:14.665            61.101                Anadyr2          1909.406
       256   02 Jun 2027 23:14:56.089   02 Jun 2027 23:16:28.620            92.531                Norilsk          2891.594
       257   02 Jun 2027 23:16:52.887   02 Jun 2027 23:17:29.572            36.685               Magadan2          1146.406
       258   02 Jun 2027 23:18:50.617   02 Jun 2027 23:19:34.558            43.941               Magadan2          1373.156
       259   02 Jun 2027 23:20:31.014   02 Jun 2027 23:20:45.331            14.317                Novosib           447.406
       260   02 Jun 2027 23:22:03.728   02 Jun 2027 23:22:05.006             1.278                Novosib            39.937
       261   02 Jun 2027 23:22:05.946   02 Jun 2027 23:22:37.986            32.040                Irkutsk          1001.250
       262   02 Jun 2027 23:24:13.850   02 Jun 2027 23:24:43.915            30.065                Novosib           939.531
       263   02 Jun 2027 23:25:48.528   02 Jun 2027 23:25:54.981             6.453                Norilsk           201.656
       264   02 Jun 2027 23:26:32.274   02 Jun 2027 23:26:35.680             3.406                Norilsk           106.438
       265   02 Jun 2027 23:27:01.029   02 Jun 2027 23:27:07.536             6.507                Norilsk           203.344
       266   02 Jun 2027 23:27:59.832   02 Jun 2027 23:28:23.847            24.015                Irkutsk           750.469
       267   02 Jun 2027 23:28:23.867   02 Jun 2027 23:28:26.899             3.032                Novosib            94.750
       268   02 Jun 2027 23:28:27.994   02 Jun 2027 23:30:23.871           115.877                  Delhi          3621.156
       269   02 Jun 2027 23:34:47.205   02 Jun 2027 23:36:53.525           126.320                  Delhi          3947.500
       270   03 Jun 2027 00:47:19.917   03 Jun 2027 00:48:01.755            41.838                Anadyr2          1307.438
       271   03 Jun 2027 00:49:01.264   03 Jun 2027 00:49:30.318            29.054                Anadyr2           907.937
       272   03 Jun 2027 00:50:25.439   03 Jun 2027 00:50:51.840            26.401                Anadyr2           825.031
       273   03 Jun 2027 00:50:56.345   03 Jun 2027 00:52:00.596            64.251                Norilsk          2007.844
       274   03 Jun 2027 00:52:08.958   03 Jun 2027 00:52:16.208             7.250               Magadan2           226.562
       275   03 Jun 2027 00:52:31.929   03 Jun 2027 00:53:16.183            44.254               Magadan1          1382.938
       276   03 Jun 2027 00:53:26.942   03 Jun 2027 00:53:50.800            23.858              Murmansk1           745.563
       277   03 Jun 2027 00:55:01.293   03 Jun 2027 00:55:31.162            29.869              Murmansk1           933.406
       278   03 Jun 2027 00:56:02.456   03 Jun 2027 00:56:14.331            11.875              Murmansk2           371.094
       279   03 Jun 2027 00:56:23.993   03 Jun 2027 00:56:54.380            30.387              Murmansk1           949.594
       280   03 Jun 2027 00:59:46.436   03 Jun 2027 01:00:14.831            28.395              Murmansk2           887.344
       281   03 Jun 2027 01:00:59.041   03 Jun 2027 01:01:37.207            38.166                 Moscow          1192.688
       282   03 Jun 2027 01:05:27.071   03 Jun 2027 01:05:59.749            32.678                Novosib          1021.188
       283   03 Jun 2027 01:07:52.703   03 Jun 2027 01:08:12.696            19.993                  Delhi           624.781
       284   03 Jun 2027 01:10:40.397   03 Jun 2027 01:11:05.144            24.747                  Delhi           773.344
       285   03 Jun 2027 01:12:36.082   03 Jun 2027 01:13:46.997            70.915                  Delhi          2216.094
       286   03 Jun 2027 01:45:05.182   03 Jun 2027 01:45:42.587            37.405            RioGallegos          1168.906
       287   03 Jun 2027 02:18:56.348   03 Jun 2027 02:20:27.339            90.991                Anadyr1          2843.469
       288   03 Jun 2027 02:22:45.912   03 Jun 2027 02:23:01.725            15.813                Anadyr2           494.156
       289   03 Jun 2027 02:24:10.701   03 Jun 2027 02:24:20.341             9.640                Anadyr2           301.250
       290   03 Jun 2027 02:24:30.708   03 Jun 2027 02:25:45.028            74.320               Magadan2          2322.500
       291   03 Jun 2027 02:27:48.415   03 Jun 2027 02:28:13.280            24.865               Magadan1           777.031
       292   03 Jun 2027 02:29:04.200   03 Jun 2027 02:29:32.479            28.279              Murmansk1           883.719
       293   03 Jun 2027 02:30:51.158   03 Jun 2027 02:30:55.102             3.944              Murmansk1           123.250
       294   03 Jun 2027 02:30:58.491   03 Jun 2027 02:31:01.164             2.673                Novosib            83.531
       295   03 Jun 2027 02:31:11.911   03 Jun 2027 02:31:22.945            11.034              Murmansk1           344.812
       296   03 Jun 2027 02:31:56.559   03 Jun 2027 02:32:41.496            44.937              Murmansk1          1404.281
       297   03 Jun 2027 02:34:17.351   03 Jun 2027 02:34:49.248            31.897                Novosib           996.781
       298   03 Jun 2027 02:37:22.376   03 Jun 2027 02:38:23.323            60.947              Murmansk1          1904.594
       299   03 Jun 2027 02:42:53.459   03 Jun 2027 02:43:12.527            19.068                 Moscow           595.875
       300   03 Jun 2027 02:44:11.250   03 Jun 2027 02:44:26.519            15.269                 Moscow           477.156
       301   03 Jun 2027 03:04:11.020   03 Jun 2027 03:04:55.378            44.358               CapeTown          1386.188
       302   03 Jun 2027 04:12:56.258   03 Jun 2027 04:15:58.940           182.682              Murmansk1          5708.812
       303   03 Jun 2027 04:16:15.813   03 Jun 2027 04:17:57.270           101.457              Murmansk2          3170.531
       304   03 Jun 2027 04:43:49.293   03 Jun 2027 04:44:09.723            20.430               CapeTown           638.438
       305   03 Jun 2027 05:36:11.643   03 Jun 2027 05:39:31.376           199.733               Magadan2          6241.656
       306   03 Jun 2027 05:39:43.732   03 Jun 2027 05:40:33.094            49.362                Anadyr2          1542.562
       307   03 Jun 2027 07:13:27.216   03 Jun 2027 07:14:20.448            53.232                Irkutsk          1663.500
       308   03 Jun 2027 07:14:30.700   03 Jun 2027 07:14:42.697            11.997                Irkutsk           374.906
       309   03 Jun 2027 07:14:51.552   03 Jun 2027 07:17:23.120           151.568                Anadyr2          4736.500
       310   03 Jun 2027 08:00:28.714   03 Jun 2027 08:00:46.154            17.440            RioGallegos           545.000
       311   03 Jun 2027 08:48:10.705   03 Jun 2027 08:49:27.221            76.516               Magadan2          2391.125
       312   03 Jun 2027 08:49:44.392   03 Jun 2027 08:50:55.395            71.003                Novosib          2218.844
       313   03 Jun 2027 08:51:01.884   03 Jun 2027 08:51:52.064            50.180                Novosib          1568.125
       314   03 Jun 2027 08:52:12.336   03 Jun 2027 08:52:21.000             8.664                Norilsk           270.750
       315   03 Jun 2027 08:52:22.773   03 Jun 2027 08:56:40.851           258.078              Murmansk2          8064.937
       316   03 Jun 2027 09:27:47.761   03 Jun 2027 09:29:43.729           115.968            RioGallegos          3624.000
       317   03 Jun 2027 10:03:18.624   03 Jun 2027 10:05:07.019           108.395                Sumatra          3387.344
       318   03 Jun 2027 10:23:48.330   03 Jun 2027 10:26:28.658           160.328                Norilsk          5010.250
       319   03 Jun 2027 10:26:35.143   03 Jun 2027 10:26:58.406            23.263                Norilsk           726.969
       320   03 Jun 2027 10:27:01.418   03 Jun 2027 10:27:05.466             4.048              Murmansk1           126.500
       321   03 Jun 2027 10:27:07.159   03 Jun 2027 10:28:00.548            53.389                Norilsk          1668.406
       322   03 Jun 2027 10:28:08.412   03 Jun 2027 10:28:42.598            34.186                Novosib          1068.313
       323   03 Jun 2027 10:28:44.621   03 Jun 2027 10:29:04.595            19.974                Norilsk           624.187
       324   03 Jun 2027 10:29:22.828   03 Jun 2027 10:29:27.976             5.148              Murmansk1           160.875
       325   03 Jun 2027 10:30:36.422   03 Jun 2027 10:30:51.042            14.620              Murmansk1           456.875
       326   03 Jun 2027 10:31:46.643   03 Jun 2027 10:32:00.354            13.711              Murmansk1           428.469
       327   03 Jun 2027 10:34:13.980   03 Jun 2027 10:34:18.167             4.187              Murmansk1           130.844
       328   03 Jun 2027 11:05:27.498   03 Jun 2027 11:06:09.921            42.423            RioGallegos          1325.719
       329   03 Jun 2027 11:07:07.094   03 Jun 2027 11:07:15.931             8.837            RioGallegos           276.156
       330   03 Jun 2027 11:07:20.212   03 Jun 2027 11:07:53.996            33.784            RioGallegos          1055.750
       331   03 Jun 2027 11:39:39.805   03 Jun 2027 11:40:44.106            64.301                Sumatra          2009.406
       332   03 Jun 2027 11:47:02.677   03 Jun 2027 11:47:58.370            55.693                  Delhi          1740.406
       333   03 Jun 2027 12:05:22.789   03 Jun 2027 12:06:30.676            67.887                Novosib          2121.469
       334   03 Jun 2027 12:11:05.562   03 Jun 2027 12:11:53.888            48.326              Murmansk2          1510.188
       335   03 Jun 2027 13:25:09.216   03 Jun 2027 13:25:29.500            20.284                  Delhi           633.875
       336   03 Jun 2027 13:26:21.094   03 Jun 2027 13:27:07.467            46.373                  Delhi          1449.156
       337   03 Jun 2027 13:27:57.762   03 Jun 2027 13:29:42.548           104.786                  Delhi          3274.562
       338   03 Jun 2027 13:33:16.195   03 Jun 2027 13:33:47.120            30.925                  Delhi           966.406
       339   03 Jun 2027 13:34:16.067   03 Jun 2027 13:34:40.753            24.686                Novosib           771.438
       340   03 Jun 2027 13:35:04.341   03 Jun 2027 13:35:45.329            40.988                Novosib          1280.875
       341   03 Jun 2027 13:37:02.520   03 Jun 2027 13:37:06.994             4.474                Norilsk           139.813
       342   03 Jun 2027 13:38:02.246   03 Jun 2027 13:39:03.003            60.757                Novosib          1898.656
       343   03 Jun 2027 13:40:05.537   03 Jun 2027 13:40:35.986            30.449                Norilsk           951.531
       344   03 Jun 2027 13:41:47.808   03 Jun 2027 13:41:52.893             5.085                Norilsk           158.906
       345   03 Jun 2027 13:42:16.086   03 Jun 2027 13:42:29.396            13.310                Norilsk           415.937
       346   03 Jun 2027 13:44:50.233   03 Jun 2027 13:45:58.331            68.098                Norilsk          2128.062
       347   03 Jun 2027 14:49:02.644   03 Jun 2027 14:50:12.413            69.769               CapeTown          2180.281
       348   03 Jun 2027 14:51:39.296   03 Jun 2027 14:52:27.325            48.029               CapeTown          1500.906
       349   03 Jun 2027 15:07:36.184   03 Jun 2027 15:08:06.329            30.145                 Moscow           942.031
       350   03 Jun 2027 15:11:05.333   03 Jun 2027 15:11:43.753            38.420              Murmansk2          1200.625
       351   03 Jun 2027 15:12:31.526   03 Jun 2027 15:12:38.035             6.509                 Moscow           203.406
       352   03 Jun 2027 15:14:03.073   03 Jun 2027 15:14:17.638            14.565              Murmansk1           455.156
       353   03 Jun 2027 15:14:24.682   03 Jun 2027 15:15:20.941            56.259              Murmansk2          1758.094
       354   03 Jun 2027 15:19:52.620   03 Jun 2027 15:20:00.762             8.142              Murmansk2           254.437
       355   03 Jun 2027 15:20:47.893   03 Jun 2027 15:20:49.016             1.123              Murmansk1            35.094
       356   03 Jun 2027 15:20:57.811   03 Jun 2027 15:21:41.587            43.776              Murmansk2          1368.000
       357   03 Jun 2027 15:26:27.355   03 Jun 2027 15:28:03.999            96.644                Anadyr1          3020.125
       358   03 Jun 2027 15:29:07.835   03 Jun 2027 15:30:48.953           101.118                Anadyr2          3159.937
       359   03 Jun 2027 16:28:41.551   03 Jun 2027 16:29:21.792            40.241               CapeTown          1257.531
       360   03 Jun 2027 16:47:42.620   03 Jun 2027 16:48:06.282            23.662                 Moscow           739.438
       361   03 Jun 2027 16:48:37.585   03 Jun 2027 16:49:16.155            38.570                 Moscow          1205.312
       362   03 Jun 2027 16:51:22.103   03 Jun 2027 16:52:05.907            43.804              Murmansk2          1368.875
       363   03 Jun 2027 16:54:09.180   03 Jun 2027 16:54:20.669            11.489              Murmansk2           359.031
       364   03 Jun 2027 16:55:27.669   03 Jun 2027 16:55:49.601            21.932              Murmansk2           685.375
       365   03 Jun 2027 16:57:56.744   03 Jun 2027 16:58:22.514            25.770              Murmansk2           805.313
       366   03 Jun 2027 17:01:26.209   03 Jun 2027 17:01:45.944            19.735                Anadyr2           616.719
       367   03 Jun 2027 17:02:08.618   03 Jun 2027 17:02:55.736            47.118                Anadyr2          1472.438
       368   03 Jun 2027 17:03:40.798   03 Jun 2027 17:03:45.441             4.643                Anadyr2           145.094
       369   03 Jun 2027 17:04:08.241   03 Jun 2027 17:04:18.366            10.125                Anadyr1           316.406
       370   03 Jun 2027 17:05:00.807   03 Jun 2027 17:05:10.065             9.258                Anadyr1           289.313
       371   03 Jun 2027 17:08:22.668   03 Jun 2027 17:08:32.696            10.028                Anadyr1           313.375
       372   03 Jun 2027 17:08:50.863   03 Jun 2027 17:08:58.888             8.025                Anadyr1           250.781
       373   03 Jun 2027 17:10:11.614   03 Jun 2027 17:10:37.172            25.558                Anadyr2           798.687
       374   03 Jun 2027 17:12:31.936   03 Jun 2027 17:12:53.750            21.814                Anadyr1           681.688
       375   03 Jun 2027 18:00:53.660   03 Jun 2027 18:01:04.205            10.545               CapeTown           329.531
       376   03 Jun 2027 18:02:58.400   03 Jun 2027 18:03:02.253             3.853               CapeTown           120.406
       377   03 Jun 2027 18:03:36.753   03 Jun 2027 18:03:59.993            23.240               CapeTown           726.250
       378   03 Jun 2027 18:04:36.259   03 Jun 2027 18:04:42.617             6.358               CapeTown           198.688
       379   03 Jun 2027 18:30:51.193   03 Jun 2027 18:34:17.426           206.233              Murmansk1          6444.781
       380   03 Jun 2027 18:37:16.316   03 Jun 2027 18:38:06.120            49.804                Anadyr1          1556.375
       381   03 Jun 2027 18:38:29.919   03 Jun 2027 18:38:37.984             8.065                Anadyr1           252.031
       382   03 Jun 2027 18:38:44.480   03 Jun 2027 18:39:22.548            38.068                Anadyr1          1189.625
       383   03 Jun 2027 18:40:27.798   03 Jun 2027 18:40:50.374            22.576               Magadan1           705.500
       384   03 Jun 2027 18:40:57.240   03 Jun 2027 18:41:08.575            11.335               Magadan1           354.219
       385   03 Jun 2027 18:42:34.356   03 Jun 2027 18:42:35.431             1.075               Magadan1            33.594
       386   03 Jun 2027 18:43:05.932   03 Jun 2027 18:43:26.332            20.400               Magadan2           637.500
       387   03 Jun 2027 18:45:48.199   03 Jun 2027 18:46:12.349            24.150               Magadan1           754.688
       388   03 Jun 2027 18:47:44.016   03 Jun 2027 18:48:01.884            17.868               Magadan2           558.375
       389   03 Jun 2027 18:48:47.480   03 Jun 2027 18:48:57.126             9.646               Magadan1           301.438
       390   03 Jun 2027 20:13:11.564   03 Jun 2027 20:16:56.675           225.111                Anadyr1          7034.719
       391   03 Jun 2027 20:17:05.160   03 Jun 2027 20:19:56.365           171.205               Magadan1          5350.156
       392   03 Jun 2027 20:23:18.041   03 Jun 2027 20:23:42.833            24.792               Magadan1           774.750
       393   03 Jun 2027 20:25:54.011   03 Jun 2027 20:26:21.540            27.529               Magadan2           860.281
       394   03 Jun 2027 21:07:48.675   03 Jun 2027 21:10:25.856           157.181            RioGallegos          4911.906
       395   03 Jun 2027 21:11:43.418   03 Jun 2027 21:11:57.917            14.499            RioGallegos           453.094
       396   03 Jun 2027 21:17:01.822   03 Jun 2027 21:17:13.051            11.229            RioGallegos           350.906
       397   03 Jun 2027 21:48:50.804   03 Jun 2027 21:49:31.229            40.425                Anadyr1          1263.281
       398   03 Jun 2027 21:51:02.259   03 Jun 2027 21:51:18.510            16.251                Norilsk           507.844
       399   03 Jun 2027 21:51:30.195   03 Jun 2027 21:53:35.505           125.310               Magadan2          3915.937
       400   03 Jun 2027 21:55:18.390   03 Jun 2027 21:56:50.244            91.854                Irkutsk          2870.438
       401   03 Jun 2027 21:57:58.501   03 Jun 2027 21:58:39.287            40.786                Novosib          1274.563
       402   03 Jun 2027 22:00:01.668   03 Jun 2027 22:01:06.290            64.622                Novosib          2019.437
       403   03 Jun 2027 22:09:50.175   03 Jun 2027 22:10:52.217            62.042                Sumatra          1938.813
       404   03 Jun 2027 22:13:06.070   03 Jun 2027 22:13:38.305            32.235                Sumatra          1007.344
       405   03 Jun 2027 23:23:41.225   03 Jun 2027 23:25:15.845            94.620                Anadyr1          2956.875
       406   03 Jun 2027 23:26:58.176   03 Jun 2027 23:28:56.065           117.889                Norilsk          3684.031
       407   03 Jun 2027 23:30:49.933   03 Jun 2027 23:31:45.076            55.143                Irkutsk          1723.219
       408   03 Jun 2027 23:31:59.145   03 Jun 2027 23:32:58.133            58.988                Irkutsk          1843.375
       409   03 Jun 2027 23:33:28.398   03 Jun 2027 23:33:43.543            15.145                Novosib           473.281
       410   03 Jun 2027 23:37:09.664   03 Jun 2027 23:37:34.392            24.728                Novosib           772.750
       411   03 Jun 2027 23:39:01.185   03 Jun 2027 23:39:43.546            42.361                  Delhi          1323.781
       412   03 Jun 2027 23:39:54.350   03 Jun 2027 23:40:01.834             7.484                  Delhi           233.875
       413   03 Jun 2027 23:40:07.834   03 Jun 2027 23:41:03.801            55.967                  Delhi          1748.969
       414   03 Jun 2027 23:47:30.004   03 Jun 2027 23:48:12.356            42.352                  Delhi          1323.500
       415   04 Jun 2027 00:22:51.146   04 Jun 2027 00:23:00.739             9.593            RioGallegos           299.781
       416   04 Jun 2027 00:23:52.999   04 Jun 2027 00:24:54.696            61.697            RioGallegos          1928.031
       417   04 Jun 2027 00:57:18.958   04 Jun 2027 00:57:34.440            15.482                Anadyr1           483.812
       418   04 Jun 2027 00:58:00.369   04 Jun 2027 00:59:13.977            73.608                Anadyr1          2300.250
       419   04 Jun 2027 01:00:21.651   04 Jun 2027 01:00:26.847             5.196                Anadyr1           162.375
       420   04 Jun 2027 01:02:53.032   04 Jun 2027 01:03:04.072            11.040                Anadyr2           345.000
       421   04 Jun 2027 01:03:06.839   04 Jun 2027 01:03:14.715             7.876                Norilsk           246.125
       422   04 Jun 2027 01:03:49.127   04 Jun 2027 01:05:11.522            82.395               Magadan2          2574.844
       423   04 Jun 2027 01:05:22.818   04 Jun 2027 01:07:07.123           104.305              Murmansk1          3259.531
       424   04 Jun 2027 01:07:15.015   04 Jun 2027 01:07:55.984            40.969                Novosib          1280.281
       425   04 Jun 2027 01:08:46.812   04 Jun 2027 01:08:49.639             2.827              Murmansk1            88.344
       426   04 Jun 2027 01:08:55.477   04 Jun 2027 01:09:38.534            43.057              Murmansk1          1345.531
       427   04 Jun 2027 01:12:30.469   04 Jun 2027 01:13:00.570            30.101                 Moscow           940.656
       428   04 Jun 2027 01:19:46.554   04 Jun 2027 01:19:56.285             9.731                  Delhi           304.094
       429   04 Jun 2027 01:21:51.001   04 Jun 2027 01:22:13.308            22.307                  Delhi           697.094
       430   04 Jun 2027 01:24:52.584   04 Jun 2027 01:25:35.052            42.468                  Delhi          1327.125
       431   04 Jun 2027 02:30:40.605   04 Jun 2027 02:33:42.765           182.160                Anadyr1          5692.500
       432   04 Jun 2027 02:35:58.911   04 Jun 2027 02:37:05.393            66.482               Magadan1          2077.563
       433   04 Jun 2027 02:38:47.313   04 Jun 2027 02:38:54.276             6.963                Norilsk           217.594
       434   04 Jun 2027 02:41:05.579   04 Jun 2027 02:42:07.195            61.616              Murmansk1          1925.500
       435   04 Jun 2027 02:42:45.261   04 Jun 2027 02:43:11.107            25.846              Murmansk2           807.687
       436   04 Jun 2027 02:43:44.284   04 Jun 2027 02:44:47.128            62.844                Novosib          1963.875
       437   04 Jun 2027 02:49:33.439   04 Jun 2027 02:50:02.896            29.457                Novosib           920.531
       438   04 Jun 2027 02:50:28.432   04 Jun 2027 02:50:41.880            13.448                Novosib           420.250
       439   04 Jun 2027 03:10:19.245   04 Jun 2027 03:11:01.605            42.360               CapeTown          1323.750
       440   04 Jun 2027 04:24:12.988   04 Jun 2027 04:25:43.023            90.035              Murmansk1          2813.594
       441   04 Jun 2027 04:26:06.247   04 Jun 2027 04:28:08.049           121.802                 Moscow          3806.312
       442   04 Jun 2027 04:28:34.132   04 Jun 2027 04:28:43.943             9.811              Murmansk1           306.594
       443   04 Jun 2027 04:29:17.557   04 Jun 2027 04:30:00.912            43.355              Murmansk1          1354.844
       444   04 Jun 2027 05:48:23.836   04 Jun 2027 05:48:49.414            25.578                Anadyr1           799.313
       445   04 Jun 2027 05:49:15.542   04 Jun 2027 05:51:40.339           144.797               Magadan2          4524.906
       446   04 Jun 2027 05:51:42.622   04 Jun 2027 05:53:44.968           122.346                Anadyr1          3823.313
       447   04 Jun 2027 07:25:20.221   04 Jun 2027 07:26:08.721            48.500                Norilsk          1515.625
       448   04 Jun 2027 07:26:16.498   04 Jun 2027 07:29:17.984           181.486                Anadyr2          5671.438
       449   04 Jun 2027 07:29:41.539   04 Jun 2027 07:31:08.251            86.712                Norilsk          2709.750
       450   04 Jun 2027 08:05:25.062   04 Jun 2027 08:05:50.846            25.784            RioGallegos           805.750
       451   04 Jun 2027 08:06:46.369   04 Jun 2027 08:07:27.663            41.294            RioGallegos          1290.438
       452   04 Jun 2027 08:58:20.266   04 Jun 2027 08:59:56.102            95.836               Magadan2          2994.875
       453   04 Jun 2027 09:00:21.991   04 Jun 2027 09:01:03.358            41.367               Magadan1          1292.719
       454   04 Jun 2027 09:01:05.902   04 Jun 2027 09:01:53.619            47.717               Magadan2          1491.156
       455   04 Jun 2027 09:01:53.619   04 Jun 2027 09:02:28.131            34.512               Magadan1          1078.500
       456   04 Jun 2027 09:02:33.420   04 Jun 2027 09:02:53.042            19.622                Norilsk           613.187
       457   04 Jun 2027 09:03:14.129   04 Jun 2027 09:03:48.088            33.959                Novosib          1061.219
       458   04 Jun 2027 09:04:04.028   04 Jun 2027 09:04:22.177            18.149                Norilsk           567.156
       459   04 Jun 2027 09:04:23.431   04 Jun 2027 09:04:35.125            11.694               Magadan1           365.438
       460   04 Jun 2027 09:04:48.730   04 Jun 2027 09:04:58.695             9.965              Murmansk1           311.406
       461   04 Jun 2027 09:04:58.695   04 Jun 2027 09:05:10.843            12.148              Murmansk2           379.625
       462   04 Jun 2027 09:06:04.408   04 Jun 2027 09:07:06.281            61.873              Murmansk2          1933.531
       463   04 Jun 2027 09:40:32.674   04 Jun 2027 09:40:57.241            24.567            RioGallegos           767.719
       464   04 Jun 2027 09:42:47.806   04 Jun 2027 09:43:06.571            18.765            RioGallegos           586.406
       465   04 Jun 2027 10:15:01.867   04 Jun 2027 10:17:32.227           150.360                Sumatra          4698.750
       466   04 Jun 2027 10:34:43.058   04 Jun 2027 10:34:49.233             6.175                Novosib           192.969
       467   04 Jun 2027 10:34:53.073   04 Jun 2027 10:35:19.010            25.937                Norilsk           810.531
       468   04 Jun 2027 10:35:33.649   04 Jun 2027 10:36:24.754            51.105                Irkutsk          1597.031
       469   04 Jun 2027 10:36:29.673   04 Jun 2027 10:36:40.118            10.445                Novosib           326.406
       470   04 Jun 2027 10:36:42.973   04 Jun 2027 10:36:53.042            10.069                Novosib           314.656
       471   04 Jun 2027 10:37:00.509   04 Jun 2027 10:37:01.018             0.509                Norilsk            15.906
       472   04 Jun 2027 10:37:04.690   04 Jun 2027 10:37:23.068            18.378                Irkutsk           574.313
       473   04 Jun 2027 10:37:26.483   04 Jun 2027 10:37:40.306            13.823                Novosib           431.969
       474   04 Jun 2027 10:37:52.754   04 Jun 2027 10:38:48.567            55.813                Novosib          1744.156
       475   04 Jun 2027 10:38:59.500   04 Jun 2027 10:39:35.933            36.433              Murmansk2          1138.531
       476   04 Jun 2027 10:39:43.196   04 Jun 2027 10:40:40.006            56.810                Novosib          1775.312
       477   04 Jun 2027 10:40:43.620   04 Jun 2027 10:41:38.689            55.069                Novosib          1720.906
       478   04 Jun 2027 11:18:04.260   04 Jun 2027 11:18:26.142            21.882            RioGallegos           683.813
       479   04 Jun 2027 11:19:23.920   04 Jun 2027 11:19:55.955            32.035            RioGallegos          1001.094
       480   04 Jun 2027 11:52:20.313   04 Jun 2027 11:52:51.598            31.285                Sumatra           977.656
       481   04 Jun 2027 11:57:46.481   04 Jun 2027 11:58:35.839            49.358                Sumatra          1542.438
       482   04 Jun 2027 12:06:08.452   04 Jun 2027 12:06:34.004            25.552                Novosib           798.500
