uniorb/output/strategy_1/Drop/Drop_KinoSat_110306.txt

KinoSat_110306
-------------------------
    Access    *     Start Time (UTCG)     *     Stop Time (UTCG)  *   Duration (s)        *       Station  *  Data (Mbytes)
         1   01 Jun 2027 03:48:36.093   01 Jun 2027 03:48:57.009            20.916               Magadan1          2614.500
         2   01 Jun 2027 03:49:10.474   01 Jun 2027 03:50:49.847            99.373               Magadan2         12421.625
         3   01 Jun 2027 03:51:00.027   01 Jun 2027 03:51:30.541            30.514               Magadan2          3814.250
         4   01 Jun 2027 03:51:30.541   01 Jun 2027 03:52:09.983            39.442               Magadan1          4930.250
         5   01 Jun 2027 03:52:22.944   01 Jun 2027 03:52:50.263            27.319               Magadan1          3414.875
         6   01 Jun 2027 03:53:12.813   01 Jun 2027 03:53:35.042            22.229               Magadan1          2778.625
         7   01 Jun 2027 03:53:53.138   01 Jun 2027 03:54:21.726            28.588                Norilsk          3573.500
         8   01 Jun 2027 04:28:50.627   01 Jun 2027 04:30:09.702            79.075            RioGallegos          9884.375
         9   01 Jun 2027 05:04:03.279   01 Jun 2027 05:05:53.068           109.789                Sumatra         13723.625
        10   01 Jun 2027 05:17:40.084   01 Jun 2027 05:19:17.899            97.815                  Delhi         12226.875
        11   01 Jun 2027 05:26:24.241   01 Jun 2027 05:28:53.154           148.913                Irkutsk         18614.125
        12   01 Jun 2027 05:29:41.158   01 Jun 2027 05:29:44.935             3.777              Murmansk1           472.125
        13   01 Jun 2027 05:30:01.428   01 Jun 2027 05:30:04.473             3.045                Irkutsk           380.625
        14   01 Jun 2027 05:30:36.331   01 Jun 2027 05:31:14.728            38.397                Novosib          4799.625
        15   01 Jun 2027 05:33:39.190   01 Jun 2027 05:33:55.483            16.293                Norilsk          2036.625
        16   01 Jun 2027 06:07:07.431   01 Jun 2027 06:08:26.772            79.341            RioGallegos          9917.625
        17   01 Jun 2027 06:41:22.578   01 Jun 2027 06:41:47.522            24.944                Sumatra          3118.000
        18   01 Jun 2027 06:47:58.545   01 Jun 2027 06:49:51.030           112.485                  Delhi         14060.625
        19   01 Jun 2027 07:04:22.722   01 Jun 2027 07:04:48.240            25.518                Novosib          3189.750
        20   01 Jun 2027 07:04:56.963   01 Jun 2027 07:05:49.148            52.185              Murmansk1          6523.125
        21   01 Jun 2027 07:06:13.428   01 Jun 2027 07:06:44.926            31.498                Novosib          3937.250
        22   01 Jun 2027 08:26:59.205   01 Jun 2027 08:27:28.599            29.394                  Delhi          3674.250
        23   01 Jun 2027 08:37:38.789   01 Jun 2027 08:38:12.098            33.309              Murmansk2          4163.625
        24   01 Jun 2027 08:38:13.587   01 Jun 2027 08:39:29.122            75.535                Novosib          9441.875
        25   01 Jun 2027 08:40:08.273   01 Jun 2027 08:40:31.795            23.522                Norilsk          2940.250
        26   01 Jun 2027 08:40:32.277   01 Jun 2027 08:41:04.200            31.923              Murmansk2          3990.375
        27   01 Jun 2027 08:41:24.094   01 Jun 2027 08:41:39.821            15.727              Murmansk1          1965.875
        28   01 Jun 2027 08:42:03.518   01 Jun 2027 08:44:00.799           117.281                 Moscow         14660.125
        29   01 Jun 2027 09:48:33.319   01 Jun 2027 09:51:14.397           161.078               CapeTown         20134.750
        30   01 Jun 2027 10:27:16.347   01 Jun 2027 10:27:18.956             2.609                Anadyr2           326.125
        31   01 Jun 2027 10:29:56.499   01 Jun 2027 10:32:33.754           157.255                Anadyr1         19656.875
        32   01 Jun 2027 12:07:09.349   01 Jun 2027 12:08:36.319            86.970                Anadyr1         10871.250
        33   01 Jun 2027 13:40:50.010   01 Jun 2027 13:42:27.645            97.635               Magadan1         12204.375
        34   01 Jun 2027 13:42:36.092   01 Jun 2027 13:45:23.512           167.420               Magadan2         20927.500
        35   01 Jun 2027 13:49:21.218   01 Jun 2027 13:50:22.111            60.893               Magadan2          7611.625
        36   01 Jun 2027 16:08:38.577   01 Jun 2027 16:11:19.476           160.899            RioGallegos         20112.375
        37   01 Jun 2027 16:12:23.828   01 Jun 2027 16:14:26.300           122.472            RioGallegos         15309.000
        38   01 Jun 2027 16:56:14.078   01 Jun 2027 16:58:19.184           125.106                Irkutsk         15638.250
        39   01 Jun 2027 16:58:41.565   01 Jun 2027 17:01:22.591           161.026                Novosib         20128.250
        40   01 Jun 2027 17:11:37.543   01 Jun 2027 17:12:46.122            68.579                Sumatra          8572.375
        41   01 Jun 2027 17:14:39.057   01 Jun 2027 17:15:15.916            36.859                Sumatra          4607.375
        42   01 Jun 2027 17:21:12.584   01 Jun 2027 17:22:28.111            75.527                Sumatra          9440.875
        43   01 Jun 2027 18:39:44.518   01 Jun 2027 18:43:56.829           252.311                  Delhi         29362.125
        44   02 Jun 2027 04:04:25.328   02 Jun 2027 04:04:54.014            28.686               Magadan2          3585.750
        45   02 Jun 2027 04:04:54.014   02 Jun 2027 04:04:59.272             5.258               Magadan1           657.250
        46   02 Jun 2027 04:06:11.340   02 Jun 2027 04:06:11.686             0.346                Irkutsk            43.250
        47   02 Jun 2027 04:07:26.600   02 Jun 2027 04:07:45.497            18.897              Murmansk1          2362.125
        48   02 Jun 2027 04:09:45.848   02 Jun 2027 04:10:30.183            44.335              Murmansk1          5541.875
        49   02 Jun 2027 04:40:55.169   02 Jun 2027 04:43:01.323           126.154            RioGallegos         15769.250
        50   02 Jun 2027 04:51:57.856   02 Jun 2027 04:52:44.840            46.984            RioGallegos          5873.000
        51   02 Jun 2027 05:15:52.937   02 Jun 2027 05:17:19.314            86.377                Sumatra         10797.125
        52   02 Jun 2027 05:25:23.395   02 Jun 2027 05:25:49.562            26.167                Sumatra          3270.875
        53   02 Jun 2027 05:26:17.694   02 Jun 2027 05:27:41.788            84.094                Sumatra         10511.750
        54   02 Jun 2027 05:38:33.463   02 Jun 2027 05:38:50.070            16.607                Irkutsk          2075.875
        55   02 Jun 2027 05:39:18.150   02 Jun 2027 05:41:28.244           130.094                Novosib         16261.750
        56   02 Jun 2027 05:41:55.990   02 Jun 2027 05:42:15.524            19.534              Murmansk2          2441.750
        57   02 Jun 2027 05:42:25.605   02 Jun 2027 05:42:43.432            17.827                Novosib          2228.375
        58   02 Jun 2027 05:43:36.641   02 Jun 2027 05:43:43.725             7.084                Novosib           885.500
        59   02 Jun 2027 05:45:05.590   02 Jun 2027 05:45:29.566            23.976                Norilsk          2997.000
        60   02 Jun 2027 06:27:42.153   02 Jun 2027 06:27:46.032             3.879            RioGallegos           484.875
        61   02 Jun 2027 06:54:23.652   02 Jun 2027 06:54:32.147             8.495                Sumatra          1061.875
        62   02 Jun 2027 06:57:12.032   02 Jun 2027 06:57:33.334            21.302                Sumatra          2662.750
        63   02 Jun 2027 06:59:58.230   02 Jun 2027 07:01:01.537            63.307                  Delhi          7913.375
        64   02 Jun 2027 07:07:58.760   02 Jun 2027 07:09:26.775            88.015                  Delhi         11001.875
        65   02 Jun 2027 07:16:39.380   02 Jun 2027 07:17:40.899            61.519              Murmansk2          7689.875
        66   02 Jun 2027 07:19:53.910   02 Jun 2027 07:19:58.506             4.596                 Moscow           574.500
        67   02 Jun 2027 08:40:45.255   02 Jun 2027 08:41:31.245            45.990                  Delhi          5748.750
        68   02 Jun 2027 08:49:11.285   02 Jun 2027 08:49:52.022            40.737                 Moscow          5092.125
        69   02 Jun 2027 08:49:59.684   02 Jun 2027 08:50:53.894            54.210              Murmansk2          6776.250
        70   02 Jun 2027 08:51:09.664   02 Jun 2027 08:52:32.896            83.232              Murmansk1         10404.000
        71   02 Jun 2027 08:52:48.508   02 Jun 2027 08:53:05.328            16.820                 Moscow          2102.500
        72   02 Jun 2027 08:53:39.551   02 Jun 2027 08:53:59.849            20.298                 Moscow          2537.250
        73   02 Jun 2027 08:54:17.270   02 Jun 2027 08:55:55.636            98.366              Murmansk1         12295.750
        74   02 Jun 2027 09:59:44.582   02 Jun 2027 10:05:14.406           329.824               CapeTown         41228.000
        75   02 Jun 2027 10:07:28.996   02 Jun 2027 10:08:23.324            54.328               CapeTown          6791.000
        76   02 Jun 2027 10:39:38.332   02 Jun 2027 10:41:39.088           120.756                Anadyr2         15094.500
        77   02 Jun 2027 10:44:18.757   02 Jun 2027 10:44:48.979            30.222                Anadyr2          3777.750
        78   02 Jun 2027 12:18:29.207   02 Jun 2027 12:21:52.197           202.990               Magadan1         25373.750
        79   02 Jun 2027 13:53:28.122   02 Jun 2027 13:54:07.718            39.596               Magadan1          4949.500
        80   02 Jun 2027 13:54:57.965   02 Jun 2027 13:55:57.265            59.300               Magadan2          7412.500
        81   02 Jun 2027 15:34:50.580   02 Jun 2027 15:39:25.104           274.524                Irkutsk         34315.500
        82   02 Jun 2027 16:22:02.014   02 Jun 2027 16:23:57.748           115.734            RioGallegos         14466.750
        83   02 Jun 2027 17:08:09.364   02 Jun 2027 17:09:57.702           108.338                Irkutsk         13542.250
        84   02 Jun 2027 17:10:35.215   02 Jun 2027 17:13:13.048           157.833                Novosib         19729.125
        85   02 Jun 2027 18:47:04.707   02 Jun 2027 18:48:37.569            92.862                Novosib         11607.750
        86   02 Jun 2027 18:51:31.479   02 Jun 2027 18:53:47.389           135.910                  Delhi         16988.750
        87   02 Jun 2027 18:53:58.864   02 Jun 2027 18:55:57.986           119.122                  Delhi         14890.250
        88   02 Jun 2027 20:22:42.429   02 Jun 2027 20:26:37.943           235.514                 Moscow         29439.250
        89   02 Jun 2027 22:24:24.903   02 Jun 2027 22:25:14.587            49.684               CapeTown          6210.500
        90   03 Jun 2027 03:57:54.870   03 Jun 2027 03:59:32.639            97.769                Sumatra         12221.125
        91   03 Jun 2027 04:53:03.216   03 Jun 2027 04:53:41.652            38.436            RioGallegos          4804.500
        92   03 Jun 2027 04:54:14.428   03 Jun 2027 04:55:06.784            52.356            RioGallegos          6544.500
        93   03 Jun 2027 04:56:07.413   03 Jun 2027 04:56:30.951            23.538            RioGallegos          2942.250
        94   03 Jun 2027 05:27:48.410   03 Jun 2027 05:30:21.234           152.824                Sumatra         19103.000
        95   03 Jun 2027 05:33:03.520   03 Jun 2027 05:33:16.997            13.477                Sumatra          1684.625
        96   03 Jun 2027 05:37:13.960   03 Jun 2027 05:37:23.328             9.368                Sumatra          1171.000
        97   03 Jun 2027 05:38:16.791   03 Jun 2027 05:41:13.286           176.495                  Delhi         22061.875
        98   03 Jun 2027 05:43:48.552   03 Jun 2027 05:45:42.147           113.595                  Delhi         14199.375
        99   03 Jun 2027 05:51:38.162   03 Jun 2027 05:52:28.662            50.500                Novosib          6312.500
       100   03 Jun 2027 05:53:06.621   03 Jun 2027 05:53:30.511            23.890              Murmansk1          2986.250
       101   03 Jun 2027 05:53:38.804   03 Jun 2027 05:54:03.056            24.252                Norilsk          3031.500
       102   03 Jun 2027 05:54:05.216   03 Jun 2027 05:54:44.489            39.273              Murmansk2          4909.125
       103   03 Jun 2027 06:32:49.428   03 Jun 2027 06:33:24.956            35.528            RioGallegos          4441.000
       104   03 Jun 2027 07:08:33.106   03 Jun 2027 07:09:24.515            51.409                Sumatra          6426.125
       105   03 Jun 2027 07:14:56.461   03 Jun 2027 07:16:33.410            96.949                  Delhi         12118.625
       106   03 Jun 2027 07:28:41.441   03 Jun 2027 07:28:47.460             6.019              Murmansk2           752.375
       107   03 Jun 2027 07:28:54.337   03 Jun 2027 07:30:15.328            80.991                Novosib         10123.875
       108   03 Jun 2027 09:01:47.027   03 Jun 2027 09:02:33.360            46.333              Murmansk2          5791.625
       109   03 Jun 2027 09:02:46.690   03 Jun 2027 09:04:33.185           106.495              Murmansk2         13311.875
       110   03 Jun 2027 09:04:49.634   03 Jun 2027 09:05:18.691            29.057              Murmansk2          3632.125
       111   03 Jun 2027 09:05:20.910   03 Jun 2027 09:05:58.971            38.061                 Moscow          4757.625
       112   03 Jun 2027 09:07:09.197   03 Jun 2027 09:07:50.178            40.981                 Moscow          5122.625
       113   03 Jun 2027 09:08:17.153   03 Jun 2027 09:08:28.700            11.547                 Moscow          1443.375
       114   03 Jun 2027 10:11:11.598   03 Jun 2027 10:18:39.403           447.805               CapeTown         55975.625
       115   03 Jun 2027 10:50:58.587   03 Jun 2027 10:53:01.809           123.222                Anadyr1         15402.750
       116   03 Jun 2027 10:53:10.323   03 Jun 2027 10:55:24.970           134.647                Anadyr2         16830.875
       117   03 Jun 2027 12:30:02.517   03 Jun 2027 12:31:02.164            59.647               Magadan1          7455.875
       118   03 Jun 2027 12:33:55.908   03 Jun 2027 12:37:16.874           200.966               Magadan1         25120.750
       119   03 Jun 2027 15:46:01.759   03 Jun 2027 15:49:26.491           204.732                Irkutsk         25591.500
       120   03 Jun 2027 16:02:18.516   03 Jun 2027 16:04:57.037           158.521                Sumatra         19815.125
       121   03 Jun 2027 17:21:07.702   03 Jun 2027 17:25:05.854           238.152                Novosib         29769.000
       122   03 Jun 2027 17:26:36.420   03 Jun 2027 17:27:47.205            70.785                Novosib          8848.125
       123   03 Jun 2027 19:01:04.648   03 Jun 2027 19:02:56.674           112.026                Novosib         14003.250
       124   03 Jun 2027 19:03:22.847   03 Jun 2027 19:05:24.635           121.788                  Delhi         15223.500
       125   03 Jun 2027 20:33:48.130   03 Jun 2027 20:35:01.369            73.239              Murmansk2          9154.875
       126   03 Jun 2027 20:35:35.718   03 Jun 2027 20:36:32.602            56.884                 Moscow          7110.500
       127   03 Jun 2027 20:40:27.170   03 Jun 2027 20:40:34.584             7.414                 Moscow           926.750
       128   03 Jun 2027 22:10:58.691   03 Jun 2027 22:11:08.940            10.249              Murmansk1          1281.125
       129   03 Jun 2027 22:11:35.368   03 Jun 2027 22:11:54.262            18.894              Murmansk1          2361.750
       130   03 Jun 2027 22:17:02.106   03 Jun 2027 22:17:26.329            24.223                 Moscow          3027.875
       131   03 Jun 2027 22:33:23.421   03 Jun 2027 22:34:46.128            82.707               CapeTown         10338.375
       132   03 Jun 2027 22:35:24.627   03 Jun 2027 22:35:40.770            16.143               CapeTown          2017.875
       133   03 Jun 2027 22:41:07.528   03 Jun 2027 22:42:55.100           107.572               CapeTown         13446.500
       134   04 Jun 2027 04:07:26.914   04 Jun 2027 04:09:19.670           112.756                Sumatra         14094.500
       135   04 Jun 2027 04:29:54.635   04 Jun 2027 04:30:25.160            30.525                Norilsk          3815.625
       136   04 Jun 2027 04:31:21.491   04 Jun 2027 04:31:35.711            14.220                Novosib          1777.500
       137   04 Jun 2027 05:05:14.959   04 Jun 2027 05:05:32.385            17.426            RioGallegos          2178.250
       138   04 Jun 2027 05:08:05.361   04 Jun 2027 05:08:06.458             1.097            RioGallegos           137.125
       139   04 Jun 2027 05:39:49.465   04 Jun 2027 05:42:01.611           132.146                Sumatra         16518.250
       140   04 Jun 2027 05:47:43.012   04 Jun 2027 05:49:28.891           105.879                Sumatra         13234.875
       141   04 Jun 2027 05:49:38.602   04 Jun 2027 05:50:20.533            41.931                  Delhi          5241.375
       142   04 Jun 2027 05:51:15.797   04 Jun 2027 05:53:01.072           105.275                  Delhi         13159.375
       143   04 Jun 2027 06:02:55.685   04 Jun 2027 06:03:21.804            26.119                Irkutsk          3264.875
       144   04 Jun 2027 06:03:25.686   04 Jun 2027 06:05:43.517           137.831                Novosib         17228.875
       145   04 Jun 2027 07:24:14.006   04 Jun 2027 07:25:10.514            56.508                  Delhi          7063.500
       146   04 Jun 2027 07:40:01.088   04 Jun 2027 07:40:23.995            22.907              Murmansk2          2863.375
       147   04 Jun 2027 07:40:28.400   04 Jun 2027 07:40:28.934             0.534                 Moscow            66.750
       148   04 Jun 2027 07:40:38.954   04 Jun 2027 07:42:00.901            81.947                Norilsk         10243.375
       149   04 Jun 2027 09:11:59.376   04 Jun 2027 09:12:26.432            27.056                 Moscow          3382.000
       150   04 Jun 2027 09:12:41.493   04 Jun 2027 09:13:18.856            37.363              Murmansk1          4670.375
       151   04 Jun 2027 09:13:34.246   04 Jun 2027 09:14:14.784            40.538              Murmansk2          5067.250
       152   04 Jun 2027 09:14:40.235   04 Jun 2027 09:16:31.325           111.090              Murmansk2         13886.250
       153   04 Jun 2027 09:16:38.699   04 Jun 2027 09:17:01.170            22.471                 Moscow          2808.875
       154   04 Jun 2027 10:22:47.893   04 Jun 2027 10:25:05.139           137.246               CapeTown         17155.750
       155   04 Jun 2027 10:25:50.250   04 Jun 2027 10:26:45.725            55.475               CapeTown          6934.375
       156   04 Jun 2027 11:02:53.144   04 Jun 2027 11:07:23.645           270.501                Anadyr1         33812.625
       157   04 Jun 2027 11:07:39.759   04 Jun 2027 11:09:09.394            89.635                Anadyr2         11204.375
       158   04 Jun 2027 12:41:44.390   04 Jun 2027 12:43:21.021            96.631               Magadan2         12078.875
       159   04 Jun 2027 12:45:43.993   04 Jun 2027 12:45:50.038             6.045               Magadan2           755.625
       160   04 Jun 2027 12:46:59.033   04 Jun 2027 12:48:04.660            65.627               Magadan1          8203.375
       161   04 Jun 2027 14:16:43.859   04 Jun 2027 14:17:42.948            59.089               Magadan1          7386.125
       162   04 Jun 2027 14:21:24.604   04 Jun 2027 14:21:50.162            25.558               Magadan2          3194.750
       163   04 Jun 2027 14:26:16.996   04 Jun 2027 14:27:10.988            53.992               Magadan1          6749.000
       164   04 Jun 2027 15:11:13.618   04 Jun 2027 15:13:39.598           145.980            RioGallegos         18247.500
       165   04 Jun 2027 15:57:31.777   04 Jun 2027 15:59:00.171            88.394                Irkutsk         11049.250
       166   04 Jun 2027 16:02:43.036   04 Jun 2027 16:05:43.317           180.281                Irkutsk         22535.125
       167   04 Jun 2027 16:12:48.780   04 Jun 2027 16:15:09.644           140.864                Sumatra         17608.000
       168   04 Jun 2027 17:32:51.812   04 Jun 2027 17:35:04.212           132.400                Novosib         16550.000
       169   04 Jun 2027 17:43:49.418   04 Jun 2027 17:45:02.833            73.415                  Delhi          9176.875
       170   04 Jun 2027 19:15:18.012   04 Jun 2027 19:17:48.685           150.673                  Delhi         18834.125
       171   04 Jun 2027 20:42:19.876   04 Jun 2027 20:42:55.125            35.249              Murmansk2          4406.125
       172   04 Jun 2027 20:46:12.918   04 Jun 2027 20:48:42.686           149.768                 Moscow         18721.000
       173   04 Jun 2027 21:13:16.271   04 Jun 2027 21:15:02.916           106.645               CapeTown         13330.625
       174   04 Jun 2027 22:45:20.345   04 Jun 2027 22:46:31.310            70.965               CapeTown          8870.625
       175   05 Jun 2027 03:04:21.639   05 Jun 2027 03:04:32.378            10.739                Anadyr1          1342.375
       176   05 Jun 2027 03:04:36.857   05 Jun 2027 03:04:36.959             0.102               Magadan1            12.750
       177   05 Jun 2027 03:04:43.811   05 Jun 2027 03:05:22.603            38.792                Anadyr2          4849.000
       178   05 Jun 2027 03:05:44.474   05 Jun 2027 03:06:17.831            33.357               Magadan1          4169.625
       179   05 Jun 2027 03:41:19.920   05 Jun 2027 03:41:19.946             0.026            RioGallegos             3.250
       180   05 Jun 2027 03:44:00.069   05 Jun 2027 03:45:21.902            81.833            RioGallegos         10229.125
       181   05 Jun 2027 04:18:18.319   05 Jun 2027 04:21:01.383           163.064                Sumatra         20383.000
       182   05 Jun 2027 04:37:31.257   05 Jun 2027 04:37:41.785            10.528                Norilsk          1316.000
       183   05 Jun 2027 04:37:43.939   05 Jun 2027 04:38:19.123            35.184                Novosib          4398.000
       184   05 Jun 2027 04:38:20.916   05 Jun 2027 04:39:01.228            40.312               Magadan1          5039.000
       185   05 Jun 2027 04:39:17.185   05 Jun 2027 04:39:38.468            21.283               Magadan1          2660.375
       186   05 Jun 2027 04:39:54.181   05 Jun 2027 04:40:34.230            40.049              Murmansk2          5006.125
       187   05 Jun 2027 04:40:51.809   05 Jun 2027 04:41:00.202             8.393              Murmansk1          1049.125
       188   05 Jun 2027 04:41:06.648   05 Jun 2027 04:42:03.003            56.355              Murmansk1          7044.375
       189   05 Jun 2027 04:42:26.660   05 Jun 2027 04:42:31.365             4.705                Norilsk           588.125
       190   05 Jun 2027 04:43:32.068   05 Jun 2027 04:43:36.791             4.723                Novosib           590.375
       191   05 Jun 2027 04:43:57.622   05 Jun 2027 04:44:28.194            30.572              Murmansk2          3821.500
       192   05 Jun 2027 05:17:30.666   05 Jun 2027 05:18:14.830            44.164            RioGallegos          5520.500
       193   05 Jun 2027 05:20:37.993   05 Jun 2027 05:21:09.766            31.773            RioGallegos          3971.625
       194   05 Jun 2027 05:51:56.187   05 Jun 2027 05:52:22.643            26.456                Sumatra          3307.000
       195   05 Jun 2027 05:54:19.267   05 Jun 2027 05:54:51.823            32.556                Sumatra          4069.500
       196   05 Jun 2027 06:03:10.979   05 Jun 2027 06:04:54.279           103.300                  Delhi         12912.500
       197   05 Jun 2027 06:14:52.452   05 Jun 2027 06:15:08.472            16.020                Novosib          2002.500
       198   05 Jun 2027 06:15:12.091   05 Jun 2027 06:15:26.320            14.229              Murmansk1          1778.625
       199   05 Jun 2027 06:15:31.554   05 Jun 2027 06:16:04.759            33.205                Novosib          4150.625
       200   05 Jun 2027 06:16:12.332   05 Jun 2027 06:16:20.383             8.051                 Moscow          1006.375
       201   05 Jun 2027 06:16:30.960   05 Jun 2027 06:17:34.207            63.247                Novosib          7905.875
       202   05 Jun 2027 06:17:41.530   05 Jun 2027 06:18:04.167            22.637                Norilsk          2829.625
       203   05 Jun 2027 06:18:10.802   05 Jun 2027 06:18:33.524            22.722                Novosib          2840.250
       204   05 Jun 2027 07:36:30.928   05 Jun 2027 07:38:54.305           143.377                  Delhi         17922.125
       205   05 Jun 2027 07:51:06.556   05 Jun 2027 07:52:10.407            63.851                Novosib          7981.375
       206   05 Jun 2027 07:52:22.041   05 Jun 2027 07:52:43.068            21.027              Murmansk2          2628.375
       207   05 Jun 2027 07:52:43.749   05 Jun 2027 07:53:01.638            17.889                Novosib          2236.125
       208   05 Jun 2027 07:53:20.639   05 Jun 2027 07:54:29.208            68.569              Murmansk1          8571.125
       209   05 Jun 2027 07:57:10.142   05 Jun 2027 07:57:15.120             4.978                 Moscow           622.250
       210   05 Jun 2027 09:24:26.592   05 Jun 2027 09:24:34.022             7.430                 Moscow           928.750
       211   05 Jun 2027 09:26:04.836   05 Jun 2027 09:26:34.511            29.675              Murmansk2          3709.375
       212   05 Jun 2027 09:27:14.193   05 Jun 2027 09:29:53.156           158.963              Murmansk1         19870.375
       213   05 Jun 2027 09:32:40.496   05 Jun 2027 09:32:46.848             6.352                 Moscow           794.000
       214   05 Jun 2027 10:34:30.606   05 Jun 2027 10:38:42.948           252.342               CapeTown         31542.750
       215   05 Jun 2027 11:14:49.188   05 Jun 2027 11:17:30.051           160.863                Anadyr1         20107.875
       216   05 Jun 2027 11:18:32.287   05 Jun 2027 11:19:22.930            50.643                Anadyr1          6330.375
       217   05 Jun 2027 12:53:31.294   05 Jun 2027 12:57:45.681           254.387               Magadan1         31798.375
       218   05 Jun 2027 14:28:43.300   05 Jun 2027 14:30:06.083            82.783               Magadan2         10347.875
       219   05 Jun 2027 15:22:17.730   05 Jun 2027 15:25:35.933           198.203            RioGallegos         24775.375
       220   05 Jun 2027 16:09:31.374   05 Jun 2027 16:11:12.710           101.336                Irkutsk         12667.000
       221   05 Jun 2027 16:15:08.973   05 Jun 2027 16:15:39.428            30.455                Irkutsk          3806.875
       222   05 Jun 2027 16:23:53.117   05 Jun 2027 16:26:54.759           181.642                Sumatra         22705.250
       223   05 Jun 2027 17:47:13.621   05 Jun 2027 17:48:56.621           103.000                Novosib         12875.000
       224   05 Jun 2027 17:54:10.393   05 Jun 2027 17:56:43.042           152.649                  Delhi         19081.125
       225   05 Jun 2027 19:27:16.645   05 Jun 2027 19:28:16.511            59.866                  Delhi          7483.250
       226   05 Jun 2027 20:57:16.551   05 Jun 2027 20:59:00.799           104.248              Murmansk1         13031.000
       227   05 Jun 2027 21:00:49.584   05 Jun 2027 21:02:02.610            73.026                 Moscow          9128.250
       228   05 Jun 2027 21:24:13.842   05 Jun 2027 21:24:40.191            26.349               CapeTown          3293.625
       229   05 Jun 2027 21:26:43.189   05 Jun 2027 21:28:07.735            84.546               CapeTown         10568.250
       230   06 Jun 2027 03:14:16.956   06 Jun 2027 03:14:59.564            42.608               Magadan2          5326.000
       231   06 Jun 2027 03:14:59.564   06 Jun 2027 03:15:22.604            23.040               Magadan1          2880.000
       232   06 Jun 2027 03:15:38.476   06 Jun 2027 03:16:02.455            23.979               Magadan1          2997.375
       233   06 Jun 2027 03:16:18.860   06 Jun 2027 03:18:13.501           114.641               Magadan1         14330.125
       234   06 Jun 2027 04:29:31.890   06 Jun 2027 04:30:59.449            87.559                Sumatra         10944.875
       235   06 Jun 2027 04:49:39.417   06 Jun 2027 04:49:50.628            11.211                Irkutsk          1401.375
       236   06 Jun 2027 04:50:02.518   06 Jun 2027 04:50:14.798            12.280                Norilsk          1535.000
       237   06 Jun 2027 04:50:35.725   06 Jun 2027 04:51:01.456            25.731                Novosib          3216.375
       238   06 Jun 2027 04:51:03.386   06 Jun 2027 04:52:21.179            77.793                Irkutsk          9724.125
       239   06 Jun 2027 04:52:41.332   06 Jun 2027 04:53:40.441            59.109                Irkutsk          7388.625
       240   06 Jun 2027 04:53:48.999   06 Jun 2027 04:54:21.200            32.201                Irkutsk          4025.125
       241   06 Jun 2027 05:31:21.321   06 Jun 2027 05:31:56.977            35.656            RioGallegos          4457.000
       242   06 Jun 2027 05:32:40.239   06 Jun 2027 05:33:17.138            36.899            RioGallegos          4612.375
       243   06 Jun 2027 06:04:08.996   06 Jun 2027 06:04:58.978            49.982                Sumatra          6247.750
       244   06 Jun 2027 06:15:02.356   06 Jun 2027 06:18:58.063           235.707                  Delhi         29463.375
       245   06 Jun 2027 06:27:26.497   06 Jun 2027 06:28:15.614            49.117              Murmansk2          6139.625
       246   06 Jun 2027 06:28:30.753   06 Jun 2027 06:28:36.345             5.592                Norilsk           699.000
       247   06 Jun 2027 06:28:43.223   06 Jun 2027 06:29:06.472            23.249              Murmansk2          2906.125
       248   06 Jun 2027 06:29:06.472   06 Jun 2027 06:29:34.213            27.741              Murmansk1          3467.625
       249   06 Jun 2027 06:30:11.291   06 Jun 2027 06:30:22.576            11.285              Murmansk1          1410.625
       250   06 Jun 2027 07:48:54.979   06 Jun 2027 07:50:34.707            99.728                  Delhi         12466.000
       251   06 Jun 2027 08:02:25.533   06 Jun 2027 08:02:44.703            19.170                Norilsk          2396.250
       252   06 Jun 2027 08:02:50.667   06 Jun 2027 08:03:46.540            55.873                Novosib          6984.125
       253   06 Jun 2027 08:03:56.742   06 Jun 2027 08:04:19.543            22.801              Murmansk1          2850.125
       254   06 Jun 2027 08:04:26.060   06 Jun 2027 08:05:18.346            52.286                 Moscow          6535.750
       255   06 Jun 2027 08:05:28.165   06 Jun 2027 08:05:46.886            18.721              Murmansk1          2340.125
       256   06 Jun 2027 08:05:50.872   06 Jun 2027 08:06:02.174            11.302                Novosib          1412.750
       257   06 Jun 2027 08:06:09.649   06 Jun 2027 08:06:40.398            30.749                Norilsk          3843.625
       258   06 Jun 2027 08:07:15.166   06 Jun 2027 08:08:03.239            48.073              Murmansk1          6009.125
       259   06 Jun 2027 09:39:40.732   06 Jun 2027 09:40:06.880            26.148              Murmansk2          3268.500
       260   06 Jun 2027 09:40:14.924   06 Jun 2027 09:40:40.025            25.101              Murmansk1          3137.625
       261   06 Jun 2027 09:41:24.622   06 Jun 2027 09:41:47.208            22.586              Murmansk2          2823.250
       262   06 Jun 2027 09:52:47.860   06 Jun 2027 09:54:07.588            79.728                Anadyr1          9966.000
       263   06 Jun 2027 10:46:18.183   06 Jun 2027 10:50:43.003           264.820               CapeTown         33102.500
       264   06 Jun 2027 11:26:46.376   06 Jun 2027 11:27:45.310            58.934                Anadyr2          7366.750
       265   06 Jun 2027 11:27:45.310   06 Jun 2027 11:28:09.506            24.196                Anadyr1          3024.500
       266   06 Jun 2027 11:29:40.644   06 Jun 2027 11:31:13.649            93.005                Anadyr2         11625.625
       267   06 Jun 2027 13:05:21.552   06 Jun 2027 13:11:48.317           386.765               Magadan2         48345.625
       268   06 Jun 2027 15:33:44.818   06 Jun 2027 15:37:25.954           221.136            RioGallegos         27642.000
       269   06 Jun 2027 16:23:21.602   06 Jun 2027 16:25:05.182           103.580                Irkutsk         12947.500
       270   06 Jun 2027 16:35:13.857   06 Jun 2027 16:38:46.067           212.210                Sumatra         26526.250
       271   06 Jun 2027 17:59:19.879   06 Jun 2027 18:00:06.695            46.816                Novosib          5852.000
       272   06 Jun 2027 18:05:17.965   06 Jun 2027 18:06:35.694            77.729                  Delhi          9716.125
       273   06 Jun 2027 18:10:49.262   06 Jun 2027 18:12:58.816           129.554                  Delhi         16194.250
       274   06 Jun 2027 21:09:56.291   06 Jun 2027 21:11:27.884            91.593                 Moscow         11449.125
       275   06 Jun 2027 21:35:12.499   06 Jun 2027 21:35:42.232            29.733               CapeTown          3716.625
       276   06 Jun 2027 21:41:18.113   06 Jun 2027 21:42:31.858            73.745               CapeTown          9218.125
       277   07 Jun 2027 03:27:40.939   07 Jun 2027 03:27:56.254            15.315               Magadan2          1914.375
       278   07 Jun 2027 03:27:57.748   07 Jun 2027 03:28:29.220            31.472               Magadan2          3934.000
       279   07 Jun 2027 03:28:40.117   07 Jun 2027 03:30:07.672            87.555               Magadan1         10944.375
       280   07 Jun 2027 04:42:08.990   07 Jun 2027 04:42:48.911            39.921                Sumatra          4990.125
       281   07 Jun 2027 04:44:18.392   07 Jun 2027 04:44:43.883            25.491                Sumatra          3186.375
       282   07 Jun 2027 04:47:51.193   07 Jun 2027 04:48:11.724            20.531                Sumatra          2566.375
       283   07 Jun 2027 05:02:14.236   07 Jun 2027 05:03:14.251            60.015                Norilsk          7501.875
       284   07 Jun 2027 05:03:41.886   07 Jun 2027 05:03:48.213             6.327              Murmansk2           790.875
       285   07 Jun 2027 05:03:48.213   07 Jun 2027 05:04:43.109            54.896              Murmansk1          6862.000
       286   07 Jun 2027 05:04:51.727   07 Jun 2027 05:05:11.311            19.584                Norilsk          2448.000
       287   07 Jun 2027 05:05:26.210   07 Jun 2027 05:06:31.578            65.368                Norilsk          8171.000
       288   07 Jun 2027 05:06:39.340   07 Jun 2027 05:06:41.917             2.577                Norilsk           322.125
       289   07 Jun 2027 05:06:59.603   07 Jun 2027 05:07:30.589            30.986                Norilsk          3873.250
       290   07 Jun 2027 05:42:15.502   07 Jun 2027 05:43:03.766            48.264            RioGallegos          6033.000
       291   07 Jun 2027 05:46:05.647   07 Jun 2027 05:46:18.445            12.798            RioGallegos          1599.750
       292   07 Jun 2027 06:16:28.803   07 Jun 2027 06:16:40.509            11.706                Sumatra          1463.250
       293   07 Jun 2027 06:19:09.171   07 Jun 2027 06:20:19.913            70.742                Sumatra          8842.750
       294   07 Jun 2027 06:24:29.639   07 Jun 2027 06:24:58.422            28.783                  Delhi          3597.875
       295   07 Jun 2027 06:39:38.184   07 Jun 2027 06:40:22.138            43.954                 Moscow          5494.250
       296   07 Jun 2027 06:40:31.162   07 Jun 2027 06:42:18.968           107.806                 Moscow         13475.750
       297   07 Jun 2027 08:02:21.438   07 Jun 2027 08:02:49.765            28.327                  Delhi          3540.875
       298   07 Jun 2027 08:14:39.313   07 Jun 2027 08:15:25.510            46.197                 Moscow          5774.625
       299   07 Jun 2027 08:15:47.148   07 Jun 2027 08:16:48.610            61.462                Novosib          7682.750
       300   07 Jun 2027 08:16:58.393   07 Jun 2027 08:17:17.353            18.960                Norilsk          2370.000
       301   07 Jun 2027 08:17:21.047   07 Jun 2027 08:18:05.194            44.147              Murmansk2          5518.375
       302   07 Jun 2027 10:06:33.437   07 Jun 2027 10:07:55.299            81.862                Anadyr2         10232.750
       303   07 Jun 2027 10:58:09.708   07 Jun 2027 11:00:25.519           135.811               CapeTown         16976.375
       304   07 Jun 2027 11:00:57.045   07 Jun 2027 11:01:23.480            26.435               CapeTown          3304.375
       305   07 Jun 2027 11:38:44.467   07 Jun 2027 11:41:49.013           184.546                Anadyr1         23068.250
       306   07 Jun 2027 13:17:14.228   07 Jun 2027 13:20:09.661           175.433               Magadan2         21929.125
       307   07 Jun 2027 13:21:03.660   07 Jun 2027 13:22:56.262           112.602               Magadan1         14075.250
       308   07 Jun 2027 15:45:22.121   07 Jun 2027 15:49:18.500           236.379            RioGallegos         29547.375
       309   07 Jun 2027 15:51:16.870   07 Jun 2027 15:52:00.311            43.441            RioGallegos          5430.125
       310   07 Jun 2027 16:33:39.480   07 Jun 2027 16:35:27.055           107.575                Irkutsk         13446.875
       311   07 Jun 2027 16:36:36.121   07 Jun 2027 16:37:01.660            25.539                Irkutsk          3192.375
       312   07 Jun 2027 16:46:45.441   07 Jun 2027 16:48:23.591            98.150                Sumatra         12268.750
       313   07 Jun 2027 16:51:10.927   07 Jun 2027 16:53:36.979           146.052                Sumatra         18256.500
       314   07 Jun 2027 18:08:24.280   07 Jun 2027 18:10:02.561            98.281                Novosib         12285.125
       315   07 Jun 2027 18:16:42.622   07 Jun 2027 18:18:35.339           112.717                  Delhi         14089.625
       316   07 Jun 2027 19:49:18.989   07 Jun 2027 19:50:26.423            67.434                 Moscow          8429.250
       317   07 Jun 2027 21:21:50.966   07 Jun 2027 21:23:52.462           121.496                 Moscow         15187.000
       318   07 Jun 2027 21:46:41.647   07 Jun 2027 21:48:03.097            81.450               CapeTown         10181.250
       319   07 Jun 2027 21:53:24.601   07 Jun 2027 21:55:18.353           113.752               CapeTown         14219.000
       320   08 Jun 2027 03:40:09.780   08 Jun 2027 03:41:08.426            58.646               Magadan2          7330.750
       321   08 Jun 2027 03:41:59.680   08 Jun 2027 03:41:59.917             0.237               Magadan1            29.625
       322   08 Jun 2027 03:46:04.217   08 Jun 2027 03:46:33.910            29.693                Norilsk          3711.625
       323   08 Jun 2027 04:17:04.166   08 Jun 2027 04:18:09.051            64.885            RioGallegos          8110.625
       324   08 Jun 2027 04:20:29.047   08 Jun 2027 04:21:22.634            53.587            RioGallegos          6698.375
       325   08 Jun 2027 04:52:34.430   08 Jun 2027 04:54:31.942           117.512                Sumatra         14689.000
       326   08 Jun 2027 05:06:55.544   08 Jun 2027 05:09:20.782           145.238                  Delhi         18154.750
       327   08 Jun 2027 05:15:03.369   08 Jun 2027 05:16:51.748           108.379              Murmansk2         13547.375
       328   08 Jun 2027 05:16:54.663   08 Jun 2027 05:17:50.553            55.890              Murmansk2          6986.250
       329   08 Jun 2027 05:17:56.920   08 Jun 2027 05:18:20.870            23.950                Irkutsk          2993.750
       330   08 Jun 2027 05:18:39.934   08 Jun 2027 05:18:48.361             8.427                Novosib          1053.375
       331   08 Jun 2027 06:28:57.310   08 Jun 2027 06:29:57.229            59.919                Sumatra          7489.875
       332   08 Jun 2027 06:36:18.744   08 Jun 2027 06:37:30.106            71.362                  Delhi          8920.250
       333   08 Jun 2027 06:51:49.858   08 Jun 2027 06:51:56.405             6.547                Irkutsk           818.375
       334   08 Jun 2027 06:52:08.033   08 Jun 2027 06:52:43.659            35.626              Murmansk1          4453.250
       335   08 Jun 2027 06:52:46.055   08 Jun 2027 06:53:10.386            24.331              Murmansk1          3041.375
       336   08 Jun 2027 06:53:18.159   08 Jun 2027 06:54:12.731            54.572              Murmansk2          6821.500
       337   08 Jun 2027 08:14:12.189   08 Jun 2027 08:15:43.693            91.504                  Delhi         11438.000
       338   08 Jun 2027 08:26:24.067   08 Jun 2027 08:27:20.101            56.034                Norilsk          7004.250
       339   08 Jun 2027 08:27:22.000   08 Jun 2027 08:27:24.133             2.133              Murmansk1           266.625
       340   08 Jun 2027 08:27:25.553   08 Jun 2027 08:27:54.295            28.742              Murmansk1          3592.750
       341   08 Jun 2027 08:28:00.997   08 Jun 2027 08:28:28.095            27.098                Novosib          3387.250
       342   08 Jun 2027 08:28:35.281   08 Jun 2027 08:29:02.280            26.999                Norilsk          3374.875
       343   08 Jun 2027 08:29:06.798   08 Jun 2027 08:29:15.031             8.233              Murmansk1          1029.125
       344   08 Jun 2027 08:29:24.026   08 Jun 2027 08:29:51.681            27.655                Norilsk          3456.875
       345   08 Jun 2027 08:29:52.243   08 Jun 2027 08:30:24.515            32.272                 Moscow          4034.000
       346   08 Jun 2027 08:30:30.406   08 Jun 2027 08:31:02.651            32.245                 Moscow          4030.625
       347   08 Jun 2027 09:38:15.984   08 Jun 2027 09:39:47.488            91.504               CapeTown         11438.000
       348   08 Jun 2027 11:10:04.597   08 Jun 2027 11:12:28.601           144.004               CapeTown         18000.500
       349   08 Jun 2027 11:20:31.711   08 Jun 2027 11:21:11.509            39.798               CapeTown          4974.750
       350   08 Jun 2027 11:50:43.278   08 Jun 2027 11:51:42.112            58.834                Anadyr2          7354.250
       351   08 Jun 2027 11:53:55.258   08 Jun 2027 11:55:23.406            88.148                Anadyr1         11018.500
       352   08 Jun 2027 11:59:54.995   08 Jun 2027 12:00:13.673            18.678                Anadyr1          2334.750
       353   08 Jun 2027 13:29:08.732   08 Jun 2027 13:32:05.984           177.252               Magadan1         22156.500
       354   08 Jun 2027 13:33:49.755   08 Jun 2027 13:34:29.990            40.235               Magadan2          5029.375
       355   08 Jun 2027 13:36:23.445   08 Jun 2027 13:40:20.831           237.386               Magadan1         29673.250
       356   08 Jun 2027 15:59:25.615   08 Jun 2027 16:03:11.058           225.443            RioGallegos         28180.375
       357   08 Jun 2027 16:44:35.188   08 Jun 2027 16:46:09.503            94.315                Irkutsk         11789.375
       358   08 Jun 2027 16:47:41.345   08 Jun 2027 16:49:05.353            84.008                Novosib         10501.000
       359   08 Jun 2027 17:00:20.736   08 Jun 2027 17:04:16.682           235.946                Sumatra         29493.250
       360   08 Jun 2027 18:28:17.320   08 Jun 2027 18:29:19.527            62.207                  Delhi          7775.875
       361   08 Jun 2027 18:30:29.692   08 Jun 2027 18:32:13.746           104.054                  Delhi         13006.750
       362   08 Jun 2027 20:00:37.027   08 Jun 2027 20:03:09.923           152.896                 Moscow         19112.000
       363   08 Jun 2027 21:58:17.423   08 Jun 2027 22:00:18.999           121.576               CapeTown         15197.000
       364   08 Jun 2027 22:10:01.682   08 Jun 2027 22:10:03.387             1.705               CapeTown           213.125
       365   09 Jun 2027 03:51:45.248   09 Jun 2027 03:53:27.414           102.166               Magadan1         12770.750
       366   09 Jun 2027 03:55:29.974   09 Jun 2027 03:56:03.790            33.816              Murmansk1          4227.000
       367   09 Jun 2027 04:30:24.112   09 Jun 2027 04:30:38.344            14.232            RioGallegos          1779.000
       368   09 Jun 2027 04:31:49.018   09 Jun 2027 04:33:56.222           127.204            RioGallegos         15900.500
       369   09 Jun 2027 05:04:17.798   09 Jun 2027 05:06:07.456           109.658                Sumatra         13707.250
       370   09 Jun 2027 05:10:40.051   09 Jun 2027 05:11:48.529            68.478                Sumatra          8559.750
       371   09 Jun 2027 05:17:50.967   09 Jun 2027 05:18:09.905            18.938                  Delhi          2367.250
       372   09 Jun 2027 05:19:33.066   09 Jun 2027 05:21:50.381           137.315                  Delhi         17164.375
       373   09 Jun 2027 05:27:18.414   09 Jun 2027 05:28:40.289            81.875                Novosib         10234.375
       374   09 Jun 2027 05:29:07.707   09 Jun 2027 05:30:15.779            68.072                Irkutsk          8509.000
       375   09 Jun 2027 06:07:22.714   09 Jun 2027 06:07:28.563             5.849            RioGallegos           731.125
       376   09 Jun 2027 06:08:41.376   09 Jun 2027 06:09:32.507            51.131            RioGallegos          6391.375
       377   09 Jun 2027 06:41:37.985   09 Jun 2027 06:42:03.207            25.222                Sumatra          3152.750
       378   09 Jun 2027 06:48:13.216   09 Jun 2027 06:50:05.406           112.190                  Delhi         14023.750
       379   09 Jun 2027 07:04:26.452   09 Jun 2027 07:04:34.820             8.368              Murmansk2          1046.000
       380   09 Jun 2027 07:04:37.686   09 Jun 2027 07:05:02.829            25.143                Novosib          3142.875
       381   09 Jun 2027 07:05:10.943   09 Jun 2027 07:05:18.565             7.622                Norilsk           952.750
       382   09 Jun 2027 07:05:25.311   09 Jun 2027 07:06:21.504            56.193                Norilsk          7024.125
       383   09 Jun 2027 07:06:59.385   09 Jun 2027 07:07:44.348            44.963                Novosib          5620.375
       384   09 Jun 2027 08:27:15.003   09 Jun 2027 08:27:43.189            28.186                  Delhi          3523.250
       385   09 Jun 2027 08:35:48.216   09 Jun 2027 08:37:21.329            93.113                 Moscow         11639.125
       386   09 Jun 2027 08:37:48.332   09 Jun 2027 08:38:19.825            31.493                 Moscow          3936.625
       387   09 Jun 2027 08:38:28.088   09 Jun 2027 08:39:45.623            77.535                Novosib          9691.875
       388   09 Jun 2027 08:40:08.305   09 Jun 2027 08:40:50.245            41.940              Murmansk2          5242.500
       389   09 Jun 2027 08:40:51.615   09 Jun 2027 08:41:03.469            11.854              Murmansk2          1481.750
       390   09 Jun 2027 08:41:07.678   09 Jun 2027 08:41:15.843             8.165                Norilsk          1020.625
       391   09 Jun 2027 08:41:20.842   09 Jun 2027 08:41:55.120            34.278              Murmansk2          4284.750
       392   09 Jun 2027 08:42:06.580   09 Jun 2027 08:42:33.057            26.477                Norilsk          3309.625
       393   09 Jun 2027 08:42:39.514   09 Jun 2027 08:43:18.497            38.983                Norilsk          4872.875
       394   09 Jun 2027 08:45:02.793   09 Jun 2027 08:45:22.854            20.061                 Moscow          2507.625
       395   09 Jun 2027 09:48:47.146   09 Jun 2027 09:51:28.945           161.799               CapeTown         20224.875
       396   09 Jun 2027 10:27:30.870   09 Jun 2027 10:27:40.687             9.817                Anadyr1          1227.125
       397   09 Jun 2027 10:30:12.864   09 Jun 2027 10:32:45.636           152.772                Anadyr2         19096.500
       398   09 Jun 2027 12:02:42.670   09 Jun 2027 12:03:34.012            51.342                Anadyr1          6417.750
       399   09 Jun 2027 12:05:40.671   09 Jun 2027 12:07:24.184           103.513                Anadyr1         12939.125
       400   09 Jun 2027 12:09:25.836   09 Jun 2027 12:11:08.754           102.918               Magadan2         12864.750
       401   09 Jun 2027 13:41:04.664   09 Jun 2027 13:42:41.983            97.319               Magadan2         12164.875
       402   09 Jun 2027 13:42:51.141   09 Jun 2027 13:44:10.385            79.244               Magadan1          9905.500
       403   09 Jun 2027 13:49:36.518   09 Jun 2027 13:50:26.761            50.243               Magadan2          6280.375
       404   09 Jun 2027 16:08:53.127   09 Jun 2027 16:14:40.622           347.495            RioGallegos         43436.875
       405   09 Jun 2027 16:58:34.212   09 Jun 2027 16:58:45.311            11.099                Irkutsk          1387.375
       406   09 Jun 2027 16:58:53.269   09 Jun 2027 17:01:37.218           163.949                Novosib         20493.625
       407   09 Jun 2027 17:10:11.917   09 Jun 2027 17:11:51.826            99.909                Sumatra         12488.625
       408   09 Jun 2027 17:14:54.076   09 Jun 2027 17:15:28.455            34.379                Sumatra          4297.375
       409   09 Jun 2027 18:32:15.701   09 Jun 2027 18:33:46.287            90.586                Novosib         11323.250
       410   09 Jun 2027 18:39:59.003   09 Jun 2027 18:42:18.663           139.660                  Delhi         17457.500
       411   09 Jun 2027 18:44:51.657   09 Jun 2027 18:46:10.889            79.232                  Delhi          9904.000
       412   09 Jun 2027 20:11:20.414   09 Jun 2027 20:12:17.509            57.095                 Moscow          7136.875
       413   09 Jun 2027 20:15:46.254   09 Jun 2027 20:18:29.662           163.408                 Moscow         20426.000
       414   09 Jun 2027 22:09:59.039   09 Jun 2027 22:10:04.486             5.447               CapeTown           680.875
       415   09 Jun 2027 22:12:25.171   09 Jun 2027 22:14:16.360           111.189               CapeTown         13898.625
       416   10 Jun 2027 04:04:40.099   10 Jun 2027 04:05:35.646            55.547               Magadan1          6943.375
       417   10 Jun 2027 04:06:03.459   10 Jun 2027 04:06:39.025            35.566                Novosib          4445.750
       418   10 Jun 2027 04:08:50.486   10 Jun 2027 04:09:08.742            18.256              Murmansk1          2282.000
       419   10 Jun 2027 04:09:28.775   10 Jun 2027 04:10:01.630            32.855              Murmansk1          4106.875
       420   10 Jun 2027 04:10:30.365   10 Jun 2027 04:10:47.205            16.840              Murmansk1          2105.000
       421   10 Jun 2027 04:11:27.618   10 Jun 2027 04:11:29.724             2.106                Norilsk           263.250
       422   10 Jun 2027 04:11:49.651   10 Jun 2027 04:12:23.138            33.487              Murmansk2          4185.875
       423   10 Jun 2027 04:42:08.530   10 Jun 2027 04:43:15.251            66.721            RioGallegos          8340.125
       424   10 Jun 2027 04:48:07.444   10 Jun 2027 04:48:21.335            13.891            RioGallegos          1736.375
       425   10 Jun 2027 04:49:46.215   10 Jun 2027 04:50:50.672            64.457            RioGallegos          8057.125
       426   10 Jun 2027 05:16:07.541   10 Jun 2027 05:17:33.473            85.932                Sumatra         10741.500
       427   10 Jun 2027 05:28:07.591   10 Jun 2027 05:29:45.721            98.130                  Delhi         12266.250
       428   10 Jun 2027 05:39:26.632   10 Jun 2027 05:41:06.855           100.223                Novosib         12527.875
       429   10 Jun 2027 05:41:17.392   10 Jun 2027 05:41:46.706            29.314                Novosib          3664.250
       430   10 Jun 2027 05:41:52.504   10 Jun 2027 05:42:16.212            23.708                Irkutsk          2963.500
       431   10 Jun 2027 06:27:57.665   10 Jun 2027 06:28:00.692             3.027            RioGallegos           378.375
       432   10 Jun 2027 06:55:31.359   10 Jun 2027 06:57:30.271           118.912                Sumatra         14864.000
       433   10 Jun 2027 07:08:13.515   10 Jun 2027 07:09:40.501            86.986                  Delhi         10873.250
       434   10 Jun 2027 07:16:41.394   10 Jun 2027 07:16:52.001            10.607                 Moscow          1325.875
       435   10 Jun 2027 07:16:57.489   10 Jun 2027 07:17:06.354             8.865              Murmansk2          1108.125
       436   10 Jun 2027 07:17:06.354   10 Jun 2027 07:17:55.514            49.160              Murmansk1          6145.000
       437   10 Jun 2027 08:41:02.294   10 Jun 2027 08:41:45.872            43.578                  Delhi          5447.250
       438   10 Jun 2027 08:47:47.840   10 Jun 2027 08:49:26.217            98.377                 Moscow         12297.125
       439   10 Jun 2027 08:49:41.071   10 Jun 2027 08:50:15.169            34.098                Novosib          4262.250
       440   10 Jun 2027 08:50:18.151   10 Jun 2027 08:51:11.159            53.008                 Moscow          6626.000
       441   10 Jun 2027 08:51:27.559   10 Jun 2027 08:51:53.438            25.879              Murmansk1          3234.875
       442   10 Jun 2027 08:52:03.194   10 Jun 2027 08:52:50.841            47.647              Murmansk1          5955.875
       443   10 Jun 2027 08:52:57.711   10 Jun 2027 08:53:06.562             8.851              Murmansk2          1106.375
       444   10 Jun 2027 08:53:10.477   10 Jun 2027 08:53:27.113            16.636              Murmansk1          2079.500
       445   10 Jun 2027 08:53:36.260   10 Jun 2027 08:53:57.887            21.627                Norilsk          2703.375
       446   10 Jun 2027 08:54:14.526   10 Jun 2027 08:55:28.856            74.330                 Moscow          9291.250
       447   10 Jun 2027 09:59:58.725   10 Jun 2027 10:03:15.552           196.827               CapeTown         24603.375
       448   10 Jun 2027 10:39:20.619   10 Jun 2027 10:44:34.076           313.457                Anadyr1         39182.125
       449   10 Jun 2027 12:18:43.430   10 Jun 2027 12:22:07.692           204.262               Magadan1         25532.750
       450   10 Jun 2027 13:53:01.747   10 Jun 2027 13:55:12.963           131.216               Magadan1         16402.000
       451   10 Jun 2027 13:56:12.262   10 Jun 2027 13:59:02.536           170.274               Magadan1         21284.250
       452   10 Jun 2027 15:35:04.318   10 Jun 2027 15:37:49.064           164.746                Irkutsk         20593.250
       453   10 Jun 2027 16:23:36.277   10 Jun 2027 16:24:11.034            34.757            RioGallegos          4344.625
       454   10 Jun 2027 17:08:24.014   10 Jun 2027 17:10:12.001           107.987                Irkutsk         13498.375
       455   10 Jun 2027 17:10:50.581   10 Jun 2027 17:13:27.721           157.140                Novosib         19642.500
       456   10 Jun 2027 17:24:05.294   10 Jun 2027 17:25:09.662            64.368                Sumatra          8046.000
       457   10 Jun 2027 18:48:52.412   10 Jun 2027 18:49:23.947            31.535                Novosib          3941.875
       458   10 Jun 2027 18:51:46.038   10 Jun 2027 18:56:12.860           266.822                  Delhi         33352.750
       459   10 Jun 2027 20:22:56.847   10 Jun 2027 20:26:52.646           235.799                 Moscow         29474.875
       460   10 Jun 2027 22:24:39.713   10 Jun 2027 22:25:28.483            48.770               CapeTown          6096.250
       461   11 Jun 2027 03:58:56.545   11 Jun 2027 03:59:52.489            55.944                Sumatra          6993.000
       462   11 Jun 2027 04:16:22.739   11 Jun 2027 04:16:45.044            22.305               Magadan2          2788.125
       463   11 Jun 2027 04:17:04.651   11 Jun 2027 04:17:16.184            11.533               Magadan1          1441.625
       464   11 Jun 2027 04:17:39.591   11 Jun 2027 04:18:29.978            50.387                Irkutsk          6298.375
       465   11 Jun 2027 04:19:56.022   11 Jun 2027 04:20:13.995            17.973              Murmansk1          2246.625
       466   11 Jun 2027 04:22:54.128   11 Jun 2027 04:23:16.085            21.957                Norilsk          2744.625
       467   11 Jun 2027 04:53:18.065   11 Jun 2027 04:53:56.139            38.074            RioGallegos          4759.250
       468   11 Jun 2027 04:54:28.481   11 Jun 2027 04:55:21.409            52.928            RioGallegos          6616.000
       469   11 Jun 2027 05:28:03.095   11 Jun 2027 05:30:37.758           154.663                Sumatra         19332.875
       470   11 Jun 2027 05:38:30.890   11 Jun 2027 05:39:32.128            61.238                  Delhi          7654.750
       471   11 Jun 2027 05:44:03.559   11 Jun 2027 05:45:57.254           113.695                  Delhi         14211.875
       472   11 Jun 2027 05:51:26.243   11 Jun 2027 05:52:00.923            34.680                Irkutsk          4335.000
       473   11 Jun 2027 05:52:07.931   11 Jun 2027 05:52:43.348            35.417                Novosib          4427.125
       474   11 Jun 2027 05:52:56.542   11 Jun 2027 05:53:00.132             3.590              Murmansk1           448.750
       475   11 Jun 2027 05:53:16.715   11 Jun 2027 05:53:55.133            38.418                Norilsk          4802.250
       476   11 Jun 2027 05:54:01.830   11 Jun 2027 05:54:58.714            56.884                Novosib          7110.500
       477   11 Jun 2027 06:33:05.052   11 Jun 2027 06:33:39.709            34.657            RioGallegos          4332.125
       478   11 Jun 2027 07:08:52.093   11 Jun 2027 07:09:39.085            46.992                Sumatra          5874.000
       479   11 Jun 2027 07:12:18.112   11 Jun 2027 07:13:49.229            91.117                  Delhi         11389.625
       480   11 Jun 2027 07:28:33.923   11 Jun 2027 07:29:02.227            28.304              Murmansk2          3538.000
       481   11 Jun 2027 07:29:07.887   11 Jun 2027 07:30:29.866            81.979                Novosib         10247.375
       482   11 Jun 2027 07:30:52.029   11 Jun 2027 07:31:36.006            43.977                Novosib          5497.125
