uniorb/output/strategy_1/Drop/Drop_KinoSat_110410.txt

KinoSat_110410
-------------------------
    Access    *     Start Time (UTCG)     *     Stop Time (UTCG)  *   Duration (s)        *       Station  *  Data (Mbytes)
         1   01 Jun 2027 03:03:11.353   01 Jun 2027 03:03:28.455            17.102               Magadan2          2137.750
         2   01 Jun 2027 03:03:34.709   01 Jun 2027 03:04:17.469            42.760               Magadan1          5345.000
         3   01 Jun 2027 03:05:05.109   01 Jun 2027 03:05:37.230            32.121               Magadan2          4015.125
         4   01 Jun 2027 03:05:39.257   01 Jun 2027 03:06:20.668            41.411                Anadyr1          5176.375
         5   01 Jun 2027 03:06:38.440   01 Jun 2027 03:06:51.088            12.648               Magadan1          1581.000
         6   01 Jun 2027 03:06:54.669   01 Jun 2027 03:08:01.172            66.503                Anadyr1          8312.875
         7   01 Jun 2027 03:08:35.747   01 Jun 2027 03:08:56.296            20.549               Magadan1          2568.625
         8   01 Jun 2027 03:08:56.296   01 Jun 2027 03:09:34.469            38.173               Magadan2          4771.625
         9   01 Jun 2027 03:10:21.471   01 Jun 2027 03:11:02.121            40.650                Anadyr2          5081.250
        10   01 Jun 2027 03:11:07.687   01 Jun 2027 03:11:13.181             5.494               Magadan1           686.750
        11   01 Jun 2027 03:48:30.795   01 Jun 2027 03:49:02.510            31.715            RioGallegos          3964.375
        12   01 Jun 2027 03:49:25.985   01 Jun 2027 03:50:06.595            40.610            RioGallegos          5076.250
        13   01 Jun 2027 04:41:43.666   01 Jun 2027 04:42:19.229            35.563                Norilsk          4445.375
        14   01 Jun 2027 04:42:21.221   01 Jun 2027 04:42:42.089            20.868                Irkutsk          2608.500
        15   01 Jun 2027 04:43:00.239   01 Jun 2027 04:46:45.440           225.201                Irkutsk         28150.125
        16   01 Jun 2027 05:56:45.102   01 Jun 2027 05:57:59.243            74.141                Sumatra          9267.625
        17   01 Jun 2027 06:07:49.251   01 Jun 2027 06:09:58.250           128.999                  Delhi         16124.875
        18   01 Jun 2027 06:19:43.926   01 Jun 2027 06:20:09.030            25.104              Murmansk2          3138.000
        19   01 Jun 2027 06:20:28.780   01 Jun 2027 06:21:51.031            82.251              Murmansk2         10281.375
        20   01 Jun 2027 06:22:17.962   01 Jun 2027 06:23:02.882            44.920              Murmansk1          5615.000
        21   01 Jun 2027 06:23:47.070   01 Jun 2027 06:24:01.810            14.740                 Moscow          1842.500
        22   01 Jun 2027 07:35:32.614   01 Jun 2027 07:36:22.354            49.740                Sumatra          6217.500
        23   01 Jun 2027 07:40:52.207   01 Jun 2027 07:42:01.162            68.955                  Delhi          8619.375
        24   01 Jun 2027 07:57:02.779   01 Jun 2027 07:57:14.540            11.761                 Moscow          1470.125
        25   01 Jun 2027 07:57:17.928   01 Jun 2027 07:57:25.726             7.798                 Moscow           974.750
        26   01 Jun 2027 07:57:29.743   01 Jun 2027 07:57:34.354             4.611              Murmansk1           576.375
        27   01 Jun 2027 07:57:38.438   01 Jun 2027 07:58:09.942            31.504              Murmansk1          3938.000
        28   01 Jun 2027 07:58:28.765   01 Jun 2027 08:00:07.084            98.319                Novosib         12289.875
        29   01 Jun 2027 09:22:15.693   01 Jun 2027 09:22:44.950            29.257                  Delhi          3657.125
        30   01 Jun 2027 09:29:58.508   01 Jun 2027 09:30:48.117            49.609                 Moscow          6201.125
        31   01 Jun 2027 09:30:54.557   01 Jun 2027 09:31:58.992            64.435                 Moscow          8054.375
        32   01 Jun 2027 09:32:21.030   01 Jun 2027 09:32:45.727            24.697              Murmansk1          3087.125
        33   01 Jun 2027 09:33:01.173   01 Jun 2027 09:33:13.341            12.168                Novosib          1521.000
        34   01 Jun 2027 09:33:15.706   01 Jun 2027 09:34:28.424            72.718                Norilsk          9089.750
        35   01 Jun 2027 09:34:37.688   01 Jun 2027 09:34:57.356            19.668              Murmansk2          2458.500
        36   01 Jun 2027 09:35:24.728   01 Jun 2027 09:37:35.512           130.784              Murmansk2         16348.000
        37   01 Jun 2027 10:40:30.953   01 Jun 2027 10:46:02.133           331.180               CapeTown         41397.500
        38   01 Jun 2027 10:48:09.865   01 Jun 2027 10:49:26.494            76.629               CapeTown          9578.625
        39   01 Jun 2027 11:21:05.569   01 Jun 2027 11:25:06.629           241.060                Anadyr2         30132.500
        40   01 Jun 2027 12:59:16.818   01 Jun 2027 13:02:50.544           213.726               Magadan1         26715.750
        41   01 Jun 2027 13:05:13.814   01 Jun 2027 13:05:21.996             8.182               Magadan2          1022.750
        42   01 Jun 2027 16:15:32.475   01 Jun 2027 16:20:36.250           303.775                Irkutsk         37971.875
        43   01 Jun 2027 17:04:02.236   01 Jun 2027 17:04:21.825            19.589            RioGallegos          2448.625
        44   01 Jun 2027 17:49:04.622   01 Jun 2027 17:51:36.032           151.410                Irkutsk         18926.250
        45   01 Jun 2027 17:53:30.317   01 Jun 2027 17:56:45.814           195.497                Novosib         24437.125
        46   01 Jun 2027 19:32:23.003   01 Jun 2027 19:34:30.549           127.546                  Delhi         15943.250
        47   01 Jun 2027 20:59:14.501   01 Jun 2027 20:59:32.079            17.578              Murmansk1          2197.250
        48   01 Jun 2027 20:59:41.978   01 Jun 2027 21:00:38.807            56.829              Murmansk2          7103.625
        49   01 Jun 2027 21:03:32.348   01 Jun 2027 21:07:01.567           209.219                 Moscow         19789.501
        50   02 Jun 2027 03:19:31.291   02 Jun 2027 03:21:19.933           108.642                Anadyr1         13580.250
        51   02 Jun 2027 03:22:12.481   02 Jun 2027 03:23:00.239            47.758               Magadan1          5969.750
        52   02 Jun 2027 04:53:36.753   02 Jun 2027 04:53:42.065             5.312                Irkutsk           664.000
        53   02 Jun 2027 04:54:11.401   02 Jun 2027 04:54:47.218            35.817               Magadan1          4477.125
        54   02 Jun 2027 04:54:55.971   02 Jun 2027 04:55:47.774            51.803               Magadan1          6475.375
        55   02 Jun 2027 04:55:47.995   02 Jun 2027 04:56:18.678            30.683                Novosib          3835.375
        56   02 Jun 2027 04:56:43.684   02 Jun 2027 04:57:50.572            66.888               Magadan2          8361.000
        57   02 Jun 2027 04:58:33.513   02 Jun 2027 04:59:12.025            38.512                Novosib          4814.000
        58   02 Jun 2027 04:59:14.195   02 Jun 2027 04:59:41.555            27.360                Norilsk          3420.000
        59   02 Jun 2027 04:59:45.132   02 Jun 2027 05:00:22.473            37.341                Novosib          4667.625
        60   02 Jun 2027 05:33:58.577   02 Jun 2027 05:34:43.435            44.858            RioGallegos          5607.250
        61   02 Jun 2027 05:35:49.623   02 Jun 2027 05:36:28.542            38.919            RioGallegos          4864.875
        62   02 Jun 2027 06:08:41.616   02 Jun 2027 06:10:16.672            95.056                Sumatra         11882.000
        63   02 Jun 2027 06:19:02.280   02 Jun 2027 06:19:58.052            55.772                  Delhi          6971.500
        64   02 Jun 2027 06:20:28.999   02 Jun 2027 06:21:59.784            90.785                  Delhi         11348.125
        65   02 Jun 2027 06:30:52.432   02 Jun 2027 06:31:06.769            14.337                Novosib          1792.125
        66   02 Jun 2027 06:31:12.553   02 Jun 2027 06:31:41.139            28.586                Novosib          3573.250
        67   02 Jun 2027 06:32:03.609   02 Jun 2027 06:32:37.172            33.563                Novosib          4195.375
        68   02 Jun 2027 06:32:44.289   02 Jun 2027 06:32:51.006             6.717              Murmansk2           839.625
        69   02 Jun 2027 06:33:07.983   02 Jun 2027 06:34:01.460            53.477                 Moscow          6684.625
        70   02 Jun 2027 06:34:05.881   02 Jun 2027 06:34:26.699            20.818                Norilsk          2602.250
        71   02 Jun 2027 06:34:47.408   02 Jun 2027 06:35:36.822            49.414                 Moscow          6176.750
        72   02 Jun 2027 07:52:58.296   02 Jun 2027 07:54:28.513            90.217                  Delhi         11277.125
        73   02 Jun 2027 08:08:57.804   02 Jun 2027 08:09:24.940            27.136                 Moscow          3392.000
        74   02 Jun 2027 08:09:34.322   02 Jun 2027 08:09:35.680             1.358              Murmansk1           169.750
        75   02 Jun 2027 08:09:40.515   02 Jun 2027 08:10:47.701            67.186              Murmansk1          8398.250
        76   02 Jun 2027 08:10:47.994   02 Jun 2027 08:10:56.254             8.260                 Moscow          1032.500
        77   02 Jun 2027 08:12:09.309   02 Jun 2027 08:12:57.180            47.871                 Moscow          5983.875
        78   02 Jun 2027 09:42:38.344   02 Jun 2027 09:43:39.030            60.686                 Moscow          7585.750
        79   02 Jun 2027 09:43:54.895   02 Jun 2027 09:44:04.782             9.887              Murmansk1          1235.875
        80   02 Jun 2027 09:44:14.763   02 Jun 2027 09:45:37.814            83.051              Murmansk2         10381.375
        81   02 Jun 2027 09:46:02.331   02 Jun 2027 09:46:48.089            45.758              Murmansk2          5719.750
        82   02 Jun 2027 09:46:52.556   02 Jun 2027 09:49:04.967           132.411                 Moscow         16551.375
        83   02 Jun 2027 10:52:00.031   02 Jun 2027 10:57:56.927           356.896               CapeTown         44612.000
        84   02 Jun 2027 11:31:50.944   02 Jun 2027 11:36:11.979           261.035                Anadyr2         32629.375
        85   02 Jun 2027 11:40:49.935   02 Jun 2027 11:41:10.157            20.222                Anadyr1          2527.750
        86   02 Jun 2027 13:10:52.147   02 Jun 2027 13:15:16.116           263.969               Magadan1         32996.125
        87   02 Jun 2027 13:17:24.151   02 Jun 2027 13:18:01.879            37.728               Magadan1          4716.000
        88   02 Jun 2027 16:26:48.702   02 Jun 2027 16:32:53.183           364.481                Irkutsk         45560.125
        89   02 Jun 2027 16:42:50.274   02 Jun 2027 16:43:45.591            55.317                Sumatra          6914.625
        90   02 Jun 2027 16:44:17.802   02 Jun 2027 16:45:44.986            87.184                Sumatra         10898.000
        91   02 Jun 2027 18:02:01.773   02 Jun 2027 18:05:31.013           209.240                Novosib         26155.000
        92   02 Jun 2027 21:11:13.610   02 Jun 2027 21:12:24.906            71.296              Murmansk1          8912.000
        93   02 Jun 2027 21:15:16.346   02 Jun 2027 21:17:10.407           114.061                 Moscow         14257.625
        94   02 Jun 2027 21:19:02.770   02 Jun 2027 21:19:19.123            16.353                 Moscow          2044.125
        95   02 Jun 2027 21:21:14.873   02 Jun 2027 21:22:21.442            66.569                 Moscow          8321.125
        96   02 Jun 2027 21:42:24.984   02 Jun 2027 21:43:00.069            35.085               CapeTown          4385.625
        97   02 Jun 2027 21:45:26.383   02 Jun 2027 21:46:06.487            40.104               CapeTown          5013.000
        98   02 Jun 2027 21:47:48.372   02 Jun 2027 21:49:02.604            74.232               CapeTown          9279.000
        99   03 Jun 2027 03:31:28.047   03 Jun 2027 03:31:46.993            18.946               Magadan2          2368.250
       100   03 Jun 2027 03:31:48.466   03 Jun 2027 03:31:52.571             4.105                Anadyr2           513.125
       101   03 Jun 2027 03:32:01.143   03 Jun 2027 03:33:20.548            79.405                Anadyr2          9925.625
       102   03 Jun 2027 03:33:54.690   03 Jun 2027 03:34:13.250            18.560               Magadan2          2320.000
       103   03 Jun 2027 03:34:37.067   03 Jun 2027 03:35:13.846            36.779               Magadan1          4597.375
       104   03 Jun 2027 04:19:31.429   03 Jun 2027 04:19:55.507            24.078            RioGallegos          3009.750
       105   03 Jun 2027 04:48:04.894   03 Jun 2027 04:50:05.963           121.069                Sumatra         15133.625
       106   03 Jun 2027 05:06:04.224   03 Jun 2027 05:06:49.971            45.747               Magadan1          5718.375
       107   03 Jun 2027 05:06:50.795   03 Jun 2027 05:08:24.259            93.464                Irkutsk         11683.000
       108   03 Jun 2027 05:08:54.756   03 Jun 2027 05:09:02.787             8.031               Magadan2          1003.875
       109   03 Jun 2027 05:09:10.826   03 Jun 2027 05:09:47.921            37.095                Norilsk          4636.875
       110   03 Jun 2027 05:10:07.685   03 Jun 2027 05:10:54.885            47.200                Norilsk          5900.000
       111   03 Jun 2027 05:10:59.378   03 Jun 2027 05:11:39.126            39.748              Murmansk2          4968.500
       112   03 Jun 2027 05:46:11.035   03 Jun 2027 05:46:35.790            24.755            RioGallegos          3094.375
       113   03 Jun 2027 05:48:58.234   03 Jun 2027 05:49:06.199             7.965            RioGallegos           995.625
       114   03 Jun 2027 06:20:43.711   03 Jun 2027 06:22:30.287           106.576                Sumatra         13322.000
       115   03 Jun 2027 06:30:25.840   03 Jun 2027 06:31:18.646            52.806                  Delhi          6600.750
       116   03 Jun 2027 06:42:48.587   03 Jun 2027 06:43:33.141            44.554              Murmansk1          5569.250
       117   03 Jun 2027 06:43:50.118   03 Jun 2027 06:44:38.345            48.227              Murmansk1          6028.375
       118   03 Jun 2027 06:44:45.862   03 Jun 2027 06:44:59.019            13.157                 Moscow          1644.625
       119   03 Jun 2027 06:45:17.851   03 Jun 2027 06:47:04.187           106.336                 Moscow         13292.000
       120   03 Jun 2027 08:20:08.341   03 Jun 2027 08:20:56.563            48.222                 Moscow          6027.750
       121   03 Jun 2027 08:21:14.000   03 Jun 2027 08:21:18.829             4.829                Norilsk           603.625
       122   03 Jun 2027 08:21:19.624   03 Jun 2027 08:21:41.084            21.460                 Moscow          2682.500
       123   03 Jun 2027 08:22:04.338   03 Jun 2027 08:23:32.762            88.424                Novosib         11053.000
       124   03 Jun 2027 08:24:06.626   03 Jun 2027 08:25:28.764            82.138                 Moscow         10267.250
       125   03 Jun 2027 09:55:18.608   03 Jun 2027 09:55:56.410            37.802              Murmansk2          4725.250
       126   03 Jun 2027 09:55:56.410   03 Jun 2027 09:56:06.306             9.896              Murmansk1          1237.000
       127   03 Jun 2027 09:56:15.138   03 Jun 2027 09:57:10.444            55.306                 Moscow          6913.250
       128   03 Jun 2027 09:57:20.843   03 Jun 2027 09:57:39.759            18.916                 Moscow          2364.500
       129   03 Jun 2027 09:57:47.384   03 Jun 2027 09:57:54.035             6.651              Murmansk1           831.375
       130   03 Jun 2027 09:58:18.433   03 Jun 2027 09:58:55.085            36.652                 Moscow          4581.500
       131   03 Jun 2027 11:03:37.681   03 Jun 2027 11:10:05.191           387.510               CapeTown         48438.750
       132   03 Jun 2027 11:43:45.794   03 Jun 2027 11:48:10.652           264.858                Anadyr2         33107.250
       133   03 Jun 2027 11:51:21.111   03 Jun 2027 11:52:50.387            89.276                Anadyr1         11159.500
       134   03 Jun 2027 13:22:35.132   03 Jun 2027 13:26:36.927           241.795               Magadan1         30224.375
       135   03 Jun 2027 15:51:53.418   03 Jun 2027 15:54:35.787           162.369            RioGallegos         20296.125
       136   03 Jun 2027 16:38:20.812   03 Jun 2027 16:43:30.878           310.066                Irkutsk         38758.250
       137   03 Jun 2027 16:53:30.049   03 Jun 2027 16:55:56.049           146.000                Sumatra         18250.000
       138   03 Jun 2027 18:15:57.311   03 Jun 2027 18:17:32.341            95.030                Novosib         11878.750
       139   03 Jun 2027 18:24:15.868   03 Jun 2027 18:25:49.125            93.257                  Delhi         11657.125
       140   03 Jun 2027 18:27:58.348   03 Jun 2027 18:28:27.365            29.017                  Delhi          3627.125
       141   03 Jun 2027 21:24:02.593   03 Jun 2027 21:24:15.936            13.343              Murmansk2          1667.875
       142   03 Jun 2027 21:27:04.413   03 Jun 2027 21:29:22.622           138.209                 Moscow         17276.125
       143   03 Jun 2027 21:30:24.777   03 Jun 2027 21:31:04.547            39.770                 Moscow          4971.250
       144   03 Jun 2027 21:53:23.669   03 Jun 2027 21:55:10.721           107.052               CapeTown         13381.500
       145   03 Jun 2027 21:57:43.210   03 Jun 2027 21:59:43.158           119.948               CapeTown         14993.500
       146   04 Jun 2027 03:43:48.061   04 Jun 2027 03:43:51.004             2.943                Anadyr1           367.875
       147   04 Jun 2027 03:44:00.438   04 Jun 2027 03:44:10.587            10.149                Anadyr1          1268.625
       148   04 Jun 2027 03:44:10.587   04 Jun 2027 03:45:21.436            70.849                Anadyr2          8856.125
       149   04 Jun 2027 03:45:44.070   04 Jun 2027 03:46:10.098            26.028                Anadyr1          3253.500
       150   04 Jun 2027 03:46:23.230   04 Jun 2027 03:47:10.494            47.264               Magadan1          5908.000
       151   04 Jun 2027 04:59:01.764   04 Jun 2027 05:01:47.889           166.125                Sumatra         20765.625
       152   04 Jun 2027 05:18:35.241   04 Jun 2027 05:19:01.142            25.901                Irkutsk          3237.625
       153   04 Jun 2027 05:19:22.129   04 Jun 2027 05:19:45.913            23.784                Norilsk          2973.000
       154   04 Jun 2027 05:19:55.693   04 Jun 2027 05:22:40.322           164.629                Irkutsk         20578.625
       155   04 Jun 2027 06:40:56.010   04 Jun 2027 06:41:09.136            13.126                Sumatra          1640.750
       156   04 Jun 2027 06:41:57.531   04 Jun 2027 06:43:39.462           101.931                  Delhi         12741.375
       157   04 Jun 2027 06:53:20.916   04 Jun 2027 06:53:26.733             5.817                  Delhi           727.125
       158   04 Jun 2027 06:55:53.429   04 Jun 2027 06:56:18.904            25.475                Norilsk          3184.375
       159   04 Jun 2027 06:56:25.971   04 Jun 2027 06:56:37.055            11.084              Murmansk1          1385.500
       160   04 Jun 2027 06:56:38.798   04 Jun 2027 06:57:35.538            56.740              Murmansk1          7092.500
       161   04 Jun 2027 06:57:57.944   04 Jun 2027 06:58:16.541            18.597                Irkutsk          2324.625
       162   04 Jun 2027 06:58:20.497   04 Jun 2027 06:58:34.479            13.982                Irkutsk          1747.750
       163   04 Jun 2027 06:58:46.792   04 Jun 2027 06:58:54.002             7.210              Murmansk2           901.250
       164   04 Jun 2027 06:59:03.154   04 Jun 2027 07:00:09.823            66.669                Norilsk          8333.625
       165   04 Jun 2027 08:17:28.279   04 Jun 2027 08:19:45.501           137.222                  Delhi         17152.750
       166   04 Jun 2027 08:31:05.762   04 Jun 2027 08:31:09.315             3.553                Norilsk           444.125
       167   04 Jun 2027 08:31:29.520   04 Jun 2027 08:32:30.926            61.406                 Moscow          7675.750
       168   04 Jun 2027 08:32:32.924   04 Jun 2027 08:33:03.285            30.361              Murmansk1          3795.125
       169   04 Jun 2027 08:33:04.532   04 Jun 2027 08:33:18.713            14.181              Murmansk2          1772.625
       170   04 Jun 2027 08:33:22.513   04 Jun 2027 08:33:42.183            19.670                Norilsk          2458.750
       171   04 Jun 2027 08:33:52.691   04 Jun 2027 08:34:33.465            40.774              Murmansk2          5096.750
       172   04 Jun 2027 08:35:23.119   04 Jun 2027 08:35:40.759            17.640              Murmansk1          2205.000
       173   04 Jun 2027 10:07:17.308   04 Jun 2027 10:07:57.794            40.486              Murmansk2          5060.750
       174   04 Jun 2027 10:08:07.906   04 Jun 2027 10:08:47.213            39.307              Murmansk2          4913.375
       175   04 Jun 2027 10:09:08.348   04 Jun 2027 10:09:42.054            33.706                 Moscow          4213.250
       176   04 Jun 2027 10:09:45.172   04 Jun 2027 10:09:58.771            13.599              Murmansk2          1699.875
       177   04 Jun 2027 10:09:58.771   04 Jun 2027 10:10:00.139             1.368              Murmansk1           171.000
       178   04 Jun 2027 10:11:45.924   04 Jun 2027 10:12:03.821            17.897              Murmansk1          2237.125
       179   04 Jun 2027 11:15:21.383   04 Jun 2027 11:19:29.870           248.487               CapeTown         31060.875
       180   04 Jun 2027 11:20:23.974   04 Jun 2027 11:21:26.214            62.240               CapeTown          7780.000
       181   04 Jun 2027 11:55:42.056   04 Jun 2027 11:57:27.111           105.055                Anadyr1         13131.875
       182   04 Jun 2027 11:58:09.590   04 Jun 2027 12:00:06.169           116.579                Anadyr2         14572.375
       183   04 Jun 2027 13:34:22.738   04 Jun 2027 13:40:13.301           350.563               Magadan1         43820.375
       184   04 Jun 2027 16:03:03.973   04 Jun 2027 16:06:22.612           198.639            RioGallegos         24829.875
       185   04 Jun 2027 16:51:23.387   04 Jun 2027 16:53:57.074           153.687                Irkutsk         19210.875
       186   04 Jun 2027 16:55:56.637   04 Jun 2027 16:56:21.611            24.974                Irkutsk          3121.750
       187   04 Jun 2027 17:04:38.172   04 Jun 2027 17:07:41.359           183.187                Sumatra         22898.375
       188   04 Jun 2027 17:10:25.600   04 Jun 2027 17:12:18.928           113.328                Sumatra         14166.000
       189   04 Jun 2027 18:29:34.234   04 Jun 2027 18:29:43.521             9.287                Novosib          1160.875
       190   04 Jun 2027 18:34:52.112   04 Jun 2027 18:37:29.516           157.404                  Delhi         19675.500
       191   04 Jun 2027 18:39:48.480   04 Jun 2027 18:41:38.910           110.430                  Delhi         13803.750
       192   04 Jun 2027 21:37:11.888   04 Jun 2027 21:39:01.225           109.337              Murmansk2         13667.125
       193   04 Jun 2027 21:45:34.575   04 Jun 2027 21:45:53.335            18.760                 Moscow          2345.000
       194   04 Jun 2027 22:04:36.719   04 Jun 2027 22:04:42.749             6.030               CapeTown           753.750
       195   04 Jun 2027 22:05:20.857   04 Jun 2027 22:07:27.185           126.328               CapeTown         15791.000
       196   05 Jun 2027 03:55:50.028   05 Jun 2027 03:55:59.129             9.101                Anadyr2          1137.625
       197   05 Jun 2027 03:56:43.783   05 Jun 2027 03:59:05.889           142.106               Magadan2         17763.250
       198   05 Jun 2027 05:10:18.219   05 Jun 2027 05:11:41.176            82.957                Sumatra         10369.625
       199   05 Jun 2027 05:16:31.319   05 Jun 2027 05:18:14.099           102.780                Sumatra         12847.500
       200   05 Jun 2027 05:31:10.023   05 Jun 2027 05:31:57.359            47.336                Irkutsk          5917.000
       201   05 Jun 2027 05:32:07.242   05 Jun 2027 05:33:17.659            70.417                Novosib          8802.125
       202   05 Jun 2027 05:33:18.781   05 Jun 2027 05:34:26.876            68.095                Irkutsk          8511.875
       203   05 Jun 2027 05:36:35.658   05 Jun 2027 05:36:39.465             3.807                Novosib           475.875
       204   05 Jun 2027 06:12:49.216   05 Jun 2027 06:13:47.971            58.755            RioGallegos          7344.375
       205   05 Jun 2027 06:52:14.397   05 Jun 2027 06:52:21.560             7.163                Sumatra           895.375
       206   05 Jun 2027 06:53:36.037   05 Jun 2027 06:55:44.420           128.383                  Delhi         16047.875
       207   05 Jun 2027 07:08:13.975   05 Jun 2027 07:08:34.323            20.348              Murmansk1          2543.500
       208   05 Jun 2027 07:08:42.482   05 Jun 2027 07:09:30.452            47.970              Murmansk2          5996.250
       209   05 Jun 2027 07:09:36.745   05 Jun 2027 07:09:46.816            10.071              Murmansk1          1258.875
       210   05 Jun 2027 07:09:49.109   05 Jun 2027 07:10:17.718            28.609                 Moscow          3576.125
       211   05 Jun 2027 07:11:31.723   05 Jun 2027 07:11:40.726             9.003                 Moscow          1125.375
       212   05 Jun 2027 07:11:50.961   05 Jun 2027 07:11:59.906             8.945                 Moscow          1118.125
       213   05 Jun 2027 08:29:53.804   05 Jun 2027 08:31:30.879            97.075                  Delhi         12134.375
       214   05 Jun 2027 08:42:45.369   05 Jun 2027 08:43:42.539            57.170              Murmansk2          7146.250
       215   05 Jun 2027 08:43:55.808   05 Jun 2027 08:44:15.167            19.359                Norilsk          2419.875
       216   05 Jun 2027 08:44:21.645   05 Jun 2027 08:44:55.036            33.391                 Moscow          4173.875
       217   05 Jun 2027 08:45:00.659   05 Jun 2027 08:45:11.244            10.585                Novosib          1323.125
       218   05 Jun 2027 08:45:30.401   05 Jun 2027 08:45:47.596            17.195                 Moscow          2149.375
       219   05 Jun 2027 08:46:02.884   05 Jun 2027 08:48:12.179           129.295                Norilsk         16161.875
       220   05 Jun 2027 08:48:34.041   05 Jun 2027 08:49:45.442            71.401                 Moscow          8925.125
       221   05 Jun 2027 10:20:48.175   05 Jun 2027 10:21:28.902            40.727              Murmansk1          5090.875
       222   05 Jun 2027 10:21:49.972   05 Jun 2027 10:21:52.286             2.314              Murmansk1           289.250
       223   05 Jun 2027 10:23:09.211   05 Jun 2027 10:23:25.711            16.500                 Moscow          2062.500
       224   05 Jun 2027 10:33:31.240   05 Jun 2027 10:34:55.862            84.622                Anadyr1         10577.750
       225   05 Jun 2027 10:34:55.862   05 Jun 2027 10:36:16.486            80.624                Anadyr2         10078.000
       226   05 Jun 2027 10:36:49.673   05 Jun 2027 10:37:03.195            13.522                Anadyr2          1690.250
       227   05 Jun 2027 11:27:09.747   05 Jun 2027 11:29:26.695           136.948               CapeTown         17118.500
       228   05 Jun 2027 12:07:39.417   05 Jun 2027 12:09:07.342            87.925                Anadyr1         10990.625
       229   05 Jun 2027 12:10:20.424   05 Jun 2027 12:12:07.530           107.106                Anadyr2         13388.250
       230   05 Jun 2027 13:46:13.491   05 Jun 2027 13:50:29.449           255.958               Magadan2         31994.750
       231   05 Jun 2027 16:14:33.461   05 Jun 2027 16:19:38.413           304.952            RioGallegos         38119.000
       232   05 Jun 2027 16:21:03.196   05 Jun 2027 16:22:06.959            63.763            RioGallegos          7970.375
       233   05 Jun 2027 17:04:01.648   05 Jun 2027 17:05:41.814           100.166                Irkutsk         12520.750
       234   05 Jun 2027 17:17:36.992   05 Jun 2027 17:20:48.496           191.504                Sumatra         23938.000
       235   05 Jun 2027 17:21:20.632   05 Jun 2027 17:22:35.519            74.887                Sumatra          9360.875
       236   05 Jun 2027 18:38:33.304   05 Jun 2027 18:40:00.209            86.905                Novosib         10863.125
       237   05 Jun 2027 18:41:36.666   05 Jun 2027 18:41:40.883             4.217                Novosib           527.125
       238   05 Jun 2027 18:46:03.816   05 Jun 2027 18:49:14.383           190.567                  Delhi         23820.875
       239   05 Jun 2027 21:47:14.187   05 Jun 2027 21:48:05.865            51.678              Murmansk2          6459.750
       240   05 Jun 2027 21:50:07.517   05 Jun 2027 21:50:27.200            19.683              Murmansk1          2460.375
       241   05 Jun 2027 21:50:48.615   05 Jun 2027 21:52:26.208            97.593                 Moscow         12199.125
       242   05 Jun 2027 21:53:34.050   05 Jun 2027 21:55:09.700            95.650                 Moscow         11956.250
       243   05 Jun 2027 22:15:59.552   05 Jun 2027 22:16:40.044            40.492               CapeTown          5061.500
       244   06 Jun 2027 04:09:42.999   06 Jun 2027 04:10:59.719            76.720               Magadan2          9590.000
       245   06 Jun 2027 04:20:14.523   06 Jun 2027 04:20:19.922             5.399              Murmansk2           674.875
       246   06 Jun 2027 04:49:35.491   06 Jun 2027 04:50:43.253            67.762            RioGallegos          8470.250
       247   06 Jun 2027 05:21:46.772   06 Jun 2027 05:23:08.173            81.401                Sumatra         10175.125
       248   06 Jun 2027 05:43:44.109   06 Jun 2027 05:43:51.096             6.987                Novosib           873.375
       249   06 Jun 2027 05:44:00.746   06 Jun 2027 05:45:22.538            81.792                Novosib         10224.000
       250   06 Jun 2027 05:45:37.361   06 Jun 2027 05:45:59.547            22.186                Norilsk          2773.250
       251   06 Jun 2027 05:46:02.959   06 Jun 2027 05:47:05.639            62.680                Novosib          7835.000
       252   06 Jun 2027 06:57:26.791   06 Jun 2027 06:57:40.583            13.792                Sumatra          1724.000
       253   06 Jun 2027 06:59:11.966   06 Jun 2027 07:00:23.780            71.814                Sumatra          8976.750
       254   06 Jun 2027 07:16:26.410   06 Jun 2027 07:16:52.717            26.307                  Delhi          3288.375
       255   06 Jun 2027 07:20:27.440   06 Jun 2027 07:21:09.427            41.987                Norilsk          5248.375
       256   06 Jun 2027 07:21:20.258   06 Jun 2027 07:21:41.998            21.740                Irkutsk          2717.500
       257   06 Jun 2027 07:21:44.321   06 Jun 2027 07:22:07.687            23.366                Irkutsk          2920.750
       258   06 Jun 2027 07:22:12.352   06 Jun 2027 07:22:25.786            13.434              Murmansk1          1679.250
       259   06 Jun 2027 07:22:28.863   06 Jun 2027 07:22:44.681            15.818              Murmansk2          1977.250
       260   06 Jun 2027 07:23:05.798   06 Jun 2027 07:23:08.147             2.349                 Moscow           293.625
       261   06 Jun 2027 08:42:28.458   06 Jun 2027 08:44:19.530           111.072                  Delhi         13884.000
       262   06 Jun 2027 08:54:55.016   06 Jun 2027 08:55:19.520            24.504                 Moscow          3063.000
       263   06 Jun 2027 08:55:36.184   06 Jun 2027 08:56:19.015            42.831              Murmansk2          5353.875
       264   06 Jun 2027 08:56:27.807   06 Jun 2027 08:57:07.695            39.888                 Moscow          4986.000
       265   06 Jun 2027 08:57:12.374   06 Jun 2027 08:57:23.556            11.182                 Moscow          1397.750
       266   06 Jun 2027 08:57:35.641   06 Jun 2027 08:57:42.675             7.034                 Moscow           879.250
       267   06 Jun 2027 08:57:44.624   06 Jun 2027 08:58:25.705            41.081                Norilsk          5135.125
       268   06 Jun 2027 08:58:27.434   06 Jun 2027 08:59:06.151            38.717              Murmansk1          4839.625
       269   06 Jun 2027 10:44:56.135   06 Jun 2027 10:48:41.742           225.607                Anadyr1         28200.875
       270   06 Jun 2027 11:41:08.843   06 Jun 2027 11:41:53.061            44.218               CapeTown          5527.250
       271   06 Jun 2027 12:19:37.641   06 Jun 2027 12:21:09.299            91.658                Anadyr2         11457.250
       272   06 Jun 2027 12:21:17.075   06 Jun 2027 12:24:08.928           171.853                Anadyr2         21481.625
       273   06 Jun 2027 13:58:06.530   06 Jun 2027 14:00:40.762           154.232               Magadan2         19279.000
       274   06 Jun 2027 14:02:20.743   06 Jun 2027 14:02:27.284             6.541               Magadan1           817.625
       275   06 Jun 2027 14:04:58.739   06 Jun 2027 14:07:36.777           158.038               Magadan2         19754.750
       276   06 Jun 2027 16:26:12.102   06 Jun 2027 16:32:39.844           387.742            RioGallegos         48467.750
       277   06 Jun 2027 17:14:38.907   06 Jun 2027 17:16:07.472            88.565                Irkutsk         11070.625
       278   06 Jun 2027 17:27:34.503   06 Jun 2027 17:31:30.022           235.519                Sumatra         29439.875
       279   06 Jun 2027 18:49:16.663   06 Jun 2027 18:51:00.696           104.033                Novosib         13004.125
       280   06 Jun 2027 18:58:13.502   06 Jun 2027 19:01:06.096           172.594                  Delhi         21574.250
       281   06 Jun 2027 20:29:42.165   06 Jun 2027 20:32:10.266           148.101                 Moscow         18512.625
       282   06 Jun 2027 22:27:30.027   06 Jun 2027 22:28:59.843            89.816               CapeTown         11227.000
       283   06 Jun 2027 22:29:20.035   06 Jun 2027 22:31:06.476           106.441               CapeTown         13305.125
       284   07 Jun 2027 04:18:50.833   07 Jun 2027 04:18:58.132             7.299                Irkutsk           912.375
       285   07 Jun 2027 04:22:25.367   07 Jun 2027 04:23:11.533            46.166                Irkutsk          5770.750
       286   07 Jun 2027 04:23:22.806   07 Jun 2027 04:23:43.439            20.633                Norilsk          2579.125
       287   07 Jun 2027 04:57:57.533   07 Jun 2027 04:58:56.833            59.300            RioGallegos          7412.500
       288   07 Jun 2027 05:33:24.199   07 Jun 2027 05:35:15.108           110.909                Sumatra         13863.625
       289   07 Jun 2027 05:37:20.624   07 Jun 2027 05:37:30.706            10.082                Sumatra          1260.250
       290   07 Jun 2027 05:47:57.321   07 Jun 2027 05:48:58.310            60.989                  Delhi          7623.625
       291   07 Jun 2027 05:55:40.843   07 Jun 2027 05:57:30.500           109.657                Novosib         13707.125
       292   07 Jun 2027 05:57:39.202   07 Jun 2027 05:59:16.606            97.404                Novosib         12175.500
       293   07 Jun 2027 07:32:42.550   07 Jun 2027 07:33:18.653            36.103                Norilsk          4512.875
       294   07 Jun 2027 07:33:22.360   07 Jun 2027 07:33:53.194            30.834                Novosib          3854.250
       295   07 Jun 2027 07:34:04.835   07 Jun 2027 07:34:31.952            27.117              Murmansk1          3389.625
       296   07 Jun 2027 07:34:41.788   07 Jun 2027 07:34:57.503            15.715                 Moscow          1964.375
       297   07 Jun 2027 07:35:09.872   07 Jun 2027 07:35:18.285             8.413                Norilsk          1051.625
       298   07 Jun 2027 07:35:44.253   07 Jun 2027 07:36:03.758            19.505              Murmansk1          2438.125
       299   07 Jun 2027 07:37:53.396   07 Jun 2027 07:37:56.003             2.607                 Moscow           325.875
       300   07 Jun 2027 08:55:15.622   07 Jun 2027 08:56:51.022            95.400                  Delhi         11925.000
       301   07 Jun 2027 09:06:58.335   07 Jun 2027 09:07:34.831            36.496                Novosib          4562.000
       302   07 Jun 2027 09:07:38.073   07 Jun 2027 09:08:24.199            46.126                 Moscow          5765.750
       303   07 Jun 2027 09:08:38.066   07 Jun 2027 09:09:08.055            29.989                 Moscow          3748.625
       304   07 Jun 2027 09:09:25.192   07 Jun 2027 09:10:44.060            78.868                 Moscow          9858.500
       305   07 Jun 2027 09:10:50.737   07 Jun 2027 09:11:16.526            25.789                Norilsk          3223.625
       306   07 Jun 2027 09:11:19.221   07 Jun 2027 09:11:33.473            14.252              Murmansk2          1781.500
       307   07 Jun 2027 10:18:46.019   07 Jun 2027 10:20:33.817           107.798               CapeTown         13474.750
       308   07 Jun 2027 10:22:48.102   07 Jun 2027 10:23:08.902            20.800               CapeTown          2600.000
       309   07 Jun 2027 10:56:35.811   07 Jun 2027 11:01:59.791           323.980                Anadyr2         40497.500
       310   07 Jun 2027 12:36:10.329   07 Jun 2027 12:36:48.475            38.146                Anadyr1          4768.250
       311   07 Jun 2027 14:10:01.311   07 Jun 2027 14:15:04.217           302.906               Magadan1         37863.250
       312   07 Jun 2027 14:18:13.999   07 Jun 2027 14:19:06.346            52.347               Magadan2          6543.375
       313   07 Jun 2027 16:37:56.393   07 Jun 2027 16:43:59.208           362.815            RioGallegos         45351.875
       314   07 Jun 2027 17:27:07.865   07 Jun 2027 17:28:15.416            67.551                Irkutsk          8443.875
       315   07 Jun 2027 17:29:46.056   07 Jun 2027 17:31:48.078           122.022                Novosib         15252.750
       316   07 Jun 2027 17:39:15.680   07 Jun 2027 17:41:04.344           108.664                Sumatra         13583.000
       317   07 Jun 2027 17:42:34.246   07 Jun 2027 17:43:32.790            58.544                Sumatra          7318.000
       318   07 Jun 2027 19:01:11.942   07 Jun 2027 19:03:23.542           131.600                Novosib         16450.000
       319   07 Jun 2027 19:09:06.852   07 Jun 2027 19:10:19.509            72.657                  Delhi          9082.125
       320   07 Jun 2027 19:11:11.482   07 Jun 2027 19:13:00.555           109.073                  Delhi         13634.125
       321   07 Jun 2027 20:39:29.965   07 Jun 2027 20:40:00.260            30.295              Murmansk1          3786.875
       322   07 Jun 2027 20:40:41.641   07 Jun 2027 20:43:16.131           154.490                 Moscow         19311.250
       323   08 Jun 2027 04:32:00.925   08 Jun 2027 04:32:34.703            33.778                Irkutsk          4222.250
       324   08 Jun 2027 04:33:15.014   08 Jun 2027 04:34:23.906            68.892                Irkutsk          8611.500
       325   08 Jun 2027 04:35:15.358   08 Jun 2027 04:35:23.503             8.145                Norilsk          1018.125
       326   08 Jun 2027 05:09:59.359   08 Jun 2027 05:11:22.667            83.308            RioGallegos         10413.500
       327   08 Jun 2027 05:45:08.812   08 Jun 2027 05:45:37.422            28.610                Sumatra          3576.250
       328   08 Jun 2027 05:47:21.729   08 Jun 2027 05:47:50.418            28.689                Sumatra          3586.125
       329   08 Jun 2027 05:57:05.685   08 Jun 2027 05:57:58.653            52.968                  Delhi          6621.000
       330   08 Jun 2027 06:07:09.549   08 Jun 2027 06:07:36.225            26.676                Novosib          3334.500
       331   08 Jun 2027 06:08:03.886   08 Jun 2027 06:08:25.227            21.341              Murmansk1          2667.625
       332   08 Jun 2027 06:08:28.006   08 Jun 2027 06:09:44.430            76.424                Norilsk          9553.000
       333   08 Jun 2027 06:09:50.875   08 Jun 2027 06:11:12.062            81.187                Irkutsk         10148.375
       334   08 Jun 2027 07:29:06.152   08 Jun 2027 07:30:48.177           102.025                  Delhi         12753.125
       335   08 Jun 2027 07:45:08.183   08 Jun 2027 07:45:31.762            23.579                 Moscow          2947.375
       336   08 Jun 2027 07:45:36.391   08 Jun 2027 07:45:58.391            22.000              Murmansk2          2750.000
       337   08 Jun 2027 07:46:02.349   08 Jun 2027 07:46:19.465            17.116              Murmansk2          2139.500
       338   08 Jun 2027 07:46:39.754   08 Jun 2027 07:48:14.844            95.090                 Moscow         11886.250
       339   08 Jun 2027 09:08:23.405   08 Jun 2027 09:08:48.305            24.900                  Delhi          3112.500
       340   08 Jun 2027 09:09:38.265   08 Jun 2027 09:11:00.314            82.049                  Delhi         10256.125
       341   08 Jun 2027 09:16:54.348   08 Jun 2027 09:17:38.692            44.344                Novosib          5543.000
       342   08 Jun 2027 09:17:40.783   08 Jun 2027 09:18:08.337            27.554                 Moscow          3444.250
       343   08 Jun 2027 09:18:22.529   08 Jun 2027 09:19:07.202            44.673                Novosib          5584.125
       344   08 Jun 2027 09:19:14.994   08 Jun 2027 09:19:43.284            28.290                 Moscow          3536.250
       345   08 Jun 2027 09:19:50.487   08 Jun 2027 09:20:01.242            10.755                Novosib          1344.375
       346   08 Jun 2027 09:20:05.917   08 Jun 2027 09:20:47.927            42.010                 Moscow          5251.250
       347   08 Jun 2027 09:20:58.761   08 Jun 2027 09:21:28.248            29.487                Novosib          3685.875
       348   08 Jun 2027 09:21:34.785   08 Jun 2027 09:22:13.988            39.203                 Moscow          4900.375
       349   08 Jun 2027 09:22:21.195   08 Jun 2027 09:22:45.789            24.594              Murmansk1          3074.250
       350   08 Jun 2027 09:22:53.031   08 Jun 2027 09:23:09.303            16.272                Norilsk          2034.000
       351   08 Jun 2027 09:23:10.642   08 Jun 2027 09:23:23.756            13.114                 Moscow          1639.250
       352   08 Jun 2027 09:23:39.798   08 Jun 2027 09:24:26.113            46.315                Norilsk          5789.375
       353   08 Jun 2027 09:24:55.761   08 Jun 2027 09:24:58.841             3.080              Murmansk2           385.000
       354   08 Jun 2027 09:24:58.841   08 Jun 2027 09:25:21.590            22.749              Murmansk1          2843.625
       355   08 Jun 2027 10:29:29.823   08 Jun 2027 10:32:15.429           165.606               CapeTown         20700.750
       356   08 Jun 2027 10:36:25.184   08 Jun 2027 10:36:42.286            17.102               CapeTown          2137.750
       357   08 Jun 2027 11:08:22.183   08 Jun 2027 11:15:09.755           407.572                Anadyr1         50946.500
       358   08 Jun 2027 12:48:11.623   08 Jun 2027 12:50:32.690           141.067               Magadan1         17633.375
       359   08 Jun 2027 14:21:57.460   08 Jun 2027 14:23:48.844           111.384               Magadan2         13923.000
       360   08 Jun 2027 16:49:44.611   08 Jun 2027 16:55:32.547           347.936            RioGallegos         43492.000
       361   08 Jun 2027 17:39:02.767   08 Jun 2027 17:44:54.060           351.293                Novosib         43911.625
       362   08 Jun 2027 17:53:56.456   08 Jun 2027 17:55:29.649            93.193                Sumatra         11649.125
       363   08 Jun 2027 19:20:49.620   08 Jun 2027 19:22:49.145           119.525                  Delhi         14940.625
       364   08 Jun 2027 20:49:11.006   08 Jun 2027 20:49:17.336             6.330              Murmansk1           791.250
       365   08 Jun 2027 20:52:08.825   08 Jun 2027 20:55:15.993           187.168                 Moscow         23396.000
       366   08 Jun 2027 22:53:26.258   08 Jun 2027 22:55:03.354            97.096               CapeTown         12137.000
       367   09 Jun 2027 03:07:29.864   09 Jun 2027 03:07:34.560             4.696                Anadyr1           587.000
       368   09 Jun 2027 03:07:36.092   09 Jun 2027 03:07:57.661            21.569               Magadan2          2696.125
       369   09 Jun 2027 03:08:14.062   09 Jun 2027 03:08:21.676             7.614               Magadan1           951.750
       370   09 Jun 2027 03:08:32.141   09 Jun 2027 03:09:01.900            29.759                Irkutsk          3719.875
       371   09 Jun 2027 03:09:11.373   09 Jun 2027 03:09:37.082            25.709               Magadan1          3213.625
       372   09 Jun 2027 03:09:37.082   09 Jun 2027 03:10:08.703            31.621               Magadan2          3952.625
       373   09 Jun 2027 03:10:36.476   09 Jun 2027 03:10:49.126            12.650                Anadyr2          1581.250
       374   09 Jun 2027 04:41:56.784   09 Jun 2027 04:42:35.553            38.769               Magadan1          4846.125
       375   09 Jun 2027 04:42:40.225   09 Jun 2027 04:42:48.452             8.227                Norilsk          1028.375
       376   09 Jun 2027 04:43:00.214   09 Jun 2027 04:43:11.585            11.371               Magadan1          1421.375
       377   09 Jun 2027 04:43:27.671   09 Jun 2027 04:45:15.155           107.484               Magadan2         13435.500
       378   09 Jun 2027 04:45:34.932   09 Jun 2027 04:45:53.660            18.728              Murmansk1          2341.000
       379   09 Jun 2027 04:45:53.860   09 Jun 2027 04:46:25.779            31.919               Magadan2          3989.875
       380   09 Jun 2027 04:46:45.376   09 Jun 2027 04:47:24.443            39.067                Norilsk          4883.375
       381   09 Jun 2027 05:22:04.581   09 Jun 2027 05:23:08.729            64.148            RioGallegos          8018.500
       382   09 Jun 2027 05:56:59.660   09 Jun 2027 05:58:14.836            75.176                Sumatra          9397.000
       383   09 Jun 2027 06:00:00.964   09 Jun 2027 06:00:46.288            45.324                Sumatra          5665.500
       384   09 Jun 2027 06:08:03.219   09 Jun 2027 06:10:13.614           130.395                  Delhi         16299.375
       385   09 Jun 2027 06:19:28.500   09 Jun 2027 06:19:47.757            19.257              Murmansk2          2407.125
       386   09 Jun 2027 06:19:47.757   09 Jun 2027 06:20:00.253            12.496              Murmansk1          1562.000
       387   09 Jun 2027 06:20:13.320   09 Jun 2027 06:20:23.803            10.483                Norilsk          1310.375
       388   09 Jun 2027 06:20:26.346   09 Jun 2027 06:20:36.258             9.912                Norilsk          1239.000
       389   09 Jun 2027 06:20:40.064   09 Jun 2027 06:21:12.114            32.050                Norilsk          4006.250
       390   09 Jun 2027 06:21:18.652   09 Jun 2027 06:21:22.132             3.480                Novosib           435.000
       391   09 Jun 2027 06:21:25.571   09 Jun 2027 06:23:08.854           103.283                Irkutsk         12910.375
       392   09 Jun 2027 07:41:06.889   09 Jun 2027 07:41:28.840            21.951                  Delhi          2743.875
       393   09 Jun 2027 07:56:23.721   09 Jun 2027 07:56:55.663            31.942                Norilsk          3992.750
       394   09 Jun 2027 07:57:06.786   09 Jun 2027 07:57:51.819            45.033                Norilsk          5629.125
       395   09 Jun 2027 07:57:53.082   09 Jun 2027 07:58:07.314            14.232              Murmansk1          1779.000
       396   09 Jun 2027 07:58:10.368   09 Jun 2027 07:58:48.976            38.608                 Moscow          4826.000
       397   09 Jun 2027 09:22:33.464   09 Jun 2027 09:22:59.696            26.232                  Delhi          3279.000
       398   09 Jun 2027 09:28:28.909   09 Jun 2027 09:28:48.510            19.601                 Moscow          2450.125
       399   09 Jun 2027 09:28:56.476   09 Jun 2027 09:29:07.985            11.509              Murmansk1          1438.625
       400   09 Jun 2027 09:29:13.932   09 Jun 2027 09:29:51.056            37.124                 Moscow          4640.500
       401   09 Jun 2027 09:30:00.436   09 Jun 2027 09:30:25.697            25.261              Murmansk2          3157.625
       402   09 Jun 2027 09:30:25.697   09 Jun 2027 09:31:10.998            45.301              Murmansk1          5662.625
       403   09 Jun 2027 09:31:41.543   09 Jun 2027 09:33:44.820           123.277              Murmansk2         15409.625
       404   09 Jun 2027 09:34:05.719   09 Jun 2027 09:34:53.740            48.021              Murmansk2          6002.625
       405   09 Jun 2027 09:35:01.482   09 Jun 2027 09:35:41.276            39.794                 Moscow          4974.250
       406   09 Jun 2027 09:35:47.921   09 Jun 2027 09:36:11.288            23.367                Norilsk          2920.875
       407   09 Jun 2027 09:36:52.450   09 Jun 2027 09:37:33.733            41.283                 Moscow          5160.375
       408   09 Jun 2027 10:40:45.133   09 Jun 2027 10:44:02.150           197.017               CapeTown         24627.125
       409   09 Jun 2027 11:20:12.527   09 Jun 2027 11:24:28.728           256.201                Anadyr1         32025.125
       410   09 Jun 2027 11:27:20.783   09 Jun 2027 11:28:47.849            87.066                Anadyr1         10883.250
       411   09 Jun 2027 12:59:31.068   09 Jun 2027 13:02:55.648           204.580               Magadan1         25572.500
       412   09 Jun 2027 16:15:46.385   09 Jun 2027 16:20:52.022           305.637                Irkutsk         38204.625
       413   09 Jun 2027 17:04:17.066   09 Jun 2027 17:04:35.684            18.618            RioGallegos          2327.250
       414   09 Jun 2027 17:49:19.996   09 Jun 2027 17:51:06.275           106.279                Irkutsk         13284.875
       415   09 Jun 2027 17:51:29.230   09 Jun 2027 17:55:10.036           220.806                Novosib         27600.750
       416   09 Jun 2027 19:32:37.519   09 Jun 2027 19:34:45.050           127.531                  Delhi         15941.375
       417   09 Jun 2027 19:35:10.691   09 Jun 2027 19:36:54.039           103.348                  Delhi         12918.500
       418   09 Jun 2027 20:59:57.476   09 Jun 2027 21:00:53.257            55.781              Murmansk1          6972.625
       419   09 Jun 2027 21:03:46.751   09 Jun 2027 21:05:13.461            86.710                 Moscow         10838.750
       420   09 Jun 2027 23:05:34.386   09 Jun 2027 23:06:06.875            32.489               CapeTown          4061.125
       421   10 Jun 2027 03:17:39.970   10 Jun 2027 03:17:49.735             9.765                Anadyr1          1220.625
       422   10 Jun 2027 03:17:55.219   10 Jun 2027 03:18:22.295            27.076                Anadyr1          3384.500
       423   10 Jun 2027 03:18:56.493   10 Jun 2027 03:19:52.865            56.372               Magadan2          7046.500
       424   10 Jun 2027 03:20:06.030   10 Jun 2027 03:20:16.066            10.036                Anadyr2          1254.500
       425   10 Jun 2027 03:20:58.123   10 Jun 2027 03:23:30.807           152.684               Magadan2         19085.500
       426   10 Jun 2027 04:53:43.789   10 Jun 2027 04:58:33.541           289.752                Irkutsk         36219.000
       427   10 Jun 2027 06:08:56.251   10 Jun 2027 06:10:32.111            95.860                Sumatra         11982.500
       428   10 Jun 2027 06:20:12.883   10 Jun 2027 06:20:49.763            36.880                  Delhi          4610.000
       429   10 Jun 2027 06:31:15.679   10 Jun 2027 06:31:55.380            39.701              Murmansk1          4962.625
       430   10 Jun 2027 06:31:59.222   10 Jun 2027 06:32:22.871            23.649              Murmansk1          2956.125
       431   10 Jun 2027 06:32:25.607   10 Jun 2027 06:32:35.439             9.832                Norilsk          1229.000
       432   10 Jun 2027 06:32:36.485   10 Jun 2027 06:33:29.580            53.095                Irkutsk          6636.875
       433   10 Jun 2027 06:34:00.474   10 Jun 2027 06:35:05.906            65.432              Murmansk2          8179.000
       434   10 Jun 2027 06:35:18.087   10 Jun 2027 06:36:29.485            71.398                Novosib          8924.750
       435   10 Jun 2027 07:53:13.048   10 Jun 2027 07:54:42.848            89.800                  Delhi         11225.000
       436   10 Jun 2027 08:07:59.990   10 Jun 2027 08:08:11.725            11.735              Murmansk2          1466.875
       437   10 Jun 2027 08:08:11.725   10 Jun 2027 08:08:49.581            37.856              Murmansk1          4732.000
       438   10 Jun 2027 08:09:05.090   10 Jun 2027 08:10:04.439            59.349                 Moscow          7418.625
       439   10 Jun 2027 08:10:16.273   10 Jun 2027 08:10:59.618            43.345                 Moscow          5418.125
       440   10 Jun 2027 09:37:32.698   10 Jun 2027 09:38:10.758            38.060                 Moscow          4757.500
       441   10 Jun 2027 09:40:58.448   10 Jun 2027 09:41:32.154            33.706              Murmansk1          4213.250
       442   10 Jun 2027 09:41:54.495   10 Jun 2027 09:43:07.226            72.731              Murmansk1          9091.375
       443   10 Jun 2027 09:43:28.762   10 Jun 2027 09:45:00.608            91.846              Murmansk2         11480.750
       444   10 Jun 2027 09:45:13.216   10 Jun 2027 09:46:27.640            74.424                 Moscow          9303.000
       445   10 Jun 2027 09:46:39.496   10 Jun 2027 09:46:56.927            17.431                Norilsk          2178.875
       446   10 Jun 2027 09:46:59.351   10 Jun 2027 09:47:39.686            40.335                Norilsk          5041.875
       447   10 Jun 2027 10:52:14.343   10 Jun 2027 10:55:52.962           218.619               CapeTown         27327.375
       448   10 Jun 2027 10:58:11.490   10 Jun 2027 10:58:35.993            24.503               CapeTown          3062.875
       449   10 Jun 2027 11:32:05.503   10 Jun 2027 11:33:55.946           110.443                Anadyr2         13805.375
       450   10 Jun 2027 11:33:55.946   10 Jun 2027 11:37:48.461           232.515                Anadyr1         29064.375
       451   10 Jun 2027 13:11:06.536   10 Jun 2027 13:14:57.375           230.839               Magadan2         28854.875
       452   10 Jun 2027 13:17:39.323   10 Jun 2027 13:18:35.532            56.209               Magadan1          7026.125
       453   10 Jun 2027 16:27:02.917   10 Jun 2027 16:31:14.837           251.920                Irkutsk         31490.000
       454   10 Jun 2027 16:33:08.260   10 Jun 2027 16:34:06.087            57.827                Irkutsk          7228.375
       455   10 Jun 2027 16:43:03.584   10 Jun 2027 16:44:00.946            57.362                Sumatra          7170.250
       456   10 Jun 2027 16:46:00.101   10 Jun 2027 16:48:25.168           145.067                Sumatra         18133.375
       457   10 Jun 2027 18:02:18.752   10 Jun 2027 18:03:45.832            87.080                Novosib         10885.000
       458   10 Jun 2027 21:11:28.241   10 Jun 2027 21:12:39.435            71.194              Murmansk2          8899.250
       459   10 Jun 2027 21:15:30.812   10 Jun 2027 21:19:17.785           226.973                 Moscow         28371.625
       460   10 Jun 2027 21:42:38.731   10 Jun 2027 21:44:28.975           110.244               CapeTown         13780.500
       461   10 Jun 2027 21:46:21.412   10 Jun 2027 21:48:03.071           101.659               CapeTown         12707.375
       462   11 Jun 2027 03:30:07.743   11 Jun 2027 03:30:52.586            44.843                Anadyr2          5605.375
       463   11 Jun 2027 03:30:58.986   11 Jun 2027 03:31:44.568            45.582               Magadan2          5697.750
       464   11 Jun 2027 03:32:01.739   11 Jun 2027 03:32:59.104            57.365               Magadan1          7170.625
       465   11 Jun 2027 03:33:01.438   11 Jun 2027 03:33:16.807            15.369               Magadan2          1921.125
       466   11 Jun 2027 03:33:36.883   11 Jun 2027 03:34:15.404            38.521                Anadyr2          4815.125
       467   11 Jun 2027 03:34:26.507   11 Jun 2027 03:34:33.041             6.534                Anadyr2           816.750
       468   11 Jun 2027 03:34:52.621   11 Jun 2027 03:35:28.455            35.834               Magadan1          4479.250
       469   11 Jun 2027 04:48:18.556   11 Jun 2027 04:50:10.630           112.074                Sumatra         14009.250
       470   11 Jun 2027 05:06:18.703   11 Jun 2027 05:07:05.787            47.084               Magadan1          5885.500
       471   11 Jun 2027 05:07:19.654   11 Jun 2027 05:08:43.786            84.132                Irkutsk         10516.500
       472   11 Jun 2027 05:09:17.807   11 Jun 2027 05:09:32.771            14.964               Magadan2          1870.500
       473   11 Jun 2027 05:09:46.760   11 Jun 2027 05:11:14.137            87.377              Murmansk2         10922.125
       474   11 Jun 2027 05:11:26.908   11 Jun 2027 05:11:31.185             4.277                Norilsk           534.625
       475   11 Jun 2027 05:11:53.618   11 Jun 2027 05:12:04.185            10.567              Murmansk1          1320.875
       476   11 Jun 2027 05:12:53.715   11 Jun 2027 05:13:01.422             7.707                Norilsk           963.375
       477   11 Jun 2027 05:46:25.855   11 Jun 2027 05:46:50.356            24.501            RioGallegos          3062.625
       478   11 Jun 2027 05:49:12.837   11 Jun 2027 05:49:20.626             7.789            RioGallegos           973.625
       479   11 Jun 2027 05:55:48.079   11 Jun 2027 05:55:57.437             9.358            RioGallegos          1169.750
       480   11 Jun 2027 06:20:58.412   11 Jun 2027 06:22:41.869           103.457                Sumatra         12932.125
       481   11 Jun 2027 06:30:40.078   11 Jun 2027 06:31:33.585            53.507                  Delhi          6688.375
       482   11 Jun 2027 06:42:45.957   11 Jun 2027 06:43:11.449            25.492                Irkutsk          3186.500
