uniorb/output/strategy_1/Drop/Drop_KinoSat_111510.txt

KinoSat_111510
-------------------------
    Access    *     Start Time (UTCG)     *     Stop Time (UTCG)  *   Duration (s)        *       Station  *  Data (Mbytes)
         1   01 Jun 2027 04:10:02.988   01 Jun 2027 04:10:09.469             6.481                 Moscow           202.531
         2   01 Jun 2027 04:10:10.353   01 Jun 2027 04:11:50.063            99.710                Novosib          3115.937
         3   01 Jun 2027 04:11:53.549   01 Jun 2027 04:12:37.150            43.601                Novosib          1362.531
         4   01 Jun 2027 04:13:04.118   01 Jun 2027 04:14:42.673            98.555              Murmansk1          3079.844
         5   01 Jun 2027 04:14:50.966   01 Jun 2027 04:18:17.812           206.846                 Moscow          6463.938
         6   01 Jun 2027 04:42:01.141   01 Jun 2027 04:42:09.678             8.537               CapeTown           266.781
         7   01 Jun 2027 05:32:56.463   01 Jun 2027 05:33:54.739            58.276               Magadan1          1821.125
         8   01 Jun 2027 05:34:14.751   01 Jun 2027 05:34:39.562            24.811               Magadan1           775.344
         9   01 Jun 2027 05:36:33.405   01 Jun 2027 05:36:40.137             6.732               Magadan1           210.375
        10   01 Jun 2027 05:37:05.967   01 Jun 2027 05:37:17.567            11.600               Magadan1           362.500
        11   01 Jun 2027 05:44:54.895   01 Jun 2027 05:45:24.412            29.517              Murmansk1           922.406
        12   01 Jun 2027 05:45:24.412   01 Jun 2027 05:45:40.273            15.861              Murmansk2           495.656
        13   01 Jun 2027 05:48:33.662   01 Jun 2027 05:49:15.976            42.314                 Moscow          1322.312
        14   01 Jun 2027 05:50:21.343   01 Jun 2027 05:51:07.191            45.848              Murmansk1          1432.750
        15   01 Jun 2027 07:08:47.744   01 Jun 2027 07:10:26.195            98.451               Magadan2          3076.594
        16   01 Jun 2027 07:10:47.050   01 Jun 2027 07:13:30.260           163.210               Magadan1          5100.313
        17   01 Jun 2027 07:14:07.802   01 Jun 2027 07:14:29.156            21.354               Magadan1           667.312
        18   01 Jun 2027 07:18:42.370   01 Jun 2027 07:18:54.173            11.803                 Moscow           368.844
        19   01 Jun 2027 08:41:50.861   01 Jun 2027 08:42:50.857            59.996               Magadan2          1874.875
        20   01 Jun 2027 08:43:02.500   01 Jun 2027 08:43:08.215             5.715                Anadyr2           178.594
        21   01 Jun 2027 08:43:08.215   01 Jun 2027 08:43:31.105            22.890                Anadyr1           715.312
        22   01 Jun 2027 08:43:51.324   01 Jun 2027 08:44:27.937            36.613               Magadan1          1144.156
        23   01 Jun 2027 08:44:58.796   01 Jun 2027 08:47:41.067           162.271               Magadan2          5070.969
        24   01 Jun 2027 08:47:41.186   01 Jun 2027 08:48:12.554            31.368                Anadyr1           980.250
        25   01 Jun 2027 08:48:51.312   01 Jun 2027 08:50:25.590            94.278               Magadan1          2946.188
        26   01 Jun 2027 08:50:27.123   01 Jun 2027 08:53:41.691           194.568              Murmansk2          6080.250
        27   01 Jun 2027 08:53:47.635   01 Jun 2027 08:53:59.915            12.280              Murmansk1           383.750
        28   01 Jun 2027 09:25:39.617   01 Jun 2027 09:25:51.003            11.386            RioGallegos           355.812
        29   01 Jun 2027 09:26:13.096   01 Jun 2027 09:26:45.322            32.226            RioGallegos          1007.063
        30   01 Jun 2027 10:04:03.517   01 Jun 2027 10:05:16.499            72.982                Sumatra          2280.687
        31   01 Jun 2027 10:20:30.158   01 Jun 2027 10:21:11.830            41.672                Irkutsk          1302.250
        32   01 Jun 2027 10:21:36.814   01 Jun 2027 10:23:17.751           100.937                Norilsk          3154.281
        33   01 Jun 2027 10:23:25.106   01 Jun 2027 10:26:00.822           155.716                Norilsk          4866.125
        34   01 Jun 2027 10:26:12.190   01 Jun 2027 10:27:35.537            83.347                Novosib          2604.594
        35   01 Jun 2027 10:27:35.668   01 Jun 2027 10:29:12.674            97.006                Norilsk          3031.437
        36   01 Jun 2027 11:01:13.101   01 Jun 2027 11:03:54.837           161.736            RioGallegos          5054.250
        37   01 Jun 2027 11:35:51.385   01 Jun 2027 11:38:12.052           140.667                Sumatra          4395.844
        38   01 Jun 2027 11:56:53.616   01 Jun 2027 11:56:56.990             3.374                Novosib           105.438
        39   01 Jun 2027 11:57:15.617   01 Jun 2027 11:59:36.949           141.332                Irkutsk          4416.625
        40   01 Jun 2027 11:59:50.747   01 Jun 2027 12:03:49.752           239.005                Novosib          7468.906
        41   01 Jun 2027 12:04:59.026   01 Jun 2027 12:05:33.556            34.530              Murmansk1          1079.062
        42   01 Jun 2027 12:05:57.498   01 Jun 2027 12:07:15.977            78.479                Norilsk          2452.469
        43   01 Jun 2027 12:08:03.765   01 Jun 2027 12:09:22.444            78.679              Murmansk2          2458.719
        44   01 Jun 2027 12:41:43.516   01 Jun 2027 12:44:06.781           143.265            RioGallegos          4477.031
        45   01 Jun 2027 12:46:36.243   01 Jun 2027 12:47:24.324            48.081            RioGallegos          1502.531
        46   01 Jun 2027 13:26:30.965   01 Jun 2027 13:32:37.816           366.851                  Delhi         11464.094
        47   01 Jun 2027 13:36:22.399   01 Jun 2027 13:39:21.476           179.077                Novosib          5596.156
        48   01 Jun 2027 13:39:26.788   01 Jun 2027 13:41:10.665           103.877                 Moscow          3246.156
        49   01 Jun 2027 13:41:29.941   01 Jun 2027 13:43:15.988           106.047                Norilsk          3313.969
        50   01 Jun 2027 13:43:27.572   01 Jun 2027 13:44:56.824            89.252              Murmansk2          2789.125
        51   01 Jun 2027 15:11:27.727   01 Jun 2027 15:11:56.519            28.792                 Moscow           899.750
        52   01 Jun 2027 15:12:04.966   01 Jun 2027 15:15:20.981           196.015                Norilsk          6125.469
        53   01 Jun 2027 15:15:21.179   01 Jun 2027 15:17:45.748           144.569                Norilsk          4517.781
        54   01 Jun 2027 15:20:10.401   01 Jun 2027 15:20:37.089            26.688              Murmansk2           834.000
        55   01 Jun 2027 16:24:23.746   01 Jun 2027 16:25:30.245            66.499               CapeTown          2078.094
        56   01 Jun 2027 16:26:22.192   01 Jun 2027 16:26:56.338            34.146               CapeTown          1067.063
        57   01 Jun 2027 16:28:06.673   01 Jun 2027 16:29:16.803            70.130               CapeTown          2191.562
        58   01 Jun 2027 16:29:20.027   01 Jun 2027 16:29:36.032            16.005               CapeTown           500.156
        59   01 Jun 2027 16:51:12.011   01 Jun 2027 16:51:52.717            40.706              Murmansk2          1272.063
        60   01 Jun 2027 16:51:54.748   01 Jun 2027 16:52:46.385            51.637                 Moscow          1613.656
        61   01 Jun 2027 16:54:15.231   01 Jun 2027 16:55:04.433            49.202              Murmansk1          1537.563
        62   01 Jun 2027 16:55:04.433   01 Jun 2027 16:56:00.796            56.363              Murmansk2          1761.344
        63   01 Jun 2027 17:03:04.671   01 Jun 2027 17:03:26.217            21.546                Anadyr2           673.312
        64   01 Jun 2027 17:04:03.080   01 Jun 2027 17:04:58.157            55.077                Anadyr1          1721.156
        65   01 Jun 2027 17:06:09.207   01 Jun 2027 17:06:30.017            20.810                Anadyr1           650.313
        66   01 Jun 2027 17:07:08.417   01 Jun 2027 17:07:38.509            30.092                Anadyr2           940.375
        67   01 Jun 2027 17:08:18.562   01 Jun 2027 17:08:27.001             8.439                Anadyr1           263.719
        68   01 Jun 2027 18:03:31.732   01 Jun 2027 18:04:09.513            37.781               CapeTown          1180.656
        69   01 Jun 2027 18:05:30.363   01 Jun 2027 18:06:21.057            50.694               CapeTown          1584.187
        70   01 Jun 2027 18:24:27.039   01 Jun 2027 18:25:30.540            63.501              Murmansk2          1984.406
        71   01 Jun 2027 18:26:23.482   01 Jun 2027 18:26:28.277             4.795              Murmansk1           149.844
        72   01 Jun 2027 18:27:11.295   01 Jun 2027 18:28:41.432            90.137              Murmansk1          2816.781
        73   01 Jun 2027 18:29:37.704   01 Jun 2027 18:30:12.060            34.356              Murmansk1          1073.625
        74   01 Jun 2027 18:31:02.289   01 Jun 2027 18:32:30.507            88.218              Murmansk1          2756.812
        75   01 Jun 2027 18:43:56.448   01 Jun 2027 18:44:17.009            20.561               Magadan2           642.531
        76   01 Jun 2027 18:45:16.247   01 Jun 2027 18:45:54.869            38.622               Magadan1          1206.937
        77   01 Jun 2027 20:10:26.251   01 Jun 2027 20:14:10.672           224.421                Anadyr1          7013.156
        78   01 Jun 2027 20:14:14.655   01 Jun 2027 20:15:26.542            71.887               Magadan1          2246.469
        79   01 Jun 2027 20:15:30.027   01 Jun 2027 20:16:07.910            37.883               Magadan1          1183.844
        80   01 Jun 2027 20:17:20.737   01 Jun 2027 20:17:30.209             9.472                Anadyr2           296.000
        81   01 Jun 2027 20:17:40.931   01 Jun 2027 20:17:55.108            14.177                Anadyr2           443.031
        82   01 Jun 2027 20:18:34.016   01 Jun 2027 20:18:54.260            20.244               Magadan1           632.625
        83   01 Jun 2027 20:19:13.651   01 Jun 2027 20:19:26.059            12.408               Magadan2           387.750
        84   01 Jun 2027 20:19:46.618   01 Jun 2027 20:20:45.778            59.160               Magadan2          1848.750
        85   01 Jun 2027 20:22:47.243   01 Jun 2027 20:23:25.219            37.976               Magadan2          1186.750
        86   01 Jun 2027 20:24:34.468   01 Jun 2027 20:24:37.800             3.332               Magadan1           104.125
        87   01 Jun 2027 20:24:41.090   01 Jun 2027 20:25:02.984            21.894               Magadan1           684.187
        88   01 Jun 2027 21:07:44.222   01 Jun 2027 21:09:14.180            89.958            RioGallegos          2811.188
        89   01 Jun 2027 21:46:17.349   01 Jun 2027 21:48:35.748           138.399                Anadyr1          4324.969
        90   01 Jun 2027 21:48:39.102   01 Jun 2027 21:49:12.068            32.966               Magadan1          1030.188
        91   01 Jun 2027 21:49:20.991   01 Jun 2027 21:49:43.810            22.819                Norilsk           713.094
        92   01 Jun 2027 21:50:28.606   01 Jun 2027 21:50:46.017            17.411               Magadan1           544.094
        93   01 Jun 2027 21:51:17.690   01 Jun 2027 21:51:24.932             7.242               Magadan1           226.312
        94   01 Jun 2027 21:51:56.305   01 Jun 2027 21:52:03.854             7.549                Norilsk           235.906
        95   01 Jun 2027 21:52:04.061   01 Jun 2027 21:52:43.044            38.983               Magadan1          1218.219
        96   01 Jun 2027 21:53:41.345   01 Jun 2027 21:54:00.492            19.147                Irkutsk           598.344
        97   01 Jun 2027 21:54:59.898   01 Jun 2027 21:55:16.652            16.754                Irkutsk           523.562
        98   01 Jun 2027 21:56:30.381   01 Jun 2027 21:56:38.791             8.410                Irkutsk           262.813
        99   01 Jun 2027 21:56:48.012   01 Jun 2027 21:57:42.161            54.149                Irkutsk          1692.156
       100   01 Jun 2027 22:00:49.159   01 Jun 2027 22:01:13.506            24.347               Magadan2           760.844
       101   01 Jun 2027 22:09:16.821   01 Jun 2027 22:10:46.064            89.243                Sumatra          2788.844
       102   01 Jun 2027 22:48:33.202   01 Jun 2027 22:49:03.214            30.012            RioGallegos           937.875
       103   01 Jun 2027 22:51:44.578   01 Jun 2027 22:52:29.515            44.937            RioGallegos          1404.281
       104   01 Jun 2027 23:21:39.476   01 Jun 2027 23:22:08.236            28.760                Anadyr2           898.750
       105   01 Jun 2027 23:22:33.599   01 Jun 2027 23:23:41.091            67.492                Anadyr1          2109.125
       106   01 Jun 2027 23:24:09.663   01 Jun 2027 23:24:36.800            27.137                Norilsk           848.031
       107   01 Jun 2027 23:24:38.912   01 Jun 2027 23:24:50.858            11.946                Norilsk           373.312
       108   01 Jun 2027 23:24:55.222   01 Jun 2027 23:25:09.137            13.915               Magadan2           434.844
       109   01 Jun 2027 23:25:37.573   01 Jun 2027 23:25:49.697            12.124               Magadan2           378.875
       110   01 Jun 2027 23:25:51.441   01 Jun 2027 23:25:55.237             3.796                Norilsk           118.625
       111   01 Jun 2027 23:27:31.146   01 Jun 2027 23:28:12.746            41.600               Magadan2          1300.000
       112   01 Jun 2027 23:28:22.967   01 Jun 2027 23:28:33.257            10.290               Magadan1           321.563
       113   01 Jun 2027 23:28:57.867   01 Jun 2027 23:29:07.285             9.418                Novosib           294.313
       114   01 Jun 2027 23:30:53.667   01 Jun 2027 23:32:14.545            80.878                Novosib          2527.438
       115   01 Jun 2027 23:34:59.681   01 Jun 2027 23:35:19.543            19.862                Novosib           620.687
       116   01 Jun 2027 23:36:37.653   01 Jun 2027 23:36:39.586             1.933                Irkutsk            60.406
       117   01 Jun 2027 23:36:49.580   01 Jun 2027 23:37:57.105            67.525                Novosib          2110.156
       118   01 Jun 2027 23:48:17.459   01 Jun 2027 23:49:15.313            57.854                Sumatra          1807.937
       119   02 Jun 2027 00:22:40.082   02 Jun 2027 00:23:32.287            52.205            RioGallegos          1631.406
       120   02 Jun 2027 00:26:10.978   02 Jun 2027 00:26:48.051            37.073            RioGallegos          1158.531
       121   02 Jun 2027 00:55:55.468   02 Jun 2027 00:56:44.780            49.312                Anadyr1          1541.000
       122   02 Jun 2027 00:57:34.286   02 Jun 2027 00:57:58.479            24.193                Anadyr2           756.031
       123   02 Jun 2027 00:58:21.085   02 Jun 2027 00:58:59.216            38.131                Anadyr2          1191.594
       124   02 Jun 2027 01:00:09.946   02 Jun 2027 01:02:12.057           122.111                Norilsk          3815.969
       125   02 Jun 2027 01:03:22.061   02 Jun 2027 01:04:52.689            90.628              Murmansk1          2832.125
       126   02 Jun 2027 01:08:04.229   02 Jun 2027 01:08:37.567            33.338                Irkutsk          1041.812
       127   02 Jun 2027 01:10:57.306   02 Jun 2027 01:11:01.122             3.816                Novosib           119.250
       128   02 Jun 2027 01:11:03.493   02 Jun 2027 01:11:40.301            36.808                Irkutsk          1150.250
       129   02 Jun 2027 01:14:42.651   02 Jun 2027 01:15:09.172            26.521                Irkutsk           828.781
       130   02 Jun 2027 01:18:12.798   02 Jun 2027 01:18:38.711            25.913                  Delhi           809.781
       131   02 Jun 2027 01:19:57.053   02 Jun 2027 01:20:54.421            57.368                  Delhi          1792.750
       132   02 Jun 2027 01:53:52.872   02 Jun 2027 01:54:27.393            34.521            RioGallegos          1078.781
       133   02 Jun 2027 01:55:11.839   02 Jun 2027 01:55:22.565            10.726            RioGallegos           335.188
       134   02 Jun 2027 01:55:37.770   02 Jun 2027 01:55:57.888            20.118            RioGallegos           628.687
       135   02 Jun 2027 01:58:38.574   02 Jun 2027 01:59:02.471            23.897            RioGallegos           746.781
       136   02 Jun 2027 01:59:51.113   02 Jun 2027 02:00:54.524            63.411            RioGallegos          1981.594
       137   02 Jun 2027 02:31:55.531   02 Jun 2027 02:32:06.290            10.759                Anadyr2           336.219
       138   02 Jun 2027 02:33:26.078   02 Jun 2027 02:33:34.820             8.742                Anadyr2           273.187
       139   02 Jun 2027 02:34:59.273   02 Jun 2027 02:35:08.445             9.172                Anadyr1           286.625
       140   02 Jun 2027 02:35:25.298   02 Jun 2027 02:36:32.975            67.677               Magadan2          2114.906
       141   02 Jun 2027 02:36:44.041   02 Jun 2027 02:36:47.354             3.313                Norilsk           103.531
       142   02 Jun 2027 02:37:11.262   02 Jun 2027 02:37:26.443            15.181               Magadan1           474.406
       143   02 Jun 2027 02:37:30.473   02 Jun 2027 02:37:37.968             7.495                Norilsk           234.219
       144   02 Jun 2027 02:38:21.392   02 Jun 2027 02:39:49.842            88.450              Murmansk1          2764.062
       145   02 Jun 2027 02:41:05.991   02 Jun 2027 02:41:28.521            22.530                Novosib           704.063
       146   02 Jun 2027 02:43:24.863   02 Jun 2027 02:44:22.955            58.092                Irkutsk          1815.375
       147   02 Jun 2027 02:46:34.803   02 Jun 2027 02:47:39.395            64.592                Irkutsk          2018.500
       148   02 Jun 2027 02:55:07.237   02 Jun 2027 02:57:14.674           127.437                  Delhi          3982.406
       149   02 Jun 2027 04:21:40.262   02 Jun 2027 04:23:45.539           125.277                Novosib          3914.906
       150   02 Jun 2027 04:23:59.220   02 Jun 2027 04:23:59.784             0.564                Novosib            17.625
       151   02 Jun 2027 04:24:00.495   02 Jun 2027 04:24:07.226             6.731              Murmansk1           210.344
       152   02 Jun 2027 04:24:30.787   02 Jun 2027 04:26:53.751           142.964              Murmansk1          4467.625
       153   02 Jun 2027 04:27:05.208   02 Jun 2027 04:28:54.757           109.549                 Moscow          3423.406
       154   02 Jun 2027 05:45:11.698   02 Jun 2027 05:47:44.093           152.395                Anadyr2          4762.344
       155   02 Jun 2027 05:48:18.540   02 Jun 2027 05:48:56.116            37.576                Anadyr1          1174.250
       156   02 Jun 2027 05:50:35.003   02 Jun 2027 05:50:36.164             1.161               Magadan1            36.281
       157   02 Jun 2027 07:22:23.565   02 Jun 2027 07:24:50.868           147.303               Magadan2          4603.219
       158   02 Jun 2027 07:25:02.072   02 Jun 2027 07:26:14.528            72.456                Anadyr1          2264.250
       159   02 Jun 2027 08:55:58.902   02 Jun 2027 09:01:39.086           340.184                Anadyr1         10630.750
       160   02 Jun 2027 09:02:18.748   02 Jun 2027 09:03:44.541            85.793              Murmansk2          2681.031
       161   02 Jun 2027 09:03:44.541   02 Jun 2027 09:05:31.510           106.969              Murmansk1          3342.781
       162   02 Jun 2027 09:05:42.594   02 Jun 2027 09:05:47.575             4.981              Murmansk1           155.656
       163   02 Jun 2027 09:05:54.178   02 Jun 2027 09:06:21.195            27.017                Norilsk           844.281
       164   02 Jun 2027 09:07:51.781   02 Jun 2027 09:07:55.649             3.868              Murmansk2           120.875
       165   02 Jun 2027 09:10:21.028   02 Jun 2027 09:10:24.096             3.068              Murmansk1            95.875
       166   02 Jun 2027 09:37:26.985   02 Jun 2027 09:38:17.089            50.104            RioGallegos          1565.750
       167   02 Jun 2027 09:39:43.696   02 Jun 2027 09:40:14.142            30.446            RioGallegos           951.438
       168   02 Jun 2027 10:14:41.315   02 Jun 2027 10:16:28.275           106.960                Sumatra          3342.500
       169   02 Jun 2027 10:31:58.445   02 Jun 2027 10:35:25.097           206.652               Magadan1          6457.875
       170   02 Jun 2027 10:36:02.049   02 Jun 2027 10:36:11.609             9.560               Magadan2           298.750
       171   02 Jun 2027 10:36:42.869   02 Jun 2027 10:37:18.396            35.527                Novosib          1110.219
       172   02 Jun 2027 10:37:25.374   02 Jun 2027 10:38:20.210            54.836                Novosib          1713.625
       173   02 Jun 2027 10:38:56.049   02 Jun 2027 10:39:13.462            17.413              Murmansk2           544.156
       174   02 Jun 2027 10:39:18.687   02 Jun 2027 10:39:26.072             7.385              Murmansk2           230.781
       175   02 Jun 2027 10:39:26.072   02 Jun 2027 10:39:40.050            13.978              Murmansk1           436.813
       176   02 Jun 2027 10:40:01.384   02 Jun 2027 10:40:30.087            28.703                Norilsk           896.969
       177   02 Jun 2027 11:13:27.633   02 Jun 2027 11:14:12.432            44.799            RioGallegos          1399.969
       178   02 Jun 2027 11:14:30.991   02 Jun 2027 11:15:03.297            32.306            RioGallegos          1009.562
       179   02 Jun 2027 11:15:31.513   02 Jun 2027 11:16:03.153            31.640            RioGallegos           988.750
       180   02 Jun 2027 11:17:24.355   02 Jun 2027 11:17:59.388            35.033            RioGallegos          1094.781
       181   02 Jun 2027 11:47:56.479   02 Jun 2027 11:48:58.983            62.504                Sumatra          1953.250
       182   02 Jun 2027 11:50:19.733   02 Jun 2027 11:52:03.363           103.630                Sumatra          3238.438
       183   02 Jun 2027 12:06:45.474   02 Jun 2027 12:07:30.156            44.682                Irkutsk          1396.312
       184   02 Jun 2027 12:55:25.905   02 Jun 2027 12:58:06.221           160.316            RioGallegos          5009.875
       185   02 Jun 2027 13:45:03.648   02 Jun 2027 13:45:37.914            34.266                Novosib          1070.813
       186   02 Jun 2027 13:46:12.693   02 Jun 2027 13:46:52.426            39.733                Novosib          1241.656
       187   02 Jun 2027 13:47:56.947   02 Jun 2027 13:48:39.908            42.961                Novosib          1342.531
       188   02 Jun 2027 13:50:02.555   02 Jun 2027 13:50:31.204            28.649                Novosib           895.281
       189   02 Jun 2027 15:23:17.048   02 Jun 2027 15:23:27.421            10.373              Murmansk1           324.156
       190   02 Jun 2027 15:23:29.262   02 Jun 2027 15:24:32.419            63.157                 Moscow          1973.656
       191   02 Jun 2027 15:24:51.973   02 Jun 2027 15:29:34.830           282.857                Norilsk          8839.281
       192   02 Jun 2027 16:37:01.710   02 Jun 2027 16:37:29.405            27.695               CapeTown           865.469
       193   02 Jun 2027 16:40:01.403   02 Jun 2027 16:40:28.699            27.296               CapeTown           853.000
       194   02 Jun 2027 16:40:43.034   02 Jun 2027 16:41:14.076            31.042               CapeTown           970.062
       195   02 Jun 2027 16:57:40.850   02 Jun 2027 16:58:22.143            41.293                 Moscow          1290.406
       196   02 Jun 2027 17:00:47.834   02 Jun 2027 17:01:19.870            32.036              Murmansk2          1001.125
       197   02 Jun 2027 17:02:08.056   02 Jun 2027 17:03:33.008            84.952                 Moscow          2654.750
       198   02 Jun 2027 17:07:06.618   02 Jun 2027 17:07:12.690             6.072              Murmansk1           189.750
       199   02 Jun 2027 17:07:45.161   02 Jun 2027 17:08:13.894            28.733              Murmansk2           897.906
       200   02 Jun 2027 17:15:26.075   02 Jun 2027 17:15:54.781            28.706                Anadyr1           897.063
       201   02 Jun 2027 17:16:26.682   02 Jun 2027 17:16:51.592            24.910                Anadyr2           778.437
       202   02 Jun 2027 17:17:21.394   02 Jun 2027 17:17:46.083            24.689                Anadyr2           771.531
       203   02 Jun 2027 17:19:17.781   02 Jun 2027 17:19:24.407             6.626                Anadyr2           207.063
       204   02 Jun 2027 17:19:33.275   02 Jun 2027 17:19:45.758            12.483                Anadyr1           390.094
       205   02 Jun 2027 17:20:35.474   02 Jun 2027 17:20:44.026             8.552                Anadyr1           267.250
       206   02 Jun 2027 17:20:53.035   02 Jun 2027 17:21:08.548            15.513                Anadyr1           484.781
       207   02 Jun 2027 18:15:07.951   02 Jun 2027 18:15:50.816            42.865               CapeTown          1339.531
       208   02 Jun 2027 18:16:47.179   02 Jun 2027 18:16:56.232             9.053               CapeTown           282.906
       209   02 Jun 2027 18:17:35.676   02 Jun 2027 18:18:04.987            29.311               CapeTown           915.969
       210   02 Jun 2027 18:37:08.577   02 Jun 2027 18:38:53.522           104.945              Murmansk1          3279.531
       211   02 Jun 2027 18:39:13.085   02 Jun 2027 18:40:53.617           100.532              Murmansk2          3141.625
       212   02 Jun 2027 18:40:59.288   02 Jun 2027 18:42:27.774            88.486              Murmansk1          2765.188
       213   02 Jun 2027 18:57:27.241   02 Jun 2027 18:58:26.666            59.425               Magadan1          1857.031
       214   02 Jun 2027 20:22:27.850   02 Jun 2027 20:24:05.558            97.708                Anadyr2          3053.375
       215   02 Jun 2027 20:24:32.467   02 Jun 2027 20:26:11.919            99.452                Anadyr1          3107.875
       216   02 Jun 2027 20:26:29.092   02 Jun 2027 20:27:28.916            59.824               Magadan1          1869.500
       217   02 Jun 2027 20:27:53.334   02 Jun 2027 20:28:20.174            26.840                Anadyr2           838.750
       218   02 Jun 2027 20:28:42.411   02 Jun 2027 20:28:44.530             2.119               Magadan1            66.219
       219   02 Jun 2027 20:28:54.720   02 Jun 2027 20:29:32.369            37.649               Magadan1          1176.531
       220   02 Jun 2027 20:30:47.548   02 Jun 2027 20:30:54.231             6.683               Magadan1           208.844
       221   02 Jun 2027 20:30:54.231   02 Jun 2027 20:31:44.610            50.379               Magadan2          1574.344
       222   02 Jun 2027 20:34:26.511   02 Jun 2027 20:34:57.039            30.528               Magadan2           954.000
       223   02 Jun 2027 20:36:06.882   02 Jun 2027 20:36:27.013            20.131               Magadan2           629.094
       224   02 Jun 2027 20:37:21.333   02 Jun 2027 20:37:26.437             5.104               Magadan2           159.500
       225   02 Jun 2027 21:18:32.571   02 Jun 2027 21:19:01.054            28.483            RioGallegos           890.094
       226   02 Jun 2027 21:20:04.703   02 Jun 2027 21:20:56.587            51.884            RioGallegos          1621.375
       227   02 Jun 2027 21:23:18.782   02 Jun 2027 21:23:41.888            23.106            RioGallegos           722.063
       228   02 Jun 2027 21:23:53.508   02 Jun 2027 21:24:15.767            22.259            RioGallegos           695.594
       229   02 Jun 2027 21:58:16.938   02 Jun 2027 21:59:46.809            89.871                Anadyr1          2808.469
       230   02 Jun 2027 21:59:49.319   02 Jun 2027 22:00:04.431            15.112                Anadyr1           472.250
       231   02 Jun 2027 22:00:22.306   02 Jun 2027 22:00:27.653             5.347                Anadyr1           167.094
       232   02 Jun 2027 22:00:41.608   02 Jun 2027 22:01:23.619            42.011               Magadan2          1312.844
       233   02 Jun 2027 22:02:31.522   02 Jun 2027 22:03:03.024            31.502               Magadan2           984.437
       234   02 Jun 2027 22:03:46.738   02 Jun 2027 22:04:03.192            16.454                Norilsk           514.188
       235   02 Jun 2027 22:05:18.457   02 Jun 2027 22:07:17.695           119.238                Irkutsk          3726.187
       236   02 Jun 2027 22:12:43.185   02 Jun 2027 22:12:57.364            14.179               Magadan1           443.094
       237   02 Jun 2027 22:13:36.185   02 Jun 2027 22:14:09.112            32.927                Irkutsk          1028.969
       238   02 Jun 2027 22:21:56.621   02 Jun 2027 22:22:30.034            33.413                Sumatra          1044.156
       239   02 Jun 2027 22:23:47.122   02 Jun 2027 22:24:07.767            20.645                Sumatra           645.156
       240   02 Jun 2027 22:25:35.641   02 Jun 2027 22:26:19.979            44.338                Sumatra          1385.563
       241   02 Jun 2027 23:33:32.818   02 Jun 2027 23:35:42.149           129.331                Anadyr1          4041.594
       242   02 Jun 2027 23:36:40.496   02 Jun 2027 23:37:57.308            76.812                Norilsk          2400.375
       243   02 Jun 2027 23:38:19.033   02 Jun 2027 23:38:59.234            40.201               Magadan2          1256.281
       244   02 Jun 2027 23:40:06.451   02 Jun 2027 23:41:11.375            64.924                Irkutsk          2028.875
       245   02 Jun 2027 23:44:03.079   02 Jun 2027 23:44:27.719            24.640                Irkutsk           770.000
       246   02 Jun 2027 23:44:50.243   02 Jun 2027 23:45:36.400            46.157                Novosib          1442.406
       247   02 Jun 2027 23:49:16.980   02 Jun 2027 23:49:49.784            32.804                Novosib          1025.125
       248   02 Jun 2027 23:52:06.169   02 Jun 2027 23:52:21.684            15.515                  Delhi           484.844
       249   02 Jun 2027 23:52:55.864   02 Jun 2027 23:53:22.299            26.435                  Delhi           826.094
       250   02 Jun 2027 23:56:08.172   02 Jun 2027 23:56:31.754            23.582                  Delhi           736.937
       251   03 Jun 2027 00:02:54.080   03 Jun 2027 00:03:46.368            52.288                Sumatra          1634.000
       252   03 Jun 2027 00:37:02.914   03 Jun 2027 00:37:51.105            48.191            RioGallegos          1505.969
       253   03 Jun 2027 01:07:56.313   03 Jun 2027 01:08:55.582            59.269                Anadyr1          1852.156
       254   03 Jun 2027 01:09:34.330   03 Jun 2027 01:10:01.483            27.153                Anadyr1           848.531
       255   03 Jun 2027 01:10:13.259   03 Jun 2027 01:10:16.715             3.456                Anadyr2           108.000
       256   03 Jun 2027 01:12:12.103   03 Jun 2027 01:14:14.403           122.300                Norilsk          3821.875
       257   03 Jun 2027 01:14:15.244   03 Jun 2027 01:14:35.265            20.021               Magadan1           625.656
       258   03 Jun 2027 01:15:05.002   03 Jun 2027 01:15:43.065            38.063              Murmansk2          1189.469
       259   03 Jun 2027 01:16:05.121   03 Jun 2027 01:16:08.263             3.142              Murmansk1            98.187
       260   03 Jun 2027 01:16:39.899   03 Jun 2027 01:18:07.959            88.060              Murmansk2          2751.875
       261   03 Jun 2027 01:24:56.592   03 Jun 2027 01:25:09.653            13.061                Novosib           408.156
       262   03 Jun 2027 01:26:32.494   03 Jun 2027 01:28:53.260           140.766                Novosib          4398.937
       263   03 Jun 2027 02:05:17.532   03 Jun 2027 02:05:54.710            37.178            RioGallegos          1161.813
       264   03 Jun 2027 02:07:34.130   03 Jun 2027 02:07:47.460            13.330            RioGallegos           416.562
       265   03 Jun 2027 02:08:09.698   03 Jun 2027 02:10:05.828           116.130            RioGallegos          3629.063
       266   03 Jun 2027 02:47:00.143   03 Jun 2027 02:47:26.041            25.898               Magadan2           809.312
       267   03 Jun 2027 02:48:07.560   03 Jun 2027 02:48:37.394            29.834                Norilsk           932.313
       268   03 Jun 2027 02:50:21.801   03 Jun 2027 02:51:17.436            55.635              Murmansk1          1738.594
       269   03 Jun 2027 02:51:48.246   03 Jun 2027 02:52:01.470            13.224              Murmansk2           413.250
       270   03 Jun 2027 02:52:08.705   03 Jun 2027 02:52:11.697             2.992                Novosib            93.500
       271   03 Jun 2027 02:53:08.585   03 Jun 2027 02:53:09.117             0.532                Novosib            16.625
       272   03 Jun 2027 02:53:30.712   03 Jun 2027 02:54:13.272            42.560                Novosib          1330.000
       273   03 Jun 2027 02:56:57.681   03 Jun 2027 02:57:46.174            48.493                Irkutsk          1515.406
       274   03 Jun 2027 03:01:14.020   03 Jun 2027 03:02:08.294            54.274                  Delhi          1696.063
       275   03 Jun 2027 04:34:05.981   03 Jun 2027 04:34:10.301             4.320                Novosib           135.000
       276   03 Jun 2027 04:34:13.582   03 Jun 2027 04:34:41.080            27.498                Norilsk           859.313
       277   03 Jun 2027 04:34:46.097   03 Jun 2027 04:35:21.218            35.121                Norilsk          1097.531
       278   03 Jun 2027 04:35:43.189   03 Jun 2027 04:37:57.016           133.827              Murmansk1          4182.094
       279   03 Jun 2027 04:37:57.016   03 Jun 2027 04:39:03.006            65.990              Murmansk2          2062.187
       280   03 Jun 2027 04:39:06.600   03 Jun 2027 04:39:20.396            13.796                 Moscow           431.125
       281   03 Jun 2027 04:53:24.342   03 Jun 2027 04:56:02.221           157.879               CapeTown          4933.719
       282   03 Jun 2027 05:57:12.954   03 Jun 2027 05:57:29.590            16.636                Anadyr2           519.875
       283   03 Jun 2027 05:57:29.590   03 Jun 2027 05:58:13.791            44.201                Anadyr1          1381.281
       284   03 Jun 2027 05:58:20.435   03 Jun 2027 05:59:56.429            95.994                Anadyr1          2999.813
       285   03 Jun 2027 06:01:50.375   03 Jun 2027 06:02:32.789            42.414                Anadyr2          1325.437
       286   03 Jun 2027 07:34:56.542   03 Jun 2027 07:38:41.862           225.320               Magadan1          7041.250
       287   03 Jun 2027 09:07:04.842   03 Jun 2027 09:07:50.058            45.216               Magadan1          1413.000
       288   03 Jun 2027 09:08:17.873   03 Jun 2027 09:08:54.009            36.136               Magadan2          1129.250
       289   03 Jun 2027 09:09:03.270   03 Jun 2027 09:09:40.305            37.035               Magadan1          1157.344
       290   03 Jun 2027 09:10:21.242   03 Jun 2027 09:13:08.696           167.454                Anadyr1          5232.938
       291   03 Jun 2027 09:13:09.153   03 Jun 2027 09:14:19.704            70.551               Magadan1          2204.719
       292   03 Jun 2027 09:49:17.568   03 Jun 2027 09:49:38.619            21.051            RioGallegos           657.844
       293   03 Jun 2027 09:49:59.987   03 Jun 2027 09:50:15.773            15.786            RioGallegos           493.312
       294   03 Jun 2027 10:25:48.821   03 Jun 2027 10:27:16.585            87.764                Sumatra          2742.625
       295   03 Jun 2027 10:45:04.643   03 Jun 2027 10:48:10.708           186.065                Irkutsk          5814.531
       296   03 Jun 2027 10:48:23.434   03 Jun 2027 10:48:30.515             7.081                Norilsk           221.281
       297   03 Jun 2027 10:48:33.593   03 Jun 2027 10:48:48.325            14.732                Irkutsk           460.375
       298   03 Jun 2027 10:48:55.677   03 Jun 2027 10:49:49.803            54.126                Novosib          1691.438
       299   03 Jun 2027 10:49:57.541   03 Jun 2027 10:50:52.281            54.740                Norilsk          1710.625
       300   03 Jun 2027 10:50:54.557   03 Jun 2027 10:51:25.600            31.043              Murmansk1           970.094
       301   03 Jun 2027 11:25:46.377   03 Jun 2027 11:25:54.613             8.236            RioGallegos           257.375
       302   03 Jun 2027 11:26:34.194   03 Jun 2027 11:27:07.258            33.064            RioGallegos          1033.250
       303   03 Jun 2027 11:27:57.266   03 Jun 2027 11:28:10.353            13.087            RioGallegos           408.969
       304   03 Jun 2027 11:30:22.205   03 Jun 2027 11:30:29.874             7.669            RioGallegos           239.656
       305   03 Jun 2027 11:35:17.088   03 Jun 2027 11:35:38.884            21.796            RioGallegos           681.125
       306   03 Jun 2027 12:00:07.540   03 Jun 2027 12:02:08.243           120.703                Sumatra          3771.969
       307   03 Jun 2027 12:14:59.247   03 Jun 2027 12:16:25.830            86.583                Novosib          2705.719
       308   03 Jun 2027 12:16:52.174   03 Jun 2027 12:17:16.422            24.248                Novosib           757.750
       309   03 Jun 2027 12:18:45.957   03 Jun 2027 12:19:58.327            72.370                Norilsk          2261.563
       310   03 Jun 2027 12:27:18.391   03 Jun 2027 12:27:19.192             0.801                Norilsk            25.031
       311   03 Jun 2027 12:27:53.362   03 Jun 2027 12:27:57.344             3.982              Murmansk1           124.437
       312   03 Jun 2027 12:28:59.349   03 Jun 2027 12:29:28.810            29.461              Murmansk2           920.656
       313   03 Jun 2027 13:44:49.293   03 Jun 2027 13:45:56.504            67.211                  Delhi          2100.344
       314   03 Jun 2027 13:48:54.262   03 Jun 2027 13:49:56.550            62.288                  Delhi          1946.500
       315   03 Jun 2027 13:51:21.881   03 Jun 2027 13:52:06.275            44.394                  Delhi          1387.312
       316   03 Jun 2027 13:52:59.415   03 Jun 2027 13:54:46.655           107.240                  Delhi          3351.250
       317   03 Jun 2027 13:54:56.249   03 Jun 2027 13:56:09.819            73.570                Novosib          2299.062
       318   03 Jun 2027 13:56:47.722   03 Jun 2027 13:58:09.644            81.922                Novosib          2560.062
       319   03 Jun 2027 15:28:33.846   03 Jun 2027 15:32:37.911           244.065                 Moscow          7627.031
       320   03 Jun 2027 15:33:14.833   03 Jun 2027 15:34:01.695            46.862              Murmansk1          1464.438
       321   03 Jun 2027 15:36:55.684   03 Jun 2027 15:37:02.547             6.863              Murmansk2           214.469
       322   03 Jun 2027 15:37:45.038   03 Jun 2027 15:40:56.761           191.723                Norilsk          5991.344
       323   03 Jun 2027 15:41:30.604   03 Jun 2027 15:41:50.350            19.746                Norilsk           617.063
       324   03 Jun 2027 16:44:35.624   03 Jun 2027 16:45:49.238            73.614               CapeTown          2300.438
       325   03 Jun 2027 17:07:04.651   03 Jun 2027 17:07:21.098            16.447                 Moscow           513.969
       326   03 Jun 2027 17:09:38.198   03 Jun 2027 17:10:01.501            23.303                 Moscow           728.219
       327   03 Jun 2027 17:10:06.227   03 Jun 2027 17:11:16.828            70.601              Murmansk2          2206.281
       328   03 Jun 2027 17:12:45.121   03 Jun 2027 17:13:21.922            36.801              Murmansk1          1150.031
       329   03 Jun 2027 17:22:49.225   03 Jun 2027 17:24:19.953            90.728                Anadyr1          2835.250
       330   03 Jun 2027 17:28:09.648   03 Jun 2027 17:28:19.811            10.163                Anadyr2           317.594
       331   03 Jun 2027 17:28:45.134   03 Jun 2027 17:28:51.113             5.979                Anadyr2           186.844
       332   03 Jun 2027 17:29:44.471   03 Jun 2027 17:30:19.826            35.355                Anadyr2          1104.844
       333   03 Jun 2027 18:18:19.194   03 Jun 2027 18:19:11.542            52.348               CapeTown          1635.875
       334   03 Jun 2027 18:29:20.762   03 Jun 2027 18:29:38.415            17.653               CapeTown           551.656
       335   03 Jun 2027 18:49:54.717   03 Jun 2027 18:54:45.558           290.841              Murmansk2          9088.781
       336   03 Jun 2027 19:01:26.201   03 Jun 2027 19:02:15.777            49.576               Magadan1          1549.250
       337   03 Jun 2027 19:05:38.522   03 Jun 2027 19:05:58.257            19.735               Magadan2           616.719
       338   03 Jun 2027 19:07:52.825   03 Jun 2027 19:08:18.208            25.383               Magadan1           793.219
       339   03 Jun 2027 20:34:29.350   03 Jun 2027 20:36:34.267           124.917                Anadyr2          3903.656
       340   03 Jun 2027 20:36:35.470   03 Jun 2027 20:38:11.038            95.568                Anadyr1          2986.500
       341   03 Jun 2027 20:38:26.638   03 Jun 2027 20:38:28.260             1.622               Magadan1            50.688
       342   03 Jun 2027 20:38:32.542   03 Jun 2027 20:39:54.036            81.494               Magadan1          2546.688
       343   03 Jun 2027 20:39:54.036   03 Jun 2027 20:41:06.147            72.111               Magadan2          2253.469
       344   03 Jun 2027 20:41:22.388   03 Jun 2027 20:41:33.025            10.637               Magadan2           332.406
       345   03 Jun 2027 20:42:22.970   03 Jun 2027 20:43:42.147            79.177               Magadan2          2474.281
       346   03 Jun 2027 21:29:55.302   03 Jun 2027 21:32:35.693           160.391            RioGallegos          5012.219
       347   03 Jun 2027 22:10:16.034   03 Jun 2027 22:12:28.952           132.918                Anadyr1          4153.688
       348   03 Jun 2027 22:12:37.898   03 Jun 2027 22:13:57.613            79.715                Norilsk          2491.094
       349   03 Jun 2027 22:15:32.954   03 Jun 2027 22:15:36.579             3.625                Norilsk           113.281
       350   03 Jun 2027 22:15:56.992   03 Jun 2027 22:16:03.244             6.252                Norilsk           195.375
       351   03 Jun 2027 22:17:01.945   03 Jun 2027 22:19:15.575           133.630                Irkutsk          4175.938
       352   03 Jun 2027 22:31:28.726   03 Jun 2027 22:32:20.953            52.227                Sumatra          1632.094
       353   03 Jun 2027 22:35:59.652   03 Jun 2027 22:36:06.776             7.124                Sumatra           222.625
       354   03 Jun 2027 22:36:30.643   03 Jun 2027 22:37:30.565            59.922                Sumatra          1872.563
       355   03 Jun 2027 23:45:24.977   03 Jun 2027 23:45:59.224            34.247                Anadyr1          1070.219
       356   03 Jun 2027 23:45:59.224   03 Jun 2027 23:46:07.861             8.637                Anadyr2           269.906
       357   03 Jun 2027 23:47:43.013   03 Jun 2027 23:47:55.791            12.778                Anadyr1           399.312
       358   03 Jun 2027 23:48:13.449   03 Jun 2027 23:49:59.342           105.893                Norilsk          3309.156
       359   03 Jun 2027 23:50:15.944   03 Jun 2027 23:51:28.332            72.388               Magadan2          2262.125
       360   03 Jun 2027 23:52:06.632   03 Jun 2027 23:54:02.971           116.339                Irkutsk          3635.594
       361   03 Jun 2027 23:54:51.537   03 Jun 2027 23:55:45.965            54.428                Novosib          1700.875
       362   04 Jun 2027 00:02:02.022   04 Jun 2027 00:04:01.501           119.479                  Delhi          3733.719
       363   04 Jun 2027 00:47:12.390   04 Jun 2027 00:47:37.553            25.163            RioGallegos           786.344
       364   04 Jun 2027 01:19:21.763   04 Jun 2027 01:20:13.321            51.558                Anadyr2          1611.187
       365   04 Jun 2027 01:20:44.510   04 Jun 2027 01:21:34.700            50.190                Anadyr2          1568.438
       366   04 Jun 2027 01:21:42.525   04 Jun 2027 01:21:59.639            17.114                Anadyr2           534.812
       367   04 Jun 2027 01:24:46.820   04 Jun 2027 01:26:36.802           109.982               Magadan1          3436.938
       368   04 Jun 2027 01:26:54.584   04 Jun 2027 01:28:41.626           107.042              Murmansk1          3345.062
       369   04 Jun 2027 01:28:41.626   04 Jun 2027 01:29:58.031            76.405              Murmansk2          2387.656
       370   04 Jun 2027 01:35:21.144   04 Jun 2027 01:37:47.097           145.953                  Delhi          4561.031
       371   04 Jun 2027 02:17:40.438   04 Jun 2027 02:18:21.337            40.899            RioGallegos          1278.094
       372   04 Jun 2027 02:20:15.515   04 Jun 2027 02:21:28.558            73.043            RioGallegos          2282.594
       373   04 Jun 2027 02:53:29.489   04 Jun 2027 02:53:45.231            15.742                Anadyr1           491.937
       374   04 Jun 2027 02:55:14.713   04 Jun 2027 02:55:20.989             6.276                Anadyr1           196.125
       375   04 Jun 2027 02:58:31.846   04 Jun 2027 02:58:55.409            23.563               Magadan1           736.344
       376   04 Jun 2027 03:00:08.051   04 Jun 2027 03:00:14.175             6.124                Norilsk           191.375
       377   04 Jun 2027 03:07:40.740   04 Jun 2027 03:10:54.605           193.865                Novosib          6058.281
       378   04 Jun 2027 03:11:11.107   04 Jun 2027 03:11:38.780            27.673              Murmansk1           864.781
       379   04 Jun 2027 03:11:41.289   04 Jun 2027 03:12:02.914            21.625                Norilsk           675.781
       380   04 Jun 2027 03:12:14.908   04 Jun 2027 03:13:50.614            95.706                Novosib          2990.812
       381   04 Jun 2027 03:14:19.235   04 Jun 2027 03:15:34.548            75.313                  Delhi          2353.531
       382   04 Jun 2027 03:17:54.786   04 Jun 2027 03:18:29.878            35.092                  Delhi          1096.625
       383   04 Jun 2027 04:26:38.610   04 Jun 2027 04:27:28.631            50.021                Anadyr2          1563.156
       384   04 Jun 2027 04:45:59.294   04 Jun 2027 04:46:09.293             9.999                Novosib           312.469
       385   04 Jun 2027 04:46:16.570   04 Jun 2027 04:46:42.052            25.482                Norilsk           796.313
       386   04 Jun 2027 04:46:42.530   04 Jun 2027 04:48:36.666           114.136              Murmansk2          3566.750
       387   04 Jun 2027 04:49:12.329   04 Jun 2027 04:49:27.890            15.561              Murmansk1           486.281
       388   04 Jun 2027 04:49:27.890   04 Jun 2027 04:50:33.203            65.313              Murmansk2          2041.031
       389   04 Jun 2027 04:51:34.646   04 Jun 2027 04:51:54.909            20.263                 Moscow           633.219
       390   04 Jun 2027 04:52:03.479   04 Jun 2027 04:53:02.026            58.547                 Moscow          1829.594
       391   04 Jun 2027 05:05:37.526   04 Jun 2027 05:05:48.051            10.525               CapeTown           328.906
       392   04 Jun 2027 05:06:21.827   04 Jun 2027 05:07:48.002            86.175               CapeTown          2692.969
       393   04 Jun 2027 06:08:29.985   04 Jun 2027 06:10:37.113           127.128                Anadyr2          3972.750
       394   04 Jun 2027 06:10:37.113   04 Jun 2027 06:11:16.041            38.928                Anadyr1          1216.500
       395   04 Jun 2027 07:46:25.150   04 Jun 2027 07:47:11.218            46.068                Anadyr1          1439.625
       396   04 Jun 2027 07:47:26.168   04 Jun 2027 07:50:27.808           181.640               Magadan2          5676.250
       397   04 Jun 2027 08:31:47.786   04 Jun 2027 08:32:11.382            23.596            RioGallegos           737.375
       398   04 Jun 2027 09:20:00.783   04 Jun 2027 09:20:27.830            27.047                Irkutsk           845.219
       399   04 Jun 2027 09:20:42.844   04 Jun 2027 09:21:48.727            65.883               Magadan1          2058.844
       400   04 Jun 2027 09:22:23.443   04 Jun 2027 09:22:43.246            19.803               Magadan1           618.844
       401   04 Jun 2027 09:22:43.246   04 Jun 2027 09:23:20.271            37.025               Magadan2          1157.031
       402   04 Jun 2027 09:23:25.186   04 Jun 2027 09:23:44.124            18.938                Irkutsk           591.813
       403   04 Jun 2027 09:23:52.031   04 Jun 2027 09:24:41.085            49.054                Novosib          1532.937
       404   04 Jun 2027 09:24:48.097   04 Jun 2027 09:24:54.060             5.963                Irkutsk           186.344
       405   04 Jun 2027 09:24:54.859   04 Jun 2027 09:25:25.969            31.110               Magadan1           972.188
       406   04 Jun 2027 09:25:34.134   04 Jun 2027 09:26:20.899            46.765                Novosib          1461.406
       407   04 Jun 2027 10:01:11.365   04 Jun 2027 10:02:10.488            59.123            RioGallegos          1847.594
       408   04 Jun 2027 10:03:04.674   04 Jun 2027 10:03:20.892            16.218            RioGallegos           506.813
       409   04 Jun 2027 10:37:11.674   04 Jun 2027 10:37:47.779            36.105                Sumatra          1128.281
       410   04 Jun 2027 10:43:51.063   04 Jun 2027 10:44:07.354            16.291                Sumatra           509.094
       411   04 Jun 2027 10:56:31.432   04 Jun 2027 10:57:27.936            56.504                Irkutsk          1765.750
       412   04 Jun 2027 10:57:42.648   04 Jun 2027 10:57:47.086             4.438                Norilsk           138.688
       413   04 Jun 2027 10:58:03.564   04 Jun 2027 10:58:17.439            13.875                Novosib           433.594
       414   04 Jun 2027 10:58:21.022   04 Jun 2027 10:58:37.199            16.177                Novosib           505.531
       415   04 Jun 2027 10:58:40.679   04 Jun 2027 10:59:09.453            28.774                Irkutsk           899.188
       416   04 Jun 2027 10:59:16.699   04 Jun 2027 10:59:31.061            14.362                Norilsk           448.813
       417   04 Jun 2027 10:59:58.277   04 Jun 2027 11:01:12.034            73.757                Novosib          2304.906
       418   04 Jun 2027 11:01:20.218   04 Jun 2027 11:01:27.632             7.414                Novosib           231.687
       419   04 Jun 2027 11:01:31.928   04 Jun 2027 11:01:42.529            10.601                Norilsk           331.281
       420   04 Jun 2027 11:01:50.985   04 Jun 2027 11:01:52.356             1.371                Novosib            42.844
       421   04 Jun 2027 11:01:54.242   04 Jun 2027 11:02:25.317            31.075                Irkutsk           971.094
       422   04 Jun 2027 11:02:48.044   04 Jun 2027 11:03:01.090            13.046              Murmansk2           407.688
       423   04 Jun 2027 11:38:09.770   04 Jun 2027 11:38:29.787            20.017            RioGallegos           625.531
       424   04 Jun 2027 11:39:04.956   04 Jun 2027 11:39:14.741             9.785            RioGallegos           305.781
       425   04 Jun 2027 11:39:57.251   04 Jun 2027 11:40:16.543            19.292            RioGallegos           602.875
       426   04 Jun 2027 11:42:22.090   04 Jun 2027 11:43:06.938            44.848            RioGallegos          1401.500
       427   04 Jun 2027 12:12:25.310   04 Jun 2027 12:12:56.857            31.547                Sumatra           985.844
       428   04 Jun 2027 12:15:29.337   04 Jun 2027 12:17:07.319            97.982                Sumatra          3061.938
       429   04 Jun 2027 12:27:04.613   04 Jun 2027 12:28:00.635            56.022                Novosib          1750.687
       430   04 Jun 2027 12:28:04.235   04 Jun 2027 12:28:05.285             1.050                Irkutsk            32.812
       431   04 Jun 2027 12:28:52.628   04 Jun 2027 12:30:03.864            71.236                Novosib          2226.125
       432   04 Jun 2027 12:31:33.135   04 Jun 2027 12:31:42.774             9.639                Norilsk           301.219
       433   04 Jun 2027 12:32:00.220   04 Jun 2027 12:32:32.968            32.748                Norilsk          1023.375
       434   04 Jun 2027 13:57:19.245   04 Jun 2027 14:02:30.227           310.982                  Delhi          9718.187
       435   04 Jun 2027 14:05:42.773   04 Jun 2027 14:05:54.956            12.183                Novosib           380.719
       436   04 Jun 2027 14:06:20.517   04 Jun 2027 14:07:01.682            41.165                Novosib          1286.406
       437   04 Jun 2027 14:08:11.452   04 Jun 2027 14:08:27.649            16.197              Murmansk2           506.156
       438   04 Jun 2027 14:09:23.095   04 Jun 2027 14:09:44.400            21.305                Norilsk           665.781
       439   04 Jun 2027 14:11:50.240   04 Jun 2027 14:12:56.171            65.931                Norilsk          2060.344
       440   04 Jun 2027 15:40:41.661   04 Jun 2027 15:42:39.468           117.807                 Moscow          3681.469
       441   04 Jun 2027 15:43:39.292   04 Jun 2027 15:44:27.581            48.289                 Moscow          1509.031
       442   04 Jun 2027 15:45:13.741   04 Jun 2027 15:45:31.030            17.289              Murmansk1           540.281
       443   04 Jun 2027 15:45:36.522   04 Jun 2027 15:46:03.260            26.738              Murmansk2           835.562
       444   04 Jun 2027 15:47:08.392   04 Jun 2027 15:47:16.983             8.591              Murmansk1           268.469
       445   04 Jun 2027 15:48:27.221   04 Jun 2027 15:49:03.866            36.645              Murmansk1          1145.156
       446   04 Jun 2027 15:50:48.234   04 Jun 2027 15:52:12.250            84.016                Norilsk          2625.500
       447   04 Jun 2027 15:52:26.655   04 Jun 2027 15:53:22.237            55.582                Norilsk          1736.938
       448   04 Jun 2027 16:00:16.166   04 Jun 2027 16:00:40.178            24.012                Anadyr2           750.375
       449   04 Jun 2027 16:00:54.456   04 Jun 2027 16:01:07.619            13.163                Anadyr1           411.344
       450   04 Jun 2027 16:54:15.291   04 Jun 2027 16:55:07.516            52.225               CapeTown          1632.031
       451   04 Jun 2027 16:56:55.671   04 Jun 2027 16:57:02.005             6.334               CapeTown           197.937
       452   04 Jun 2027 17:04:37.214   04 Jun 2027 17:05:40.565            63.351               CapeTown          1979.719
       453   04 Jun 2027 17:19:49.362   04 Jun 2027 17:20:38.679            49.317                 Moscow          1541.156
       454   04 Jun 2027 17:21:31.108   04 Jun 2027 17:23:46.038           134.930                 Moscow          4216.563
       455   04 Jun 2027 17:34:47.447   04 Jun 2027 17:35:13.891            26.444                Anadyr1           826.375
       456   04 Jun 2027 17:35:55.663   04 Jun 2027 17:36:20.939            25.276                Anadyr1           789.875
       457   04 Jun 2027 17:40:10.663   04 Jun 2027 17:40:10.982             0.319                Anadyr2             9.969
       458   04 Jun 2027 17:40:19.002   04 Jun 2027 17:40:32.202            13.200                Anadyr1           412.500
       459   04 Jun 2027 17:41:41.085   04 Jun 2027 17:42:08.481            27.396                Anadyr2           856.125
       460   04 Jun 2027 18:30:34.816   04 Jun 2027 18:30:53.701            18.885               CapeTown           590.156
       461   04 Jun 2027 18:31:25.938   04 Jun 2027 18:31:54.572            28.634               CapeTown           894.812
       462   04 Jun 2027 18:34:23.719   04 Jun 2027 18:35:13.056            49.337               CapeTown          1541.781
       463   04 Jun 2027 19:02:46.956   04 Jun 2027 19:07:05.488           258.532              Murmansk1          8079.125
       464   04 Jun 2027 19:07:17.354   04 Jun 2027 19:07:22.675             5.321              Murmansk2           166.281
       465   04 Jun 2027 19:13:18.607   04 Jun 2027 19:14:15.089            56.482               Magadan2          1765.062
       466   04 Jun 2027 19:14:18.959   04 Jun 2027 19:14:34.820            15.861               Magadan2           495.656
       467   04 Jun 2027 19:18:36.812   04 Jun 2027 19:18:44.936             8.124               Magadan2           253.875
       468   04 Jun 2027 19:19:46.238   04 Jun 2027 19:19:49.960             3.722               Magadan2           116.313
       469   04 Jun 2027 19:20:34.433   04 Jun 2027 19:20:49.864            15.431               Magadan2           482.219
       470   04 Jun 2027 20:46:30.710   04 Jun 2027 20:48:36.073           125.363                Anadyr2          3917.594
       471   04 Jun 2027 20:48:47.026   04 Jun 2027 20:52:47.916           240.890               Magadan2          7527.812
       472   04 Jun 2027 20:53:52.537   04 Jun 2027 20:54:23.706            31.169               Magadan2           974.031
       473   04 Jun 2027 21:01:08.649   04 Jun 2027 21:01:40.414            31.765               Magadan2           992.656
       474   04 Jun 2027 21:41:30.487   04 Jun 2027 21:43:24.662           114.175            RioGallegos          3567.969
       475   04 Jun 2027 21:43:53.054   04 Jun 2027 21:44:37.118            44.064            RioGallegos          1377.000
       476   04 Jun 2027 21:48:01.647   04 Jun 2027 21:48:05.656             4.009            RioGallegos           125.281
       477   04 Jun 2027 21:50:17.549   04 Jun 2027 21:50:25.797             8.248            RioGallegos           257.750
       478   04 Jun 2027 22:22:14.550   04 Jun 2027 22:22:51.458            36.908                Anadyr2          1153.375
       479   04 Jun 2027 22:24:22.070   04 Jun 2027 22:24:30.880             8.810                Norilsk           275.312
       480   04 Jun 2027 22:24:47.108   04 Jun 2027 22:26:19.239            92.131               Magadan2          2879.094
       481   04 Jun 2027 22:26:19.239   04 Jun 2027 22:26:56.037            36.798               Magadan1          1149.937
       482   04 Jun 2027 22:27:04.057   04 Jun 2027 22:27:53.951            49.894                Norilsk          1559.187
