uniorb/output/strategy_1/Drop/Drop_KinoSat_110305.txt

KinoSat_110305
-------------------------
    Access    *     Start Time (UTCG)     *     Stop Time (UTCG)  *   Duration (s)        *       Station  *  Data (Mbytes)
         1   01 Jun 2027 03:58:07.571   01 Jun 2027 03:58:34.989            27.418               Magadan1          3427.250
         2   01 Jun 2027 03:58:58.603   01 Jun 2027 04:01:06.645           128.042               Magadan1         16005.250
         3   01 Jun 2027 04:01:58.770   01 Jun 2027 04:02:58.843            60.073               Magadan1          7509.125
         4   01 Jun 2027 04:03:11.332   01 Jun 2027 04:03:54.408            43.076                Novosib          5384.500
         5   01 Jun 2027 04:04:17.094   01 Jun 2027 04:04:58.733            41.639                Norilsk          5204.875
         6   01 Jun 2027 04:08:48.416   01 Jun 2027 04:08:49.483             1.067                Norilsk           133.375
         7   01 Jun 2027 04:38:28.503   01 Jun 2027 04:39:09.675            41.172            RioGallegos          5146.500
         8   01 Jun 2027 04:41:59.600   01 Jun 2027 04:42:11.190            11.590            RioGallegos          1448.750
         9   01 Jun 2027 04:42:47.490   01 Jun 2027 04:43:26.907            39.417            RioGallegos          4927.125
        10   01 Jun 2027 05:13:29.068   01 Jun 2027 05:14:48.907            79.839                Sumatra          9979.875
        11   01 Jun 2027 05:26:03.111   01 Jun 2027 05:27:10.136            67.025                  Delhi          8378.125
        12   01 Jun 2027 05:29:06.927   01 Jun 2027 05:31:13.286           126.359                  Delhi         15794.875
        13   01 Jun 2027 05:36:56.489   01 Jun 2027 05:37:49.907            53.418                Norilsk          6677.250
        14   01 Jun 2027 05:38:07.247   01 Jun 2027 05:40:04.440           117.193                Novosib         14649.125
        15   01 Jun 2027 06:22:10.829   01 Jun 2027 06:22:43.244            32.415            RioGallegos          4051.875
        16   01 Jun 2027 06:51:43.359   01 Jun 2027 06:52:14.485            31.126                Sumatra          3890.750
        17   01 Jun 2027 06:57:32.395   01 Jun 2027 06:58:59.379            86.984                  Delhi         10873.000
        18   01 Jun 2027 07:13:54.153   01 Jun 2027 07:14:06.761            12.608                 Moscow          1576.000
        19   01 Jun 2027 07:14:13.144   01 Jun 2027 07:14:27.106            13.962              Murmansk1          1745.250
        20   01 Jun 2027 07:14:34.245   01 Jun 2027 07:14:49.003            14.758                 Moscow          1844.750
        21   01 Jun 2027 07:15:02.269   01 Jun 2027 07:16:06.375            64.106                Novosib          8013.250
        22   01 Jun 2027 07:16:11.737   01 Jun 2027 07:16:37.185            25.448              Murmansk1          3181.000
        23   01 Jun 2027 07:17:02.778   01 Jun 2027 07:17:27.404            24.626                 Moscow          3078.250
        24   01 Jun 2027 08:37:50.895   01 Jun 2027 08:39:06.211            75.316                  Delhi          9414.500
        25   01 Jun 2027 08:47:06.629   01 Jun 2027 08:50:07.002           180.373              Murmansk2         22546.625
        26   01 Jun 2027 08:50:27.123   01 Jun 2027 08:50:48.260            21.137              Murmansk1          2642.125
        27   01 Jun 2027 08:51:34.897   01 Jun 2027 08:52:17.890            42.993                 Moscow          5374.125
        28   01 Jun 2027 08:52:39.807   01 Jun 2027 08:52:50.335            10.528                Norilsk          1316.000
        29   01 Jun 2027 08:53:03.165   01 Jun 2027 08:53:29.814            26.649              Murmansk1          3331.125
        30   01 Jun 2027 09:57:27.323   01 Jun 2027 10:00:37.806           190.483               CapeTown         23810.375
        31   01 Jun 2027 10:02:44.244   01 Jun 2027 10:05:03.314           139.070               CapeTown         17383.750
        32   01 Jun 2027 10:36:55.292   01 Jun 2027 10:37:26.674            31.382                Anadyr1          3922.750
        33   01 Jun 2027 10:39:17.619   01 Jun 2027 10:41:02.103           104.484                Anadyr2         13060.500
        34   01 Jun 2027 12:16:10.817   01 Jun 2027 12:21:36.266           325.449               Magadan1         40681.125
        35   01 Jun 2027 13:50:22.111   01 Jun 2027 13:52:28.375           126.264               Magadan2         15783.000
        36   01 Jun 2027 15:32:39.946   01 Jun 2027 15:34:59.409           139.463                Irkutsk         17432.875
        37   01 Jun 2027 15:35:16.298   01 Jun 2027 15:36:38.111            81.813                Irkutsk         10226.625
        38   01 Jun 2027 16:19:30.851   01 Jun 2027 16:20:55.696            84.845            RioGallegos         10605.625
        39   01 Jun 2027 17:05:44.716   01 Jun 2027 17:07:37.907           113.191                Irkutsk         14148.875
        40   01 Jun 2027 17:08:05.974   01 Jun 2027 17:14:18.171           372.197                Novosib         46524.625
        41   01 Jun 2027 18:49:08.256   01 Jun 2027 18:51:25.719           137.463                  Delhi         12073.250
        42   02 Jun 2027 04:14:19.653   02 Jun 2027 04:14:35.854            16.201               Magadan2          2025.125
        43   02 Jun 2027 04:15:39.404   02 Jun 2027 04:16:11.518            32.114                Novosib          4014.250
        44   02 Jun 2027 04:16:51.712   02 Jun 2027 04:17:33.193            41.481                Norilsk          5185.125
        45   02 Jun 2027 04:17:42.764   02 Jun 2027 04:17:47.911             5.147                Norilsk           643.375
        46   02 Jun 2027 04:19:21.556   02 Jun 2027 04:19:50.245            28.689              Murmansk2          3586.125
        47   02 Jun 2027 04:20:06.013   02 Jun 2027 04:20:12.677             6.664              Murmansk2           833.000
        48   02 Jun 2027 04:20:14.123   02 Jun 2027 04:20:37.372            23.249                Norilsk          2906.125
        49   02 Jun 2027 04:21:32.639   02 Jun 2027 04:21:47.895            15.256              Murmansk1          1907.000
        50   02 Jun 2027 04:50:35.829   02 Jun 2027 04:51:57.856            82.027            RioGallegos         10253.375
        51   02 Jun 2027 04:56:18.549   02 Jun 2027 04:57:11.005            52.456            RioGallegos          6557.000
        52   02 Jun 2027 04:59:04.716   02 Jun 2027 05:00:18.825            74.109            RioGallegos          9263.625
        53   02 Jun 2027 05:36:00.246   02 Jun 2027 05:38:50.950           170.704                  Delhi         21338.000
        54   02 Jun 2027 05:48:36.045   02 Jun 2027 05:50:03.591            87.546                Novosib         10943.250
        55   02 Jun 2027 05:50:47.786   02 Jun 2027 05:52:05.879            78.093                Norilsk          9761.625
        56   02 Jun 2027 05:52:40.047   02 Jun 2027 05:53:24.194            44.147              Murmansk2          5518.375
        57   02 Jun 2027 06:30:11.272   02 Jun 2027 06:30:58.987            47.715            RioGallegos          5964.375
        58   02 Jun 2027 07:09:36.358   02 Jun 2027 07:10:10.255            33.897                  Delhi          4237.125
        59   02 Jun 2027 07:11:15.245   02 Jun 2027 07:12:26.764            71.519                  Delhi          8939.875
        60   02 Jun 2027 07:25:55.946   02 Jun 2027 07:26:15.224            19.278              Murmansk1          2409.750
        61   02 Jun 2027 07:26:15.653   02 Jun 2027 07:26:21.807             6.154                 Moscow           769.250
        62   02 Jun 2027 07:26:41.916   02 Jun 2027 07:27:09.529            27.613                Novosib          3451.625
        63   02 Jun 2027 07:27:12.254   02 Jun 2027 07:28:56.997           104.743                Novosib         13092.875
        64   02 Jun 2027 08:59:17.797   02 Jun 2027 09:00:35.336            77.539                 Moscow          9692.375
        65   02 Jun 2027 09:00:48.343   02 Jun 2027 09:01:13.393            25.050              Murmansk2          3131.250
        66   02 Jun 2027 09:01:39.348   02 Jun 2027 09:03:07.168            87.820                Norilsk         10977.500
        67   02 Jun 2027 09:03:20.827   02 Jun 2027 09:04:21.543            60.716                Norilsk          7589.500
        68   02 Jun 2027 09:05:45.596   02 Jun 2027 09:05:54.178             8.582                Norilsk          1072.750
        69   02 Jun 2027 10:08:51.893   02 Jun 2027 10:16:39.784           467.891               CapeTown         58486.375
        70   02 Jun 2027 10:50:10.809   02 Jun 2027 10:50:32.902            22.093                Anadyr1          2761.625
        71   02 Jun 2027 10:50:52.115   02 Jun 2027 10:52:59.843           127.728                Anadyr2         15966.000
        72   02 Jun 2027 12:27:41.559   02 Jun 2027 12:28:32.440            50.881               Magadan1          6360.125
        73   02 Jun 2027 12:32:08.252   02 Jun 2027 12:34:40.243           151.991               Magadan2         18998.875
        74   02 Jun 2027 15:43:44.038   02 Jun 2027 15:47:39.005           234.967                Irkutsk         29370.875
        75   02 Jun 2027 16:00:21.371   02 Jun 2027 16:04:12.904           231.533                Sumatra         28941.625
        76   02 Jun 2027 17:17:41.202   02 Jun 2027 17:17:54.272            13.070                Irkutsk          1633.750
        77   02 Jun 2027 17:18:46.079   02 Jun 2027 17:22:41.662           235.583                Novosib         29447.875
        78   02 Jun 2027 17:42:51.137   02 Jun 2027 17:43:06.603            15.466                Sumatra          1933.250
        79   02 Jun 2027 18:58:40.019   02 Jun 2027 19:00:36.190           116.171                Novosib         14521.375
        80   02 Jun 2027 19:00:58.791   02 Jun 2027 19:04:39.422           220.631                  Delhi         27578.875
        81   02 Jun 2027 20:32:03.027   02 Jun 2027 20:34:04.662           121.635                 Moscow         15204.375
        82   02 Jun 2027 20:37:56.870   02 Jun 2027 20:38:17.977            21.107                 Moscow          2638.375
        83   02 Jun 2027 22:03:46.462   02 Jun 2027 22:04:13.531            27.069              Murmansk1          3383.625
        84   02 Jun 2027 22:30:59.167   02 Jun 2027 22:32:13.277            74.110               CapeTown          9263.750
        85   02 Jun 2027 22:34:04.303   02 Jun 2027 22:34:06.082             1.779               CapeTown           222.375
        86   03 Jun 2027 04:05:20.032   03 Jun 2027 04:06:58.770            98.738                Sumatra         12342.250
        87   03 Jun 2027 04:08:39.802   03 Jun 2027 04:11:03.829           144.027                Sumatra         18003.375
        88   03 Jun 2027 05:37:23.328   03 Jun 2027 05:39:45.011           141.683                Sumatra         17710.375
        89   03 Jun 2027 05:47:20.077   03 Jun 2027 05:50:29.661           189.584                  Delhi         23698.000
        90   03 Jun 2027 06:00:58.965   03 Jun 2027 06:01:24.734            25.769                Novosib          3221.125
        91   03 Jun 2027 06:01:39.020   03 Jun 2027 06:03:27.020           108.000                Irkutsk         13500.000
        92   03 Jun 2027 06:03:48.918   03 Jun 2027 06:04:20.328            31.410              Murmansk2          3926.250
        93   03 Jun 2027 06:43:23.382   03 Jun 2027 06:44:08.176            44.794            RioGallegos          5599.250
        94   03 Jun 2027 07:21:45.903   03 Jun 2027 07:22:49.431            63.528                  Delhi          7941.000
        95   03 Jun 2027 07:24:45.549   03 Jun 2027 07:26:33.875           108.326                  Delhi         13540.750
        96   03 Jun 2027 07:38:25.167   03 Jun 2027 07:39:15.127            49.960                 Moscow          6245.000
        97   03 Jun 2027 07:39:20.900   03 Jun 2027 07:39:36.388            15.488                Novosib          1936.000
        98   03 Jun 2027 07:41:10.306   03 Jun 2027 07:41:17.256             6.950              Murmansk2           868.750
        99   03 Jun 2027 07:42:33.288   03 Jun 2027 07:42:44.047            10.759                 Moscow          1344.875
       100   03 Jun 2027 09:13:13.698   03 Jun 2027 09:14:22.813            69.115              Murmansk2          8639.375
       101   03 Jun 2027 09:14:32.507   03 Jun 2027 09:15:36.283            63.776              Murmansk2          7972.000
       102   03 Jun 2027 09:16:45.122   03 Jun 2027 09:16:58.518            13.396                 Moscow          1674.500
       103   03 Jun 2027 10:20:26.613   03 Jun 2027 10:22:40.659           134.046               CapeTown         16755.750
       104   03 Jun 2027 10:23:00.764   03 Jun 2027 10:27:09.110           248.346               CapeTown         31043.250
       105   03 Jun 2027 11:00:28.638   03 Jun 2027 11:03:26.973           178.335                Anadyr1         22291.875
       106   03 Jun 2027 11:04:40.166   03 Jun 2027 11:04:58.377            18.211                Anadyr2          2276.375
       107   03 Jun 2027 11:08:56.579   03 Jun 2027 11:09:59.684            63.105                Anadyr1          7888.125
       108   03 Jun 2027 12:39:22.092   03 Jun 2027 12:43:25.607           243.515               Magadan1         30439.375
       109   03 Jun 2027 12:44:27.680   03 Jun 2027 12:47:31.590           183.910               Magadan2         22988.750
       110   03 Jun 2027 15:09:06.385   03 Jun 2027 15:11:05.239           118.854            RioGallegos         14856.750
       111   03 Jun 2027 15:55:11.454   03 Jun 2027 15:58:53.383           221.929                Irkutsk         27741.125
       112   03 Jun 2027 16:10:37.548   03 Jun 2027 16:12:47.985           130.437                Sumatra         16304.625
       113   03 Jun 2027 17:31:40.064   03 Jun 2027 17:32:36.413            56.349                Novosib          7043.625
       114   03 Jun 2027 17:34:35.966   03 Jun 2027 17:36:31.046           115.080                Novosib         14385.000
       115   03 Jun 2027 17:42:10.194   03 Jun 2027 17:43:49.408            99.214                  Delhi         12401.750
       116   03 Jun 2027 19:12:53.228   03 Jun 2027 19:13:43.206            49.978                  Delhi          6247.250
       117   03 Jun 2027 19:14:35.987   03 Jun 2027 19:15:33.032            57.045                  Delhi          7130.625
       118   03 Jun 2027 20:43:49.699   03 Jun 2027 20:46:15.411           145.712                 Moscow         18214.000
       119   03 Jun 2027 22:42:55.100   03 Jun 2027 22:44:27.336            92.236               CapeTown         11529.500
       120   04 Jun 2027 04:16:04.385   04 Jun 2027 04:18:39.030           154.645                Sumatra         19330.625
       121   04 Jun 2027 04:35:46.879   04 Jun 2027 04:35:56.453             9.574                Novosib          1196.750
       122   04 Jun 2027 04:36:09.632   04 Jun 2027 04:37:42.553            92.921                Irkutsk         11615.125
       123   04 Jun 2027 04:38:06.012   04 Jun 2027 04:39:00.346            54.334                Norilsk          6791.750
       124   04 Jun 2027 04:39:15.930   04 Jun 2027 04:39:20.273             4.343                Novosib           542.875
       125   04 Jun 2027 04:39:29.416   04 Jun 2027 04:40:05.574            36.158                Novosib          4519.750
       126   04 Jun 2027 05:15:01.698   04 Jun 2027 05:15:01.797             0.099            RioGallegos            12.375
       127   04 Jun 2027 05:15:56.549   04 Jun 2027 05:17:21.320            84.771            RioGallegos         10596.375
       128   04 Jun 2027 05:49:28.891   04 Jun 2027 05:50:27.000            58.109                Sumatra          7263.625
       129   04 Jun 2027 06:00:13.145   04 Jun 2027 06:00:46.746            33.601                  Delhi          4200.125
       130   04 Jun 2027 06:03:43.002   04 Jun 2027 06:05:36.868           113.866                  Delhi         14233.250
       131   04 Jun 2027 06:12:27.301   04 Jun 2027 06:13:42.946            75.645                Novosib          9455.625
       132   04 Jun 2027 06:14:16.337   04 Jun 2027 06:15:27.027            70.690              Murmansk1          8836.250
       133   04 Jun 2027 06:15:39.061   04 Jun 2027 06:16:09.002            29.941                Norilsk          3742.625
       134   04 Jun 2027 06:16:11.256   04 Jun 2027 06:17:03.856            52.600                 Moscow          6575.000
       135   04 Jun 2027 07:34:01.516   04 Jun 2027 07:36:31.017           149.501                  Delhi         18687.625
       136   04 Jun 2027 07:49:07.114   04 Jun 2027 07:49:32.572            25.458              Murmansk1          3182.250
       137   04 Jun 2027 07:49:42.921   04 Jun 2027 07:49:55.503            12.582                 Moscow          1572.750
       138   04 Jun 2027 07:50:05.521   04 Jun 2027 07:51:41.125            95.604                 Moscow         11950.500
       139   04 Jun 2027 09:22:37.418   04 Jun 2027 09:22:41.380             3.962              Murmansk1           495.250
       140   04 Jun 2027 09:23:16.212   04 Jun 2027 09:25:03.195           106.983                 Moscow         13372.875
       141   04 Jun 2027 09:25:56.072   04 Jun 2027 09:27:53.463           117.391              Murmansk1         14673.875
       142   04 Jun 2027 10:32:08.184   04 Jun 2027 10:36:17.789           249.605               CapeTown         31200.625
       143   04 Jun 2027 11:12:24.412   04 Jun 2027 11:16:57.549           273.137                Anadyr2         34142.125
       144   04 Jun 2027 12:51:08.156   04 Jun 2027 12:56:55.091           346.935               Magadan2         43366.875
       145   04 Jun 2027 15:20:00.884   04 Jun 2027 15:23:12.832           191.948            RioGallegos         23993.500
       146   04 Jun 2027 16:06:49.056   04 Jun 2027 16:08:44.978           115.922                Irkutsk         14490.250
       147   04 Jun 2027 16:12:38.662   04 Jun 2027 16:13:26.517            47.855                Irkutsk          5981.875
       148   04 Jun 2027 16:21:37.263   04 Jun 2027 16:24:31.758           174.495                Sumatra         21811.875
       149   04 Jun 2027 17:44:46.480   04 Jun 2027 17:45:05.640            19.160                Novosib          2395.000
       150   04 Jun 2027 17:46:31.815   04 Jun 2027 17:48:05.288            93.473                Novosib         11684.125
       151   04 Jun 2027 17:51:59.012   04 Jun 2027 17:54:21.050           142.038                  Delhi         17754.750
       152   04 Jun 2027 19:24:51.183   04 Jun 2027 19:25:59.550            68.367                  Delhi          8545.875
       153   04 Jun 2027 20:52:33.275   04 Jun 2027 20:52:41.615             8.340              Murmansk1          1042.500
       154   04 Jun 2027 20:55:39.671   04 Jun 2027 20:56:26.502            46.831                 Moscow          5853.875
       155   04 Jun 2027 20:56:28.619   04 Jun 2027 20:56:38.013             9.394              Murmansk2          1174.250
       156   04 Jun 2027 20:58:22.940   04 Jun 2027 21:00:00.203            97.263                 Moscow         12157.875
       157   04 Jun 2027 21:22:14.218   04 Jun 2027 21:24:21.233           127.015               CapeTown         15876.875
       158   05 Jun 2027 03:11:15.886   05 Jun 2027 03:11:20.957             5.071               Magadan1           633.875
       159   05 Jun 2027 03:11:25.013   05 Jun 2027 03:11:57.799            32.786               Magadan2          4098.250
       160   05 Jun 2027 03:12:09.816   05 Jun 2027 03:12:56.692            46.876               Magadan2          5859.500
       161   05 Jun 2027 03:13:12.477   05 Jun 2027 03:13:21.569             9.092               Magadan1          1136.500
       162   05 Jun 2027 03:13:34.550   05 Jun 2027 03:14:26.739            52.189                Anadyr2          6523.625
       163   05 Jun 2027 03:14:37.376   05 Jun 2027 03:15:49.011            71.635               Magadan1          8954.375
       164   05 Jun 2027 04:27:14.553   05 Jun 2027 04:28:35.358            80.805                Sumatra         10100.625
       165   05 Jun 2027 04:46:59.915   05 Jun 2027 04:47:13.214            13.299                Irkutsk          1662.375
       166   05 Jun 2027 04:47:23.307   05 Jun 2027 04:48:37.442            74.135                Irkutsk          9266.875
       167   05 Jun 2027 04:49:08.223   05 Jun 2027 04:49:49.808            41.585                Novosib          5198.125
       168   05 Jun 2027 04:49:59.126   05 Jun 2027 04:50:09.687            10.561                Irkutsk          1320.125
       169   05 Jun 2027 04:50:21.893   05 Jun 2027 04:50:32.017            10.124              Murmansk2          1265.500
       170   05 Jun 2027 04:50:37.470   05 Jun 2027 04:51:24.151            46.681                Norilsk          5835.125
       171   05 Jun 2027 04:51:27.146   05 Jun 2027 04:51:34.584             7.438                Irkutsk           929.750
       172   05 Jun 2027 04:51:37.491   05 Jun 2027 04:51:55.557            18.066                Irkutsk          2258.250
       173   05 Jun 2027 04:53:13.945   05 Jun 2027 04:53:18.898             4.953                Novosib           619.125
       174   05 Jun 2027 05:27:20.813   05 Jun 2027 05:28:59.783            98.970            RioGallegos         12371.250
       175   05 Jun 2027 06:07:45.701   05 Jun 2027 06:08:23.473            37.772                Sumatra          4721.500
       176   05 Jun 2027 06:12:30.566   05 Jun 2027 06:14:27.173           116.607                  Delhi         14575.875
       177   05 Jun 2027 06:24:25.255   05 Jun 2027 06:24:44.945            19.690                Novosib          2461.250
       178   05 Jun 2027 06:24:47.101   05 Jun 2027 06:25:24.471            37.370                 Moscow          4671.250
       179   05 Jun 2027 06:25:37.366   05 Jun 2027 06:27:09.020            91.654                Irkutsk         11456.750
       180   05 Jun 2027 07:46:24.032   05 Jun 2027 07:47:58.838            94.806                  Delhi         11850.750
       181   05 Jun 2027 08:00:28.582   05 Jun 2027 08:00:54.281            25.699              Murmansk2          3212.375
       182   05 Jun 2027 08:01:18.085   05 Jun 2027 08:02:50.887            92.802              Murmansk1         11600.250
       183   05 Jun 2027 08:02:55.939   05 Jun 2027 08:03:04.258             8.319              Murmansk2          1039.875
       184   05 Jun 2027 08:03:22.627   05 Jun 2027 08:03:54.225            31.598              Murmansk2          3949.750
       185   05 Jun 2027 08:04:12.972   05 Jun 2027 08:04:22.486             9.514                 Moscow          1189.250
       186   05 Jun 2027 08:04:48.324   05 Jun 2027 08:05:44.873            56.549                 Moscow          7068.625
       187   05 Jun 2027 09:37:15.082   05 Jun 2027 09:37:43.738            28.656              Murmansk1          3582.000
       188   05 Jun 2027 09:37:53.621   05 Jun 2027 09:38:17.315            23.694                 Moscow          2961.750
       189   05 Jun 2027 09:38:28.210   05 Jun 2027 09:38:56.317            28.107              Murmansk1          3513.375
       190   05 Jun 2027 09:50:36.563   05 Jun 2027 09:51:32.523            55.960                Anadyr1          6995.000
       191   05 Jun 2027 09:52:14.689   05 Jun 2027 09:52:40.459            25.770                Anadyr2          3221.250
       192   05 Jun 2027 10:43:54.873   05 Jun 2027 10:46:09.642           134.769               CapeTown         16846.125
       193   05 Jun 2027 10:48:17.285   05 Jun 2027 10:49:34.131            76.846               CapeTown          9605.750
       194   05 Jun 2027 11:24:21.395   05 Jun 2027 11:27:13.187           171.792                Anadyr1         21474.000
       195   05 Jun 2027 11:28:40.279   05 Jun 2027 11:28:57.242            16.963                Anadyr1          2120.375
       196   05 Jun 2027 13:02:57.828   05 Jun 2027 13:07:17.596           259.768               Magadan2         32471.000
       197   05 Jun 2027 14:38:17.787   05 Jun 2027 14:39:04.681            46.894               Magadan2          5861.750
       198   05 Jun 2027 15:31:24.956   05 Jun 2027 15:35:02.262           217.306            RioGallegos         27163.250
       199   05 Jun 2027 16:20:44.140   05 Jun 2027 16:22:40.589           116.449                Irkutsk         14556.125
       200   05 Jun 2027 16:32:55.304   05 Jun 2027 16:36:21.867           206.563                Sumatra         25820.375
       201   05 Jun 2027 17:54:07.151   05 Jun 2027 17:55:02.453            55.302                Novosib          6912.750
       202   05 Jun 2027 17:58:06.655   05 Jun 2027 17:58:28.935            22.280                Novosib          2785.000
       203   05 Jun 2027 18:03:01.315   05 Jun 2027 18:06:05.889           184.574                  Delhi         23071.750
       204   05 Jun 2027 21:05:59.643   05 Jun 2027 21:06:18.069            18.426              Murmansk2          2303.250
       205   05 Jun 2027 21:07:32.101   05 Jun 2027 21:10:15.204           163.103                 Moscow         20387.875
       206   05 Jun 2027 21:32:54.148   05 Jun 2027 21:33:11.810            17.662               CapeTown          2207.750
       207   05 Jun 2027 21:34:15.478   05 Jun 2027 21:36:04.888           109.410               CapeTown         13676.250
       208   06 Jun 2027 03:24:35.337   06 Jun 2027 03:24:56.869            21.532               Magadan1          2691.500
       209   06 Jun 2027 03:25:20.433   06 Jun 2027 03:25:30.212             9.779               Magadan1          1222.375
       210   06 Jun 2027 03:26:08.039   06 Jun 2027 03:27:43.514            95.475               Magadan1         11934.375
       211   06 Jun 2027 04:39:36.875   06 Jun 2027 04:40:26.035            49.160                Sumatra          6145.000
       212   06 Jun 2027 04:41:21.856   06 Jun 2027 04:42:19.112            57.256                Sumatra          7157.000
       213   06 Jun 2027 04:59:32.007   06 Jun 2027 05:00:41.101            69.094                Irkutsk          8636.750
       214   06 Jun 2027 05:01:22.006   06 Jun 2027 05:02:28.068            66.062                Norilsk          8257.750
       215   06 Jun 2027 05:02:42.552   06 Jun 2027 05:03:17.265            34.713                Irkutsk          4339.125
       216   06 Jun 2027 05:03:35.336   06 Jun 2027 05:04:27.260            51.924              Murmansk2          6490.500
       217   06 Jun 2027 05:04:36.313   06 Jun 2027 05:05:32.092            55.779                Norilsk          6972.375
       218   06 Jun 2027 05:06:33.767   06 Jun 2027 05:06:55.130            21.363                Norilsk          2670.375
       219   06 Jun 2027 05:39:44.619   06 Jun 2027 05:40:41.567            56.948            RioGallegos          7118.500
       220   06 Jun 2027 06:18:10.386   06 Jun 2027 06:18:24.720            14.334                Sumatra          1791.750
       221   06 Jun 2027 06:22:07.034   06 Jun 2027 06:22:27.618            20.584                  Delhi          2573.000
       222   06 Jun 2027 06:24:26.845   06 Jun 2027 06:24:43.354            16.509                  Delhi          2063.625
       223   06 Jun 2027 06:28:14.109   06 Jun 2027 06:28:55.680            41.571                  Delhi          5196.375
       224   06 Jun 2027 06:37:09.296   06 Jun 2027 06:37:53.182            43.886                 Moscow          5485.750
       225   06 Jun 2027 06:37:56.194   06 Jun 2027 06:38:17.743            21.549                Novosib          2693.625
       226   06 Jun 2027 06:38:49.314   06 Jun 2027 06:39:48.714            59.400                Novosib          7425.000
       227   06 Jun 2027 06:39:53.665   06 Jun 2027 06:40:23.446            29.781                 Moscow          3722.625
       228   06 Jun 2027 07:58:54.866   06 Jun 2027 08:00:00.350            65.484                  Delhi          8185.500
       229   06 Jun 2027 08:00:42.671   06 Jun 2027 08:00:55.986            13.315                  Delhi          1664.375
       230   06 Jun 2027 08:12:10.545   06 Jun 2027 08:13:01.745            51.200                Norilsk          6400.000
       231   06 Jun 2027 08:13:04.954   06 Jun 2027 08:14:07.216            62.262                 Moscow          7782.750
       232   06 Jun 2027 08:14:25.074   06 Jun 2027 08:14:31.636             6.562                Novosib           820.250
       233   06 Jun 2027 08:14:32.308   06 Jun 2027 08:14:47.275            14.967                Norilsk          1870.875
       234   06 Jun 2027 08:14:56.929   06 Jun 2027 08:15:15.090            18.161              Murmansk1          2270.125
       235   06 Jun 2027 08:15:15.090   06 Jun 2027 08:15:35.313            20.223              Murmansk2          2527.875
       236   06 Jun 2027 08:16:43.055   06 Jun 2027 08:17:22.701            39.646              Murmansk1          4955.750
       237   06 Jun 2027 10:01:48.054   06 Jun 2027 10:04:17.475           149.421                Anadyr2         18677.625
       238   06 Jun 2027 10:55:45.662   06 Jun 2027 10:58:04.210           138.548               CapeTown         17318.500
       239   06 Jun 2027 11:36:19.319   06 Jun 2027 11:37:30.660            71.341                Anadyr2          8917.625
       240   06 Jun 2027 11:39:21.997   06 Jun 2027 11:40:57.347            95.350                Anadyr1         11918.750
       241   06 Jun 2027 13:14:50.071   06 Jun 2027 13:15:23.711            33.640               Magadan1          4205.000
       242   06 Jun 2027 13:15:23.711   06 Jun 2027 13:18:08.252           164.541               Magadan2         20567.625
       243   06 Jun 2027 13:18:27.886   06 Jun 2027 13:19:15.247            47.361               Magadan1          5920.125
       244   06 Jun 2027 15:43:00.647   06 Jun 2027 15:46:54.347           233.700            RioGallegos         29212.500
       245   06 Jun 2027 15:48:46.509   06 Jun 2027 15:49:49.688            63.179            RioGallegos          7897.375
       246   06 Jun 2027 16:33:00.722   06 Jun 2027 16:34:36.775            96.053                Irkutsk         12006.625
       247   06 Jun 2027 16:44:24.974   06 Jun 2027 16:45:52.544            87.570                Sumatra         10946.250
       248   06 Jun 2027 16:46:19.066   06 Jun 2027 16:48:17.766           118.700                Sumatra         14837.500
       249   06 Jun 2027 16:55:38.947   06 Jun 2027 16:55:47.025             8.078                Sumatra          1009.750
       250   06 Jun 2027 18:06:00.014   06 Jun 2027 18:07:31.782            91.768                Novosib         11471.000
       251   06 Jun 2027 18:14:23.323   06 Jun 2027 18:16:10.339           107.016                  Delhi         13377.000
       252   06 Jun 2027 18:20:38.336   06 Jun 2027 18:22:26.091           107.755                  Delhi         13469.375
       253   06 Jun 2027 21:19:26.440   06 Jun 2027 21:21:22.395           115.955                 Moscow         14494.375
       254   06 Jun 2027 21:44:21.824   06 Jun 2027 21:45:33.872            72.048               CapeTown          9006.000
       255   06 Jun 2027 21:46:13.951   06 Jun 2027 21:47:55.723           101.772               CapeTown         12721.500
       256   07 Jun 2027 03:37:41.666   07 Jun 2027 03:38:42.700            61.034               Magadan1          7629.250
       257   07 Jun 2027 03:38:42.993   07 Jun 2027 03:39:36.192            53.199               Magadan2          6649.875
       258   07 Jun 2027 04:50:13.163   07 Jun 2027 04:52:05.695           112.532                Sumatra         14066.500
       259   07 Jun 2027 05:12:24.022   07 Jun 2027 05:13:59.001            94.979                Irkutsk         11872.375
       260   07 Jun 2027 05:14:19.380   07 Jun 2027 05:14:41.344            21.964                Norilsk          2745.500
       261   07 Jun 2027 05:14:56.324   07 Jun 2027 05:16:21.293            84.969                Novosib         10621.125
       262   07 Jun 2027 05:16:24.975   07 Jun 2027 05:16:59.575            34.600                Norilsk          4325.000
       263   07 Jun 2027 05:52:13.757   07 Jun 2027 05:52:26.585            12.828            RioGallegos          1603.500
       264   07 Jun 2027 05:55:02.341   07 Jun 2027 05:55:40.914            38.573            RioGallegos          4821.625
       265   07 Jun 2027 06:26:25.269   07 Jun 2027 06:27:37.593            72.324                Sumatra          9040.500
       266   07 Jun 2027 06:33:55.031   07 Jun 2027 06:34:57.415            62.384                  Delhi          7798.000
       267   07 Jun 2027 06:49:24.606   07 Jun 2027 06:50:50.910            86.304                 Moscow         10788.000
       268   07 Jun 2027 06:51:13.734   07 Jun 2027 06:51:57.838            44.104                 Moscow          5513.000
       269   07 Jun 2027 08:11:36.601   07 Jun 2027 08:12:34.976            58.375                  Delhi          7296.875
       270   07 Jun 2027 08:23:47.414   07 Jun 2027 08:24:00.347            12.933                Norilsk          1616.625
       271   07 Jun 2027 08:24:13.835   07 Jun 2027 08:25:37.297            83.462                 Moscow         10432.750
       272   07 Jun 2027 08:25:47.881   07 Jun 2027 08:26:23.336            35.455              Murmansk2          4431.875
       273   07 Jun 2027 08:26:35.885   07 Jun 2027 08:27:11.081            35.196                Norilsk          4399.500
       274   07 Jun 2027 08:27:22.538   07 Jun 2027 08:27:47.027            24.489                Novosib          3061.125
       275   07 Jun 2027 08:28:00.652   07 Jun 2027 08:28:34.690            34.038                 Moscow          4254.750
       276   07 Jun 2027 08:28:35.453   07 Jun 2027 08:29:31.637            56.184              Murmansk2          7023.000
       277   07 Jun 2027 09:36:26.699   07 Jun 2027 09:37:26.507            59.808               CapeTown          7476.000
       278   07 Jun 2027 10:16:01.225   07 Jun 2027 10:16:56.907            55.682                Anadyr2          6960.250
       279   07 Jun 2027 11:07:39.905   07 Jun 2027 11:09:41.096           121.191               CapeTown         15148.875
       280   07 Jun 2027 11:48:17.997   07 Jun 2027 11:49:18.618            60.621                Anadyr2          7577.625
       281   07 Jun 2027 11:51:28.662   07 Jun 2027 11:53:24.547           115.885                Anadyr1         14485.625
       282   07 Jun 2027 13:26:44.243   07 Jun 2027 13:28:54.698           130.455               Magadan1         16306.875
       283   07 Jun 2027 13:29:39.283   07 Jun 2027 13:31:13.738            94.455               Magadan2         11806.875
       284   07 Jun 2027 13:35:59.889   07 Jun 2027 13:36:15.214            15.325               Magadan1          1915.625
       285   07 Jun 2027 15:54:43.031   07 Jun 2027 16:00:53.431           370.400            RioGallegos         46300.000
       286   07 Jun 2027 16:42:11.275   07 Jun 2027 16:43:38.436            87.161                Irkutsk         10895.125
       287   07 Jun 2027 16:45:03.528   07 Jun 2027 16:45:37.754            34.226                Irkutsk          4278.250
       288   07 Jun 2027 16:46:30.428   07 Jun 2027 16:47:27.364            56.936                Novosib          7117.000
       289   07 Jun 2027 16:58:00.005   07 Jun 2027 17:00:19.253           139.248                Sumatra         17406.000
       290   07 Jun 2027 18:17:54.697   07 Jun 2027 18:19:51.012           116.315                Novosib         14539.375
       291   07 Jun 2027 18:25:56.314   07 Jun 2027 18:26:46.518            50.204                  Delhi          6275.500
       292   07 Jun 2027 18:28:05.763   07 Jun 2027 18:29:49.105           103.342                  Delhi         12917.750
       293   07 Jun 2027 19:58:22.242   07 Jun 2027 20:00:36.303           134.061                 Moscow         16757.625
       294   07 Jun 2027 21:39:10.631   07 Jun 2027 21:40:48.381            97.750                 Moscow         12218.750
       295   07 Jun 2027 21:57:50.666   07 Jun 2027 21:58:09.462            18.796               CapeTown          2349.500
       296   07 Jun 2027 21:59:50.547   07 Jun 2027 22:01:49.494           118.947               CapeTown         14868.375
       297   08 Jun 2027 03:49:19.520   08 Jun 2027 03:49:56.072            36.552               Magadan2          4569.000
       298   08 Jun 2027 03:50:12.019   08 Jun 2027 03:51:08.439            56.420               Magadan2          7052.500
       299   08 Jun 2027 03:51:38.333   08 Jun 2027 03:51:55.738            17.405                Irkutsk          2175.625
       300   08 Jun 2027 04:38:51.380   08 Jun 2027 04:39:32.108            40.728            RioGallegos          5091.000
       301   08 Jun 2027 05:01:55.139   08 Jun 2027 05:02:28.469            33.330                Sumatra          4166.250
       302   08 Jun 2027 05:03:47.590   08 Jun 2027 05:06:22.110           154.520                Sumatra         19315.000
       303   08 Jun 2027 05:15:40.628   08 Jun 2027 05:15:50.143             9.515                  Delhi          1189.375
       304   08 Jun 2027 05:17:03.367   08 Jun 2027 05:19:31.222           147.855                  Delhi         18481.875
       305   08 Jun 2027 05:24:11.105   08 Jun 2027 05:25:19.991            68.886                Irkutsk          8610.750
       306   08 Jun 2027 05:25:55.820   08 Jun 2027 05:26:06.800            10.980                Novosib          1372.500
       307   08 Jun 2027 05:26:27.488   08 Jun 2027 05:27:16.996            49.508              Murmansk1          6188.500
       308   08 Jun 2027 05:27:32.187   08 Jun 2027 05:28:19.964            47.777              Murmansk2          5972.125
       309   08 Jun 2027 05:29:49.054   08 Jun 2027 05:29:54.918             5.864              Murmansk2           733.000
       310   08 Jun 2027 05:30:12.461   08 Jun 2027 05:30:26.524            14.063                Norilsk          1757.875
       311   08 Jun 2027 05:31:09.884   08 Jun 2027 05:31:31.178            21.294                Norilsk          2661.750
       312   08 Jun 2027 06:06:16.127   08 Jun 2027 06:07:06.996            50.869            RioGallegos          6358.625
       313   08 Jun 2027 06:39:03.061   08 Jun 2027 06:39:23.656            20.595                Sumatra          2574.375
       314   08 Jun 2027 06:41:03.351   08 Jun 2027 06:41:16.088            12.737                Sumatra          1592.125
       315   08 Jun 2027 06:45:48.433   08 Jun 2027 06:47:37.728           109.295                  Delhi         13661.875
       316   08 Jun 2027 07:02:08.682   08 Jun 2027 07:02:11.368             2.686                Irkutsk           335.750
       317   08 Jun 2027 07:02:11.568   08 Jun 2027 07:02:29.093            17.525              Murmansk1          2190.625
       318   08 Jun 2027 07:02:37.908   08 Jun 2027 07:02:43.737             5.829                Novosib           728.625
       319   08 Jun 2027 07:02:46.624   08 Jun 2027 07:03:56.474            69.850                Norilsk          8731.250
       320   08 Jun 2027 07:04:07.128   08 Jun 2027 07:04:37.471            30.343                Novosib          3792.875
       321   08 Jun 2027 08:25:35.582   08 Jun 2027 08:27:26.070           110.488                  Delhi         13811.000
       322   08 Jun 2027 08:35:57.359   08 Jun 2027 08:36:39.725            42.366                 Moscow          5295.750
       323   08 Jun 2027 08:36:47.585   08 Jun 2027 08:37:17.909            30.324                Novosib          3790.500
       324   08 Jun 2027 08:37:28.317   08 Jun 2027 08:38:24.292            55.975              Murmansk2          6996.875
       325   08 Jun 2027 08:38:32.753   08 Jun 2027 08:39:00.978            28.225                 Moscow          3528.125
       326   08 Jun 2027 08:39:31.833   08 Jun 2027 08:40:18.251            46.418              Murmansk2          5802.250
       327   08 Jun 2027 09:46:34.612   08 Jun 2027 09:49:06.750           152.138               CapeTown         19017.250
       328   08 Jun 2027 10:27:50.019   08 Jun 2027 10:30:32.604           162.585                Anadyr1         20323.125
       329   08 Jun 2027 12:00:17.280   08 Jun 2027 12:01:09.980            52.700                Anadyr1          6587.500
       330   08 Jun 2027 12:03:02.741   08 Jun 2027 12:05:21.713           138.972                Anadyr2         17371.500
       331   08 Jun 2027 13:38:39.913   08 Jun 2027 13:41:44.204           184.291               Magadan2         23036.375
       332   08 Jun 2027 13:46:59.295   08 Jun 2027 13:48:00.998            61.703               Magadan2          7712.875
       333   08 Jun 2027 15:22:06.710   08 Jun 2027 15:22:29.172            22.462               Magadan2          2807.750
       334   08 Jun 2027 16:06:29.882   08 Jun 2027 16:12:20.382           350.500            RioGallegos         43812.500
       335   08 Jun 2027 16:56:04.158   08 Jun 2027 16:56:28.646            24.488                Irkutsk          3061.000
       336   08 Jun 2027 16:56:40.503   08 Jun 2027 16:59:13.885           153.382                Novosib         19172.750
       337   08 Jun 2027 17:07:48.631   08 Jun 2027 17:09:32.950           104.319                Sumatra         13039.875
       338   08 Jun 2027 17:12:26.427   08 Jun 2027 17:13:46.581            80.154                Sumatra         10019.250
       339   08 Jun 2027 18:36:09.239   08 Jun 2027 18:37:41.102            91.863                Novosib         11482.875
       340   08 Jun 2027 18:39:19.854   08 Jun 2027 18:41:46.316           146.462                  Delhi         18307.750
       341   08 Jun 2027 20:09:00.881   08 Jun 2027 20:09:48.122            47.241                 Moscow          5905.125
       342   08 Jun 2027 20:12:36.566   08 Jun 2027 20:15:52.016           195.450                 Moscow         24431.250
       343   08 Jun 2027 22:07:36.832   08 Jun 2027 22:10:01.682           144.850               CapeTown         18106.250
       344   09 Jun 2027 04:01:21.516   09 Jun 2027 04:02:35.978            74.462               Magadan2          9307.750
       345   09 Jun 2027 04:02:44.739   09 Jun 2027 04:02:48.499             3.760               Magadan2           470.000
       346   09 Jun 2027 04:03:40.069   09 Jun 2027 04:04:11.820            31.751                Norilsk          3968.875
       347   09 Jun 2027 04:05:56.881   09 Jun 2027 04:06:14.041            17.160                Norilsk          2145.000
       348   09 Jun 2027 04:39:20.917   09 Jun 2027 04:40:51.369            90.452            RioGallegos         11306.500
       349   09 Jun 2027 04:47:42.542   09 Jun 2027 04:48:23.423            40.881            RioGallegos          5110.125
       350   09 Jun 2027 05:13:43.657   09 Jun 2027 05:15:04.802            81.145                Sumatra         10143.125
       351   09 Jun 2027 05:24:16.277   09 Jun 2027 05:25:19.925            63.648                Sumatra          7956.000
       352   09 Jun 2027 05:29:22.018   09 Jun 2027 05:31:28.263           126.245                  Delhi         15780.625
       353   09 Jun 2027 05:36:53.986   09 Jun 2027 05:36:59.594             5.608                Novosib           701.000
       354   09 Jun 2027 05:37:02.892   09 Jun 2027 05:38:48.561           105.669                Novosib         13208.625
       355   09 Jun 2027 05:39:18.227   09 Jun 2027 05:40:18.801            60.574                Novosib          7571.750
       356   09 Jun 2027 06:51:59.066   09 Jun 2027 06:52:22.097            23.031                Sumatra          2878.875
       357   09 Jun 2027 06:57:47.127   09 Jun 2027 06:59:12.426            85.299                  Delhi         10662.375
       358   09 Jun 2027 07:13:46.925   09 Jun 2027 07:14:09.051            22.126                 Moscow          2765.750
       359   09 Jun 2027 07:14:21.726   09 Jun 2027 07:15:03.216            41.490                 Moscow          5186.250
       360   09 Jun 2027 07:15:17.796   09 Jun 2027 07:15:39.891            22.095                Novosib          2761.875
       361   09 Jun 2027 07:15:57.167   09 Jun 2027 07:16:28.951            31.784              Murmansk2          3973.000
       362   09 Jun 2027 07:18:22.707   09 Jun 2027 07:18:26.312             3.605                 Moscow           450.625
       363   09 Jun 2027 08:38:07.427   09 Jun 2027 08:39:20.824            73.397                  Delhi          9174.625
       364   09 Jun 2027 08:45:22.854   09 Jun 2027 08:45:37.743            14.889                 Moscow          1861.125
       365   09 Jun 2027 08:45:55.048   09 Jun 2027 08:48:43.296           168.248                 Moscow         21031.000
       366   09 Jun 2027 08:48:58.652   09 Jun 2027 08:49:27.999            29.347              Murmansk1          3668.375
       367   09 Jun 2027 08:49:52.466   09 Jun 2027 08:50:20.738            28.272                 Moscow          3534.000
       368   09 Jun 2027 08:50:20.841   09 Jun 2027 08:50:40.810            19.969                Novosib          2496.125
       369   09 Jun 2027 08:50:41.723   09 Jun 2027 08:52:08.243            86.520              Murmansk2         10815.000
       370   09 Jun 2027 08:52:22.490   09 Jun 2027 08:53:04.785            42.295              Murmansk1          5286.875
       371   09 Jun 2027 09:57:41.423   09 Jun 2027 10:00:52.417           190.994               CapeTown         23874.250
       372   09 Jun 2027 10:37:11.090   09 Jun 2027 10:38:29.890            78.800                Anadyr2          9850.000
       373   09 Jun 2027 10:39:33.472   09 Jun 2027 10:41:16.869           103.397                Anadyr1         12924.625
       374   09 Jun 2027 12:12:17.061   09 Jun 2027 12:13:03.678            46.617                Anadyr1          5827.125
       375   09 Jun 2027 12:15:35.858   09 Jun 2027 12:16:00.005            24.147                Anadyr1          3018.375
       376   09 Jun 2027 12:16:24.981   09 Jun 2027 12:19:34.291           189.310               Magadan2         23663.750
       377   09 Jun 2027 13:50:36.783   09 Jun 2027 13:52:00.125            83.342               Magadan1         10417.750
       378   09 Jun 2027 13:52:43.383   09 Jun 2027 13:53:46.582            63.199               Magadan2          7899.875
       379   09 Jun 2027 15:32:53.482   09 Jun 2027 15:35:30.856           157.374                Irkutsk         19671.750
       380   09 Jun 2027 16:18:19.988   09 Jun 2027 16:22:13.214           233.226            RioGallegos         29153.250
       381   09 Jun 2027 17:05:59.360   09 Jun 2027 17:07:52.180           112.820                Irkutsk         14102.500
       382   09 Jun 2027 17:08:21.357   09 Jun 2027 17:11:03.946           162.589                Novosib         20323.625
       383   09 Jun 2027 17:21:28.678   09 Jun 2027 17:22:42.922            74.244                Sumatra          9280.500
       384   09 Jun 2027 18:46:26.729   09 Jun 2027 18:46:59.622            32.893                Novosib          4111.625
       385   09 Jun 2027 18:49:22.801   09 Jun 2027 18:53:46.869           264.068                  Delhi         33008.500
       386   09 Jun 2027 20:20:35.475   09 Jun 2027 20:22:05.834            90.359                 Moscow         11294.875
       387   09 Jun 2027 21:55:17.648   09 Jun 2027 21:56:13.850            56.202                 Moscow          7025.250
       388   09 Jun 2027 22:19:22.747   09 Jun 2027 22:19:57.999            35.252               CapeTown          4406.500
       389   09 Jun 2027 22:21:50.082   09 Jun 2027 22:23:15.404            85.322               CapeTown         10665.250
       390   09 Jun 2027 22:30:33.437   09 Jun 2027 22:31:12.037            38.600               CapeTown          4825.000
       391   10 Jun 2027 04:14:03.676   10 Jun 2027 04:14:34.544            30.868               Magadan2          3858.500
       392   10 Jun 2027 04:14:46.663   10 Jun 2027 04:14:55.225             8.562               Magadan2          1070.250
       393   10 Jun 2027 04:15:18.900   10 Jun 2027 04:15:46.925            28.025              Murmansk1          3503.125
       394   10 Jun 2027 04:15:56.975   10 Jun 2027 04:17:18.276            81.301                Novosib         10162.625
       395   10 Jun 2027 04:17:29.674   10 Jun 2027 04:17:37.790             8.116                Norilsk          1014.500
       396   10 Jun 2027 04:19:37.294   10 Jun 2027 04:20:23.034            45.740              Murmansk2          5717.500
       397   10 Jun 2027 04:50:50.672   10 Jun 2027 04:51:32.919            42.247            RioGallegos          5280.875
       398   10 Jun 2027 05:25:38.064   10 Jun 2027 05:27:58.158           140.094                Sumatra         17511.750
       399   10 Jun 2027 05:36:14.312   10 Jun 2027 05:39:05.500           171.188                  Delhi         21398.500
       400   10 Jun 2027 05:48:54.847   10 Jun 2027 05:49:11.053            16.206                Irkutsk          2025.750
       401   10 Jun 2027 05:49:22.796   10 Jun 2027 05:49:44.808            22.012                Norilsk          2751.500
       402   10 Jun 2027 05:49:45.389   10 Jun 2027 05:51:10.756            85.367                Irkutsk         10670.875
       403   10 Jun 2027 05:51:32.635   10 Jun 2027 05:51:58.531            25.896                Novosib          3237.000
       404   10 Jun 2027 05:52:39.017   10 Jun 2027 05:53:23.564            44.547                Novosib          5568.375
       405   10 Jun 2027 07:05:42.074   10 Jun 2027 07:07:14.911            92.837                Sumatra         11604.625
       406   10 Jun 2027 07:25:47.742   10 Jun 2027 07:25:53.870             6.128              Murmansk1           766.000
       407   10 Jun 2027 07:25:55.678   10 Jun 2027 07:26:30.424            34.746                 Moscow          4343.250
       408   10 Jun 2027 07:26:46.713   10 Jun 2027 07:27:47.530            60.817                Norilsk          7602.125
       409   10 Jun 2027 07:28:33.407   10 Jun 2027 07:29:11.636            38.229                Novosib          4778.625
       410   10 Jun 2027 08:57:38.665   10 Jun 2027 08:58:34.826            56.161              Murmansk2          7020.125
       411   10 Jun 2027 08:59:02.898   10 Jun 2027 09:00:53.978           111.080                 Moscow         13885.000
       412   10 Jun 2027 09:01:00.044   10 Jun 2027 09:01:28.014            27.970              Murmansk2          3496.250
       413   10 Jun 2027 09:01:54.383   10 Jun 2027 09:03:21.760            87.377                Norilsk         10922.125
       414   10 Jun 2027 09:03:36.304   10 Jun 2027 09:04:56.172            79.868                Norilsk          9983.500
       415   10 Jun 2027 10:09:06.177   10 Jun 2027 10:12:42.369           216.192               CapeTown         27024.000
       416   10 Jun 2027 10:15:19.852   10 Jun 2027 10:16:52.572            92.720               CapeTown         11590.000
       417   10 Jun 2027 10:50:26.259   10 Jun 2027 10:54:20.974           234.715                Anadyr2         29339.375
       418   10 Jun 2027 12:27:55.919   10 Jun 2027 12:28:47.873            51.954               Magadan1          6494.250
       419   10 Jun 2027 12:32:23.359   10 Jun 2027 12:34:55.772           152.413               Magadan2         19051.625
       420   10 Jun 2027 14:05:46.516   10 Jun 2027 14:07:13.026            86.510               Magadan2         10813.750
       421   10 Jun 2027 15:43:58.159   10 Jun 2027 15:47:17.846           199.687                Irkutsk         24960.875
       422   10 Jun 2027 15:47:54.448   10 Jun 2027 15:50:21.638           147.190                Irkutsk         18398.750
       423   10 Jun 2027 16:00:33.838   10 Jun 2027 16:01:25.927            52.089                Sumatra          6511.125
       424   10 Jun 2027 17:17:55.869   10 Jun 2027 17:18:04.974             9.105                Irkutsk          1138.125
       425   10 Jun 2027 17:19:00.497   10 Jun 2027 17:22:56.365           235.868                Novosib         29483.500
       426   10 Jun 2027 17:32:45.651   10 Jun 2027 17:34:23.851            98.200                Sumatra         12275.000
       427   10 Jun 2027 18:53:46.619   10 Jun 2027 18:54:51.431            64.812                Novosib          8101.500
       428   10 Jun 2027 19:01:13.397   10 Jun 2027 19:04:01.653           168.256                  Delhi         21032.000
       429   10 Jun 2027 20:31:29.708   10 Jun 2027 20:32:01.280            31.572              Murmansk2          3946.500
       430   10 Jun 2027 20:32:17.508   10 Jun 2027 20:34:19.907           122.399                 Moscow         15299.875
       431   10 Jun 2027 22:14:15.281   10 Jun 2027 22:14:47.879            32.598                 Moscow          4074.750
       432   10 Jun 2027 22:31:13.784   10 Jun 2027 22:32:28.995            75.211               CapeTown          9401.375
       433   10 Jun 2027 22:33:33.815   10 Jun 2027 22:34:19.081            45.266               CapeTown          5658.250
       434   11 Jun 2027 04:05:33.342   11 Jun 2027 04:07:13.192            99.850                Sumatra         12481.250
       435   11 Jun 2027 04:08:55.069   11 Jun 2027 04:11:18.833           143.764                Sumatra         17970.500
       436   11 Jun 2027 04:26:54.254   11 Jun 2027 04:27:54.865            60.611                Irkutsk          7576.375
       437   11 Jun 2027 04:28:04.740   11 Jun 2027 04:28:06.778             2.038                Irkutsk           254.750
       438   11 Jun 2027 05:03:01.705   11 Jun 2027 05:03:23.055            21.350            RioGallegos          2668.750
       439   11 Jun 2027 05:04:39.334   11 Jun 2027 05:05:55.082            75.748            RioGallegos          9468.500
       440   11 Jun 2027 05:37:38.080   11 Jun 2027 05:39:16.420            98.340                Sumatra         12292.500
       441   11 Jun 2027 05:47:34.288   11 Jun 2027 05:48:04.865            30.577                  Delhi          3822.125
       442   11 Jun 2027 05:49:05.777   11 Jun 2027 05:50:45.662            99.885                  Delhi         12485.625
       443   11 Jun 2027 06:00:35.442   11 Jun 2027 06:00:43.512             8.070                Irkutsk          1008.750
       444   11 Jun 2027 06:01:10.673   11 Jun 2027 06:02:47.142            96.469                Irkutsk         12058.625
       445   11 Jun 2027 06:03:20.324   11 Jun 2027 06:03:59.324            39.000                Norilsk          4875.000
       446   11 Jun 2027 06:04:03.525   11 Jun 2027 06:04:37.643            34.118              Murmansk1          4264.750
       447   11 Jun 2027 07:22:00.790   11 Jun 2027 07:23:03.779            62.989                  Delhi          7873.625
       448   11 Jun 2027 07:24:53.980   11 Jun 2027 07:26:48.478           114.498                  Delhi         14312.250
       449   11 Jun 2027 07:37:37.254   11 Jun 2027 07:38:00.537            23.283                 Moscow          2910.375
       450   11 Jun 2027 07:38:15.135   11 Jun 2027 07:39:17.114            61.979              Murmansk1          7747.375
       451   11 Jun 2027 07:39:29.156   11 Jun 2027 07:39:55.021            25.865                 Moscow          3233.125
       452   11 Jun 2027 07:41:20.506   11 Jun 2027 07:41:53.447            32.941                 Moscow          4117.625
       453   11 Jun 2027 09:11:41.227   11 Jun 2027 09:12:23.167            41.940              Murmansk2          5242.500
       454   11 Jun 2027 09:12:31.016   11 Jun 2027 09:13:01.541            30.525              Murmansk1          3815.625
       455   11 Jun 2027 09:13:06.628   11 Jun 2027 09:13:40.119            33.491                 Moscow          4186.375
       456   11 Jun 2027 09:13:59.997   11 Jun 2027 09:15:00.807            60.810              Murmansk1          7601.250
       457   11 Jun 2027 09:15:05.840   11 Jun 2027 09:15:37.503            31.663                Norilsk          3957.875
       458   11 Jun 2027 10:20:41.017   11 Jun 2027 10:22:55.545           134.528               CapeTown         16816.000
       459   11 Jun 2027 10:23:17.031   11 Jun 2027 10:24:35.906            78.875               CapeTown          9859.375
       460   11 Jun 2027 11:00:43.269   11 Jun 2027 11:04:57.413           254.144                Anadyr1         31768.000
       461   11 Jun 2027 11:04:57.413   11 Jun 2027 11:05:13.174            15.761                Anadyr2          1970.125
       462   11 Jun 2027 12:39:36.564   11 Jun 2027 12:41:07.341            90.777               Magadan1         11347.125
       463   11 Jun 2027 12:43:42.914   11 Jun 2027 12:46:05.472           142.558               Magadan2         17819.750
       464   11 Jun 2027 14:14:33.269   11 Jun 2027 14:15:11.762            38.493               Magadan1          4811.625
       465   11 Jun 2027 14:19:13.766   11 Jun 2027 14:19:39.973            26.207               Magadan2          3275.875
       466   11 Jun 2027 15:09:19.620   11 Jun 2027 15:11:41.430           141.810            RioGallegos         17726.250
       467   11 Jun 2027 15:55:25.779   11 Jun 2027 15:59:08.054           222.275                Irkutsk         27784.375
       468   11 Jun 2027 16:10:51.205   11 Jun 2027 16:13:02.474           131.269                Sumatra         16408.625
       469   11 Jun 2027 16:15:07.003   11 Jun 2027 16:17:20.079           133.076                Sumatra         16634.500
       470   11 Jun 2027 17:36:46.276   11 Jun 2027 17:36:52.239             5.963                Novosib           745.375
       471   11 Jun 2027 17:42:20.153   11 Jun 2027 17:44:09.082           108.929                  Delhi         13616.125
       472   11 Jun 2027 17:53:21.068   11 Jun 2027 17:53:32.705            11.637                Sumatra          1454.625
       473   11 Jun 2027 19:13:07.883   11 Jun 2027 19:15:47.046           159.163                  Delhi         19895.375
       474   11 Jun 2027 19:20:25.911   11 Jun 2027 19:20:45.445            19.534                  Delhi          2441.750
       475   11 Jun 2027 19:23:43.477   11 Jun 2027 19:23:55.127            11.650                  Delhi          1456.250
       476   11 Jun 2027 20:40:09.128   11 Jun 2027 20:40:39.083            29.955              Murmansk1          3744.375
       477   11 Jun 2027 20:42:29.289   11 Jun 2027 20:42:51.737            22.448              Murmansk1          2806.000
       478   11 Jun 2027 20:44:04.239   11 Jun 2027 20:46:30.587           146.348                 Moscow         18293.500
       479   11 Jun 2027 22:43:09.784   11 Jun 2027 22:44:40.515            90.731               CapeTown         11341.375
       480   12 Jun 2027 03:41:47.866   12 Jun 2027 03:43:07.754            79.888            RioGallegos          9986.000
       481   12 Jun 2027 04:16:18.248   12 Jun 2027 04:18:53.578           155.330                Sumatra         19416.250
       482   12 Jun 2027 04:35:22.628   12 Jun 2027 04:36:05.128            42.500                Norilsk          5312.500
