uniorb/output/strategy_1/Drop/Drop_KinoSat_110208.txt

KinoSat_110208
-------------------------
    Access    *     Start Time (UTCG)     *     Stop Time (UTCG)  *   Duration (s)        *       Station  *  Data (Mbytes)
         1   01 Jun 2027 03:33:16.715   01 Jun 2027 03:33:48.593            31.878                Irkutsk          3984.750
         2   01 Jun 2027 03:34:21.621   01 Jun 2027 03:34:47.828            26.207                Irkutsk          3275.875
         3   01 Jun 2027 03:34:49.839   01 Jun 2027 03:35:04.107            14.268                Irkutsk          1783.500
         4   01 Jun 2027 03:35:21.319   01 Jun 2027 03:36:14.764            53.445                Irkutsk          6680.625
         5   01 Jun 2027 03:36:31.282   01 Jun 2027 03:38:29.226           117.944               Magadan1         14743.000
         6   01 Jun 2027 03:39:41.163   01 Jun 2027 03:39:46.803             5.640                Irkutsk           705.000
         7   01 Jun 2027 03:39:58.252   01 Jun 2027 03:40:01.272             3.020                Norilsk           377.500
         8   01 Jun 2027 03:40:31.843   01 Jun 2027 03:40:34.239             2.396              Murmansk2           299.500
         9   01 Jun 2027 03:40:58.388   01 Jun 2027 03:41:00.033             1.645              Murmansk2           205.625
        10   01 Jun 2027 04:14:35.938   01 Jun 2027 04:15:13.507            37.569            RioGallegos          4696.125
        11   01 Jun 2027 04:15:41.218   01 Jun 2027 04:16:24.692            43.474            RioGallegos          5434.250
        12   01 Jun 2027 04:23:17.898   01 Jun 2027 04:24:20.021            62.123            RioGallegos          7765.375
        13   01 Jun 2027 04:49:19.295   01 Jun 2027 04:52:20.267           180.972                Sumatra         22621.500
        14   01 Jun 2027 05:11:36.621   01 Jun 2027 05:13:20.536           103.915                Irkutsk         12989.375
        15   01 Jun 2027 05:13:39.798   01 Jun 2027 05:13:59.529            19.731                Novosib          2466.375
        16   01 Jun 2027 05:14:26.574   01 Jun 2027 05:15:35.585            69.011                Norilsk          8626.375
        17   01 Jun 2027 05:54:31.102   01 Jun 2027 05:55:15.002            43.900            RioGallegos          5487.500
        18   01 Jun 2027 06:33:35.721   01 Jun 2027 06:36:11.236           155.515                  Delhi         19439.375
        19   01 Jun 2027 06:49:37.709   01 Jun 2027 06:49:59.933            22.224                 Moscow          2778.000
        20   01 Jun 2027 06:50:06.559   01 Jun 2027 06:50:17.831            11.272                Novosib          1409.000
        21   01 Jun 2027 06:50:23.524   01 Jun 2027 06:51:19.902            56.378              Murmansk1          7047.250
        22   01 Jun 2027 06:51:35.751   01 Jun 2027 06:52:01.564            25.813              Murmansk1          3226.625
        23   01 Jun 2027 08:22:49.429   01 Jun 2027 08:23:10.781            21.352              Murmansk2          2669.000
        24   01 Jun 2027 08:23:29.874   01 Jun 2027 08:24:39.367            69.493                 Moscow          8686.625
        25   01 Jun 2027 08:24:53.259   01 Jun 2027 08:25:29.690            36.431                 Moscow          4553.875
        26   01 Jun 2027 08:25:31.640   01 Jun 2027 08:25:47.125            15.485              Murmansk2          1935.625
        27   01 Jun 2027 08:26:00.415   01 Jun 2027 08:27:30.199            89.784                 Moscow         11223.000
        28   01 Jun 2027 08:27:42.410   01 Jun 2027 08:28:43.384            60.974                 Moscow          7621.750
        29   01 Jun 2027 09:32:38.274   01 Jun 2027 09:39:15.242           396.968               CapeTown         49621.000
        30   01 Jun 2027 10:14:19.654   01 Jun 2027 10:17:01.466           161.812                Anadyr1         20226.500
        31   01 Jun 2027 13:26:15.894   01 Jun 2027 13:27:13.377            57.483               Magadan2          7185.375
        32   01 Jun 2027 15:23:30.791   01 Jun 2027 15:26:42.519           191.728                Sumatra         23966.000
        33   01 Jun 2027 15:53:52.325   01 Jun 2027 15:56:01.789           129.464            RioGallegos         16183.000
        34   01 Jun 2027 16:03:22.902   01 Jun 2027 16:05:15.164           112.262            RioGallegos         14032.750
        35   01 Jun 2027 16:41:36.806   01 Jun 2027 16:42:55.842            79.036                Irkutsk          9879.500
        36   01 Jun 2027 16:55:19.588   01 Jun 2027 16:57:50.814           151.226                Sumatra         18903.250
        37   01 Jun 2027 17:06:36.869   01 Jun 2027 17:06:48.142            11.273                Sumatra          1409.125
        38   01 Jun 2027 18:22:16.523   01 Jun 2027 18:24:15.950           119.427                Novosib         14928.375
        39   01 Jun 2027 18:24:52.907   01 Jun 2027 18:27:48.047           175.140                  Delhi         18972.751
        40   02 Jun 2027 03:51:14.105   02 Jun 2027 03:51:49.483            35.378                Irkutsk          4422.250
        41   02 Jun 2027 03:52:07.904   02 Jun 2027 03:52:27.302            19.398              Murmansk1          2424.750
        42   02 Jun 2027 03:53:19.623   02 Jun 2027 03:53:20.661             1.038              Murmansk1           129.750
        43   02 Jun 2027 03:53:53.627   02 Jun 2027 03:55:22.503            88.876              Murmansk2         11109.500
        44   02 Jun 2027 04:26:48.318   02 Jun 2027 04:27:19.534            31.216            RioGallegos          3902.000
        45   02 Jun 2027 04:34:33.697   02 Jun 2027 04:34:47.112            13.415            RioGallegos          1676.875
        46   02 Jun 2027 04:34:53.626   02 Jun 2027 04:35:59.916            66.290            RioGallegos          8286.250
        47   02 Jun 2027 05:01:21.270   02 Jun 2027 05:02:47.169            85.899                Sumatra         10737.375
        48   02 Jun 2027 05:04:27.868   02 Jun 2027 05:06:26.178           118.310                Sumatra         14788.750
        49   02 Jun 2027 05:24:30.302   02 Jun 2027 05:24:34.938             4.636                Novosib           579.500
        50   02 Jun 2027 05:24:37.473   02 Jun 2027 05:25:16.025            38.552                Norilsk          4819.000
        51   02 Jun 2027 05:25:29.147   02 Jun 2027 05:26:06.606            37.459                 Moscow          4682.375
        52   02 Jun 2027 05:26:13.252   02 Jun 2027 05:27:21.127            67.875                Irkutsk          8484.375
        53   02 Jun 2027 05:27:26.817   02 Jun 2027 05:27:33.495             6.678                Novosib           834.750
        54   02 Jun 2027 05:27:51.483   02 Jun 2027 05:28:30.602            39.119              Murmansk1          4889.875
        55   02 Jun 2027 06:07:54.348   02 Jun 2027 06:08:13.325            18.977            RioGallegos          2372.125
        56   02 Jun 2027 06:09:36.604   02 Jun 2027 06:09:41.243             4.639            RioGallegos           579.875
        57   02 Jun 2027 06:10:51.978   02 Jun 2027 06:11:38.383            46.405            RioGallegos          5800.625
        58   02 Jun 2027 06:45:47.409   02 Jun 2027 06:48:29.770           162.361                  Delhi         20295.125
        59   02 Jun 2027 07:00:56.003   02 Jun 2027 07:01:12.840            16.837                 Moscow          2104.625
        60   02 Jun 2027 07:01:19.510   02 Jun 2027 07:02:17.008            57.498              Murmansk1          7187.250
        61   02 Jun 2027 07:02:39.844   02 Jun 2027 07:03:10.005            30.161              Murmansk2          3770.125
        62   02 Jun 2027 07:03:11.073   02 Jun 2027 07:04:44.737            93.664                Novosib         11708.000
        63   02 Jun 2027 08:36:28.569   02 Jun 2027 08:37:34.313            65.744              Murmansk1          8218.000
        64   02 Jun 2027 08:37:47.421   02 Jun 2027 08:38:40.386            52.965              Murmansk1          6620.625
        65   02 Jun 2027 08:39:32.665   02 Jun 2027 08:39:59.541            26.876                 Moscow          3359.500
        66   02 Jun 2027 09:44:15.775   02 Jun 2027 09:50:47.098           391.323               CapeTown         48915.375
        67   02 Jun 2027 10:28:53.663   02 Jun 2027 10:29:39.459            45.796                Anadyr1          5724.500
        68   02 Jun 2027 12:04:09.294   02 Jun 2027 12:07:10.491           181.197               Magadan1         22649.625
        69   02 Jun 2027 13:38:14.810   02 Jun 2027 13:39:02.368            47.558               Magadan2          5944.750
        70   02 Jun 2027 13:46:21.425   02 Jun 2027 13:47:48.929            87.504               Magadan1         10938.000
        71   02 Jun 2027 15:23:46.095   02 Jun 2027 15:24:28.666            42.571                Irkutsk          5321.375
        72   02 Jun 2027 15:34:09.339   02 Jun 2027 15:39:04.473           295.134                Sumatra         36891.750
        73   02 Jun 2027 16:54:20.670   02 Jun 2027 16:57:05.075           164.405                Novosib         20550.625
        74   02 Jun 2027 17:04:56.576   02 Jun 2027 17:09:01.523           244.947                  Delhi         30618.375
        75   02 Jun 2027 18:36:48.671   02 Jun 2027 18:39:14.111           145.440                  Delhi         18180.000
        76   02 Jun 2027 20:07:42.229   02 Jun 2027 20:10:26.789           164.560                 Moscow         20570.000
        77   02 Jun 2027 21:47:51.426   02 Jun 2027 21:48:23.537            32.111                 Moscow          4013.875
        78   02 Jun 2027 22:06:51.437   02 Jun 2027 22:08:17.956            86.519               CapeTown         10814.875
        79   02 Jun 2027 22:18:11.389   02 Jun 2027 22:19:02.490            51.101               CapeTown          6387.625
        80   03 Jun 2027 03:39:40.764   03 Jun 2027 03:42:34.219           173.455                Sumatra         21681.875
        81   03 Jun 2027 03:45:12.614   03 Jun 2027 03:48:34.566           201.952                Sumatra         25244.000
        82   03 Jun 2027 04:03:45.551   03 Jun 2027 04:03:51.378             5.827                Irkutsk           728.375
        83   03 Jun 2027 05:37:12.999   03 Jun 2027 05:37:26.700            13.701              Murmansk2          1712.625
        84   03 Jun 2027 05:37:26.869   03 Jun 2027 05:37:57.874            31.005                Irkutsk          3875.625
        85   03 Jun 2027 05:38:02.778   03 Jun 2027 05:38:33.324            30.546                Novosib          3818.250
        86   03 Jun 2027 05:38:46.961   03 Jun 2027 05:39:17.798            30.837              Murmansk1          3854.625
        87   03 Jun 2027 05:39:42.261   03 Jun 2027 05:41:14.675            92.414                Novosib         11551.750
        88   03 Jun 2027 06:58:05.427   03 Jun 2027 07:00:23.584           138.157                  Delhi         17269.625
        89   03 Jun 2027 07:13:17.002   03 Jun 2027 07:13:25.866             8.864              Murmansk2          1108.000
        90   03 Jun 2027 07:13:39.103   03 Jun 2027 07:14:08.739            29.636                Novosib          3704.500
        91   03 Jun 2027 07:14:09.581   03 Jun 2027 07:15:02.988            53.407                 Moscow          6675.875
        92   03 Jun 2027 07:15:15.667   03 Jun 2027 07:15:35.872            20.205              Murmansk2          2525.625
        93   03 Jun 2027 07:16:28.289   03 Jun 2027 07:16:44.216            15.927                 Moscow          1990.875
        94   03 Jun 2027 08:49:57.845   03 Jun 2027 08:50:35.444            37.599                 Moscow          4699.875
        95   03 Jun 2027 09:55:59.373   03 Jun 2027 10:00:19.764           260.391               CapeTown         32548.875
        96   03 Jun 2027 10:00:38.962   03 Jun 2027 10:02:02.437            83.475               CapeTown         10434.375
        97   03 Jun 2027 10:36:19.697   03 Jun 2027 10:39:57.381           217.684                Anadyr2         27210.500
        98   03 Jun 2027 10:40:46.463   03 Jun 2027 10:40:59.851            13.388                Anadyr1          1673.500
        99   03 Jun 2027 12:15:55.304   03 Jun 2027 12:18:09.752           134.448               Magadan2         16806.000
       100   03 Jun 2027 12:18:27.103   03 Jun 2027 12:19:21.621            54.518               Magadan1          6814.750
       101   03 Jun 2027 13:50:14.369   03 Jun 2027 13:50:54.106            39.737               Magadan1          4967.125
       102   03 Jun 2027 13:53:16.677   03 Jun 2027 13:54:34.257            77.580               Magadan2          9697.500
       103   03 Jun 2027 14:47:56.922   03 Jun 2027 14:50:29.380           152.458            RioGallegos         19057.250
       104   03 Jun 2027 15:30:39.043   03 Jun 2027 15:30:57.775            18.732                Irkutsk          2341.500
       105   03 Jun 2027 15:34:01.046   03 Jun 2027 15:34:45.557            44.511                Irkutsk          5563.875
       106   03 Jun 2027 15:36:53.088   03 Jun 2027 15:37:03.571            10.483                Irkutsk          1310.375
       107   03 Jun 2027 15:45:16.960   03 Jun 2027 15:48:28.561           191.601                Sumatra         23950.125
       108   03 Jun 2027 15:51:19.078   03 Jun 2027 15:54:20.817           181.739                Sumatra         22717.375
       109   03 Jun 2027 17:09:09.984   03 Jun 2027 17:10:32.743            82.759                Novosib         10344.875
       110   03 Jun 2027 17:15:31.178   03 Jun 2027 17:18:15.224           164.046                  Delhi         20505.750
       111   03 Jun 2027 18:48:47.868   03 Jun 2027 18:50:32.928           105.060                  Delhi         13132.500
       112   03 Jun 2027 20:19:33.196   03 Jun 2027 20:23:27.771           234.575                 Moscow         29321.875
       113   03 Jun 2027 22:18:54.148   03 Jun 2027 22:20:30.626            96.478               CapeTown         12059.750
       114   03 Jun 2027 22:27:28.327   03 Jun 2027 22:28:34.532            66.205               CapeTown          8275.625
       115   04 Jun 2027 03:50:56.843   04 Jun 2027 03:54:24.400           207.557                Sumatra         25944.625
       116   04 Jun 2027 04:15:51.793   04 Jun 2027 04:15:52.460             0.667                Irkutsk            83.375
       117   04 Jun 2027 04:52:35.371   04 Jun 2027 04:53:27.198            51.827            RioGallegos          6478.375
       118   04 Jun 2027 05:25:42.861   04 Jun 2027 05:26:20.488            37.627                Sumatra          4703.375
       119   04 Jun 2027 05:28:02.809   04 Jun 2027 05:28:09.263             6.454                Sumatra           806.750
       120   04 Jun 2027 05:33:02.341   04 Jun 2027 05:33:06.206             3.865                Sumatra           483.125
       121   04 Jun 2027 05:34:14.247   04 Jun 2027 05:36:32.279           138.032                  Delhi         17254.000
       122   04 Jun 2027 05:38:30.502   04 Jun 2027 05:40:22.957           112.455                  Delhi         14056.875
       123   04 Jun 2027 05:50:02.260   04 Jun 2027 05:50:35.550            33.290              Murmansk2          4161.250
       124   04 Jun 2027 05:50:39.866   04 Jun 2027 05:51:18.040            38.174                Norilsk          4771.750
       125   04 Jun 2027 05:52:32.067   04 Jun 2027 05:53:19.628            47.561                Novosib          5945.125
       126   04 Jun 2027 07:10:30.779   04 Jun 2027 07:12:09.128            98.349                  Delhi         12293.625
       127   04 Jun 2027 07:25:30.781   04 Jun 2027 07:26:49.565            78.784                 Moscow          9848.000
       128   04 Jun 2027 07:27:04.562   04 Jun 2027 07:28:14.205            69.643              Murmansk2          8705.375
       129   04 Jun 2027 09:01:39.483   04 Jun 2027 09:03:00.191            80.708              Murmansk2         10088.500
       130   04 Jun 2027 09:03:06.158   04 Jun 2027 09:03:09.561             3.403              Murmansk2           425.375
       131   04 Jun 2027 09:03:45.275   04 Jun 2027 09:04:10.082            24.807              Murmansk2          3100.875
       132   04 Jun 2027 10:07:47.666   04 Jun 2027 10:12:20.706           273.040               CapeTown         34130.000
       133   04 Jun 2027 10:48:17.073   04 Jun 2027 10:49:20.964            63.891                Anadyr2          7986.375
       134   04 Jun 2027 10:52:38.707   04 Jun 2027 10:52:59.794            21.087                Anadyr1          2635.875
       135   04 Jun 2027 10:55:26.539   04 Jun 2027 10:57:50.129           143.590                Anadyr1         17948.750
       136   04 Jun 2027 12:27:35.359   04 Jun 2027 12:31:18.827           223.468               Magadan1         27933.500
       137   04 Jun 2027 14:02:14.470   04 Jun 2027 14:02:47.886            33.416               Magadan2          4177.000
       138   04 Jun 2027 14:03:50.632   04 Jun 2027 14:05:25.619            94.987               Magadan1         11873.375
       139   04 Jun 2027 14:59:10.170   04 Jun 2027 15:00:36.422            86.252            RioGallegos         10781.500
       140   04 Jun 2027 15:42:24.392   04 Jun 2027 15:44:52.301           147.909                Irkutsk         18488.625
       141   04 Jun 2027 15:46:41.025   04 Jun 2027 15:48:20.172            99.147                Irkutsk         12393.375
       142   04 Jun 2027 15:56:39.726   04 Jun 2027 16:00:21.683           221.957                Sumatra         27744.625
       143   04 Jun 2027 17:18:00.859   04 Jun 2027 17:19:10.377            69.518                Novosib          8689.750
       144   04 Jun 2027 17:26:42.399   04 Jun 2027 17:30:02.627           200.228                  Delhi         25028.500
       145   04 Jun 2027 19:03:58.721   04 Jun 2027 19:06:21.022           142.301                  Delhi         17787.625
       146   04 Jun 2027 20:31:26.398   04 Jun 2027 20:33:03.370            96.972                 Moscow         12121.500
       147   04 Jun 2027 20:36:00.108   04 Jun 2027 20:36:48.129            48.021                 Moscow          6002.625
       148   04 Jun 2027 20:39:00.404   04 Jun 2027 20:40:56.767           116.363                 Moscow         14545.375
       149   04 Jun 2027 22:31:02.031   04 Jun 2027 22:32:03.761            61.730               CapeTown          7716.250
       150   04 Jun 2027 22:34:02.063   04 Jun 2027 22:35:47.879           105.816               CapeTown         13227.000
       151   05 Jun 2027 04:02:25.152   05 Jun 2027 04:03:45.139            79.987                Sumatra          9998.375
       152   05 Jun 2027 04:05:44.040   05 Jun 2027 04:06:20.375            36.335                Sumatra          4541.875
       153   05 Jun 2027 04:09:29.380   05 Jun 2027 04:09:35.860             6.480                Sumatra           810.000
       154   05 Jun 2027 05:03:51.149   05 Jun 2027 05:04:16.244            25.095            RioGallegos          3136.875
       155   05 Jun 2027 05:05:58.940   05 Jun 2027 05:06:25.083            26.143            RioGallegos          3267.875
       156   05 Jun 2027 05:38:03.961   05 Jun 2027 05:39:50.319           106.358                Sumatra         13294.750
       157   05 Jun 2027 05:41:28.926   05 Jun 2027 05:42:15.826            46.900                Sumatra          5862.500
       158   05 Jun 2027 05:45:58.654   05 Jun 2027 05:48:43.622           164.968                  Delhi         20621.000
       159   05 Jun 2027 06:02:24.128   05 Jun 2027 06:02:39.529            15.401                Norilsk          1925.125
       160   05 Jun 2027 06:02:57.421   05 Jun 2027 06:03:22.971            25.550              Murmansk2          3193.750
       161   05 Jun 2027 06:03:44.239   05 Jun 2027 06:04:03.914            19.675                Novosib          2459.375
       162   05 Jun 2027 06:04:31.975   05 Jun 2027 06:04:57.315            25.340              Murmansk2          3167.500
       163   05 Jun 2027 07:23:05.212   05 Jun 2027 07:24:56.339           111.127                  Delhi         13890.875
       164   05 Jun 2027 07:37:13.499   05 Jun 2027 07:38:17.401            63.902              Murmansk2          7987.750
       165   05 Jun 2027 07:38:41.510   05 Jun 2027 07:39:52.216            70.706                Norilsk          8838.250
       166   05 Jun 2027 09:25:34.066   05 Jun 2027 09:27:18.331           104.265                Anadyr1         13033.125
       167   05 Jun 2027 10:19:39.797   05 Jun 2027 10:22:30.497           170.700               CapeTown         21337.500
       168   05 Jun 2027 11:00:15.316   05 Jun 2027 11:01:13.424            58.108                Anadyr1          7263.500
       169   05 Jun 2027 11:01:46.554   05 Jun 2027 11:04:21.316           154.762                Anadyr2         19345.250
       170   05 Jun 2027 11:05:15.195   05 Jun 2027 11:05:17.711             2.516                Anadyr2           314.500
       171   05 Jun 2027 12:38:44.296   05 Jun 2027 12:41:44.741           180.445               Magadan1         22555.625
       172   05 Jun 2027 12:42:28.835   05 Jun 2027 12:43:16.954            48.119               Magadan2          6014.875
       173   05 Jun 2027 12:43:51.131   05 Jun 2027 12:44:44.454            53.323               Magadan1          6665.375
       174   05 Jun 2027 14:14:15.034   05 Jun 2027 14:14:43.251            28.217               Magadan2          3527.125
       175   05 Jun 2027 15:06:50.123   05 Jun 2027 15:10:53.708           243.585            RioGallegos         30448.125
       176   05 Jun 2027 15:54:13.389   05 Jun 2027 15:55:15.966            62.577                Irkutsk          7822.125
       177   05 Jun 2027 15:58:01.361   05 Jun 2027 15:58:37.957            36.596                Irkutsk          4574.500
       178   05 Jun 2027 16:08:12.789   05 Jun 2027 16:09:58.954           106.165                Sumatra         13270.625
       179   05 Jun 2027 17:29:54.457   05 Jun 2027 17:32:13.010           138.553                Novosib         17319.125
       180   05 Jun 2027 17:37:10.204   05 Jun 2027 17:39:25.091           134.887                Novosib         16860.875
       181   05 Jun 2027 17:44:48.105   05 Jun 2027 17:45:46.082            57.977                  Delhi          7247.125
       182   05 Jun 2027 19:12:34.019   05 Jun 2027 19:12:39.656             5.637                 Moscow           704.625
       183   05 Jun 2027 19:12:56.149   05 Jun 2027 19:13:42.938            46.789                  Delhi          5848.625
       184   05 Jun 2027 19:15:15.947   05 Jun 2027 19:17:42.937           146.990                  Delhi         18373.750
       185   05 Jun 2027 20:43:21.360   05 Jun 2027 20:45:10.431           109.071                 Moscow         13633.875
       186   05 Jun 2027 21:15:30.502   05 Jun 2027 21:17:23.961           113.459               CapeTown         14182.375
       187   05 Jun 2027 22:46:03.438   05 Jun 2027 22:47:45.797           102.359               CapeTown         12794.875
       188   06 Jun 2027 03:41:16.554   06 Jun 2027 03:41:45.316            28.762            RioGallegos          3595.250
       189   06 Jun 2027 03:42:41.461   06 Jun 2027 03:42:55.693            14.232            RioGallegos          1779.000
       190   06 Jun 2027 04:14:02.403   06 Jun 2027 04:18:21.943           259.540                Sumatra         32442.500
       191   06 Jun 2027 04:36:16.890   06 Jun 2027 04:36:43.881            26.991                Novosib          3373.875
       192   06 Jun 2027 04:36:44.136   06 Jun 2027 04:37:19.788            35.652              Murmansk1          4456.500
       193   06 Jun 2027 04:37:40.815   06 Jun 2027 04:39:33.853           113.038                Irkutsk         14129.750
       194   06 Jun 2027 05:51:23.423   06 Jun 2027 05:52:38.940            75.517                Sumatra          9439.625
       195   06 Jun 2027 05:57:48.655   06 Jun 2027 06:00:51.245           182.590                  Delhi         22823.750
       196   06 Jun 2027 06:14:30.598   06 Jun 2027 06:16:18.047           107.449                Novosib         13431.125
       197   06 Jun 2027 07:35:52.034   06 Jun 2027 07:36:14.744            22.710                  Delhi          2838.750
       198   06 Jun 2027 07:48:49.263   06 Jun 2027 07:50:13.130            83.867              Murmansk2         10483.375
       199   06 Jun 2027 07:50:25.523   06 Jun 2027 07:50:58.038            32.515              Murmansk1          4064.375
       200   06 Jun 2027 07:51:10.424   06 Jun 2027 07:51:57.345            46.921              Murmansk1          5865.125
       201   06 Jun 2027 07:52:06.951   06 Jun 2027 07:52:43.057            36.106              Murmansk2          4513.250
       202   06 Jun 2027 08:59:26.146   06 Jun 2027 09:01:18.224           112.078               CapeTown         14009.750
       203   06 Jun 2027 10:31:35.215   06 Jun 2027 10:33:53.467           138.252               CapeTown         17281.500
       204   06 Jun 2027 11:12:14.253   06 Jun 2027 11:14:09.113           114.860                Anadyr1         14357.500
       205   06 Jun 2027 11:15:57.847   06 Jun 2027 11:17:14.006            76.159                Anadyr1          9519.875
       206   06 Jun 2027 11:21:06.514   06 Jun 2027 11:21:48.331            41.817                Anadyr1          5227.125
       207   06 Jun 2027 12:50:39.080   06 Jun 2027 12:52:36.089           117.009               Magadan2         14626.125
       208   06 Jun 2027 12:55:14.874   06 Jun 2027 12:55:15.846             0.972               Magadan1           121.500
       209   06 Jun 2027 12:57:38.008   06 Jun 2027 12:58:04.929            26.921               Magadan2          3365.125
       210   06 Jun 2027 14:27:59.956   06 Jun 2027 14:29:35.540            95.584               Magadan1         11948.000
       211   06 Jun 2027 15:18:34.349   06 Jun 2027 15:22:48.837           254.488            RioGallegos         31811.000
       212   06 Jun 2027 16:06:05.105   06 Jun 2027 16:09:15.920           190.815                Irkutsk         23851.875
       213   06 Jun 2027 16:19:53.812   06 Jun 2027 16:22:20.084           146.272                Sumatra         18284.000
       214   06 Jun 2027 17:41:49.739   06 Jun 2027 17:44:00.886           131.147                Novosib         16393.375
       215   06 Jun 2027 17:49:45.034   06 Jun 2027 17:52:51.981           186.947                  Delhi         23368.375
       216   06 Jun 2027 20:51:53.933   06 Jun 2027 20:52:13.634            19.701              Murmansk1          2462.625
       217   06 Jun 2027 20:52:52.705   06 Jun 2027 20:53:49.457            56.752              Murmansk1          7094.000
       218   06 Jun 2027 20:55:17.739   06 Jun 2027 20:56:42.749            85.010                 Moscow         10626.250
       219   06 Jun 2027 21:19:45.236   06 Jun 2027 21:20:19.731            34.495               CapeTown          4311.875
       220   06 Jun 2027 22:58:13.446   06 Jun 2027 22:59:24.565            71.119               CapeTown          8889.875
       221   07 Jun 2027 03:12:08.202   07 Jun 2027 03:12:42.113            33.911               Magadan1          4238.875
       222   07 Jun 2027 03:12:53.636   07 Jun 2027 03:13:40.312            46.676               Magadan1          5834.500
       223   07 Jun 2027 03:14:07.551   07 Jun 2027 03:15:18.915            71.364               Magadan2          8920.500
       224   07 Jun 2027 03:16:12.077   07 Jun 2027 03:16:55.372            43.295                Novosib          5411.875
       225   07 Jun 2027 03:50:37.073   07 Jun 2027 03:50:39.436             2.363            RioGallegos           295.375
       226   07 Jun 2027 03:53:21.958   07 Jun 2027 03:53:51.005            29.047            RioGallegos          3630.875
       227   07 Jun 2027 04:25:46.880   07 Jun 2027 04:30:29.206           282.326                Sumatra         35290.750
       228   07 Jun 2027 04:47:27.460   07 Jun 2027 04:48:59.694            92.234                Irkutsk         11529.250
       229   07 Jun 2027 04:49:00.066   07 Jun 2027 04:49:04.240             4.174                Irkutsk           521.750
       230   07 Jun 2027 04:49:36.393   07 Jun 2027 04:49:50.869            14.476                Novosib          1809.500
       231   07 Jun 2027 04:50:22.269   07 Jun 2027 04:51:23.622            61.353                Novosib          7669.125
       232   07 Jun 2027 04:51:32.554   07 Jun 2027 04:51:49.985            17.431                Irkutsk          2178.875
       233   07 Jun 2027 04:52:24.071   07 Jun 2027 04:52:57.191            33.120                Novosib          4140.000
       234   07 Jun 2027 06:03:17.446   07 Jun 2027 06:05:02.615           105.169                Sumatra         13146.125
       235   07 Jun 2027 06:09:44.002   07 Jun 2027 06:11:27.225           103.223                  Delhi         12902.875
       236   07 Jun 2027 06:25:45.167   07 Jun 2027 06:25:57.013            11.846              Murmansk1          1480.750
       237   07 Jun 2027 06:26:08.541   07 Jun 2027 06:26:58.998            50.457                 Moscow          6307.125
       238   07 Jun 2027 06:27:12.486   07 Jun 2027 06:27:56.390            43.904              Murmansk1          5488.000
       239   07 Jun 2027 07:51:03.700   07 Jun 2027 07:51:26.281            22.581                  Delhi          2822.625
       240   07 Jun 2027 07:58:01.191   07 Jun 2027 07:58:59.695            58.504                 Moscow          7313.000
       241   07 Jun 2027 07:59:15.728   07 Jun 2027 07:59:29.351            13.623              Murmansk2          1702.875
       242   07 Jun 2027 07:59:40.834   07 Jun 2027 08:01:00.277            79.443                 Moscow          9930.375
       243   07 Jun 2027 08:01:11.773   07 Jun 2027 08:01:31.707            19.934              Murmansk1          2491.750
       244   07 Jun 2027 08:01:36.786   07 Jun 2027 08:02:04.466            27.680                 Moscow          3460.000
       245   07 Jun 2027 08:02:07.780   07 Jun 2027 08:02:10.304             2.524                 Moscow           315.500
       246   07 Jun 2027 08:02:16.726   07 Jun 2027 08:02:41.278            24.552                 Moscow          3069.000
       247   07 Jun 2027 08:02:46.049   07 Jun 2027 08:03:09.091            23.042              Murmansk1          2880.250
       248   07 Jun 2027 08:03:33.051   07 Jun 2027 08:03:41.800             8.749                Norilsk          1093.625
       249   07 Jun 2027 08:03:46.255   07 Jun 2027 08:04:04.326            18.071                Norilsk          2258.875
       250   07 Jun 2027 08:04:21.066   07 Jun 2027 08:05:06.023            44.957                 Moscow          5619.625
       251   07 Jun 2027 08:05:08.257   07 Jun 2027 08:05:28.175            19.918                Norilsk          2489.750
       252   07 Jun 2027 08:05:40.228   07 Jun 2027 08:05:45.967             5.739              Murmansk1           717.375
       253   07 Jun 2027 08:06:44.611   07 Jun 2027 08:07:08.586            23.975              Murmansk2          2996.875
       254   07 Jun 2027 09:10:08.704   07 Jun 2027 09:13:01.444           172.740               CapeTown         21592.500
       255   07 Jun 2027 10:44:29.341   07 Jun 2027 10:45:15.280            45.939               CapeTown          5742.375
       256   07 Jun 2027 10:48:40.324   07 Jun 2027 10:48:41.652             1.328               CapeTown           166.000
       257   07 Jun 2027 10:51:06.213   07 Jun 2027 10:53:08.831           122.618               CapeTown         15327.250
       258   07 Jun 2027 11:24:13.751   07 Jun 2027 11:24:53.088            39.337                Anadyr2          4917.125
       259   07 Jun 2027 11:26:31.922   07 Jun 2027 11:29:01.618           149.696                Anadyr1         18712.000
       260   07 Jun 2027 13:02:35.239   07 Jun 2027 13:07:45.375           310.136               Magadan2         38767.000
       261   07 Jun 2027 15:30:22.525   07 Jun 2027 15:34:04.559           222.034            RioGallegos         27754.250
       262   07 Jun 2027 16:20:09.011   07 Jun 2027 16:20:09.911             0.900                Irkutsk           112.500
       263   07 Jun 2027 16:27:29.839   07 Jun 2027 16:29:14.777           104.938                Irkutsk         13117.250
       264   07 Jun 2027 16:31:41.507   07 Jun 2027 16:34:34.006           172.499                Sumatra         21562.375
       265   07 Jun 2027 17:53:46.380   07 Jun 2027 17:55:07.442            81.062                Novosib         10132.750
       266   07 Jun 2027 18:01:27.700   07 Jun 2027 18:05:48.861           261.161                  Delhi         32645.125
       267   07 Jun 2027 21:07:15.306   07 Jun 2027 21:08:23.459            68.153                 Moscow          8519.125
       268   07 Jun 2027 21:31:27.756   07 Jun 2027 21:33:44.619           136.863               CapeTown         17107.875
       269   08 Jun 2027 03:24:20.835   08 Jun 2027 03:25:02.085            41.250                Irkutsk          5156.250
       270   08 Jun 2027 03:25:34.850   08 Jun 2027 03:26:07.701            32.851               Magadan2          4106.375
       271   08 Jun 2027 03:27:12.777   08 Jun 2027 03:28:15.042            62.265                Norilsk          7783.125
       272   08 Jun 2027 03:32:10.291   08 Jun 2027 03:32:26.854            16.563              Murmansk1          2070.375
       273   08 Jun 2027 03:34:20.100   08 Jun 2027 03:34:31.644            11.544              Murmansk2          1443.000
       274   08 Jun 2027 04:02:42.234   08 Jun 2027 04:02:54.922            12.688            RioGallegos          1586.000
       275   08 Jun 2027 04:04:46.982   08 Jun 2027 04:05:52.314            65.332            RioGallegos          8166.500
       276   08 Jun 2027 04:12:05.648   08 Jun 2027 04:12:23.408            17.760            RioGallegos          2220.000
       277   08 Jun 2027 04:37:37.617   08 Jun 2027 04:41:58.608           260.991                Sumatra         32623.875
       278   08 Jun 2027 05:00:22.405   08 Jun 2027 05:01:19.694            57.289                Norilsk          7161.125
       279   08 Jun 2027 05:01:41.910   08 Jun 2027 05:02:30.603            48.693                Norilsk          6086.625
       280   08 Jun 2027 05:02:36.367   08 Jun 2027 05:02:49.898            13.531              Murmansk1          1691.375
       281   08 Jun 2027 05:03:07.701   08 Jun 2027 05:03:46.844            39.143                Irkutsk          4892.875
       282   08 Jun 2027 05:03:57.789   08 Jun 2027 05:04:22.874            25.085                Norilsk          3135.625
       283   08 Jun 2027 05:41:47.465   08 Jun 2027 05:42:18.783            31.318            RioGallegos          3914.750
       284   08 Jun 2027 05:42:39.785   08 Jun 2027 05:43:21.685            41.900            RioGallegos          5237.500
       285   08 Jun 2027 06:21:37.860   08 Jun 2027 06:22:27.544            49.684                Sumatra          6210.500
       286   08 Jun 2027 06:23:04.394   08 Jun 2027 06:24:56.417           112.023                  Delhi         14002.875
       287   08 Jun 2027 06:38:04.438   08 Jun 2027 06:38:46.391            41.953                 Moscow          5244.125
       288   08 Jun 2027 06:39:01.315   08 Jun 2027 06:40:00.392            59.077              Murmansk1          7384.625
       289   08 Jun 2027 06:40:13.186   08 Jun 2027 06:40:22.350             9.164                 Moscow          1145.500
       290   08 Jun 2027 06:41:10.841   08 Jun 2027 06:41:29.665            18.824              Murmansk1          2353.000
       291   08 Jun 2027 08:03:05.267   08 Jun 2027 08:04:01.095            55.828                  Delhi          6978.500
       292   08 Jun 2027 08:09:34.277   08 Jun 2027 08:09:38.977             4.700              Murmansk1           587.500
       293   08 Jun 2027 08:10:04.359   08 Jun 2027 08:12:02.762           118.403              Murmansk1         14800.375
       294   08 Jun 2027 08:12:18.877   08 Jun 2027 08:12:55.235            36.358                Novosib          4544.750
       295   08 Jun 2027 08:12:55.817   08 Jun 2027 08:13:11.472            15.655              Murmansk1          1956.875
       296   08 Jun 2027 08:13:17.171   08 Jun 2027 08:13:54.963            37.792                Novosib          4724.000
       297   08 Jun 2027 08:14:06.188   08 Jun 2027 08:14:52.085            45.897                 Moscow          5737.125
       298   08 Jun 2027 08:15:07.243   08 Jun 2027 08:15:43.486            36.243              Murmansk1          4530.375
       299   08 Jun 2027 08:15:45.402   08 Jun 2027 08:16:43.742            58.340                 Moscow          7292.500
       300   08 Jun 2027 09:21:23.632   08 Jun 2027 09:24:49.438           205.806               CapeTown         25725.750
       301   08 Jun 2027 10:02:52.612   08 Jun 2027 10:05:18.187           145.575                Anadyr2         18196.875
       302   08 Jun 2027 11:36:13.705   08 Jun 2027 11:38:45.937           152.232                Anadyr1         19029.000
       303   08 Jun 2027 13:14:32.512   08 Jun 2027 13:19:15.483           282.971               Magadan1         35371.375
       304   08 Jun 2027 15:42:13.638   08 Jun 2027 15:45:48.767           215.129            RioGallegos         26891.125
       305   08 Jun 2027 16:29:54.556   08 Jun 2027 16:31:34.255            99.699                Irkutsk         12462.375
       306   08 Jun 2027 16:38:30.501   08 Jun 2027 16:38:51.106            20.605                Novosib          2575.625
       307   08 Jun 2027 16:39:13.235   08 Jun 2027 16:39:26.597            13.362                Irkutsk          1670.250
       308   08 Jun 2027 16:46:41.720   08 Jun 2027 16:49:06.243           144.523                Sumatra         18065.375
       309   08 Jun 2027 18:07:59.201   08 Jun 2027 18:08:34.945            35.744                Novosib          4468.000
       310   08 Jun 2027 18:10:29.981   08 Jun 2027 18:12:33.155           123.174                Novosib         15396.750
       311   08 Jun 2027 18:13:15.527   08 Jun 2027 18:15:48.123           152.596                  Delhi         19074.500
       312   08 Jun 2027 19:44:24.776   08 Jun 2027 19:45:17.151            52.375                 Moscow          6546.875
       313   08 Jun 2027 21:16:00.709   08 Jun 2027 21:16:11.685            10.976              Murmansk2          1372.000
       314   08 Jun 2027 21:24:01.925   08 Jun 2027 21:26:22.352           140.427                 Moscow         17553.375
       315   08 Jun 2027 21:43:15.577   08 Jun 2027 21:44:05.608            50.031               CapeTown          6253.875
       316   08 Jun 2027 21:46:12.041   08 Jun 2027 21:46:55.930            43.889               CapeTown          5486.125
       317   08 Jun 2027 21:55:45.741   08 Jun 2027 21:55:51.049             5.308               CapeTown           663.500
       318   09 Jun 2027 03:18:54.025   09 Jun 2027 03:20:43.828           109.803                Sumatra         13725.375
       319   09 Jun 2027 03:37:02.467   09 Jun 2027 03:37:35.316            32.849               Magadan1          4106.125
       320   09 Jun 2027 03:37:42.758   09 Jun 2027 03:37:46.816             4.058               Magadan1           507.250
       321   09 Jun 2027 03:38:01.338   09 Jun 2027 03:38:19.111            17.773               Magadan1          2221.625
       322   09 Jun 2027 03:39:34.272   09 Jun 2027 03:40:12.246            37.974              Murmansk1          4746.750
       323   09 Jun 2027 03:40:14.695   09 Jun 2027 03:40:58.433            43.738                Norilsk          5467.250
       324   09 Jun 2027 03:44:20.306   09 Jun 2027 03:44:31.895            11.589              Murmansk2          1448.625
       325   09 Jun 2027 04:14:50.936   09 Jun 2027 04:15:14.277            23.341            RioGallegos          2917.625
       326   09 Jun 2027 04:22:24.832   09 Jun 2027 04:23:31.287            66.455            RioGallegos          8306.875
       327   09 Jun 2027 04:49:34.110   09 Jun 2027 04:52:34.089           179.979                Sumatra         22497.375
       328   09 Jun 2027 05:00:54.123   09 Jun 2027 05:01:06.763            12.640                  Delhi          1580.000
       329   09 Jun 2027 05:11:50.893   09 Jun 2027 05:12:54.459            63.566                Irkutsk          7945.750
       330   09 Jun 2027 05:13:23.278   09 Jun 2027 05:13:33.255             9.977                 Moscow          1247.125
       331   09 Jun 2027 05:13:35.729   09 Jun 2027 05:13:46.422            10.693                Irkutsk          1336.625
       332   09 Jun 2027 05:13:47.781   09 Jun 2027 05:14:07.653            19.872                Norilsk          2484.000
       333   09 Jun 2027 05:14:14.330   09 Jun 2027 05:14:37.436            23.106                Novosib          2888.250
       334   09 Jun 2027 05:14:40.521   09 Jun 2027 05:15:08.989            28.468              Murmansk2          3558.500
       335   09 Jun 2027 05:15:26.713   09 Jun 2027 05:16:32.288            65.575              Murmansk1          8196.875
       336   09 Jun 2027 05:56:13.005   09 Jun 2027 05:56:15.029             2.024            RioGallegos           253.000
       337   09 Jun 2027 05:57:18.151   09 Jun 2027 05:57:57.149            38.998            RioGallegos          4874.750
       338   09 Jun 2027 06:33:50.696   09 Jun 2027 06:35:11.624            80.928                  Delhi         10116.000
       339   09 Jun 2027 06:36:54.033   09 Jun 2027 06:38:42.675           108.642                  Delhi         13580.250
       340   09 Jun 2027 06:50:11.356   09 Jun 2027 06:52:05.095           113.739                Norilsk         14217.375
       341   09 Jun 2027 08:22:00.020   09 Jun 2027 08:23:27.830            87.810              Murmansk1         10976.250
       342   09 Jun 2027 08:23:48.071   09 Jun 2027 08:25:11.728            83.657                 Moscow         10457.125
       343   09 Jun 2027 08:25:23.838   09 Jun 2027 08:25:48.030            24.192              Murmansk1          3024.000
       344   09 Jun 2027 08:25:48.030   09 Jun 2027 08:26:02.747            14.717              Murmansk2          1839.625
       345   09 Jun 2027 08:26:15.172   09 Jun 2027 08:26:41.194            26.022                 Moscow          3252.750
       346   09 Jun 2027 08:26:42.767   09 Jun 2027 08:27:15.229            32.462                Norilsk          4057.750
       347   09 Jun 2027 08:27:36.759   09 Jun 2027 08:28:46.261            69.502              Murmansk2          8687.750
       348   09 Jun 2027 08:28:57.818   09 Jun 2027 08:29:18.670            20.852                 Moscow          2606.500
       349   09 Jun 2027 08:30:56.462   09 Jun 2027 08:31:03.985             7.523                 Moscow           940.375
       350   09 Jun 2027 09:32:52.644   09 Jun 2027 09:36:41.325           228.681               CapeTown         28585.125
       351   09 Jun 2027 09:39:30.526   09 Jun 2027 09:40:16.352            45.826               CapeTown          5728.250
       352   09 Jun 2027 10:17:16.218   09 Jun 2027 10:17:16.404             0.186                Anadyr2            23.250
       353   09 Jun 2027 11:48:14.029   09 Jun 2027 11:51:00.519           166.490                Anadyr2         20811.250
       354   09 Jun 2027 11:52:19.732   09 Jun 2027 11:53:03.896            44.164                Anadyr2          5520.500
       355   09 Jun 2027 11:55:51.526   09 Jun 2027 11:56:30.868            39.342               Magadan2          4917.750
       356   09 Jun 2027 13:26:30.688   09 Jun 2027 13:31:16.045           285.357               Magadan1         35669.625
       357   09 Jun 2027 15:23:43.769   09 Jun 2027 15:26:58.043           194.274                Sumatra         24284.250
       358   09 Jun 2027 15:56:16.993   09 Jun 2027 15:56:27.824            10.831            RioGallegos          1353.875
       359   09 Jun 2027 16:03:37.648   09 Jun 2027 16:05:29.372           111.724            RioGallegos         13965.500
       360   09 Jun 2027 16:41:51.587   09 Jun 2027 16:43:10.225            78.638                Irkutsk          9829.750
       361   09 Jun 2027 16:46:36.828   09 Jun 2027 16:46:59.190            22.362                Irkutsk          2795.250
       362   09 Jun 2027 16:49:59.360   09 Jun 2027 16:51:39.910           100.550                Novosib         12568.750
       363   09 Jun 2027 16:56:32.393   09 Jun 2027 16:58:04.782            92.389                Sumatra         11548.625
       364   09 Jun 2027 18:21:26.527   09 Jun 2027 18:22:43.932            77.405                Novosib          9675.625
       365   09 Jun 2027 18:25:07.627   09 Jun 2027 18:28:03.075           175.448                  Delhi         21931.000
       366   09 Jun 2027 18:32:53.404   09 Jun 2027 18:34:13.145            79.741                  Delhi          9967.625
       367   09 Jun 2027 19:57:17.617   09 Jun 2027 19:58:40.463            82.846                 Moscow         10355.750
       368   09 Jun 2027 21:42:36.895   09 Jun 2027 21:44:03.885            86.990                 Moscow         10873.750
       369   09 Jun 2027 21:56:52.093   09 Jun 2027 21:58:01.338            69.245               CapeTown          8655.625
       370   09 Jun 2027 22:02:47.175   09 Jun 2027 22:02:57.737            10.562               CapeTown          1320.250
       371   10 Jun 2027 03:28:58.094   10 Jun 2027 03:31:04.944           126.850                Sumatra         15856.250
       372   10 Jun 2027 03:33:09.949   10 Jun 2027 03:35:52.758           162.809                Sumatra         20351.125
       373   10 Jun 2027 03:51:20.783   10 Jun 2027 03:51:34.238            13.455                Irkutsk          1681.875
       374   10 Jun 2027 03:51:53.087   10 Jun 2027 03:52:04.345            11.258                Irkutsk          1407.250
       375   10 Jun 2027 03:52:07.625   10 Jun 2027 03:52:55.226            47.601                Norilsk          5950.125
       376   10 Jun 2027 03:54:38.005   10 Jun 2027 03:55:53.359            75.354                Norilsk          9419.250
       377   10 Jun 2027 04:27:03.385   10 Jun 2027 04:27:40.200            36.815            RioGallegos          4601.875
       378   10 Jun 2027 04:32:46.180   10 Jun 2027 04:34:12.392            86.212            RioGallegos         10776.500
       379   10 Jun 2027 04:36:35.213   10 Jun 2027 04:36:50.700            15.487            RioGallegos          1935.875
       380   10 Jun 2027 05:01:36.182   10 Jun 2027 05:03:40.430           124.248                Sumatra         15531.000
       381   10 Jun 2027 05:12:10.813   10 Jun 2027 05:14:50.333           159.520                  Delhi         19940.000
       382   10 Jun 2027 05:24:52.232   10 Jun 2027 05:25:30.586            38.354                Norilsk          4794.250
       383   10 Jun 2027 05:25:44.225   10 Jun 2027 05:25:45.960             1.735                Norilsk           216.875
       384   10 Jun 2027 05:25:59.345   10 Jun 2027 05:26:07.961             8.616                Norilsk          1077.000
       385   10 Jun 2027 05:26:22.368   10 Jun 2027 05:27:34.548            72.180              Murmansk1          9022.500
       386   10 Jun 2027 05:27:41.968   10 Jun 2027 05:28:16.368            34.400                Novosib          4300.000
       387   10 Jun 2027 06:08:10.954   10 Jun 2027 06:09:01.872            50.918            RioGallegos          6364.750
       388   10 Jun 2027 06:11:52.827   10 Jun 2027 06:11:59.577             6.750            RioGallegos           843.750
       389   10 Jun 2027 06:46:02.485   10 Jun 2027 06:48:44.605           162.120                  Delhi         20265.000
       390   10 Jun 2027 06:52:24.664   10 Jun 2027 06:52:48.963            24.299                  Delhi          3037.375
       391   10 Jun 2027 07:00:58.806   10 Jun 2027 07:01:10.954            12.148                 Moscow          1518.500
       392   10 Jun 2027 07:01:19.450   10 Jun 2027 07:01:34.113            14.663              Murmansk1          1832.875
       393   10 Jun 2027 07:01:41.828   10 Jun 2027 07:02:32.266            50.438              Murmansk1          6304.750
       394   10 Jun 2027 07:02:42.529   10 Jun 2027 07:03:27.449            44.920                Novosib          5615.000
       395   10 Jun 2027 07:03:35.656   10 Jun 2027 07:03:59.244            23.588                Novosib          2948.500
       396   10 Jun 2027 08:33:41.343   10 Jun 2027 08:33:56.330            14.987              Murmansk1          1873.375
       397   10 Jun 2027 08:34:03.861   10 Jun 2027 08:34:18.027            14.166              Murmansk2          1770.750
       398   10 Jun 2027 08:34:18.027   10 Jun 2027 08:34:38.747            20.720              Murmansk1          2590.000
       399   10 Jun 2027 08:35:26.209   10 Jun 2027 08:35:38.810            12.601              Murmansk1          1575.125
       400   10 Jun 2027 08:35:47.714   10 Jun 2027 08:36:46.009            58.295              Murmansk1          7286.875
       401   10 Jun 2027 08:36:58.825   10 Jun 2027 08:37:37.097            38.272              Murmansk1          4784.000
       402   10 Jun 2027 08:37:49.939   10 Jun 2027 08:38:28.088            38.149              Murmansk1          4768.625
       403   10 Jun 2027 08:38:38.938   10 Jun 2027 08:39:47.556            68.618                 Moscow          8577.250
       404   10 Jun 2027 09:44:30.264   10 Jun 2027 09:48:36.538           246.274               CapeTown         30784.250
       405   10 Jun 2027 10:26:06.801   10 Jun 2027 10:27:25.433            78.632                Anadyr2          9829.000
       406   10 Jun 2027 10:29:10.958   10 Jun 2027 10:31:08.661           117.703                Anadyr2         14712.875
       407   10 Jun 2027 10:32:35.457   10 Jun 2027 10:34:09.627            94.170                Anadyr2         11771.250
       408   10 Jun 2027 12:04:26.039   10 Jun 2027 12:07:25.270           179.231               Magadan1         22403.875
       409   10 Jun 2027 13:38:57.179   10 Jun 2027 13:39:16.887            19.708               Magadan2          2463.500
       410   10 Jun 2027 13:41:19.967   10 Jun 2027 13:41:50.787            30.820               Magadan1          3852.500
       411   10 Jun 2027 13:43:17.015   10 Jun 2027 13:43:29.461            12.446               Magadan1          1555.750
       412   10 Jun 2027 13:46:36.460   10 Jun 2027 13:48:44.662           128.202               Magadan1         16025.250
       413   10 Jun 2027 15:23:58.634   10 Jun 2027 15:24:44.218            45.584                Irkutsk          5698.000
       414   10 Jun 2027 15:34:23.090   10 Jun 2027 15:39:19.828           296.738                Sumatra         37092.250
       415   10 Jun 2027 16:54:35.262   10 Jun 2027 16:56:07.873            92.611                Novosib         11576.375
       416   10 Jun 2027 17:04:00.562   10 Jun 2027 17:04:20.264            19.702                Novosib          2462.750
       417   10 Jun 2027 17:05:09.188   10 Jun 2027 17:07:54.949           165.761                  Delhi         20720.125
       418   10 Jun 2027 18:37:03.453   10 Jun 2027 18:39:28.125           144.672                  Delhi         18084.000
       419   10 Jun 2027 18:42:05.778   10 Jun 2027 18:42:21.471            15.693                  Delhi          1961.625
       420   10 Jun 2027 18:44:21.615   10 Jun 2027 18:44:41.256            19.641                  Delhi          2455.125
       421   10 Jun 2027 18:46:37.109   10 Jun 2027 18:47:29.926            52.817                  Delhi          6602.125
       422   10 Jun 2027 20:07:56.864   10 Jun 2027 20:10:42.500           165.636                 Moscow         20704.500
       423   10 Jun 2027 21:48:38.705   10 Jun 2027 21:50:57.654           138.949                 Moscow         17368.625
       424   11 Jun 2027 03:39:54.703   11 Jun 2027 03:42:48.931           174.228                Sumatra         21778.500
       425   11 Jun 2027 03:45:27.897   11 Jun 2027 03:48:50.175           202.278                Sumatra         25284.750
       426   11 Jun 2027 04:04:25.585   11 Jun 2027 04:04:43.652            18.067                Norilsk          2258.375
       427   11 Jun 2027 04:07:41.795   11 Jun 2027 04:08:21.134            39.339                Norilsk          4917.375
       428   11 Jun 2027 04:39:19.843   11 Jun 2027 04:40:21.027            61.184            RioGallegos          7648.000
       429   11 Jun 2027 05:13:43.973   11 Jun 2027 05:14:37.774            53.801                Sumatra          6725.125
       430   11 Jun 2027 05:16:36.214   11 Jun 2027 05:17:37.786            61.572                Sumatra          7696.500
       431   11 Jun 2027 05:22:50.303   11 Jun 2027 05:24:31.749           101.446                  Delhi         12680.750
       432   11 Jun 2027 05:36:57.220   11 Jun 2027 05:37:39.980            42.760                Irkutsk          5345.000
       433   11 Jun 2027 05:37:56.388   11 Jun 2027 05:38:19.825            23.437                Norilsk          2929.625
       434   11 Jun 2027 05:38:41.954   11 Jun 2027 05:40:05.531            83.577                Norilsk         10447.125
       435   11 Jun 2027 06:58:20.618   11 Jun 2027 07:00:38.209           137.591                  Delhi         17198.875
       436   11 Jun 2027 07:13:18.379   11 Jun 2027 07:13:32.467            14.088                 Moscow          1761.000
       437   11 Jun 2027 07:13:39.301   11 Jun 2027 07:14:01.747            22.446                 Moscow          2805.750
       438   11 Jun 2027 07:14:07.796   11 Jun 2027 07:14:58.092            50.296                Norilsk          6287.000
       439   11 Jun 2027 07:15:15.549   11 Jun 2027 07:16:38.406            82.857              Murmansk2         10357.125
       440   11 Jun 2027 08:48:40.261   11 Jun 2027 08:50:00.570            80.309              Murmansk2         10038.625
       441   11 Jun 2027 08:50:03.599   11 Jun 2027 08:51:07.565            63.966              Murmansk2          7995.750
       442   11 Jun 2027 09:56:13.956   11 Jun 2027 10:00:34.737           260.781               CapeTown         32597.625
       443   11 Jun 2027 10:44:15.553   11 Jun 2027 10:46:06.819           111.266                Anadyr1         13908.250
       444   11 Jun 2027 12:12:15.520   11 Jun 2027 12:12:36.845            21.325                Anadyr2          2665.625
       445   11 Jun 2027 12:12:59.001   11 Jun 2027 12:13:52.853            53.852                Anadyr1          6731.500
       446   11 Jun 2027 12:16:11.596   11 Jun 2027 12:18:33.059           141.463               Magadan2         17682.875
       447   11 Jun 2027 13:50:29.188   11 Jun 2027 13:53:31.679           182.491               Magadan1         22811.375
       448   11 Jun 2027 14:48:21.932   11 Jun 2027 14:50:45.353           143.421            RioGallegos         17927.625
       449   11 Jun 2027 15:37:08.536   11 Jun 2027 15:37:17.451             8.915                Irkutsk          1114.375
       450   11 Jun 2027 15:40:16.119   11 Jun 2027 15:40:22.803             6.684                Irkutsk           835.500
       451   11 Jun 2027 15:45:31.040   11 Jun 2027 15:48:43.338           192.298                Sumatra         24037.250
       452   11 Jun 2027 15:51:34.292   11 Jun 2027 15:54:35.066           180.774                Sumatra         22596.750
       453   11 Jun 2027 17:06:24.025   11 Jun 2027 17:10:47.659           263.634                Novosib         32954.250
       454   11 Jun 2027 17:15:44.961   11 Jun 2027 17:20:25.560           280.599                  Delhi         35074.875
       455   11 Jun 2027 20:20:50.177   11 Jun 2027 20:23:43.252           173.075                 Moscow         21634.375
       456   11 Jun 2027 22:19:09.063   11 Jun 2027 22:20:44.887            95.824               CapeTown         11978.000
       457   12 Jun 2027 03:51:11.030   12 Jun 2027 03:54:39.240           208.210                Sumatra         26026.250
       458   12 Jun 2027 04:15:27.325   12 Jun 2027 04:15:50.954            23.629                Norilsk          2953.625
       459   12 Jun 2027 04:16:05.289   12 Jun 2027 04:16:07.297             2.008                Irkutsk           251.000
       460   12 Jun 2027 04:17:20.072   12 Jun 2027 04:17:41.264            21.192              Murmansk2          2649.000
       461   12 Jun 2027 04:51:40.694   12 Jun 2027 04:52:49.747            69.053            RioGallegos          8631.625
       462   12 Jun 2027 04:55:16.565   12 Jun 2027 04:55:45.608            29.043            RioGallegos          3630.375
       463   12 Jun 2027 05:25:57.979   12 Jun 2027 05:26:34.836            36.857                Sumatra          4607.125
       464   12 Jun 2027 05:28:17.772   12 Jun 2027 05:30:28.345           130.573                Sumatra         16321.625
       465   12 Jun 2027 05:34:28.758   12 Jun 2027 05:36:47.327           138.569                  Delhi         17321.125
       466   12 Jun 2027 05:50:00.054   12 Jun 2027 05:50:25.617            25.563                Irkutsk          3195.375
       467   12 Jun 2027 05:50:37.276   12 Jun 2027 05:52:10.832            93.556                Novosib         11694.500
       468   12 Jun 2027 07:12:23.667   12 Jun 2027 07:13:07.874            44.207                  Delhi          5525.875
       469   12 Jun 2027 07:25:24.897   12 Jun 2027 07:25:34.951            10.054                Norilsk          1256.750
       470   12 Jun 2027 07:25:47.926   12 Jun 2027 07:25:50.232             2.306                 Moscow           288.250
       471   12 Jun 2027 07:25:58.140   12 Jun 2027 07:27:59.094           120.954                Novosib         15119.250
       472   12 Jun 2027 09:01:24.821   12 Jun 2027 09:01:54.667            29.846              Murmansk2          3730.750
       473   12 Jun 2027 09:14:23.441   12 Jun 2027 09:15:32.836            69.395                Anadyr2          8674.375
       474   12 Jun 2027 10:08:02.323   12 Jun 2027 10:10:29.043           146.720               CapeTown         18340.000
       475   12 Jun 2027 10:12:35.739   12 Jun 2027 10:13:46.005            70.266               CapeTown          8783.250
       476   12 Jun 2027 10:48:31.852   12 Jun 2027 10:52:52.933           261.081                Anadyr1         32635.125
       477   12 Jun 2027 12:27:05.940   12 Jun 2027 12:31:33.753           267.813               Magadan2         33476.625
       478   12 Jun 2027 14:59:21.851   12 Jun 2027 15:00:51.981            90.130            RioGallegos         11266.250
       479   12 Jun 2027 15:42:38.991   12 Jun 2027 15:45:08.180           149.189                Irkutsk         18648.625
       480   12 Jun 2027 15:46:55.922   12 Jun 2027 15:48:34.396            98.474                Irkutsk         12309.250
       481   12 Jun 2027 15:56:54.008   12 Jun 2027 16:00:36.582           222.574                Sumatra         27821.750
       482   12 Jun 2027 17:19:25.718   12 Jun 2027 17:22:12.621           166.903                Novosib         20862.875
