uniorb/output/strategy_1/Drop/Drop_KinoSat_111206.txt

KinoSat_111206
-------------------------
    Access    *     Start Time (UTCG)     *     Stop Time (UTCG)  *   Duration (s)        *       Station  *  Data (Mbytes)
         1   01 Jun 2027 03:24:25.654   01 Jun 2027 03:24:58.820            33.166                Norilsk          1036.437
         2   01 Jun 2027 03:25:08.315   01 Jun 2027 03:25:57.846            49.531              Murmansk2          1547.844
         3   01 Jun 2027 03:25:57.846   01 Jun 2027 03:26:23.589            25.743              Murmansk1           804.469
         4   01 Jun 2027 03:26:41.913   01 Jun 2027 03:30:16.614           214.701                 Moscow          6709.406
         5   01 Jun 2027 03:43:06.008   01 Jun 2027 03:45:36.524           150.516               CapeTown          4703.625
         6   01 Jun 2027 04:46:11.351   01 Jun 2027 04:47:18.040            66.689               Magadan2          2084.031
         7   01 Jun 2027 04:47:18.315   01 Jun 2027 04:50:35.429           197.114                Anadyr2          6159.812
         8   01 Jun 2027 06:23:45.434   01 Jun 2027 06:24:14.210            28.776               Magadan2           899.250
         9   01 Jun 2027 06:24:33.069   01 Jun 2027 06:24:43.372            10.303               Magadan2           321.969
        10   01 Jun 2027 06:24:43.372   01 Jun 2027 06:27:07.214           143.842               Magadan1          4495.062
        11   01 Jun 2027 07:58:00.238   01 Jun 2027 07:58:04.778             4.540               Magadan1           141.875
        12   01 Jun 2027 07:58:04.778   01 Jun 2027 08:00:50.923           166.145               Magadan2          5192.031
        13   01 Jun 2027 08:00:50.923   01 Jun 2027 08:02:33.635           102.712               Magadan1          3209.750
        14   01 Jun 2027 08:02:35.732   01 Jun 2027 08:02:45.864            10.132               Magadan2           316.625
        15   01 Jun 2027 08:03:14.188   01 Jun 2027 08:04:00.126            45.938              Murmansk1          1435.562
        16   01 Jun 2027 08:04:43.996   01 Jun 2027 08:05:28.973            44.977              Murmansk1          1405.531
        17   01 Jun 2027 08:06:38.852   01 Jun 2027 08:07:08.848            29.996              Murmansk1           937.375
        18   01 Jun 2027 08:08:23.542   01 Jun 2027 08:08:28.407             4.865              Murmansk1           152.031
        19   01 Jun 2027 08:09:11.290   01 Jun 2027 08:09:57.053            45.763              Murmansk2          1430.094
        20   01 Jun 2027 08:38:55.801   01 Jun 2027 08:39:45.593            49.792            RioGallegos          1556.000
        21   01 Jun 2027 08:40:55.243   01 Jun 2027 08:41:27.661            32.418            RioGallegos          1013.062
        22   01 Jun 2027 09:15:17.065   01 Jun 2027 09:15:53.839            36.774                Sumatra          1149.188
        23   01 Jun 2027 09:35:07.209   01 Jun 2027 09:35:09.680             2.471                Novosib            77.219
        24   01 Jun 2027 09:35:25.410   01 Jun 2027 09:39:08.323           222.913                Norilsk          6966.031
        25   01 Jun 2027 09:39:09.905   01 Jun 2027 09:40:05.194            55.289                Irkutsk          1727.781
        26   01 Jun 2027 09:40:07.054   01 Jun 2027 09:41:28.647            81.593                Novosib          2549.781
        27   01 Jun 2027 09:41:29.089   01 Jun 2027 09:43:10.631           101.542              Murmansk1          3173.188
        28   01 Jun 2027 10:15:33.634   01 Jun 2027 10:16:06.960            33.326            RioGallegos          1041.438
        29   01 Jun 2027 10:16:43.852   01 Jun 2027 10:17:13.536            29.684            RioGallegos           927.625
        30   01 Jun 2027 10:18:11.773   01 Jun 2027 10:18:59.425            47.652            RioGallegos          1489.125
        31   01 Jun 2027 10:49:52.530   01 Jun 2027 10:50:46.368            53.838                Sumatra          1682.438
        32   01 Jun 2027 10:53:56.561   01 Jun 2027 10:54:42.842            46.281                Sumatra          1446.281
        33   01 Jun 2027 11:11:54.350   01 Jun 2027 11:13:54.743           120.393                Irkutsk          3762.281
        34   01 Jun 2027 11:14:30.357   01 Jun 2027 11:15:27.962            57.605                Novosib          1800.156
        35   01 Jun 2027 11:16:58.208   01 Jun 2027 11:17:12.389            14.181                Norilsk           443.156
        36   01 Jun 2027 11:17:19.720   01 Jun 2027 11:17:27.892             8.172              Murmansk2           255.375
        37   01 Jun 2027 11:17:34.907   01 Jun 2027 11:17:38.900             3.993                Norilsk           124.781
        38   01 Jun 2027 11:18:05.994   01 Jun 2027 11:18:59.626            53.632                Norilsk          1676.000
        39   01 Jun 2027 12:34:37.914   01 Jun 2027 12:37:36.714           178.800                  Delhi          5587.500
        40   01 Jun 2027 12:42:55.974   01 Jun 2027 12:43:18.004            22.030                Novosib           688.438
        41   01 Jun 2027 12:44:46.170   01 Jun 2027 12:45:46.988            60.818                Novosib          1900.563
        42   01 Jun 2027 12:45:54.591   01 Jun 2027 12:47:12.527            77.936              Murmansk2          2435.500
        43   01 Jun 2027 12:47:23.485   01 Jun 2027 12:47:42.892            19.407                Norilsk           606.469
        44   01 Jun 2027 12:48:35.774   01 Jun 2027 12:49:09.112            33.338                Norilsk          1041.812
        45   01 Jun 2027 12:49:37.143   01 Jun 2027 12:49:38.660             1.517                Norilsk            47.406
        46   01 Jun 2027 12:51:11.050   01 Jun 2027 12:51:30.373            19.323                Norilsk           603.844
        47   01 Jun 2027 14:18:16.426   01 Jun 2027 14:21:28.891           192.465                 Moscow          6014.531
        48   01 Jun 2027 14:21:46.472   01 Jun 2027 14:22:30.907            44.435                 Moscow          1388.594
        49   01 Jun 2027 14:23:10.771   01 Jun 2027 14:25:22.766           131.995              Murmansk1          4124.844
        50   01 Jun 2027 14:27:45.611   01 Jun 2027 14:28:50.517            64.906                Norilsk          2028.312
        51   01 Jun 2027 14:29:30.512   01 Jun 2027 14:31:11.193           100.681                Norilsk          3146.281
        52   01 Jun 2027 14:38:29.794   01 Jun 2027 14:38:51.707            21.913                Anadyr1           684.781
        53   01 Jun 2027 15:32:02.232   01 Jun 2027 15:32:25.416            23.184               CapeTown           724.500
        54   01 Jun 2027 15:33:51.825   01 Jun 2027 15:34:04.782            12.957               CapeTown           404.906
        55   01 Jun 2027 15:56:58.303   01 Jun 2027 15:57:04.203             5.900                 Moscow           184.375
        56   01 Jun 2027 15:59:30.801   01 Jun 2027 15:59:36.158             5.357              Murmansk2           167.406
        57   01 Jun 2027 16:00:57.084   01 Jun 2027 16:01:28.483            31.399              Murmansk1           981.219
        58   01 Jun 2027 16:01:33.570   01 Jun 2027 16:01:48.654            15.084                 Moscow           471.375
        59   01 Jun 2027 16:02:46.705   01 Jun 2027 16:03:43.545            56.840              Murmansk1          1776.250
        60   01 Jun 2027 16:04:44.922   01 Jun 2027 16:05:04.925            20.003              Murmansk2           625.094
        61   01 Jun 2027 16:12:29.756   01 Jun 2027 16:16:07.843           218.087                Anadyr2          6815.219
        62   01 Jun 2027 17:08:03.553   01 Jun 2027 17:09:38.606            95.053               CapeTown          2970.406
        63   01 Jun 2027 17:39:51.756   01 Jun 2027 17:44:44.838           293.082              Murmansk1          9158.813
        64   01 Jun 2027 17:48:14.244   01 Jun 2027 17:48:57.600            43.356                Anadyr1          1354.875
        65   01 Jun 2027 17:51:04.982   01 Jun 2027 17:54:17.916           192.934               Magadan1          6029.187
        66   01 Jun 2027 19:24:10.028   01 Jun 2027 19:26:12.698           122.670                Anadyr2          3833.437
        67   01 Jun 2027 19:26:27.138   01 Jun 2027 19:29:51.024           203.886               Magadan2          6371.437
        68   01 Jun 2027 19:30:17.511   01 Jun 2027 19:30:50.151            32.640               Magadan1          1020.000
        69   01 Jun 2027 19:33:36.221   01 Jun 2027 19:33:37.863             1.642               Magadan2            51.312
        70   01 Jun 2027 20:19:28.535   01 Jun 2027 20:22:30.294           181.759            RioGallegos          5679.969
        71   01 Jun 2027 20:25:47.869   01 Jun 2027 20:25:58.854            10.985            RioGallegos           343.281
        72   01 Jun 2027 20:59:55.514   01 Jun 2027 21:02:06.197           130.683                Anadyr1          4083.844
        73   01 Jun 2027 21:02:25.295   01 Jun 2027 21:03:27.013            61.718               Magadan1          1928.687
        74   01 Jun 2027 21:03:58.507   01 Jun 2027 21:04:04.611             6.104               Magadan1           190.750
        75   01 Jun 2027 21:04:07.892   01 Jun 2027 21:05:21.638            73.746                Norilsk          2304.563
        76   01 Jun 2027 21:05:33.456   01 Jun 2027 21:05:48.330            14.874                Norilsk           464.813
        77   01 Jun 2027 21:06:39.121   01 Jun 2027 21:07:38.166            59.045                Irkutsk          1845.156
        78   01 Jun 2027 21:09:37.125   01 Jun 2027 21:10:02.956            25.831                Irkutsk           807.219
        79   01 Jun 2027 21:20:58.846   01 Jun 2027 21:23:49.272           170.426                Sumatra          5325.812
        80   01 Jun 2027 21:25:56.886   01 Jun 2027 21:26:24.735            27.849                Sumatra           870.281
        81   01 Jun 2027 22:38:32.132   01 Jun 2027 22:40:10.361            98.229               Magadan1          3069.656
        82   01 Jun 2027 22:40:10.361   01 Jun 2027 22:40:29.847            19.486               Magadan2           608.937
        83   01 Jun 2027 22:41:47.392   01 Jun 2027 22:42:07.105            19.713                Irkutsk           616.031
        84   01 Jun 2027 22:42:14.656   01 Jun 2027 22:43:46.676            92.020                Novosib          2875.625
        85   01 Jun 2027 22:45:32.885   01 Jun 2027 22:45:39.129             6.244                Novosib           195.125
        86   01 Jun 2027 22:47:53.954   01 Jun 2027 22:48:10.546            16.592                Novosib           518.500
        87   01 Jun 2027 22:51:02.685   01 Jun 2027 22:53:39.360           156.675                  Delhi          4896.094
        88   02 Jun 2027 00:08:56.019   02 Jun 2027 00:09:03.995             7.976                Anadyr2           249.250
        89   02 Jun 2027 00:09:40.239   02 Jun 2027 00:10:14.715            34.476                Anadyr2          1077.375
        90   02 Jun 2027 00:11:13.840   02 Jun 2027 00:11:50.861            37.021                Anadyr1          1156.906
        91   02 Jun 2027 00:13:55.303   02 Jun 2027 00:14:12.149            16.846                Norilsk           526.438
        92   02 Jun 2027 00:14:24.446   02 Jun 2027 00:14:43.114            18.668               Magadan2           583.375
        93   02 Jun 2027 00:14:43.114   02 Jun 2027 00:15:30.920            47.806               Magadan1          1493.938
        94   02 Jun 2027 00:15:33.339   02 Jun 2027 00:15:37.968             4.629               Magadan2           144.656
        95   02 Jun 2027 00:15:42.637   02 Jun 2027 00:15:54.017            11.380                Norilsk           355.625
        96   02 Jun 2027 00:16:11.453   02 Jun 2027 00:16:24.133            12.680               Magadan2           396.250
        97   02 Jun 2027 00:16:34.330   02 Jun 2027 00:21:16.138           281.808              Murmansk2          8806.500
        98   02 Jun 2027 00:27:15.929   02 Jun 2027 00:27:22.948             7.019                  Delhi           219.344
        99   02 Jun 2027 00:29:09.086   02 Jun 2027 00:29:20.997            11.911                  Delhi           372.219
       100   02 Jun 2027 00:29:50.708   02 Jun 2027 00:30:51.303            60.595                  Delhi          1893.594
       101   02 Jun 2027 01:07:27.473   02 Jun 2027 01:08:02.888            35.415            RioGallegos          1106.719
       102   02 Jun 2027 01:42:13.357   02 Jun 2027 01:42:37.508            24.151                Anadyr2           754.719
       103   02 Jun 2027 01:42:37.711   02 Jun 2027 01:42:48.511            10.800                Anadyr1           337.500
       104   02 Jun 2027 01:43:29.316   02 Jun 2027 01:44:57.060            87.744                Anadyr1          2742.000
       105   02 Jun 2027 01:48:01.008   02 Jun 2027 01:48:30.865            29.857               Magadan2           933.031
       106   02 Jun 2027 01:48:50.504   02 Jun 2027 01:49:04.957            14.453               Magadan1           451.656
       107   02 Jun 2027 01:49:38.153   02 Jun 2027 01:50:04.872            26.719               Magadan2           834.969
       108   02 Jun 2027 01:50:04.872   02 Jun 2027 01:50:27.776            22.904               Magadan1           715.750
       109   02 Jun 2027 01:52:03.992   02 Jun 2027 01:52:55.473            51.481              Murmansk1          1608.781
       110   02 Jun 2027 01:53:22.181   02 Jun 2027 01:53:46.739            24.558              Murmansk2           767.437
       111   02 Jun 2027 01:53:53.327   02 Jun 2027 01:54:53.760            60.433                Novosib          1888.531
       112   02 Jun 2027 01:55:39.984   02 Jun 2027 01:56:05.439            25.455                 Moscow           795.469
       113   02 Jun 2027 01:56:12.088   02 Jun 2027 01:56:14.493             2.405                 Moscow            75.156
       114   02 Jun 2027 01:56:32.590   02 Jun 2027 01:57:11.366            38.776                 Moscow          1211.750
       115   02 Jun 2027 02:04:29.793   02 Jun 2027 02:04:57.903            28.110                  Delhi           878.438
       116   02 Jun 2027 02:20:57.994   02 Jun 2027 02:21:20.273            22.279               CapeTown           696.219
       117   02 Jun 2027 02:24:37.994   02 Jun 2027 02:25:54.444            76.450               CapeTown          2389.062
       118   02 Jun 2027 03:36:49.357   02 Jun 2027 03:40:52.777           243.420              Murmansk2          7606.875
       119   02 Jun 2027 03:59:02.652   02 Jun 2027 03:59:41.851            39.199               CapeTown          1224.969
       120   02 Jun 2027 04:51:59.442   02 Jun 2027 04:52:47.502            48.060                Anadyr1          1501.875
       121   02 Jun 2027 04:58:09.149   02 Jun 2027 04:58:40.802            31.653               Magadan2           989.156
       122   02 Jun 2027 04:58:40.802   02 Jun 2027 04:58:44.129             3.327               Magadan1           103.969
       123   02 Jun 2027 04:58:45.827   02 Jun 2027 04:58:51.237             5.410               Magadan1           169.063
       124   02 Jun 2027 04:59:00.355   02 Jun 2027 05:01:22.920           142.565                Anadyr1          4455.156
       125   02 Jun 2027 05:01:40.600   02 Jun 2027 05:02:07.931            27.331                Anadyr1           854.094
       126   02 Jun 2027 06:35:51.616   02 Jun 2027 06:36:46.665            55.049               Magadan2          1720.281
       127   02 Jun 2027 06:36:48.170   02 Jun 2027 06:37:17.358            29.188                Anadyr1           912.125
       128   02 Jun 2027 06:37:41.760   02 Jun 2027 06:38:17.616            35.856                Irkutsk          1120.500
       129   02 Jun 2027 06:38:21.929   02 Jun 2027 06:39:22.977            61.048                Norilsk          1907.750
       130   02 Jun 2027 06:39:35.269   02 Jun 2027 06:40:23.772            48.503               Magadan1          1515.719
       131   02 Jun 2027 06:40:25.638   02 Jun 2027 06:41:08.808            43.170              Murmansk1          1349.063
       132   02 Jun 2027 06:41:10.672   02 Jun 2027 06:41:39.471            28.799                Norilsk           899.969
       133   02 Jun 2027 08:10:53.410   02 Jun 2027 08:11:33.343            39.933               Magadan2          1247.906
       134   02 Jun 2027 08:11:51.545   02 Jun 2027 08:14:00.058           128.513                Irkutsk          4016.031
       135   02 Jun 2027 08:14:17.622   02 Jun 2027 08:14:51.125            33.503                Novosib          1046.969
       136   02 Jun 2027 08:15:01.519   02 Jun 2027 08:15:19.808            18.289                Norilsk           571.531
       137   02 Jun 2027 08:15:26.227   02 Jun 2027 08:16:41.585            75.358                Norilsk          2354.938
       138   02 Jun 2027 08:17:26.582   02 Jun 2027 08:19:06.001            99.419              Murmansk1          3106.844
       139   02 Jun 2027 08:50:50.497   02 Jun 2027 08:53:38.665           168.168            RioGallegos          5255.250
       140   02 Jun 2027 09:26:43.352   02 Jun 2027 09:28:06.249            82.897                Sumatra          2590.531
       141   02 Jun 2027 09:47:31.241   02 Jun 2027 09:47:44.515            13.274                Irkutsk           414.813
       142   02 Jun 2027 09:47:50.451   02 Jun 2027 09:49:37.690           107.239                Novosib          3351.219
       143   02 Jun 2027 09:49:39.352   02 Jun 2027 09:50:18.554            39.202                Norilsk          1225.062
       144   02 Jun 2027 09:50:20.976   02 Jun 2027 09:51:03.551            42.575              Murmansk2          1330.469
       145   02 Jun 2027 09:51:10.535   02 Jun 2027 09:52:36.712            86.177              Murmansk1          2693.031
       146   02 Jun 2027 10:27:58.406   02 Jun 2027 10:28:55.019            56.613            RioGallegos          1769.156
       147   02 Jun 2027 10:30:42.789   02 Jun 2027 10:30:54.657            11.868            RioGallegos           370.875
       148   02 Jun 2027 10:32:53.782   02 Jun 2027 10:33:11.382            17.600            RioGallegos           550.000
       149   02 Jun 2027 11:02:12.320   02 Jun 2027 11:03:40.342            88.022                Sumatra          2750.687
       150   02 Jun 2027 11:06:33.506   02 Jun 2027 11:07:33.620            60.114                Sumatra          1878.563
       151   02 Jun 2027 11:24:58.281   02 Jun 2027 11:25:27.665            29.384                Norilsk           918.250
       152   02 Jun 2027 11:25:37.239   02 Jun 2027 11:27:57.893           140.654                Norilsk          4395.438
       153   02 Jun 2027 11:28:35.387   02 Jun 2027 11:30:36.012           120.625                 Moscow          3769.531
       154   02 Jun 2027 12:47:10.534   02 Jun 2027 12:50:16.972           186.438                  Delhi          5826.188
       155   02 Jun 2027 12:55:36.751   02 Jun 2027 12:56:52.927            76.176                Novosib          2380.500
       156   02 Jun 2027 12:57:50.774   02 Jun 2027 12:59:14.050            83.276              Murmansk2          2602.375
       157   02 Jun 2027 12:59:24.215   02 Jun 2027 12:59:48.858            24.643                Norilsk           770.094
       158   02 Jun 2027 13:00:03.009   02 Jun 2027 13:00:24.890            21.881                Novosib           683.781
       159   02 Jun 2027 13:00:59.860   02 Jun 2027 13:01:28.145            28.285                Norilsk           883.906
       160   02 Jun 2027 13:03:32.676   02 Jun 2027 13:03:57.887            25.211                Norilsk           787.844
       161   02 Jun 2027 14:30:25.097   02 Jun 2027 14:32:16.984           111.887                 Moscow          3496.469
       162   02 Jun 2027 14:33:56.171   02 Jun 2027 14:37:25.270           209.099              Murmansk2          6534.344
       163   02 Jun 2027 14:40:53.157   02 Jun 2027 14:41:09.652            16.495              Murmansk2           515.469
       164   02 Jun 2027 14:41:32.630   02 Jun 2027 14:43:19.046           106.416                Norilsk          3325.500
       165   02 Jun 2027 14:49:50.125   02 Jun 2027 14:50:44.714            54.589                Anadyr2          1705.906
       166   02 Jun 2027 14:51:40.488   02 Jun 2027 14:51:41.827             1.339                Anadyr1            41.844
       167   02 Jun 2027 14:51:58.041   02 Jun 2027 14:52:35.733            37.692                Anadyr1          1177.875
       168   02 Jun 2027 15:43:53.823   02 Jun 2027 15:44:58.821            64.998               CapeTown          2031.187
       169   02 Jun 2027 16:09:45.617   02 Jun 2027 16:10:31.090            45.473                 Moscow          1421.031
       170   02 Jun 2027 16:11:55.225   02 Jun 2027 16:12:40.077            44.852              Murmansk2          1401.625
       171   02 Jun 2027 16:13:20.075   02 Jun 2027 16:14:36.247            76.172              Murmansk2          2380.375
       172   02 Jun 2027 16:15:45.683   02 Jun 2027 16:16:44.426            58.743              Murmansk1          1835.719
       173   02 Jun 2027 16:24:28.031   02 Jun 2027 16:24:37.825             9.794                Anadyr1           306.062
       174   02 Jun 2027 16:24:37.825   02 Jun 2027 16:26:45.045           127.220                Anadyr2          3975.625
       175   02 Jun 2027 17:20:20.207   02 Jun 2027 17:21:44.029            83.822               CapeTown          2619.437
       176   02 Jun 2027 17:52:46.597   02 Jun 2027 17:57:17.223           270.626              Murmansk2          8457.063
       177   02 Jun 2027 18:00:15.578   02 Jun 2027 18:00:53.911            38.333                Anadyr1          1197.906
       178   02 Jun 2027 18:01:37.916   02 Jun 2027 18:02:19.556            41.640                Anadyr1          1301.250
       179   02 Jun 2027 18:02:57.826   02 Jun 2027 18:04:35.535            97.709               Magadan2          3053.406
       180   02 Jun 2027 19:36:11.173   02 Jun 2027 19:38:14.330           123.157                Anadyr2          3848.656
       181   02 Jun 2027 19:38:27.786   02 Jun 2027 19:42:01.227           213.441               Magadan1          6670.031
       182   02 Jun 2027 19:42:01.227   02 Jun 2027 19:42:37.148            35.921               Magadan2          1122.531
       183   02 Jun 2027 19:45:08.224   02 Jun 2027 19:45:36.768            28.544               Magadan1           892.000
       184   02 Jun 2027 19:51:19.633   02 Jun 2027 19:51:21.931             2.298               Magadan1            71.812
       185   02 Jun 2027 20:31:05.895   02 Jun 2027 20:33:55.082           169.187            RioGallegos          5287.094
       186   02 Jun 2027 20:34:15.354   02 Jun 2027 20:34:19.527             4.173            RioGallegos           130.406
       187   02 Jun 2027 20:35:32.648   02 Jun 2027 20:35:34.085             1.437            RioGallegos            44.906
       188   02 Jun 2027 20:36:11.019   02 Jun 2027 20:37:33.092            82.073            RioGallegos          2564.781
       189   02 Jun 2027 21:11:53.690   02 Jun 2027 21:12:30.901            37.211                Anadyr1          1162.844
       190   02 Jun 2027 21:14:03.311   02 Jun 2027 21:16:21.007           137.696                Norilsk          4303.000
       191   02 Jun 2027 21:18:08.367   02 Jun 2027 21:18:21.725            13.358               Magadan1           417.437
       192   02 Jun 2027 21:18:27.692   02 Jun 2027 21:20:54.411           146.719                Irkutsk          4584.969
       193   02 Jun 2027 21:21:31.457   02 Jun 2027 21:21:51.235            19.778                Irkutsk           618.063
       194   02 Jun 2027 21:32:30.193   02 Jun 2027 21:35:39.243           189.050                Sumatra          5907.812
       195   02 Jun 2027 22:47:44.673   02 Jun 2027 22:48:46.281            61.608                Anadyr2          1925.250
       196   02 Jun 2027 22:49:16.558   02 Jun 2027 22:49:50.339            33.781                Anadyr2          1055.656
       197   02 Jun 2027 22:50:34.742   02 Jun 2027 22:51:01.715            26.973               Magadan2           842.906
       198   02 Jun 2027 22:51:54.750   02 Jun 2027 22:52:03.164             8.414               Magadan2           262.938
       199   02 Jun 2027 22:52:11.139   02 Jun 2027 22:52:28.557            17.418               Magadan2           544.313
       200   02 Jun 2027 22:53:48.580   02 Jun 2027 22:54:22.561            33.981                Irkutsk          1061.906
       201   02 Jun 2027 22:54:32.675   02 Jun 2027 22:55:46.239            73.564                Novosib          2298.875
       202   02 Jun 2027 22:57:10.100   02 Jun 2027 22:57:22.170            12.070                Novosib           377.187
       203   02 Jun 2027 22:59:38.461   02 Jun 2027 23:00:24.768            46.307                Novosib          1447.094
       204   02 Jun 2027 23:02:27.117   02 Jun 2027 23:04:59.757           152.640                  Delhi          4770.000
       205   02 Jun 2027 23:50:17.313   02 Jun 2027 23:50:26.386             9.073            RioGallegos           283.531
       206   02 Jun 2027 23:50:38.397   02 Jun 2027 23:50:57.212            18.815            RioGallegos           587.969
       207   02 Jun 2027 23:51:52.347   02 Jun 2027 23:52:59.362            67.015            RioGallegos          2094.219
       208   03 Jun 2027 00:20:37.810   03 Jun 2027 00:20:45.871             8.061                Anadyr2           251.906
       209   03 Jun 2027 00:21:32.275   03 Jun 2027 00:21:44.162            11.887                Anadyr2           371.469
       210   03 Jun 2027 00:23:08.627   03 Jun 2027 00:23:22.880            14.253                Anadyr2           445.406
       211   03 Jun 2027 00:25:32.191   03 Jun 2027 00:25:59.434            27.243                Anadyr1           851.344
       212   03 Jun 2027 00:26:14.097   03 Jun 2027 00:27:52.266            98.169                Norilsk          3067.781
       213   03 Jun 2027 00:28:16.737   03 Jun 2027 00:28:26.711             9.974               Magadan2           311.688
       214   03 Jun 2027 00:28:28.015   03 Jun 2027 00:30:18.747           110.732              Murmansk2          3460.375
       215   03 Jun 2027 00:30:27.236   03 Jun 2027 00:31:21.851            54.615              Murmansk1          1706.719
       216   03 Jun 2027 00:31:42.961   03 Jun 2027 00:32:19.523            36.562              Murmansk1          1142.562
       217   03 Jun 2027 00:34:53.092   03 Jun 2027 00:36:01.577            68.485                 Moscow          2140.156
       218   03 Jun 2027 00:42:07.052   03 Jun 2027 00:42:31.771            24.719                  Delhi           772.469
       219   03 Jun 2027 00:45:40.019   03 Jun 2027 00:46:03.918            23.899                  Delhi           746.844
       220   03 Jun 2027 00:46:49.062   03 Jun 2027 00:47:32.698            43.636                  Delhi          1363.625
       221   03 Jun 2027 01:20:05.510   03 Jun 2027 01:20:39.279            33.769            RioGallegos          1055.281
       222   03 Jun 2027 01:22:12.902   03 Jun 2027 01:23:22.269            69.367            RioGallegos          2167.719
       223   03 Jun 2027 01:53:56.699   03 Jun 2027 01:54:31.129            34.430                Anadyr2          1075.938
       224   03 Jun 2027 01:55:28.192   03 Jun 2027 01:56:09.977            41.785                Anadyr1          1305.781
       225   03 Jun 2027 01:59:30.347   03 Jun 2027 02:00:04.268            33.921               Magadan2          1060.031
       226   03 Jun 2027 02:00:04.268   03 Jun 2027 02:00:51.528            47.260               Magadan1          1476.875
       227   03 Jun 2027 02:01:48.308   03 Jun 2027 02:02:06.941            18.633                Norilsk           582.281
       228   03 Jun 2027 02:03:16.275   03 Jun 2027 02:03:43.713            27.438               Magadan1           857.437
       229   03 Jun 2027 02:04:05.073   03 Jun 2027 02:04:56.753            51.680              Murmansk2          1615.000
       230   03 Jun 2027 02:05:05.160   03 Jun 2027 02:05:05.229             0.069              Murmansk1             2.156
       231   03 Jun 2027 02:05:51.971   03 Jun 2027 02:06:19.076            27.105              Murmansk1           847.031
       232   03 Jun 2027 02:06:41.450   03 Jun 2027 02:08:51.377           129.927                Novosib          4060.219
       233   03 Jun 2027 02:19:03.677   03 Jun 2027 02:19:11.773             8.096                 Moscow           253.000
       234   03 Jun 2027 02:33:18.722   03 Jun 2027 02:33:26.944             8.222               CapeTown           256.938
       235   03 Jun 2027 02:33:46.198   03 Jun 2027 02:34:12.320            26.122               CapeTown           816.312
       236   03 Jun 2027 02:37:39.009   03 Jun 2027 02:38:06.513            27.504               CapeTown           859.500
       237   03 Jun 2027 02:38:57.489   03 Jun 2027 02:38:58.804             1.315               CapeTown            41.094
       238   03 Jun 2027 02:39:11.154   03 Jun 2027 02:40:07.306            56.152               CapeTown          1754.750
       239   03 Jun 2027 03:47:15.591   03 Jun 2027 03:47:43.759            28.168              Murmansk2           880.250
       240   03 Jun 2027 03:47:54.290   03 Jun 2027 03:48:16.442            22.152              Murmansk2           692.250
       241   03 Jun 2027 03:48:58.717   03 Jun 2027 03:49:59.255            60.538              Murmansk1          1891.813
       242   03 Jun 2027 03:52:45.636   03 Jun 2027 03:52:47.445             1.809              Murmansk2            56.531
       243   03 Jun 2027 03:54:06.320   03 Jun 2027 03:54:36.828            30.508                 Moscow           953.375
       244   03 Jun 2027 05:10:36.584   03 Jun 2027 05:10:43.170             6.586               Magadan2           205.812
       245   03 Jun 2027 05:10:43.170   03 Jun 2027 05:11:12.555            29.385               Magadan1           918.281
       246   03 Jun 2027 05:11:20.547   03 Jun 2027 05:13:41.948           141.401               Magadan2          4418.781
       247   03 Jun 2027 05:13:47.081   03 Jun 2027 05:14:33.893            46.812                Norilsk          1462.875
       248   03 Jun 2027 05:14:35.239   03 Jun 2027 05:14:59.828            24.589               Magadan2           768.406
       249   03 Jun 2027 05:16:33.327   03 Jun 2027 05:16:47.413            14.086                Anadyr1           440.187
       250   03 Jun 2027 06:45:30.342   03 Jun 2027 06:46:09.331            38.989                Irkutsk          1218.406
       251   03 Jun 2027 06:46:43.137   03 Jun 2027 06:46:56.501            13.364                Irkutsk           417.625
       252   03 Jun 2027 06:48:15.297   03 Jun 2027 06:48:38.306            23.009               Magadan2           719.031
       253   03 Jun 2027 06:48:46.827   03 Jun 2027 06:49:53.035            66.208                Anadyr1          2069.000
       254   03 Jun 2027 06:49:53.035   03 Jun 2027 06:52:23.466           150.431                Anadyr2          4700.969
       255   03 Jun 2027 08:23:18.818   03 Jun 2027 08:24:16.317            57.499               Magadan2          1796.844
       256   03 Jun 2027 08:24:27.013   03 Jun 2027 08:24:56.006            28.993               Magadan2           906.031
       257   03 Jun 2027 08:24:58.169   03 Jun 2027 08:25:59.183            61.014                Novosib          1906.687
       258   03 Jun 2027 08:26:20.745   03 Jun 2027 08:29:07.135           166.390                Novosib          5199.687
       259   03 Jun 2027 08:30:07.100   03 Jun 2027 08:30:33.119            26.019              Murmansk2           813.094
       260   03 Jun 2027 09:02:48.425   03 Jun 2027 09:04:03.777            75.352            RioGallegos          2354.750
       261   03 Jun 2027 09:04:07.471   03 Jun 2027 09:04:19.283            11.812            RioGallegos           369.125
       262   03 Jun 2027 09:04:52.765   03 Jun 2027 09:05:23.926            31.161            RioGallegos           973.781
       263   03 Jun 2027 09:38:59.130   03 Jun 2027 09:40:19.200            80.070                Sumatra          2502.187
       264   03 Jun 2027 09:52:07.836   03 Jun 2027 09:52:12.079             4.243                  Delhi           132.594
       265   03 Jun 2027 09:58:57.183   03 Jun 2027 10:00:31.303            94.120                Irkutsk          2941.250
       266   03 Jun 2027 10:00:48.552   03 Jun 2027 10:01:09.971            21.419              Murmansk2           669.344
       267   03 Jun 2027 10:01:09.971   03 Jun 2027 10:02:06.252            56.281              Murmansk1          1758.781
       268   03 Jun 2027 10:02:06.252   03 Jun 2027 10:03:06.738            60.486              Murmansk2          1890.188
       269   03 Jun 2027 10:03:20.336   03 Jun 2027 10:04:45.378            85.042              Murmansk1          2657.563
       270   03 Jun 2027 10:05:32.045   03 Jun 2027 10:05:39.783             7.738              Murmansk1           241.812
       271   03 Jun 2027 10:40:28.675   03 Jun 2027 10:41:06.954            38.279            RioGallegos          1196.219
       272   03 Jun 2027 10:41:26.066   03 Jun 2027 10:42:20.189            54.123            RioGallegos          1691.344
       273   03 Jun 2027 10:44:35.180   03 Jun 2027 10:45:26.052            50.872            RioGallegos          1589.750
       274   03 Jun 2027 11:14:40.791   03 Jun 2027 11:15:41.682            60.891                Sumatra          1902.844
       275   03 Jun 2027 11:18:20.771   03 Jun 2027 11:18:49.460            28.689                Sumatra           896.531
       276   03 Jun 2027 11:35:31.852   03 Jun 2027 11:35:38.093             6.241                Irkutsk           195.031
       277   03 Jun 2027 11:35:39.431   03 Jun 2027 11:36:04.208            24.777                Novosib           774.281
       278   03 Jun 2027 11:36:05.101   03 Jun 2027 11:36:40.327            35.226              Murmansk2          1100.813
       279   03 Jun 2027 11:36:43.433   03 Jun 2027 11:37:04.542            21.109                 Moscow           659.656
       280   03 Jun 2027 11:37:07.842   03 Jun 2027 11:37:21.190            13.348              Murmansk1           417.125
       281   03 Jun 2027 11:37:25.550   03 Jun 2027 11:37:37.830            12.280                Norilsk           383.750
       282   03 Jun 2027 11:37:47.455   03 Jun 2027 11:38:22.957            35.502                Norilsk          1109.438
       283   03 Jun 2027 11:38:38.076   03 Jun 2027 11:39:15.091            37.015                 Moscow          1156.719
       284   03 Jun 2027 11:39:19.385   03 Jun 2027 11:39:53.754            34.369              Murmansk1          1074.031
       285   03 Jun 2027 11:40:20.622   03 Jun 2027 11:40:27.260             6.638              Murmansk1           207.438
       286   03 Jun 2027 11:43:14.385   03 Jun 2027 11:43:23.604             9.219              Murmansk1           288.094
       287   03 Jun 2027 12:59:54.730   03 Jun 2027 13:02:55.972           181.242                  Delhi          5663.812
       288   03 Jun 2027 13:03:36.425   03 Jun 2027 13:04:40.128            63.703                  Delhi          1990.719
       289   03 Jun 2027 13:09:14.260   03 Jun 2027 13:09:38.763            24.503                Novosib           765.719
       290   03 Jun 2027 13:09:48.260   03 Jun 2027 13:12:10.211           141.951              Murmansk1          4435.969
       291   03 Jun 2027 13:12:44.606   03 Jun 2027 13:13:29.874            45.268                Norilsk          1414.625
       292   03 Jun 2027 13:18:47.536   03 Jun 2027 13:19:09.611            22.075                Norilsk           689.844
       293   03 Jun 2027 14:24:02.293   03 Jun 2027 14:25:13.410            71.117               CapeTown          2222.406
       294   03 Jun 2027 14:26:02.303   03 Jun 2027 14:26:50.310            48.007               CapeTown          1500.219
       295   03 Jun 2027 14:42:37.048   03 Jun 2027 14:44:16.818            99.770                 Moscow          3117.812
       296   03 Jun 2027 14:46:06.180   03 Jun 2027 14:47:45.191            99.011              Murmansk2          3094.094
       297   03 Jun 2027 14:49:26.073   03 Jun 2027 14:49:39.241            13.168              Murmansk1           411.500
       298   03 Jun 2027 14:55:14.967   03 Jun 2027 14:55:32.197            17.230              Murmansk1           538.437
       299   03 Jun 2027 14:57:11.890   03 Jun 2027 14:58:10.356            58.466              Murmansk1          1827.063
       300   03 Jun 2027 15:01:28.377   03 Jun 2027 15:03:30.177           121.800                Anadyr1          3806.250
       301   03 Jun 2027 15:55:48.813   03 Jun 2027 15:56:07.347            18.534               CapeTown           579.188
       302   03 Jun 2027 15:59:35.107   03 Jun 2027 15:59:51.555            16.448               CapeTown           514.000
       303   03 Jun 2027 16:02:46.570   03 Jun 2027 16:03:44.911            58.341               CapeTown          1823.156
       304   03 Jun 2027 16:23:04.354   03 Jun 2027 16:23:46.540            42.186                 Moscow          1318.313
       305   03 Jun 2027 16:24:22.120   03 Jun 2027 16:24:52.220            30.100              Murmansk2           940.625
       306   03 Jun 2027 16:27:03.493   03 Jun 2027 16:28:43.198            99.705              Murmansk2          3115.781
       307   03 Jun 2027 16:36:27.028   03 Jun 2027 16:37:30.172            63.144                Anadyr2          1973.250
       308   03 Jun 2027 16:37:52.308   03 Jun 2027 16:38:18.417            26.109                Anadyr1           815.906
       309   03 Jun 2027 16:38:18.417   03 Jun 2027 16:38:29.868            11.451                Anadyr2           357.844
       310   03 Jun 2027 16:39:57.359   03 Jun 2027 16:40:13.786            16.427                Anadyr1           513.344
       311   03 Jun 2027 16:44:10.336   03 Jun 2027 16:44:14.573             4.237                Anadyr1           132.406
       312   03 Jun 2027 16:45:39.464   03 Jun 2027 16:46:45.748            66.284                Anadyr2          2071.375
       313   03 Jun 2027 17:34:51.442   03 Jun 2027 17:35:52.951            61.509               CapeTown          1922.156
       314   03 Jun 2027 18:05:53.821   03 Jun 2027 18:09:16.540           202.719              Murmansk1          6334.969
       315   03 Jun 2027 18:12:17.011   03 Jun 2027 18:13:18.324            61.313                Anadyr2          1916.031
       316   03 Jun 2027 18:13:36.563   03 Jun 2027 18:13:46.158             9.595                Anadyr2           299.844
       317   03 Jun 2027 18:14:14.036   03 Jun 2027 18:14:20.412             6.376                Anadyr2           199.250
       318   03 Jun 2027 18:14:45.335   03 Jun 2027 18:15:13.024            27.689                Anadyr1           865.281
       319   03 Jun 2027 18:15:37.564   03 Jun 2027 18:17:34.559           116.995               Magadan2          3656.094
       320   03 Jun 2027 19:48:12.130   03 Jun 2027 19:50:15.924           123.794                Anadyr2          3868.562
       321   03 Jun 2027 19:50:28.849   03 Jun 2027 19:54:42.679           253.830               Magadan2          7932.188
       322   03 Jun 2027 19:57:56.099   03 Jun 2027 19:58:27.994            31.895               Magadan1           996.719
       323   03 Jun 2027 20:42:49.424   03 Jun 2027 20:45:26.241           156.817            RioGallegos          4900.531
       324   03 Jun 2027 20:45:47.034   03 Jun 2027 20:46:11.486            24.452            RioGallegos           764.125
       325   03 Jun 2027 20:51:16.292   03 Jun 2027 20:51:27.847            11.555            RioGallegos           361.094
       326   03 Jun 2027 20:52:12.306   03 Jun 2027 20:52:13.794             1.488            RioGallegos            46.500
       327   03 Jun 2027 21:23:51.202   03 Jun 2027 21:24:32.499            41.297                Anadyr2          1290.531
       328   03 Jun 2027 21:26:03.199   03 Jun 2027 21:29:22.520           199.321                Norilsk          6228.781
       329   03 Jun 2027 21:30:19.133   03 Jun 2027 21:31:53.313            94.180                Irkutsk          2943.125
       330   03 Jun 2027 21:33:19.386   03 Jun 2027 21:33:54.199            34.813                Novosib          1087.906
       331   03 Jun 2027 21:34:31.755   03 Jun 2027 21:34:56.422            24.667                Novosib           770.844
       332   03 Jun 2027 21:44:09.895   03 Jun 2027 21:45:44.249            94.354                Sumatra          2948.563
       333   03 Jun 2027 21:46:29.622   03 Jun 2027 21:47:34.624            65.002                Sumatra          2031.312
       334   03 Jun 2027 23:00:45.010   03 Jun 2027 23:01:33.740            48.730                Anadyr1          1522.812
       335   03 Jun 2027 23:01:58.964   03 Jun 2027 23:02:44.708            45.744                Norilsk          1429.500
       336   03 Jun 2027 23:03:24.200   03 Jun 2027 23:03:59.625            35.425                Norilsk          1107.031
       337   03 Jun 2027 23:04:41.741   03 Jun 2027 23:05:19.098            37.357               Magadan2          1167.406
       338   03 Jun 2027 23:06:03.243   03 Jun 2027 23:07:12.264            69.021                Novosib          2156.906
       339   03 Jun 2027 23:08:10.159   03 Jun 2027 23:08:31.258            21.099                Novosib           659.344
       340   03 Jun 2027 23:09:57.074   03 Jun 2027 23:11:15.055            77.981                Novosib          2436.906
       341   03 Jun 2027 23:14:01.746   03 Jun 2027 23:14:45.355            43.609                  Delhi          1362.781
       342   03 Jun 2027 23:15:25.513   03 Jun 2027 23:17:12.966           107.453                  Delhi          3357.906
       343   04 Jun 2027 00:32:19.148   04 Jun 2027 00:32:32.892            13.744                Anadyr2           429.500
       344   04 Jun 2027 00:33:25.896   04 Jun 2027 00:34:12.363            46.467                Anadyr1          1452.094
       345   04 Jun 2027 00:35:05.292   04 Jun 2027 00:35:30.437            25.145                Anadyr2           785.781
       346   04 Jun 2027 00:37:53.036   04 Jun 2027 00:38:08.433            15.397                Anadyr1           481.156
       347   04 Jun 2027 00:38:14.360   04 Jun 2027 00:38:50.192            35.832               Magadan2          1119.750
       348   04 Jun 2027 00:39:02.638   04 Jun 2027 00:39:25.482            22.844               Magadan2           713.875
       349   04 Jun 2027 00:39:44.786   04 Jun 2027 00:40:11.712            26.926               Magadan2           841.437
       350   04 Jun 2027 00:40:23.821   04 Jun 2027 00:42:19.672           115.851              Murmansk2          3620.344
       351   04 Jun 2027 00:42:39.640   04 Jun 2027 00:43:19.025            39.385              Murmansk1          1230.781
       352   04 Jun 2027 00:45:39.733   04 Jun 2027 00:47:02.919            83.186                 Moscow          2599.562
       353   04 Jun 2027 00:47:30.049   04 Jun 2027 00:47:49.369            19.320                 Moscow           603.750
       354   04 Jun 2027 00:48:06.415   04 Jun 2027 00:48:19.283            12.868                 Moscow           402.125
       355   04 Jun 2027 00:58:01.137   04 Jun 2027 00:59:00.942            59.805                  Delhi          1868.906
       356   04 Jun 2027 02:05:40.960   04 Jun 2027 02:08:11.293           150.333                Anadyr2          4697.906
       357   04 Jun 2027 02:10:58.615   04 Jun 2027 02:12:06.795            68.180               Magadan2          2130.625
       358   04 Jun 2027 02:12:06.795   04 Jun 2027 02:12:17.020            10.225               Magadan1           319.531
       359   04 Jun 2027 02:13:47.873   04 Jun 2027 02:13:59.907            12.034                Norilsk           376.063
       360   04 Jun 2027 02:14:40.977   04 Jun 2027 02:15:02.320            21.343                Norilsk           666.969
       361   04 Jun 2027 02:16:06.394   04 Jun 2027 02:16:57.868            51.474              Murmansk2          1608.562
       362   04 Jun 2027 02:17:37.958   04 Jun 2027 02:18:11.858            33.900              Murmansk1          1059.375
       363   04 Jun 2027 02:18:44.808   04 Jun 2027 02:19:52.413            67.605                Novosib          2112.656
       364   04 Jun 2027 02:22:27.106   04 Jun 2027 02:23:13.777            46.671                 Moscow          1458.469
       365   04 Jun 2027 02:30:26.215   04 Jun 2027 02:31:06.169            39.954                 Moscow          1248.563
       366   04 Jun 2027 02:48:25.009   04 Jun 2027 02:48:33.327             8.318               CapeTown           259.938
       367   04 Jun 2027 02:50:35.325   04 Jun 2027 02:50:49.579            14.254               CapeTown           445.438
       368   04 Jun 2027 02:53:21.701   04 Jun 2027 02:54:11.297            49.596               CapeTown          1549.875
       369   04 Jun 2027 03:59:16.589   04 Jun 2027 03:59:56.169            39.580              Murmansk2          1236.875
       370   04 Jun 2027 04:00:00.247   04 Jun 2027 04:00:24.515            24.268                Norilsk           758.375
       371   04 Jun 2027 04:00:55.390   04 Jun 2027 04:01:40.479            45.089              Murmansk2          1409.031
       372   04 Jun 2027 04:01:40.479   04 Jun 2027 04:04:00.316           139.837              Murmansk1          4369.906
       373   04 Jun 2027 04:04:00.316   04 Jun 2027 04:04:35.019            34.703              Murmansk2          1084.469
       374   04 Jun 2027 04:04:59.862   04 Jun 2027 04:05:01.583             1.721              Murmansk2            53.781
       375   04 Jun 2027 04:06:17.950   04 Jun 2027 04:07:50.200            92.250                 Moscow          2882.813
       376   04 Jun 2027 05:23:31.779   04 Jun 2027 05:24:46.535            74.756               Magadan1          2336.125
       377   04 Jun 2027 05:24:46.535   04 Jun 2027 05:26:38.137           111.602               Magadan2          3487.562
       378   04 Jun 2027 05:26:40.644   04 Jun 2027 05:28:29.039           108.395               Magadan1          3387.344
       379   04 Jun 2027 06:59:47.348   04 Jun 2027 07:01:37.609           110.261                Irkutsk          3445.656
       380   04 Jun 2027 07:02:00.982   04 Jun 2027 07:04:18.238           137.256                Anadyr1          4289.250
       381   04 Jun 2027 08:33:21.775   04 Jun 2027 08:33:39.511            17.736               Magadan2           554.250
       382   04 Jun 2027 08:33:42.183   04 Jun 2027 08:34:00.175            17.992                Norilsk           562.250
       383   04 Jun 2027 08:34:05.965   04 Jun 2027 08:34:24.358            18.393                Irkutsk           574.781
       384   04 Jun 2027 08:34:25.684   04 Jun 2027 08:34:39.077            13.393                Irkutsk           418.531
       385   04 Jun 2027 08:34:42.743   04 Jun 2027 08:35:39.347            56.604                Novosib          1768.875
       386   04 Jun 2027 08:35:58.751   04 Jun 2027 08:37:29.538            90.787               Magadan1          2837.094
       387   04 Jun 2027 08:37:29.538   04 Jun 2027 08:39:30.831           121.293               Magadan2          3790.406
       388   04 Jun 2027 08:39:44.352   04 Jun 2027 08:40:59.863            75.511                Novosib          2359.719
       389   04 Jun 2027 09:14:49.639   04 Jun 2027 09:15:32.792            43.153            RioGallegos          1348.531
       390   04 Jun 2027 09:16:01.226   04 Jun 2027 09:17:12.413            71.187            RioGallegos          2224.594
       391   04 Jun 2027 09:50:02.397   04 Jun 2027 09:50:52.406            50.009                Sumatra          1562.781
       392   04 Jun 2027 10:03:17.025   04 Jun 2027 10:03:44.155            27.130                  Delhi           847.813
       393   04 Jun 2027 10:09:43.363   04 Jun 2027 10:09:53.732            10.369                Novosib           324.031
       394   04 Jun 2027 10:10:11.836   04 Jun 2027 10:11:17.942            66.106                Novosib          2065.813
       395   04 Jun 2027 10:11:23.135   04 Jun 2027 10:11:39.892            16.757                Irkutsk           523.656
       396   04 Jun 2027 10:11:56.808   04 Jun 2027 10:12:00.325             3.517                Novosib           109.906
       397   04 Jun 2027 10:12:04.884   04 Jun 2027 10:12:34.725            29.841                Novosib           932.531
       398   04 Jun 2027 10:12:35.731   04 Jun 2027 10:12:47.142            11.411              Murmansk1           356.594
       399   04 Jun 2027 10:12:48.853   04 Jun 2027 10:13:01.231            12.378                Irkutsk           386.813
       400   04 Jun 2027 10:13:10.320   04 Jun 2027 10:13:17.127             6.807              Murmansk2           212.719
       401   04 Jun 2027 10:13:17.127   04 Jun 2027 10:14:00.258            43.131              Murmansk1          1347.844
       402   04 Jun 2027 10:14:06.785   04 Jun 2027 10:14:32.173            25.388              Murmansk2           793.375
       403   04 Jun 2027 10:14:36.867   04 Jun 2027 10:14:42.453             5.586                Novosib           174.562
       404   04 Jun 2027 10:14:54.713   04 Jun 2027 10:16:03.840            69.127                Irkutsk          2160.219
       405   04 Jun 2027 10:53:05.479   04 Jun 2027 10:53:22.883            17.404            RioGallegos           543.875
       406   04 Jun 2027 10:54:01.042   04 Jun 2027 10:54:25.303            24.261            RioGallegos           758.156
       407   04 Jun 2027 11:27:21.369   04 Jun 2027 11:27:48.750            27.381                Sumatra           855.656
       408   04 Jun 2027 11:30:44.261   04 Jun 2027 11:32:13.015            88.754                Sumatra          2773.563
       409   04 Jun 2027 11:47:25.623   04 Jun 2027 11:47:35.744            10.121                Irkutsk           316.281
       410   04 Jun 2027 11:47:55.345   04 Jun 2027 11:48:02.474             7.129              Murmansk2           222.781
       411   04 Jun 2027 11:48:02.982   04 Jun 2027 11:48:29.595            26.613              Murmansk1           831.656
       412   04 Jun 2027 11:48:39.681   04 Jun 2027 11:49:14.811            35.130                 Moscow          1097.813
       413   04 Jun 2027 11:49:18.971   04 Jun 2027 11:49:43.874            24.903                 Moscow           778.219
       414   04 Jun 2027 11:49:46.201   04 Jun 2027 11:49:48.053             1.852                Norilsk            57.875
       415   04 Jun 2027 11:49:48.691   04 Jun 2027 11:49:57.609             8.918                Novosib           278.688
       416   04 Jun 2027 11:50:00.952   04 Jun 2027 11:50:11.761            10.809              Murmansk1           337.781
       417   04 Jun 2027 11:50:20.550   04 Jun 2027 11:51:07.034            46.484                Norilsk          1452.625
       418   04 Jun 2027 11:51:20.339   04 Jun 2027 11:51:35.734            15.395              Murmansk2           481.094
       419   04 Jun 2027 11:51:35.734   04 Jun 2027 11:52:03.594            27.860              Murmansk1           870.625
       420   04 Jun 2027 11:52:52.338   04 Jun 2027 11:53:18.690            26.352                 Moscow           823.500
       421   04 Jun 2027 13:12:57.001   04 Jun 2027 13:13:43.400            46.399                  Delhi          1449.969
       422   04 Jun 2027 13:14:41.287   04 Jun 2027 13:17:01.589           140.302                  Delhi          4384.438
       423   04 Jun 2027 13:19:34.046   04 Jun 2027 13:20:50.804            76.758                 Moscow          2398.687
       424   04 Jun 2027 13:21:47.113   04 Jun 2027 13:24:11.469           144.356              Murmansk1          4511.125
       425   04 Jun 2027 13:24:17.744   04 Jun 2027 13:25:24.524            66.780                Norilsk          2086.875
       426   04 Jun 2027 13:32:06.079   04 Jun 2027 13:32:57.694            51.615                Norilsk          1612.969
       427   04 Jun 2027 14:34:31.962   04 Jun 2027 14:36:45.391           133.429               CapeTown          4169.656
       428   04 Jun 2027 14:41:13.428   04 Jun 2027 14:41:17.937             4.509               CapeTown           140.906
       429   04 Jun 2027 14:55:52.281   04 Jun 2027 14:56:19.564            27.283                 Moscow           852.594
       430   04 Jun 2027 14:58:18.025   04 Jun 2027 14:59:37.465            79.440              Murmansk1          2482.500
       431   04 Jun 2027 14:59:37.465   04 Jun 2027 15:00:48.389            70.924              Murmansk2          2216.375
       432   04 Jun 2027 15:08:06.839   04 Jun 2027 15:08:50.050            43.211              Murmansk2          1350.344
       433   04 Jun 2027 15:13:14.092   04 Jun 2027 15:15:40.485           146.393                Anadyr2          4574.781
       434   04 Jun 2027 16:12:07.882   04 Jun 2027 16:12:59.103            51.221               CapeTown          1600.656
       435   04 Jun 2027 16:17:52.597   04 Jun 2027 16:19:46.631           114.034               CapeTown          3563.562
       436   04 Jun 2027 16:36:51.649   04 Jun 2027 16:36:58.055             6.406              Murmansk1           200.188
       437   04 Jun 2027 16:38:15.228   04 Jun 2027 16:38:24.618             9.390              Murmansk1           293.438
       438   04 Jun 2027 16:39:18.929   04 Jun 2027 16:39:54.734            35.805              Murmansk1          1118.906
       439   04 Jun 2027 16:44:18.597   04 Jun 2027 16:44:56.256            37.659              Murmansk2          1176.844
       440   04 Jun 2027 16:48:26.606   04 Jun 2027 16:49:11.461            44.855                Anadyr1          1401.719
       441   04 Jun 2027 16:49:11.461   04 Jun 2027 16:50:14.507            63.046                Anadyr2          1970.187
       442   04 Jun 2027 16:53:12.211   04 Jun 2027 16:54:29.931            77.720               Magadan1          2428.750
       443   04 Jun 2027 16:55:05.767   04 Jun 2027 16:55:45.150            39.383               Magadan1          1230.719
       444   04 Jun 2027 18:24:18.518   04 Jun 2027 18:26:26.014           127.496                Anadyr1          3984.250
       445   04 Jun 2027 18:26:29.434   04 Jun 2027 18:28:09.092            99.658                Anadyr2          3114.313
       446   04 Jun 2027 18:28:34.840   04 Jun 2027 18:29:21.958            47.118               Magadan1          1472.437
       447   04 Jun 2027 18:29:48.325   04 Jun 2027 18:30:06.622            18.297                Anadyr1           571.781
       448   04 Jun 2027 18:30:17.662   04 Jun 2027 18:31:03.151            45.489               Magadan2          1421.531
       449   04 Jun 2027 18:31:46.626   04 Jun 2027 18:32:45.825            59.199               Magadan1          1849.969
       450   04 Jun 2027 20:00:12.855   04 Jun 2027 20:02:17.438           124.583                Anadyr2          3893.219
       451   04 Jun 2027 20:02:30.259   04 Jun 2027 20:06:44.026           253.767               Magadan1          7930.219
       452   04 Jun 2027 20:07:36.576   04 Jun 2027 20:07:52.155            15.579               Magadan2           486.844
       453   04 Jun 2027 20:08:53.111   04 Jun 2027 20:09:19.986            26.875               Magadan2           839.844
       454   04 Jun 2027 20:11:36.432   04 Jun 2027 20:12:02.503            26.071               Magadan2           814.719
       455   04 Jun 2027 20:54:37.145   04 Jun 2027 20:57:35.819           178.674            RioGallegos          5583.563
       456   04 Jun 2027 20:58:05.585   04 Jun 2027 20:58:07.151             1.566            RioGallegos            48.937
       457   04 Jun 2027 21:04:04.042   04 Jun 2027 21:04:25.468            21.426            RioGallegos           669.562
       458   04 Jun 2027 21:04:41.949   04 Jun 2027 21:04:52.907            10.958            RioGallegos           342.437
       459   04 Jun 2027 21:05:29.051   04 Jun 2027 21:05:29.950             0.899            RioGallegos            28.094
       460   04 Jun 2027 21:35:47.958   04 Jun 2027 21:35:52.162             4.204                Anadyr1           131.375
       461   04 Jun 2027 21:35:54.859   04 Jun 2027 21:36:07.431            12.572                Anadyr1           392.875
       462   04 Jun 2027 21:36:27.306   04 Jun 2027 21:38:05.592            98.286                Anadyr1          3071.438
       463   04 Jun 2027 21:38:33.608   04 Jun 2027 21:39:27.222            53.614               Magadan1          1675.438
       464   04 Jun 2027 21:39:55.802   04 Jun 2027 21:40:09.199            13.397               Magadan1           418.656
       465   04 Jun 2027 21:40:26.289   04 Jun 2027 21:40:31.555             5.266               Magadan1           164.563
       466   04 Jun 2027 21:40:41.598   04 Jun 2027 21:40:50.338             8.740               Magadan2           273.125
       467   04 Jun 2027 21:42:12.804   04 Jun 2027 21:42:22.231             9.427                Irkutsk           294.594
       468   04 Jun 2027 21:42:50.205   04 Jun 2027 21:43:06.735            16.530                Norilsk           516.562
       469   04 Jun 2027 21:43:20.016   04 Jun 2027 21:44:04.595            44.579                Irkutsk          1393.094
       470   04 Jun 2027 21:44:40.650   04 Jun 2027 21:45:42.573            61.923                Novosib          1935.094
       471   04 Jun 2027 21:46:36.702   04 Jun 2027 21:47:07.481            30.779                Novosib           961.844
       472   04 Jun 2027 21:55:56.502   04 Jun 2027 21:56:46.820            50.318                Sumatra          1572.437
       473   04 Jun 2027 21:59:11.553   04 Jun 2027 21:59:19.363             7.810                Sumatra           244.063
       474   04 Jun 2027 22:05:24.650   04 Jun 2027 22:06:09.098            44.448                Sumatra          1389.000
       475   04 Jun 2027 23:10:29.253   04 Jun 2027 23:11:47.324            78.071                Anadyr1          2439.719
       476   04 Jun 2027 23:11:47.324   04 Jun 2027 23:12:17.771            30.447                Anadyr2           951.469
       477   04 Jun 2027 23:13:04.802   04 Jun 2027 23:13:16.341            11.539                Anadyr1           360.594
       478   04 Jun 2027 23:13:18.560   04 Jun 2027 23:13:41.017            22.457                Anadyr1           701.781
       479   04 Jun 2027 23:14:01.040   04 Jun 2027 23:14:24.292            23.252                Norilsk           726.625
       480   04 Jun 2027 23:14:39.239   04 Jun 2027 23:15:22.688            43.449               Magadan2          1357.781
       481   04 Jun 2027 23:15:30.413   04 Jun 2027 23:16:05.884            35.471               Magadan2          1108.469
       482   04 Jun 2027 23:17:42.098   04 Jun 2027 23:17:59.411            17.313               Magadan1           541.031
