uniorb/output/strategy_1/Drop/Drop_KinoSat_111908.txt

KinoSat_111908
-------------------------
    Access    *     Start Time (UTCG)     *     Stop Time (UTCG)  *   Duration (s)        *       Station  *  Data (Mbytes)
         1   01 Jun 2027 04:11:13.908   01 Jun 2027 04:11:49.777            35.869              Murmansk2          1120.906
         2   01 Jun 2027 04:11:50.063   01 Jun 2027 04:11:53.549             3.486                Novosib           108.938
         3   01 Jun 2027 04:12:01.657   01 Jun 2027 04:12:17.293            15.636              Murmansk2           488.625
         4   01 Jun 2027 04:12:37.150   01 Jun 2027 04:14:36.799           119.649                Novosib          3739.031
         5   01 Jun 2027 04:14:37.540   01 Jun 2027 04:14:50.966            13.426                 Moscow           419.562
         6   01 Jun 2027 04:14:51.979   01 Jun 2027 04:16:14.671            82.692              Murmansk2          2584.125
         7   01 Jun 2027 04:16:17.544   01 Jun 2027 04:23:23.635           426.091                  Delhi         13315.344
         8   01 Jun 2027 05:49:22.554   01 Jun 2027 05:49:56.336            33.782                Novosib          1055.687
         9   01 Jun 2027 05:50:03.881   01 Jun 2027 05:50:43.853            39.972                Novosib          1249.125
        10   01 Jun 2027 05:50:53.210   01 Jun 2027 05:51:26.831            33.621                Novosib          1050.656
        11   01 Jun 2027 05:51:29.643   01 Jun 2027 05:51:46.143            16.500              Murmansk1           515.625
        12   01 Jun 2027 05:52:08.355   01 Jun 2027 05:54:39.370           151.015              Murmansk1          4719.219
        13   01 Jun 2027 05:55:01.079   01 Jun 2027 05:57:36.402           155.323                 Moscow          4853.844
        14   01 Jun 2027 06:09:25.595   01 Jun 2027 06:10:26.614            61.019               CapeTown          1906.844
        15   01 Jun 2027 06:13:10.454   01 Jun 2027 06:13:52.767            42.313               CapeTown          1322.281
        16   01 Jun 2027 07:13:58.880   01 Jun 2027 07:14:29.156            30.276               Magadan2           946.125
        17   01 Jun 2027 07:14:29.156   01 Jun 2027 07:17:03.774           154.618               Magadan1          4831.812
        18   01 Jun 2027 07:17:21.302   01 Jun 2027 07:17:41.779            20.477               Magadan2           639.906
        19   01 Jun 2027 07:18:30.637   01 Jun 2027 07:18:58.029            27.392                Anadyr2           856.000
        20   01 Jun 2027 07:25:01.023   01 Jun 2027 07:25:53.568            52.545                Norilsk          1642.031
        21   01 Jun 2027 07:26:03.897   01 Jun 2027 07:28:38.571           154.674              Murmansk2          4833.563
        22   01 Jun 2027 07:30:01.164   01 Jun 2027 07:30:30.049            28.885                 Moscow           902.656
        23   01 Jun 2027 07:47:09.462   01 Jun 2027 07:51:47.485           278.023               CapeTown          8688.219
        24   01 Jun 2027 08:46:39.739   01 Jun 2027 08:47:35.088            55.349                Anadyr1          1729.656
        25   01 Jun 2027 08:49:57.296   01 Jun 2027 08:51:59.762           122.466                Norilsk          3827.062
        26   01 Jun 2027 08:52:32.787   01 Jun 2027 08:54:49.795           137.008                Anadyr2          4281.500
        27   01 Jun 2027 08:58:07.235   01 Jun 2027 08:58:37.952            30.717                 Moscow           959.906
        28   01 Jun 2027 10:21:54.994   01 Jun 2027 10:22:57.023            62.029               Magadan2          1938.406
        29   01 Jun 2027 10:23:09.762   01 Jun 2027 10:26:33.636           203.874               Magadan2          6371.062
        30   01 Jun 2027 10:26:35.046   01 Jun 2027 10:29:56.499           201.453                Anadyr1          6295.406
        31   01 Jun 2027 11:58:35.011   01 Jun 2027 12:04:50.963           375.952               Magadan1         11748.500
        32   01 Jun 2027 14:21:29.915   01 Jun 2027 14:27:24.606           354.691            RioGallegos         11084.094
        33   01 Jun 2027 16:52:53.465   01 Jun 2027 16:57:53.605           300.140                Norilsk          9379.375
        34   01 Jun 2027 20:04:21.641   01 Jun 2027 20:05:45.426            83.785              Murmansk1          2618.281
        35   01 Jun 2027 20:06:32.931   01 Jun 2027 20:12:29.087           356.156              Murmansk2         11129.875
        36   01 Jun 2027 22:47:39.425   01 Jun 2027 22:47:55.045            15.620            RioGallegos           488.125
        37   01 Jun 2027 22:48:01.711   01 Jun 2027 22:48:33.202            31.491            RioGallegos           984.094
        38   01 Jun 2027 23:26:14.872   01 Jun 2027 23:27:41.097            86.225                Anadyr1          2694.531
        39   01 Jun 2027 23:27:48.777   01 Jun 2027 23:28:19.909            31.132                Anadyr2           972.875
        40   01 Jun 2027 23:28:21.778   01 Jun 2027 23:28:30.127             8.349                Anadyr1           260.906
        41   01 Jun 2027 23:28:36.129   01 Jun 2027 23:31:43.198           187.069               Magadan1          5845.906
        42   01 Jun 2027 23:32:53.746   01 Jun 2027 23:33:31.743            37.997               Magadan1          1187.406
        43   01 Jun 2027 23:35:05.270   01 Jun 2027 23:35:34.150            28.880                Irkutsk           902.500
        44   01 Jun 2027 23:37:32.510   01 Jun 2027 23:37:33.732             1.222               Magadan1            38.187
        45   01 Jun 2027 23:37:40.882   01 Jun 2027 23:38:46.655            65.773                Irkutsk          2055.406
        46   01 Jun 2027 23:50:51.352   01 Jun 2027 23:50:55.269             3.917                Sumatra           122.406
        47   01 Jun 2027 23:50:57.354   01 Jun 2027 23:50:58.128             0.774                Sumatra            24.188
        48   01 Jun 2027 23:51:33.426   01 Jun 2027 23:53:49.998           136.572                Sumatra          4267.875
        49   02 Jun 2027 00:29:40.462   02 Jun 2027 00:29:48.872             8.410            RioGallegos           262.812
        50   02 Jun 2027 00:29:58.614   02 Jun 2027 00:31:02.197            63.583            RioGallegos          1986.969
        51   02 Jun 2027 01:01:37.633   02 Jun 2027 01:02:08.658            31.025                Anadyr2           969.531
        52   02 Jun 2027 01:02:41.415   02 Jun 2027 01:03:13.989            32.574                Anadyr1          1017.937
        53   02 Jun 2027 01:04:05.757   02 Jun 2027 01:05:59.732           113.975                Norilsk          3561.719
        54   02 Jun 2027 01:06:18.032   02 Jun 2027 01:06:48.113            30.081               Magadan1           940.031
        55   02 Jun 2027 01:06:48.113   02 Jun 2027 01:08:22.171            94.058               Magadan2          2939.312
        56   02 Jun 2027 01:12:45.942   02 Jun 2027 01:12:48.934             2.992                Irkutsk            93.500
        57   02 Jun 2027 01:12:59.927   02 Jun 2027 01:13:15.168            15.241                Novosib           476.281
        58   02 Jun 2027 01:13:51.133   02 Jun 2027 01:14:42.651            51.518                Irkutsk          1609.938
        59   02 Jun 2027 01:18:51.804   02 Jun 2027 01:20:30.035            98.231                Irkutsk          3069.719
        60   02 Jun 2027 01:24:56.907   02 Jun 2027 01:26:08.833            71.926                Sumatra          2247.687
        61   02 Jun 2027 02:00:56.773   02 Jun 2027 02:01:41.430            44.657            RioGallegos          1395.531
        62   02 Jun 2027 02:05:20.147   02 Jun 2027 02:05:42.832            22.685            RioGallegos           708.906
        63   02 Jun 2027 02:35:53.977   02 Jun 2027 02:35:55.370             1.393                Anadyr2            43.531
        64   02 Jun 2027 02:37:09.857   02 Jun 2027 02:37:31.074            21.217                Anadyr2           663.031
        65   02 Jun 2027 02:38:22.314   02 Jun 2027 02:38:29.670             7.356                Anadyr1           229.875
        66   02 Jun 2027 02:40:06.572   02 Jun 2027 02:41:49.424           102.852                Norilsk          3214.125
        67   02 Jun 2027 02:42:32.258   02 Jun 2027 02:42:34.071             1.813               Magadan2            56.656
        68   02 Jun 2027 02:43:15.825   02 Jun 2027 02:44:14.809            58.984              Murmansk2          1843.250
        69   02 Jun 2027 02:44:22.955   02 Jun 2027 02:45:36.463            73.508                Irkutsk          2297.125
        70   02 Jun 2027 02:46:29.162   02 Jun 2027 02:46:34.803             5.641                Irkutsk           176.281
        71   02 Jun 2027 02:48:52.525   02 Jun 2027 02:49:28.987            36.462                Irkutsk          1139.437
        72   02 Jun 2027 02:53:15.442   02 Jun 2027 02:54:02.578            47.136                Irkutsk          1473.000
        73   02 Jun 2027 02:58:15.752   02 Jun 2027 02:58:38.739            22.987                  Delhi           718.344
        74   02 Jun 2027 02:59:38.248   02 Jun 2027 03:01:34.538           116.290                  Delhi          3634.062
        75   02 Jun 2027 03:32:57.903   02 Jun 2027 03:35:01.385           123.482            RioGallegos          3858.812
        76   02 Jun 2027 04:23:51.791   02 Jun 2027 04:24:00.495             8.704              Murmansk1           272.000
        77   02 Jun 2027 04:24:07.226   02 Jun 2027 04:24:30.787            23.561              Murmansk1           736.281
        78   02 Jun 2027 04:24:52.335   02 Jun 2027 04:25:03.570            11.235                Norilsk           351.094
        79   02 Jun 2027 04:25:08.416   02 Jun 2027 04:28:43.240           214.824              Murmansk2          6713.250
        80   02 Jun 2027 04:28:46.837   02 Jun 2027 04:33:28.119           281.282                  Delhi          8790.063
        81   02 Jun 2027 06:01:41.602   02 Jun 2027 06:02:22.858            41.256                Norilsk          1289.250
        82   02 Jun 2027 06:02:26.964   02 Jun 2027 06:03:05.470            38.506              Murmansk2          1203.313
        83   02 Jun 2027 06:03:10.433   02 Jun 2027 06:03:56.196            45.763                Novosib          1430.094
        84   02 Jun 2027 06:04:12.820   02 Jun 2027 06:06:50.632           157.812              Murmansk1          4931.625
        85   02 Jun 2027 07:25:45.291   02 Jun 2027 07:25:46.104             0.813               Magadan2            25.406
        86   02 Jun 2027 07:25:49.017   02 Jun 2027 07:26:01.677            12.660               Magadan1           395.625
        87   02 Jun 2027 07:26:14.528   02 Jun 2027 07:27:04.002            49.474                Anadyr2          1546.062
        88   02 Jun 2027 07:28:15.013   02 Jun 2027 07:28:16.780             1.767               Magadan1            55.219
        89   02 Jun 2027 07:29:16.691   02 Jun 2027 07:30:32.378            75.687               Magadan1          2365.219
        90   02 Jun 2027 08:00:04.471   02 Jun 2027 08:04:20.243           255.772               CapeTown          7992.875
        91   02 Jun 2027 09:01:36.985   02 Jun 2027 09:05:17.502           220.517               Magadan1          6891.156
        92   02 Jun 2027 09:05:53.587   02 Jun 2027 09:06:14.203            20.616               Magadan1           644.250
        93   02 Jun 2027 10:35:25.097   02 Jun 2027 10:35:47.625            22.528               Magadan1           704.000
        94   02 Jun 2027 10:35:52.351   02 Jun 2027 10:41:39.088           346.737                Anadyr1         10835.531
        95   02 Jun 2027 12:11:50.516   02 Jun 2027 12:16:13.150           262.634               Magadan1          8207.312
        96   02 Jun 2027 13:36:31.322   02 Jun 2027 13:37:35.885            64.563                Sumatra          2017.594
        97   02 Jun 2027 13:50:10.679   02 Jun 2027 13:52:26.334           135.655                Irkutsk          4239.219
        98   02 Jun 2027 14:35:15.300   02 Jun 2027 14:38:12.695           177.395            RioGallegos          5543.594
        99   02 Jun 2027 15:20:52.292   02 Jun 2027 15:22:14.938            82.646                  Delhi          2582.687
       100   02 Jun 2027 15:25:06.576   02 Jun 2027 15:25:46.577            40.001                Novosib          1250.031
       101   02 Jun 2027 15:27:35.691   02 Jun 2027 15:28:59.023            83.332                Novosib          2604.125
       102   02 Jun 2027 17:04:48.989   02 Jun 2027 17:10:22.457           333.468                Norilsk         10420.875
       103   02 Jun 2027 18:35:08.355   02 Jun 2027 18:35:54.211            45.856                 Moscow          1433.000
       104   02 Jun 2027 18:39:14.010   02 Jun 2027 18:39:56.383            42.373                 Moscow          1324.156
       105   02 Jun 2027 18:43:44.560   02 Jun 2027 18:44:26.259            41.699                 Moscow          1303.094
       106   02 Jun 2027 18:46:47.945   02 Jun 2027 18:47:08.694            20.749              Murmansk1           648.406
       107   02 Jun 2027 19:46:10.624   02 Jun 2027 19:48:41.057           150.433               CapeTown          4701.031
       108   02 Jun 2027 19:53:45.409   02 Jun 2027 19:54:13.117            27.708               CapeTown           865.875
       109   02 Jun 2027 19:54:41.369   02 Jun 2027 19:55:23.235            41.866               CapeTown          1308.313
       110   02 Jun 2027 20:17:03.117   02 Jun 2027 20:19:13.746           130.629              Murmansk1          4082.156
       111   02 Jun 2027 20:19:42.411   02 Jun 2027 20:23:00.529           198.118              Murmansk2          6191.187
       112   02 Jun 2027 22:02:25.043   02 Jun 2027 22:05:29.381           184.338                Anadyr1          5760.563
       113   02 Jun 2027 22:06:04.032   02 Jun 2027 22:07:40.429            96.397               Magadan2          3012.406
       114   02 Jun 2027 22:08:47.716   02 Jun 2027 22:09:13.333            25.617               Magadan1           800.531
       115   02 Jun 2027 22:09:42.264   02 Jun 2027 22:10:00.516            18.252               Magadan2           570.375
       116   02 Jun 2027 22:10:02.247   02 Jun 2027 22:10:22.144            19.897               Magadan1           621.781
       117   02 Jun 2027 22:11:48.964   02 Jun 2027 22:12:21.342            32.378               Magadan1          1011.813
       118   02 Jun 2027 22:13:38.418   02 Jun 2027 22:14:19.746            41.328               Magadan2          1291.500
       119   02 Jun 2027 22:58:28.322   02 Jun 2027 22:59:08.159            39.837            RioGallegos          1244.906
       120   02 Jun 2027 23:00:20.346   02 Jun 2027 23:01:05.266            44.920            RioGallegos          1403.750
       121   02 Jun 2027 23:03:23.316   02 Jun 2027 23:03:31.030             7.714            RioGallegos           241.063
       122   02 Jun 2027 23:38:14.675   02 Jun 2027 23:39:36.135            81.460                Anadyr2          2545.625
       123   02 Jun 2027 23:39:46.103   02 Jun 2027 23:40:07.268            21.165                Anadyr1           661.406
       124   02 Jun 2027 23:40:20.185   02 Jun 2027 23:41:49.139            88.954                Norilsk          2779.812
       125   02 Jun 2027 23:42:16.808   02 Jun 2027 23:43:36.523            79.715               Magadan2          2491.094
       126   02 Jun 2027 23:44:34.948   02 Jun 2027 23:44:56.281            21.333               Magadan1           666.656
       127   02 Jun 2027 23:45:14.605   02 Jun 2027 23:46:01.413            46.808                Irkutsk          1462.750
       128   02 Jun 2027 23:47:07.191   02 Jun 2027 23:47:37.308            30.117                Irkutsk           941.156
       129   02 Jun 2027 23:49:33.037   02 Jun 2027 23:49:40.858             7.821                Irkutsk           244.406
       130   03 Jun 2027 00:00:10.422   03 Jun 2027 00:02:08.497           118.075                Sumatra          3689.844
       131   03 Jun 2027 00:06:19.190   03 Jun 2027 00:08:21.240           122.050                Sumatra          3814.062
       132   03 Jun 2027 01:13:31.170   03 Jun 2027 01:13:35.919             4.749                Anadyr1           148.406
       133   03 Jun 2027 01:13:37.129   03 Jun 2027 01:14:28.408            51.279                Anadyr2          1602.469
       134   03 Jun 2027 01:15:45.295   03 Jun 2027 01:16:19.041            33.746                Anadyr1          1054.562
       135   03 Jun 2027 01:16:22.919   03 Jun 2027 01:16:44.209            21.290                Anadyr1           665.312
       136   03 Jun 2027 01:16:46.630   03 Jun 2027 01:17:05.778            19.148               Magadan2           598.375
       137   03 Jun 2027 01:17:05.778   03 Jun 2027 01:19:55.251           169.473               Magadan1          5296.031
       138   03 Jun 2027 01:22:45.202   03 Jun 2027 01:23:13.584            28.382                Irkutsk           886.938
       139   03 Jun 2027 01:25:42.679   03 Jun 2027 01:25:50.865             8.186                Novosib           255.812
       140   03 Jun 2027 01:27:10.774   03 Jun 2027 01:27:31.092            20.318                Irkutsk           634.937
       141   03 Jun 2027 01:30:02.122   03 Jun 2027 01:30:06.897             4.775                Novosib           149.219
       142   03 Jun 2027 01:30:28.457   03 Jun 2027 01:30:52.288            23.831                Novosib           744.719
       143   03 Jun 2027 01:32:54.965   03 Jun 2027 01:33:12.257            17.292                  Delhi           540.375
       144   03 Jun 2027 01:33:58.136   03 Jun 2027 01:36:51.194           173.058                Sumatra          5408.063
       145   03 Jun 2027 02:17:48.456   03 Jun 2027 02:19:10.971            82.515            RioGallegos          2578.594
       146   03 Jun 2027 02:52:08.927   03 Jun 2027 02:53:16.597            67.670                Norilsk          2114.687
       147   03 Jun 2027 02:53:35.320   03 Jun 2027 02:53:44.869             9.549                Norilsk           298.406
       148   03 Jun 2027 02:54:59.583   03 Jun 2027 02:55:53.304            53.721              Murmansk1          1678.781
       149   03 Jun 2027 02:55:56.637   03 Jun 2027 02:56:00.168             3.531                Novosib           110.344
       150   03 Jun 2027 02:56:11.801   03 Jun 2027 02:56:57.681            45.880                Irkutsk          1433.750
       151   03 Jun 2027 02:57:46.174   03 Jun 2027 02:58:19.278            33.104                Irkutsk          1034.500
       152   03 Jun 2027 02:58:45.276   03 Jun 2027 02:59:37.917            52.641                Irkutsk          1645.031
       153   03 Jun 2027 03:00:18.443   03 Jun 2027 03:00:35.610            17.167              Murmansk1           536.469
       154   03 Jun 2027 03:00:36.664   03 Jun 2027 03:00:46.375             9.711                Norilsk           303.469
       155   03 Jun 2027 03:01:02.149   03 Jun 2027 03:03:41.787           159.638                Irkutsk          4988.687
       156   03 Jun 2027 03:03:56.503   03 Jun 2027 03:06:11.035           134.532                  Delhi          4204.125
       157   03 Jun 2027 03:45:15.912   03 Jun 2027 03:45:59.792            43.880            RioGallegos          1371.250
       158   03 Jun 2027 04:35:56.643   03 Jun 2027 04:37:28.351            91.708                Irkutsk          2865.875
       159   03 Jun 2027 04:37:38.859   03 Jun 2027 04:38:23.033            44.174                Novosib          1380.437
       160   03 Jun 2027 04:38:27.268   03 Jun 2027 04:38:41.212            13.944                Irkutsk           435.750
       161   03 Jun 2027 04:38:47.828   03 Jun 2027 04:39:02.207            14.379                Novosib           449.344
       162   03 Jun 2027 04:39:03.006   03 Jun 2027 04:39:39.323            36.317              Murmansk2          1134.906
       163   03 Jun 2027 04:39:49.274   03 Jun 2027 04:40:07.143            17.869                Novosib           558.406
       164   03 Jun 2027 04:40:13.550   03 Jun 2027 04:40:43.328            29.778                Norilsk           930.562
       165   03 Jun 2027 04:41:11.360   03 Jun 2027 04:45:51.122           279.762                  Delhi          8742.562
       166   03 Jun 2027 06:13:56.103   03 Jun 2027 06:15:25.979            89.876              Murmansk1          2808.625
       167   03 Jun 2027 06:15:32.941   03 Jun 2027 06:16:25.425            52.484              Murmansk1          1640.125
       168   03 Jun 2027 06:16:33.062   03 Jun 2027 06:19:03.625           150.563                 Moscow          4705.094
       169   03 Jun 2027 06:33:21.341   03 Jun 2027 06:36:34.800           193.459               CapeTown          6045.594
       170   03 Jun 2027 07:37:53.510   03 Jun 2027 07:38:05.205            11.695               Magadan2           365.469
       171   03 Jun 2027 07:38:29.325   03 Jun 2027 07:40:25.012           115.687                Anadyr2          3615.219
       172   03 Jun 2027 07:40:29.149   03 Jun 2027 07:40:44.977            15.828               Magadan2           494.625
       173   03 Jun 2027 07:41:03.523   03 Jun 2027 07:41:37.737            34.214                Anadyr1          1069.187
       174   03 Jun 2027 07:41:37.737   03 Jun 2027 07:43:01.616            83.879                Anadyr2          2621.219
       175   03 Jun 2027 08:13:25.845   03 Jun 2027 08:17:03.718           217.873               CapeTown          6808.531
       176   03 Jun 2027 09:14:19.704   03 Jun 2027 09:14:42.546            22.842               Magadan1           713.812
       177   03 Jun 2027 09:14:53.865   03 Jun 2027 09:18:48.400           234.535                Anadyr1          7329.219
       178   03 Jun 2027 10:47:25.489   03 Jun 2027 10:47:29.011             3.522                Norilsk           110.062
       179   03 Jun 2027 10:47:53.359   03 Jun 2027 10:48:18.757            25.398                Norilsk           793.687
       180   03 Jun 2027 10:48:21.614   03 Jun 2027 10:52:52.632           271.018               Magadan1          8469.312
       181   03 Jun 2027 10:52:52.632   03 Jun 2027 10:54:17.603            84.971               Magadan2          2655.344
       182   03 Jun 2027 12:17:28.469   03 Jun 2027 12:18:44.323            75.854                Irkutsk          2370.437
       183   03 Jun 2027 12:19:26.068   03 Jun 2027 12:20:14.399            48.331                Irkutsk          1510.344
       184   03 Jun 2027 12:22:23.952   03 Jun 2027 12:22:53.692            29.740                Norilsk           929.375
       185   03 Jun 2027 12:29:34.070   03 Jun 2027 12:30:06.015            31.945                Norilsk           998.281
       186   03 Jun 2027 12:33:57.030   03 Jun 2027 12:33:58.682             1.652              Murmansk2            51.625
       187   03 Jun 2027 13:05:42.846   03 Jun 2027 13:05:52.899            10.053            RioGallegos           314.156
       188   03 Jun 2027 13:07:58.255   03 Jun 2027 13:10:37.664           159.409            RioGallegos          4981.531
       189   03 Jun 2027 13:40:04.514   03 Jun 2027 13:40:21.020            16.506                Sumatra           515.813
       190   03 Jun 2027 13:42:46.102   03 Jun 2027 13:44:51.176           125.074                Sumatra          3908.563
       191   03 Jun 2027 13:54:58.475   03 Jun 2027 13:56:13.928            75.453                Irkutsk          2357.906
       192   03 Jun 2027 13:59:09.295   03 Jun 2027 13:59:48.123            38.828                Norilsk          1213.375
       193   03 Jun 2027 14:05:05.284   03 Jun 2027 14:05:34.736            29.452                Norilsk           920.375
       194   03 Jun 2027 14:09:24.097   03 Jun 2027 14:10:20.364            56.267                Norilsk          1758.344
       195   03 Jun 2027 15:24:45.892   03 Jun 2027 15:26:23.591            97.699                  Delhi          3053.094
       196   03 Jun 2027 15:29:41.126   03 Jun 2027 15:30:07.270            26.144                  Delhi           817.000
       197   03 Jun 2027 15:32:48.178   03 Jun 2027 15:34:43.102           114.924                  Delhi          3591.375
       198   03 Jun 2027 15:36:50.321   03 Jun 2027 15:39:15.342           145.021                Novosib          4531.906
       199   03 Jun 2027 15:40:56.761   03 Jun 2027 15:41:30.604            33.843                Norilsk          1057.594
       200   03 Jun 2027 15:42:29.329   03 Jun 2027 15:43:02.334            33.005                Novosib          1031.406
       201   03 Jun 2027 15:46:11.615   03 Jun 2027 15:46:47.296            35.681                Norilsk          1115.031
       202   03 Jun 2027 17:08:30.791   03 Jun 2027 17:09:38.198            67.407                 Moscow          2106.469
       203   03 Jun 2027 17:11:42.681   03 Jun 2027 17:12:03.274            20.593                 Moscow           643.531
       204   03 Jun 2027 17:12:45.121   03 Jun 2027 17:14:59.299           134.178              Murmansk2          4193.063
       205   03 Jun 2027 17:17:38.339   03 Jun 2027 17:21:52.138           253.799                Norilsk          7931.219
       206   03 Jun 2027 18:47:00.365   03 Jun 2027 18:49:35.488           155.123                 Moscow          4847.594
       207   03 Jun 2027 18:51:19.837   03 Jun 2027 18:51:41.513            21.676                 Moscow           677.375
       208   03 Jun 2027 18:54:27.702   03 Jun 2027 18:54:39.091            11.389              Murmansk1           355.906
       209   03 Jun 2027 19:03:26.667   03 Jun 2027 19:03:37.543            10.876                Anadyr2           339.875
       210   03 Jun 2027 19:58:16.543   03 Jun 2027 20:00:23.999           127.456               CapeTown          3983.000
       211   03 Jun 2027 20:01:41.222   03 Jun 2027 20:02:12.912            31.690               CapeTown           990.312
       212   03 Jun 2027 20:29:49.105   03 Jun 2027 20:34:13.780           264.675              Murmansk1          8271.094
       213   03 Jun 2027 20:35:01.369   03 Jun 2027 20:36:04.055            62.686              Murmansk2          1958.938
       214   03 Jun 2027 20:43:48.788   03 Jun 2027 20:44:52.483            63.695               Magadan2          1990.469
       215   03 Jun 2027 22:14:26.753   03 Jun 2027 22:17:50.871           204.118                Anadyr1          6378.687
       216   03 Jun 2027 22:18:04.008   03 Jun 2027 22:20:39.432           155.424               Magadan2          4857.000
       217   03 Jun 2027 22:21:02.712   03 Jun 2027 22:21:31.211            28.499               Magadan1           890.594
       218   03 Jun 2027 22:21:43.586   03 Jun 2027 22:22:24.264            40.678               Magadan2          1271.187
       219   03 Jun 2027 23:09:51.344   03 Jun 2027 23:12:46.447           175.103            RioGallegos          5471.969
       220   03 Jun 2027 23:50:13.983   03 Jun 2027 23:51:59.142           105.159                Anadyr2          3286.219
       221   03 Jun 2027 23:51:59.142   03 Jun 2027 23:52:29.743            30.601                Anadyr1           956.281
       222   03 Jun 2027 23:52:30.966   03 Jun 2027 23:53:31.926            60.960                Norilsk          1905.000
       223   03 Jun 2027 23:53:59.948   03 Jun 2027 23:54:06.451             6.503               Magadan1           203.219
       224   03 Jun 2027 23:54:27.765   03 Jun 2027 23:55:20.158            52.393               Magadan2          1637.281
       225   03 Jun 2027 23:56:27.826   03 Jun 2027 23:56:58.691            30.865               Magadan2           964.531
       226   03 Jun 2027 23:56:59.754   03 Jun 2027 23:59:05.909           126.155                Irkutsk          3942.344
       227   04 Jun 2027 00:11:26.236   04 Jun 2027 00:12:58.968            92.732                Sumatra          2897.875
       228   04 Jun 2027 00:16:36.720   04 Jun 2027 00:17:36.537            59.817                Sumatra          1869.281
       229   04 Jun 2027 00:50:32.511   04 Jun 2027 00:51:17.203            44.692            RioGallegos          1396.625
       230   04 Jun 2027 01:25:23.506   04 Jun 2027 01:25:41.501            17.995                Anadyr2           562.344
       231   04 Jun 2027 01:25:46.453   04 Jun 2027 01:26:32.573            46.120                Anadyr1          1441.250
       232   04 Jun 2027 01:27:13.056   04 Jun 2027 01:27:32.233            19.177                Anadyr1           599.281
       233   04 Jun 2027 01:27:51.700   04 Jun 2027 01:28:10.435            18.735                Anadyr2           585.469
       234   04 Jun 2027 01:28:22.335   04 Jun 2027 01:30:04.265           101.930                Norilsk          3185.312
       235   04 Jun 2027 01:30:33.814   04 Jun 2027 01:31:26.878            53.064               Magadan1          1658.250
       236   04 Jun 2027 01:32:03.689   04 Jun 2027 01:33:58.397           114.708                Irkutsk          3584.625
       237   04 Jun 2027 01:35:20.141   04 Jun 2027 01:35:55.545            35.404                Irkutsk          1106.375
       238   04 Jun 2027 01:41:31.854   04 Jun 2027 01:41:55.152            23.298                  Delhi           728.063
       239   04 Jun 2027 01:45:13.308   04 Jun 2027 01:46:51.998            98.690                  Delhi          3084.062
       240   04 Jun 2027 01:48:39.419   04 Jun 2027 01:51:11.023           151.604                Sumatra          4737.625
       241   04 Jun 2027 03:08:13.317   04 Jun 2027 03:08:18.827             5.510               Magadan1           172.187
       242   04 Jun 2027 03:08:23.025   04 Jun 2027 03:09:38.688            75.663               Magadan1          2364.469
       243   04 Jun 2027 03:10:25.322   04 Jun 2027 03:11:02.613            37.291              Murmansk2          1165.344
       244   04 Jun 2027 03:11:18.958   04 Jun 2027 03:11:54.052            35.094                Irkutsk          1096.687
       245   04 Jun 2027 03:11:57.886   04 Jun 2027 03:12:15.285            17.399              Murmansk1           543.719
       246   04 Jun 2027 03:12:16.017   04 Jun 2027 03:13:34.692            78.675                Irkutsk          2458.594
       247   04 Jun 2027 03:13:50.614   04 Jun 2027 03:17:33.519           222.905                Novosib          6965.781
       248   04 Jun 2027 03:18:29.878   04 Jun 2027 03:18:44.505            14.627                  Delhi           457.094
       249   04 Jun 2027 03:57:39.440   04 Jun 2027 03:58:25.861            46.421            RioGallegos          1450.656
       250   04 Jun 2027 04:00:03.768   04 Jun 2027 04:02:34.763           150.995            RioGallegos          4718.594
       251   04 Jun 2027 04:47:37.199   04 Jun 2027 04:49:03.321            86.122                Irkutsk          2691.313
       252   04 Jun 2027 04:49:20.609   04 Jun 2027 04:49:29.877             9.268                Irkutsk           289.625
       253   04 Jun 2027 04:49:43.478   04 Jun 2027 04:52:16.088           152.610                Novosib          4769.063
       254   04 Jun 2027 04:52:39.098   04 Jun 2027 04:53:48.446            69.348                Novosib          2167.125
       255   04 Jun 2027 04:54:17.055   04 Jun 2027 04:58:22.244           245.189                  Delhi          7662.156
       256   04 Jun 2027 06:26:34.253   04 Jun 2027 06:28:26.459           112.206                 Moscow          3506.437
       257   04 Jun 2027 06:29:04.090   04 Jun 2027 06:31:07.714           123.624              Murmansk2          3863.250
       258   04 Jun 2027 06:31:23.532   04 Jun 2027 06:32:59.682            96.150                 Moscow          3004.688
       259   04 Jun 2027 06:33:28.860   04 Jun 2027 06:34:22.074            53.214                 Moscow          1662.937
       260   04 Jun 2027 06:45:26.885   04 Jun 2027 06:49:51.798           264.913               CapeTown          8278.531
       261   04 Jun 2027 07:49:18.270   04 Jun 2027 07:51:54.258           155.988                Anadyr1          4874.625
       262   04 Jun 2027 07:51:54.258   04 Jun 2027 07:54:19.382           145.124                Anadyr2          4535.125
       263   04 Jun 2027 07:54:25.252   04 Jun 2027 07:54:38.888            13.636               Magadan2           426.125
       264   04 Jun 2027 09:22:05.455   04 Jun 2027 09:23:14.037            68.582                Anadyr2          2143.188
       265   04 Jun 2027 09:24:53.569   04 Jun 2027 09:26:07.382            73.813                Anadyr2          2306.656
       266   04 Jun 2027 09:26:14.077   04 Jun 2027 09:27:12.431            58.354                Irkutsk          1823.562
       267   04 Jun 2027 09:27:23.246   04 Jun 2027 09:28:38.357            75.111               Magadan1          2347.219
       268   04 Jun 2027 09:28:38.357   04 Jun 2027 09:29:36.316            57.959               Magadan2          1811.219
       269   04 Jun 2027 09:30:05.465   04 Jun 2027 09:30:46.548            41.083                Anadyr1          1283.844
       270   04 Jun 2027 11:00:13.759   04 Jun 2027 11:03:24.706           190.947               Magadan1          5967.094
       271   04 Jun 2027 11:03:24.706   04 Jun 2027 11:05:22.129           117.423               Magadan2          3669.469
       272   04 Jun 2027 11:05:33.029   04 Jun 2027 11:06:13.009            39.980               Magadan2          1249.375
       273   04 Jun 2027 12:17:09.125   04 Jun 2027 12:17:23.580            14.455                Sumatra           451.719
       274   04 Jun 2027 12:29:29.323   04 Jun 2027 12:32:40.020           190.697                Irkutsk          5959.281
       275   04 Jun 2027 12:34:23.478   04 Jun 2027 12:35:12.715            49.237                Norilsk          1538.656
       276   04 Jun 2027 12:37:32.395   04 Jun 2027 12:37:44.253            11.858                Norilsk           370.562
       277   04 Jun 2027 13:18:06.306   04 Jun 2027 13:18:46.594            40.288            RioGallegos          1259.000
       278   04 Jun 2027 13:19:55.208   04 Jun 2027 13:23:11.189           195.981            RioGallegos          6124.406
       279   04 Jun 2027 13:52:22.445   04 Jun 2027 13:54:01.397            98.952                Sumatra          3092.250
       280   04 Jun 2027 14:07:01.682   04 Jun 2027 14:08:06.905            65.223                Novosib          2038.219
       281   04 Jun 2027 14:10:15.273   04 Jun 2027 14:11:15.926            60.653                Novosib          1895.406
       282   04 Jun 2027 14:14:13.977   04 Jun 2027 14:14:18.785             4.808                Norilsk           150.250
       283   04 Jun 2027 15:37:15.906   04 Jun 2027 15:42:11.660           295.754                  Delhi          9242.313
       284   04 Jun 2027 15:45:38.671   04 Jun 2027 15:51:42.108           363.437                Novosib         11357.406
       285   04 Jun 2027 17:23:46.038   04 Jun 2027 17:24:37.373            51.335                 Moscow          1604.219
       286   04 Jun 2027 17:30:40.354   04 Jun 2027 17:34:03.744           203.390                Norilsk          6355.938
       287   04 Jun 2027 18:35:34.206   04 Jun 2027 18:36:06.007            31.801               CapeTown           993.781
       288   04 Jun 2027 18:59:45.019   04 Jun 2027 19:04:14.219           269.200                 Moscow          8412.500
       289   04 Jun 2027 19:07:04.199   04 Jun 2027 19:07:17.354            13.155              Murmansk2           411.094
       290   04 Jun 2027 19:09:25.351   04 Jun 2027 19:10:45.252            79.901              Murmansk1          2496.906
       291   04 Jun 2027 20:10:32.444   04 Jun 2027 20:11:01.764            29.320               CapeTown           916.250
       292   04 Jun 2027 20:12:01.082   04 Jun 2027 20:12:43.335            42.253               CapeTown          1320.406
       293   04 Jun 2027 20:14:08.545   04 Jun 2027 20:15:18.005            69.460               CapeTown          2170.625
       294   04 Jun 2027 20:42:41.004   04 Jun 2027 20:48:07.369           326.365              Murmansk1         10198.906
       295   04 Jun 2027 22:26:28.322   04 Jun 2027 22:31:47.266           318.944                Anadyr1          9967.000
       296   04 Jun 2027 22:31:59.088   04 Jun 2027 22:33:23.045            83.957               Magadan1          2623.656
       297   04 Jun 2027 22:39:28.120   04 Jun 2027 22:39:32.279             4.159               Magadan2           129.969
       298   04 Jun 2027 22:39:46.509   04 Jun 2027 22:40:08.549            22.040               Magadan2           688.750
       299   04 Jun 2027 23:21:26.789   04 Jun 2027 23:24:38.740           191.951            RioGallegos          5998.469
       300   05 Jun 2027 00:02:12.710   05 Jun 2027 00:03:22.948            70.238                Anadyr2          2194.938
       301   05 Jun 2027 00:03:25.165   05 Jun 2027 00:03:41.506            16.341                Anadyr1           510.656
       302   05 Jun 2027 00:04:18.069   05 Jun 2027 00:05:52.570            94.501                Norilsk          2953.156
       303   05 Jun 2027 00:05:57.655   05 Jun 2027 00:06:56.476            58.821               Magadan2          1838.156
       304   05 Jun 2027 00:07:09.631   05 Jun 2027 00:07:16.502             6.871               Magadan2           214.719
       305   05 Jun 2027 00:07:55.701   05 Jun 2027 00:08:30.482            34.781               Magadan2          1086.906
       306   05 Jun 2027 00:08:46.286   05 Jun 2027 00:09:06.393            20.107                Irkutsk           628.344
       307   05 Jun 2027 00:09:30.144   05 Jun 2027 00:09:59.755            29.611                Irkutsk           925.344
       308   05 Jun 2027 00:15:30.189   05 Jun 2027 00:17:00.432            90.243                Irkutsk          2820.094
       309   05 Jun 2027 00:22:54.620   05 Jun 2027 00:25:59.265           184.645                Sumatra          5770.156
       310   05 Jun 2027 01:06:07.233   05 Jun 2027 01:06:26.331            19.098            RioGallegos           596.812
       311   05 Jun 2027 01:37:14.570   05 Jun 2027 01:38:30.774            76.204                Anadyr2          2381.375
       312   05 Jun 2027 01:38:30.774   05 Jun 2027 01:39:12.868            42.094                Anadyr1          1315.438
       313   05 Jun 2027 01:40:12.310   05 Jun 2027 01:41:42.744            90.434                Norilsk          2826.063
       314   05 Jun 2027 01:42:57.218   05 Jun 2027 01:43:44.873            47.655               Magadan1          1489.219
       315   05 Jun 2027 01:44:05.018   05 Jun 2027 01:45:17.410            72.392                Irkutsk          2262.250
       316   05 Jun 2027 01:45:55.556   05 Jun 2027 01:46:52.226            56.670                Novosib          1770.937
       317   05 Jun 2027 01:47:31.044   05 Jun 2027 01:47:58.853            27.809                Irkutsk           869.031
       318   05 Jun 2027 01:53:37.822   05 Jun 2027 01:55:29.361           111.539                  Delhi          3485.594
       319   05 Jun 2027 01:58:34.336   05 Jun 2027 02:00:20.861           106.525                Sumatra          3328.906
       320   05 Jun 2027 02:37:07.822   05 Jun 2027 02:37:13.699             5.877            RioGallegos           183.656
       321   05 Jun 2027 02:37:54.292   05 Jun 2027 02:39:22.102            87.810            RioGallegos          2744.063
       322   05 Jun 2027 03:21:38.600   05 Jun 2027 03:23:47.450           128.850                Irkutsk          4026.562
       323   05 Jun 2027 03:23:58.416   05 Jun 2027 03:24:16.076            17.660                Novosib           551.875
       324   05 Jun 2027 03:24:16.814   05 Jun 2027 03:24:39.953            23.139                Irkutsk           723.094
       325   05 Jun 2027 03:24:46.441   05 Jun 2027 03:25:43.032            56.591              Murmansk2          1768.469
       326   05 Jun 2027 03:25:44.339   05 Jun 2027 03:25:46.776             2.437                Norilsk            76.156
       327   05 Jun 2027 03:25:49.196   05 Jun 2027 03:28:25.221           156.025                Norilsk          4875.781
       328   05 Jun 2027 03:28:59.816   05 Jun 2027 03:29:42.508            42.692                Irkutsk          1334.125
       329   05 Jun 2027 03:30:25.728   05 Jun 2027 03:31:33.812            68.084                  Delhi          2127.625
       330   05 Jun 2027 04:10:14.119   05 Jun 2027 04:10:47.184            33.065            RioGallegos          1033.281
       331   05 Jun 2027 04:12:43.490   05 Jun 2027 04:14:10.176            86.686            RioGallegos          2708.937
       332   05 Jun 2027 04:59:57.047   05 Jun 2027 05:01:04.117            67.070              Murmansk1          2095.937
       333   05 Jun 2027 05:01:13.606   05 Jun 2027 05:01:32.408            18.802                 Moscow           587.563
       334   05 Jun 2027 05:01:38.347   05 Jun 2027 05:03:39.910           121.563                Norilsk          3798.844
       335   05 Jun 2027 05:03:42.839   05 Jun 2027 05:05:48.097           125.258              Murmansk1          3914.313
       336   05 Jun 2027 06:37:55.411   05 Jun 2027 06:38:50.392            54.981                 Moscow          1718.156
       337   05 Jun 2027 06:39:04.062   05 Jun 2027 06:39:24.120            20.058              Murmansk2           626.812
       338   05 Jun 2027 06:39:27.690   05 Jun 2027 06:40:59.366            91.676              Murmansk2          2864.875
       339   05 Jun 2027 06:42:15.984   05 Jun 2027 06:42:30.500            14.516                 Moscow           453.625
       340   05 Jun 2027 06:43:08.592   05 Jun 2027 06:43:53.969            45.377                 Moscow          1418.031
       341   05 Jun 2027 06:57:37.834   05 Jun 2027 07:00:30.101           172.267               CapeTown          5383.344
       342   05 Jun 2027 08:00:59.760   05 Jun 2027 08:01:27.695            27.935               Magadan2           872.969
       343   05 Jun 2027 08:01:27.695   05 Jun 2027 08:02:42.757            75.062               Magadan1          2345.687
       344   05 Jun 2027 08:02:45.201   05 Jun 2027 08:05:03.923           138.722                Anadyr1          4335.063
       345   05 Jun 2027 09:36:48.140   05 Jun 2027 09:40:07.747           199.607                Anadyr2          6237.719
       346   05 Jun 2027 09:40:07.747   05 Jun 2027 09:42:37.804           150.057                Anadyr1          4689.281
       347   05 Jun 2027 11:07:54.633   05 Jun 2027 11:08:32.443            37.810               Magadan2          1181.562
       348   05 Jun 2027 11:08:37.611   05 Jun 2027 11:09:00.307            22.696               Magadan2           709.250
       349   05 Jun 2027 11:12:03.088   05 Jun 2027 11:17:52.515           349.427               Magadan2         10919.594
       350   05 Jun 2027 11:19:12.761   05 Jun 2027 11:19:19.103             6.342                Novosib           198.188
       351   05 Jun 2027 11:19:27.751   05 Jun 2027 11:19:54.238            26.487              Murmansk1           827.719
       352   05 Jun 2027 11:26:48.968   05 Jun 2027 11:27:00.554            11.586              Murmansk2           362.063
       353   05 Jun 2027 11:53:05.817   05 Jun 2027 11:54:20.815            74.998            RioGallegos          2343.687
       354   05 Jun 2027 12:28:42.368   05 Jun 2027 12:29:11.968            29.600                Sumatra           925.000
       355   05 Jun 2027 12:39:59.163   05 Jun 2027 12:40:20.549            21.386                Sumatra           668.312
       356   05 Jun 2027 12:41:33.483   05 Jun 2027 12:45:45.801           252.318                Irkutsk          7884.938
       357   05 Jun 2027 13:30:35.038   05 Jun 2027 13:31:57.512            82.474            RioGallegos          2577.313
       358   05 Jun 2027 13:35:01.362   05 Jun 2027 13:35:31.055            29.693            RioGallegos           927.906
       359   05 Jun 2027 14:04:48.523   05 Jun 2027 14:09:51.315           302.792                Sumatra          9462.250
       360   05 Jun 2027 14:20:14.258   05 Jun 2027 14:20:49.399            35.141                Irkutsk          1098.156
       361   05 Jun 2027 14:22:37.152   05 Jun 2027 14:24:30.461           113.309                Irkutsk          3540.906
       362   05 Jun 2027 15:49:56.447   05 Jun 2027 15:54:35.298           278.851                  Delhi          8714.094
       363   05 Jun 2027 15:59:52.319   05 Jun 2027 16:02:51.448           179.129                Novosib          5597.781
       364   05 Jun 2027 17:32:49.833   05 Jun 2027 17:33:28.629            38.796                 Moscow          1212.375
       365   05 Jun 2027 17:35:45.607   05 Jun 2027 17:37:17.988            92.381                 Moscow          2886.906
       366   05 Jun 2027 17:38:58.591   05 Jun 2027 17:39:20.743            22.152              Murmansk2           692.250
       367   05 Jun 2027 17:44:09.904   05 Jun 2027 17:45:36.824            86.920                Norilsk          2716.250
       368   05 Jun 2027 17:51:46.930   05 Jun 2027 17:52:13.202            26.272                Anadyr1           821.000
       369   05 Jun 2027 17:53:58.427   05 Jun 2027 17:54:35.660            37.233                Anadyr1          1163.531
       370   05 Jun 2027 18:46:06.746   05 Jun 2027 18:47:05.739            58.993               CapeTown          1843.531
       371   05 Jun 2027 18:52:02.266   05 Jun 2027 18:52:39.449            37.183               CapeTown          1161.969
       372   05 Jun 2027 19:12:39.656   05 Jun 2027 19:16:53.095           253.439                 Moscow          7919.969
       373   05 Jun 2027 19:19:48.194   05 Jun 2027 19:20:11.412            23.218              Murmansk1           725.562
       374   05 Jun 2027 19:24:48.412   05 Jun 2027 19:24:51.527             3.115              Murmansk2            97.344
       375   05 Jun 2027 19:35:51.722   05 Jun 2027 19:35:57.945             6.223                Anadyr2           194.469
       376   05 Jun 2027 20:22:53.218   05 Jun 2027 20:28:03.211           309.993               CapeTown          9687.281
       377   05 Jun 2027 20:55:42.047   05 Jun 2027 20:59:43.397           241.350              Murmansk2          7542.188
       378   05 Jun 2027 21:13:54.995   05 Jun 2027 21:14:26.324            31.329               Magadan2           979.031
       379   05 Jun 2027 22:38:29.714   05 Jun 2027 22:42:18.983           229.269                Anadyr2          7164.656
       380   05 Jun 2027 22:42:19.540   05 Jun 2027 22:44:21.032           121.492                Norilsk          3796.625
       381   05 Jun 2027 22:44:28.652   05 Jun 2027 22:44:57.847            29.195               Magadan1           912.344
       382   05 Jun 2027 22:45:03.896   05 Jun 2027 22:45:18.822            14.926               Magadan1           466.438
       383   05 Jun 2027 22:46:02.241   05 Jun 2027 22:47:07.041            64.800               Magadan1          2025.000
       384   05 Jun 2027 23:33:09.246   05 Jun 2027 23:35:22.191           132.945            RioGallegos          4154.531
       385   05 Jun 2027 23:35:49.886   05 Jun 2027 23:36:30.397            40.511            RioGallegos          1265.969
       386   06 Jun 2027 00:14:10.793   06 Jun 2027 00:15:22.112            71.319                Anadyr1          2228.719
       387   06 Jun 2027 00:15:32.617   06 Jun 2027 00:16:27.147            54.530                Anadyr1          1704.062
       388   06 Jun 2027 00:16:36.512   06 Jun 2027 00:17:02.395            25.883                Anadyr2           808.844
       389   06 Jun 2027 00:17:14.732   06 Jun 2027 00:17:54.075            39.343                Norilsk          1229.469
       390   06 Jun 2027 00:18:31.118   06 Jun 2027 00:19:58.816            87.698               Magadan2          2740.562
       391   06 Jun 2027 00:20:37.383   06 Jun 2027 00:22:00.447            83.064                Irkutsk          2595.750
       392   06 Jun 2027 00:22:53.960   06 Jun 2027 00:23:31.397            37.437                Irkutsk          1169.906
       393   06 Jun 2027 00:23:59.036   06 Jun 2027 00:24:25.964            26.928                Novosib           841.500
       394   06 Jun 2027 00:34:32.135   06 Jun 2027 00:36:18.229           106.094                Sumatra          3315.437
       395   06 Jun 2027 00:40:59.745   06 Jun 2027 00:41:01.216             1.471                Sumatra            45.969
       396   06 Jun 2027 00:44:40.275   06 Jun 2027 00:46:29.379           109.104                Sumatra          3409.500
       397   06 Jun 2027 01:20:05.092   06 Jun 2027 01:21:05.106            60.014            RioGallegos          1875.438
       398   06 Jun 2027 01:49:04.310   06 Jun 2027 01:49:07.014             2.704                Anadyr1            84.500
       399   06 Jun 2027 01:49:40.514   06 Jun 2027 01:50:07.427            26.913                Anadyr2           841.031
       400   06 Jun 2027 01:50:40.163   06 Jun 2027 01:51:13.609            33.446                Anadyr2          1045.187
       401   06 Jun 2027 01:52:14.707   06 Jun 2027 01:52:57.566            42.859                Norilsk          1339.344
       402   06 Jun 2027 01:53:29.644   06 Jun 2027 01:53:46.527            16.883                Norilsk           527.594
       403   06 Jun 2027 01:53:53.491   06 Jun 2027 01:54:17.656            24.165               Magadan2           755.156
       404   06 Jun 2027 01:56:07.201   06 Jun 2027 01:58:18.232           131.031                Irkutsk          4094.719
       405   06 Jun 2027 01:58:44.926   06 Jun 2027 02:00:01.589            76.663                Novosib          2395.719
       406   06 Jun 2027 02:07:28.836   06 Jun 2027 02:07:33.076             4.240                  Delhi           132.500
       407   06 Jun 2027 02:08:24.702   06 Jun 2027 02:08:39.593            14.891                  Delhi           465.344
       408   06 Jun 2027 02:11:05.391   06 Jun 2027 02:16:00.215           294.824                Sumatra          9213.250
       409   06 Jun 2027 03:33:56.496   06 Jun 2027 03:34:22.332            25.836              Murmansk2           807.375
       410   06 Jun 2027 03:34:22.332   06 Jun 2027 03:34:38.513            16.181              Murmansk1           505.656
       411   06 Jun 2027 03:34:59.397   06 Jun 2027 03:37:34.782           155.385                Norilsk          4855.781
       412   06 Jun 2027 03:37:41.442   06 Jun 2027 03:38:23.513            42.071                 Moscow          1314.719
       413   06 Jun 2027 03:38:25.339   06 Jun 2027 03:38:47.357            22.018                Novosib           688.063
       414   06 Jun 2027 03:39:01.847   06 Jun 2027 03:39:44.828            42.981                Norilsk          1343.156
       415   06 Jun 2027 03:39:46.026   06 Jun 2027 03:43:56.098           250.072                  Delhi          7814.750
       416   06 Jun 2027 03:47:24.807   06 Jun 2027 03:47:35.869            11.062                  Delhi           345.688
       417   06 Jun 2027 03:47:55.184   06 Jun 2027 03:48:12.686            17.502                  Delhi           546.937
       418   06 Jun 2027 05:12:53.173   06 Jun 2027 05:15:14.067           140.894              Murmansk1          4402.938
       419   06 Jun 2027 05:15:20.470   06 Jun 2027 05:16:44.871            84.401              Murmansk1          2637.531
       420   06 Jun 2027 05:17:06.463   06 Jun 2027 05:17:26.765            20.302              Murmansk2           634.437
       421   06 Jun 2027 05:17:42.507   06 Jun 2027 05:18:13.209            30.702              Murmansk2           959.438
       422   06 Jun 2027 05:19:03.821   06 Jun 2027 05:21:57.553           173.732                 Moscow          5429.125
       423   06 Jun 2027 05:34:26.689   06 Jun 2027 05:37:59.211           212.522               CapeTown          6641.313
       424   06 Jun 2027 05:38:28.466   06 Jun 2027 05:39:49.723            81.257               CapeTown          2539.281
       425   06 Jun 2027 05:40:43.844   06 Jun 2027 05:41:01.581            17.737               CapeTown           554.281
       426   06 Jun 2027 05:41:21.133   06 Jun 2027 05:41:50.728            29.595               CapeTown           924.844
       427   06 Jun 2027 06:49:55.116   06 Jun 2027 06:50:08.365            13.249                 Moscow           414.031
       428   06 Jun 2027 06:50:17.849   06 Jun 2027 06:50:44.214            26.365                Norilsk           823.906
       429   06 Jun 2027 06:50:45.866   06 Jun 2027 06:51:12.730            26.864              Murmansk1           839.500
       430   06 Jun 2027 06:51:12.730   06 Jun 2027 06:51:47.307            34.577              Murmansk2          1080.531
       431   06 Jun 2027 06:51:54.687   06 Jun 2027 06:52:55.884            61.197              Murmansk2          1912.406
       432   06 Jun 2027 06:54:32.035   06 Jun 2027 06:55:15.360            43.325              Murmansk2          1353.906
       433   06 Jun 2027 06:56:41.232   06 Jun 2027 06:57:11.274            30.042                 Moscow           938.813
       434   06 Jun 2027 07:09:54.662   06 Jun 2027 07:14:54.552           299.890               CapeTown          9371.562
       435   06 Jun 2027 08:13:02.396   06 Jun 2027 08:13:32.232            29.836               Magadan1           932.375
       436   06 Jun 2027 08:14:40.671   06 Jun 2027 08:15:18.000            37.329                Anadyr2          1166.531
       437   06 Jun 2027 08:15:25.043   06 Jun 2027 08:15:55.483            30.440               Magadan2           951.250
       438   06 Jun 2027 08:16:51.777   06 Jun 2027 08:16:53.432             1.655               Magadan2            51.719
       439   06 Jun 2027 08:17:03.354   06 Jun 2027 08:18:02.287            58.933                Anadyr2          1841.656
       440   06 Jun 2027 08:30:03.367   06 Jun 2027 08:30:20.435            17.068                 Moscow           533.375
       441   06 Jun 2027 09:46:36.862   06 Jun 2027 09:49:57.900           201.038                Anadyr2          6282.438
       442   06 Jun 2027 09:50:39.919   06 Jun 2027 09:50:45.404             5.485               Magadan1           171.406
       443   06 Jun 2027 09:50:45.404   06 Jun 2027 09:50:48.746             3.342               Magadan2           104.437
       444   06 Jun 2027 09:50:56.022   06 Jun 2027 09:52:47.860           111.838                Anadyr1          3494.937
       445   06 Jun 2027 09:53:03.933   06 Jun 2027 09:53:16.342            12.409               Magadan2           387.781
       446   06 Jun 2027 09:54:07.588   06 Jun 2027 09:54:39.438            31.850                Anadyr1           995.313
       447   06 Jun 2027 11:20:30.860   06 Jun 2027 11:23:48.389           197.529               Magadan2          6172.781
       448   06 Jun 2027 11:24:42.180   06 Jun 2027 11:25:17.107            34.927                Irkutsk          1091.469
       449   06 Jun 2027 11:25:55.805   06 Jun 2027 11:26:36.938            41.133                Novosib          1285.406
       450   06 Jun 2027 11:26:37.328   06 Jun 2027 11:29:58.072           200.744               Magadan1          6273.250
       451   06 Jun 2027 11:30:15.147   06 Jun 2027 11:30:23.705             8.558              Murmansk2           267.437
       452   06 Jun 2027 11:30:35.587   06 Jun 2027 11:31:21.747            46.160                Norilsk          1442.500
       453   06 Jun 2027 12:05:06.197   06 Jun 2027 12:05:20.824            14.627            RioGallegos           457.094
       454   06 Jun 2027 12:06:18.232   06 Jun 2027 12:08:16.003           117.771            RioGallegos          3680.344
       455   06 Jun 2027 12:44:17.113   06 Jun 2027 12:44:42.415            25.302                Sumatra           790.688
       456   06 Jun 2027 12:53:41.072   06 Jun 2027 12:56:48.659           187.587                Irkutsk          5862.094
       457   06 Jun 2027 12:57:52.024   06 Jun 2027 12:58:02.653            10.629                Irkutsk           332.156
       458   06 Jun 2027 12:58:26.652   06 Jun 2027 12:59:32.060            65.408                Norilsk          2044.000
       459   06 Jun 2027 13:43:09.957   06 Jun 2027 13:45:59.421           169.464            RioGallegos          5295.750
       460   06 Jun 2027 14:17:25.526   06 Jun 2027 14:22:11.024           285.498                Sumatra          8921.813
       461   06 Jun 2027 14:33:46.236   06 Jun 2027 14:36:01.556           135.320                Irkutsk          4228.750
       462   06 Jun 2027 16:02:52.434   06 Jun 2027 16:10:33.679           461.245                  Delhi         14413.906
       463   06 Jun 2027 16:11:22.510   06 Jun 2027 16:15:31.821           249.311                Novosib          7790.969
       464   06 Jun 2027 18:58:04.295   06 Jun 2027 19:00:37.459           153.164               CapeTown          4786.375
       465   06 Jun 2027 19:25:50.548   06 Jun 2027 19:29:39.767           229.219                 Moscow          7163.094
       466   06 Jun 2027 19:30:51.772   06 Jun 2027 19:31:02.364            10.592              Murmansk1           331.000
       467   06 Jun 2027 19:31:05.928   06 Jun 2027 19:32:09.271            63.343              Murmansk2          1979.469
       468   06 Jun 2027 19:32:59.659   06 Jun 2027 19:34:37.304            97.645              Murmansk1          3051.406
       469   06 Jun 2027 20:35:20.731   06 Jun 2027 20:38:44.736           204.005               CapeTown          6375.156
       470   06 Jun 2027 20:41:38.136   06 Jun 2027 20:41:40.108             1.972               CapeTown            61.625
       471   06 Jun 2027 21:09:05.107   06 Jun 2027 21:11:12.157           127.050              Murmansk1          3970.313
       472   06 Jun 2027 21:17:05.810   06 Jun 2027 21:17:56.477            50.667               Magadan1          1583.344
       473   06 Jun 2027 21:19:29.706   06 Jun 2027 21:19:45.350            15.644               Magadan1           488.875
       474   06 Jun 2027 21:23:12.355   06 Jun 2027 21:23:14.400             2.045               Magadan1            63.906
       475   06 Jun 2027 21:23:24.246   06 Jun 2027 21:23:38.271            14.025               Magadan2           438.281
       476   06 Jun 2027 21:24:40.247   06 Jun 2027 21:25:09.985            29.738               Magadan1           929.313
       477   06 Jun 2027 22:50:30.875   06 Jun 2027 22:54:19.340           228.465                Anadyr1          7139.531
       478   06 Jun 2027 22:54:19.768   06 Jun 2027 22:55:37.160            77.392                Anadyr2          2418.500
       479   06 Jun 2027 22:55:56.671   06 Jun 2027 22:57:56.185           119.514               Magadan1          3734.813
       480   06 Jun 2027 22:57:56.185   06 Jun 2027 22:58:26.794            30.609               Magadan2           956.531
       481   06 Jun 2027 23:04:52.916   06 Jun 2027 23:05:05.764            12.848               Magadan2           401.500
       482   06 Jun 2027 23:44:56.332   06 Jun 2027 23:47:55.063           178.731            RioGallegos          5585.344
