uniorb/output/strategy_1/Drop/Drop_KinoSat_111703.txt

KinoSat_111703
-------------------------
    Access    *     Start Time (UTCG)     *     Stop Time (UTCG)  *   Duration (s)        *       Station  *  Data (Mbytes)
         1   01 Jun 2027 03:32:06.175   01 Jun 2027 03:35:27.622           201.447                 Moscow          6295.219
         2   01 Jun 2027 03:35:28.146   01 Jun 2027 03:35:55.241            27.095                Novosib           846.719
         3   01 Jun 2027 03:36:07.368   01 Jun 2027 03:37:32.954            85.586                  Delhi          2674.563
         4   01 Jun 2027 03:39:03.334   01 Jun 2027 03:39:27.647            24.313                Novosib           759.781
         5   01 Jun 2027 03:44:48.185   01 Jun 2027 03:45:02.945            14.760                  Delhi           461.250
         6   01 Jun 2027 05:09:04.734   01 Jun 2027 05:10:43.715            98.981                 Moscow          3093.156
         7   01 Jun 2027 05:11:05.331   01 Jun 2027 05:11:10.040             4.709                Norilsk           147.156
         8   01 Jun 2027 05:11:18.015   01 Jun 2027 05:11:40.632            22.617                Novosib           706.781
         9   01 Jun 2027 05:11:44.526   01 Jun 2027 05:14:29.664           165.138              Murmansk2          5160.562
        10   01 Jun 2027 05:14:38.962   01 Jun 2027 05:16:29.061           110.099                 Moscow          3440.594
        11   01 Jun 2027 06:32:37.375   01 Jun 2027 06:33:42.349            64.974                Anadyr1          2030.437
        12   01 Jun 2027 08:09:54.802   01 Jun 2027 08:13:17.708           202.906               Magadan2          6340.812
        13   01 Jun 2027 08:13:38.579   01 Jun 2027 08:14:29.263            50.684                Anadyr2          1583.875
        14   01 Jun 2027 09:42:32.701   01 Jun 2027 09:43:15.036            42.335               Magadan2          1322.969
        15   01 Jun 2027 09:43:27.640   01 Jun 2027 09:49:20.026           352.386                Anadyr1         11012.062
        16   01 Jun 2027 09:50:13.626   01 Jun 2027 09:50:39.560            25.934              Murmansk1           810.437
        17   01 Jun 2027 09:50:39.560   01 Jun 2027 09:51:04.844            25.284              Murmansk2           790.125
        18   01 Jun 2027 10:25:05.422   01 Jun 2027 10:25:27.368            21.946            RioGallegos           685.813
        19   01 Jun 2027 11:04:22.578   01 Jun 2027 11:04:23.838             1.260                Sumatra            39.375
        20   01 Jun 2027 11:19:23.426   01 Jun 2027 11:23:23.992           240.566               Magadan2          7517.687
        21   01 Jun 2027 11:23:23.992   01 Jun 2027 11:23:56.460            32.468               Magadan1          1014.625
        22   01 Jun 2027 11:26:25.521   01 Jun 2027 11:29:05.096           159.575                Norilsk          4986.719
        23   01 Jun 2027 11:29:25.253   01 Jun 2027 11:29:57.706            32.453                Norilsk          1014.156
        24   01 Jun 2027 11:30:09.102   01 Jun 2027 11:30:31.229            22.127              Murmansk2           691.469
        25   01 Jun 2027 11:30:58.835   01 Jun 2027 11:31:15.536            16.701              Murmansk2           521.906
        26   01 Jun 2027 11:32:10.224   01 Jun 2027 11:32:16.286             6.062              Murmansk1           189.438
        27   01 Jun 2027 11:33:04.289   01 Jun 2027 11:33:07.796             3.507              Murmansk2           109.594
        28   01 Jun 2027 11:33:15.759   01 Jun 2027 11:33:31.932            16.173              Murmansk2           505.406
        29   01 Jun 2027 12:01:02.657   01 Jun 2027 12:01:50.407            47.750            RioGallegos          1492.188
        30   01 Jun 2027 12:03:44.704   01 Jun 2027 12:04:08.887            24.183            RioGallegos           755.719
        31   01 Jun 2027 12:06:31.893   01 Jun 2027 12:07:15.080            43.187            RioGallegos          1349.594
        32   01 Jun 2027 12:08:17.419   01 Jun 2027 12:09:37.770            80.351            RioGallegos          2510.969
        33   01 Jun 2027 12:36:50.190   01 Jun 2027 12:38:35.351           105.161                Sumatra          3286.281
        34   01 Jun 2027 12:44:52.645   01 Jun 2027 12:44:55.627             2.982                Sumatra            93.188
        35   01 Jun 2027 12:50:07.943   01 Jun 2027 12:51:04.204            56.261                Irkutsk          1758.156
        36   01 Jun 2027 12:51:28.979   01 Jun 2027 12:55:20.995           232.016                Irkutsk          7250.500
        37   01 Jun 2027 12:59:59.515   01 Jun 2027 13:00:03.787             4.272                Irkutsk           133.500
        38   01 Jun 2027 13:42:42.948   01 Jun 2027 13:46:01.558           198.610            RioGallegos          6206.563
        39   01 Jun 2027 14:27:44.680   01 Jun 2027 14:28:12.818            28.138                  Delhi           879.313
        40   01 Jun 2027 14:28:35.235   01 Jun 2027 14:31:40.507           185.272                Novosib          5789.750
        41   01 Jun 2027 14:32:03.520   01 Jun 2027 14:32:09.470             5.950                Norilsk           185.938
        42   01 Jun 2027 14:33:19.248   01 Jun 2027 14:33:44.312            25.064                Norilsk           783.250
        43   01 Jun 2027 14:34:49.181   01 Jun 2027 14:35:13.815            24.634                Norilsk           769.812
        44   01 Jun 2027 14:35:44.707   01 Jun 2027 14:36:52.414            67.707                Norilsk          2115.844
        45   01 Jun 2027 14:37:23.838   01 Jun 2027 14:38:29.561            65.723                Novosib          2053.844
        46   01 Jun 2027 16:04:05.801   01 Jun 2027 16:05:12.801            67.000                 Moscow          2093.750
        47   01 Jun 2027 16:06:20.513   01 Jun 2027 16:06:56.817            36.304                 Moscow          1134.500
        48   01 Jun 2027 16:08:32.681   01 Jun 2027 16:09:39.247            66.566              Murmansk2          2080.188
        49   01 Jun 2027 16:12:22.125   01 Jun 2027 16:18:23.590           361.465                Norilsk         11295.781
        50   01 Jun 2027 17:42:00.143   01 Jun 2027 17:43:02.559            62.416                 Moscow          1950.500
        51   01 Jun 2027 17:44:55.897   01 Jun 2027 17:46:24.126            88.229              Murmansk1          2757.156
        52   01 Jun 2027 17:47:03.059   01 Jun 2027 17:47:20.162            17.103                 Moscow           534.469
        53   01 Jun 2027 17:59:15.116   01 Jun 2027 17:59:53.787            38.671                Anadyr1          1208.469
        54   01 Jun 2027 18:53:43.450   01 Jun 2027 18:56:22.505           159.055               CapeTown          4970.469
        55   01 Jun 2027 19:24:39.759   01 Jun 2027 19:26:16.220            96.461              Murmansk2          3014.406
        56   01 Jun 2027 19:27:53.414   01 Jun 2027 19:29:25.461            92.047              Murmansk2          2876.469
        57   01 Jun 2027 19:37:14.181   01 Jun 2027 19:39:17.149           122.968               Magadan1          3842.750
        58   01 Jun 2027 19:40:36.186   01 Jun 2027 19:40:39.600             3.414               Magadan2           106.688
        59   01 Jun 2027 19:40:43.611   01 Jun 2027 19:40:59.554            15.943               Magadan2           498.219
        60   01 Jun 2027 21:10:04.839   01 Jun 2027 21:11:40.768            95.929                Anadyr1          2997.781
        61   01 Jun 2027 21:11:48.057   01 Jun 2027 21:13:50.414           122.357                Anadyr2          3823.656
        62   01 Jun 2027 21:14:14.479   01 Jun 2027 21:15:07.308            52.829                Anadyr1          1650.906
        63   01 Jun 2027 21:15:15.372   01 Jun 2027 21:17:13.223           117.851               Magadan2          3682.844
        64   01 Jun 2027 21:17:43.095   01 Jun 2027 21:18:13.913            30.818               Magadan2           963.063
        65   01 Jun 2027 21:19:39.267   01 Jun 2027 21:19:53.615            14.348               Magadan2           448.375
        66   01 Jun 2027 21:20:40.870   01 Jun 2027 21:21:10.380            29.510               Magadan2           922.188
        67   01 Jun 2027 21:22:37.171   01 Jun 2027 21:23:10.194            33.023               Magadan2          1031.969
        68   01 Jun 2027 22:06:14.083   01 Jun 2027 22:08:44.775           150.692            RioGallegos          4709.125
        69   01 Jun 2027 22:45:54.447   01 Jun 2027 22:50:05.018           250.571                Anadyr1          7830.344
        70   01 Jun 2027 22:50:09.925   01 Jun 2027 22:51:23.044            73.119                Norilsk          2284.969
        71   01 Jun 2027 22:51:42.766   01 Jun 2027 22:52:00.748            17.982               Magadan2           561.937
        72   01 Jun 2027 22:52:44.374   01 Jun 2027 22:53:04.471            20.097               Magadan1           628.031
        73   01 Jun 2027 22:53:22.509   01 Jun 2027 22:54:40.940            78.431                Irkutsk          2450.969
        74   01 Jun 2027 22:57:00.341   01 Jun 2027 22:57:11.894            11.553                Irkutsk           361.031
        75   01 Jun 2027 23:07:55.726   01 Jun 2027 23:10:10.448           134.722                Sumatra          4210.062
        76   01 Jun 2027 23:15:52.816   01 Jun 2027 23:15:57.755             4.939                Sumatra           154.344
        77   01 Jun 2027 23:46:46.017   01 Jun 2027 23:46:56.496            10.479            RioGallegos           327.469
        78   01 Jun 2027 23:50:33.968   01 Jun 2027 23:50:56.856            22.888            RioGallegos           715.250
        79   02 Jun 2027 00:21:11.345   02 Jun 2027 00:22:06.345            55.000                Anadyr1          1718.750
        80   02 Jun 2027 00:22:06.345   02 Jun 2027 00:23:04.538            58.193                Anadyr2          1818.531
        81   02 Jun 2027 00:23:47.961   02 Jun 2027 00:25:31.700           103.739                Norilsk          3241.844
        82   02 Jun 2027 00:25:43.390   02 Jun 2027 00:26:28.245            44.855               Magadan2          1401.719
        83   02 Jun 2027 00:27:16.258   02 Jun 2027 00:27:36.671            20.413               Magadan2           637.906
        84   02 Jun 2027 00:27:43.456   02 Jun 2027 00:28:39.626            56.170                Irkutsk          1755.312
        85   02 Jun 2027 00:28:47.651   02 Jun 2027 00:29:44.235            56.584                Novosib          1768.250
        86   02 Jun 2027 00:30:35.400   02 Jun 2027 00:30:58.768            23.368                Novosib           730.250
        87   02 Jun 2027 00:34:12.140   02 Jun 2027 00:34:19.932             7.792                Novosib           243.500
        88   02 Jun 2027 00:38:22.253   02 Jun 2027 00:40:07.158           104.905                  Delhi          3278.281
        89   02 Jun 2027 00:46:02.800   02 Jun 2027 00:47:18.033            75.233                Sumatra          2351.031
        90   02 Jun 2027 01:15:49.081   02 Jun 2027 01:16:33.924            44.843            RioGallegos          1401.344
        91   02 Jun 2027 01:27:13.946   02 Jun 2027 01:27:49.165            35.219            RioGallegos          1100.594
        92   02 Jun 2027 01:56:27.249   02 Jun 2027 01:56:48.881            21.632                Anadyr2           676.000
        93   02 Jun 2027 01:57:16.154   02 Jun 2027 01:57:51.684            35.530                Anadyr2          1110.312
        94   02 Jun 2027 01:57:51.684   02 Jun 2027 01:58:01.672             9.988                Anadyr1           312.125
        95   02 Jun 2027 01:59:48.835   02 Jun 2027 02:01:29.414           100.579                Norilsk          3143.094
        96   02 Jun 2027 02:02:42.131   02 Jun 2027 02:03:22.077            39.946              Murmansk2          1248.313
        97   02 Jun 2027 02:03:22.077   02 Jun 2027 02:03:34.245            12.168              Murmansk1           380.250
        98   02 Jun 2027 02:03:36.666   02 Jun 2027 02:04:32.237            55.571                Novosib          1736.594
        99   02 Jun 2027 02:04:41.666   02 Jun 2027 02:05:34.747            53.081                Irkutsk          1658.781
       100   02 Jun 2027 02:08:46.424   02 Jun 2027 02:08:55.002             8.578                Irkutsk           268.062
       101   02 Jun 2027 02:09:49.044   02 Jun 2027 02:10:55.492            66.448                Irkutsk          2076.500
       102   02 Jun 2027 02:19:27.940   02 Jun 2027 02:19:43.902            15.962                  Delhi           498.812
       103   02 Jun 2027 02:23:22.576   02 Jun 2027 02:23:29.436             6.860                  Delhi           214.375
       104   02 Jun 2027 02:52:53.254   02 Jun 2027 02:57:18.015           264.761            RioGallegos          8273.781
       105   02 Jun 2027 03:44:22.635   02 Jun 2027 03:48:23.959           241.324                Norilsk          7541.375
       106   02 Jun 2027 03:48:40.933   02 Jun 2027 03:48:46.233             5.300              Murmansk2           165.625
       107   02 Jun 2027 03:52:29.846   02 Jun 2027 03:54:16.179           106.333                  Delhi          3322.906
       108   02 Jun 2027 05:20:53.481   02 Jun 2027 05:21:11.516            18.035                Novosib           563.594
       109   02 Jun 2027 05:21:47.962   02 Jun 2027 05:22:48.941            60.979                 Moscow          1905.594
       110   02 Jun 2027 05:23:11.367   02 Jun 2027 05:25:10.608           119.241              Murmansk2          3726.281
       111   02 Jun 2027 05:25:11.735   02 Jun 2027 05:26:39.195            87.460              Murmansk1          2733.125
       112   02 Jun 2027 05:41:01.123   02 Jun 2027 05:43:36.454           155.331               CapeTown          4854.094
       113   02 Jun 2027 06:45:04.053   02 Jun 2027 06:46:53.089           109.036                Anadyr2          3407.375
       114   02 Jun 2027 06:46:53.089   02 Jun 2027 06:47:25.942            32.853                Anadyr1          1026.656
       115   02 Jun 2027 06:47:58.210   02 Jun 2027 06:48:05.290             7.080               Magadan2           221.250
       116   02 Jun 2027 06:48:10.490   02 Jun 2027 06:48:15.868             5.378               Magadan2           168.063
       117   02 Jun 2027 06:49:58.707   02 Jun 2027 06:50:15.659            16.952               Magadan2           529.750
       118   02 Jun 2027 07:21:40.479   02 Jun 2027 07:24:40.945           180.466               CapeTown          5639.563
       119   02 Jun 2027 08:20:49.190   02 Jun 2027 08:21:30.238            41.048                Anadyr1          1282.750
       120   02 Jun 2027 08:22:09.506   02 Jun 2027 08:22:29.773            20.267               Magadan2           633.344
       121   02 Jun 2027 08:22:59.043   02 Jun 2027 08:24:10.481            71.438               Magadan2          2232.438
       122   02 Jun 2027 08:24:37.900   02 Jun 2027 08:25:14.426            36.526                Anadyr1          1141.438
       123   02 Jun 2027 09:54:33.374   02 Jun 2027 09:55:52.420            79.046               Magadan2          2470.188
       124   02 Jun 2027 09:55:57.404   02 Jun 2027 09:56:58.593            61.189               Magadan1          1912.156
       125   02 Jun 2027 09:57:50.417   02 Jun 2027 10:00:27.676           157.259                Irkutsk          4914.344
       126   02 Jun 2027 10:00:30.262   02 Jun 2027 10:01:13.451            43.189               Magadan2          1349.656
       127   02 Jun 2027 10:01:34.988   02 Jun 2027 10:02:21.665            46.677              Murmansk2          1458.656
       128   02 Jun 2027 10:36:55.665   02 Jun 2027 10:37:56.441            60.776            RioGallegos          1899.250
       129   02 Jun 2027 11:13:30.895   02 Jun 2027 11:15:23.447           112.552                Sumatra          3517.250
       130   02 Jun 2027 11:33:02.999   02 Jun 2027 11:38:01.253           298.254                Irkutsk          9320.437
       131   02 Jun 2027 12:14:34.079   02 Jun 2027 12:15:39.834            65.755            RioGallegos          2054.844
       132   02 Jun 2027 12:17:50.541   02 Jun 2027 12:18:05.216            14.675            RioGallegos           458.594
       133   02 Jun 2027 12:22:14.187   02 Jun 2027 12:23:13.007            58.820            RioGallegos          1838.125
       134   02 Jun 2027 12:47:43.120   02 Jun 2027 12:49:39.669           116.549                Sumatra          3642.156
       135   02 Jun 2027 12:55:22.802   02 Jun 2027 12:56:27.546            64.744                Sumatra          2023.250
       136   02 Jun 2027 13:02:35.708   02 Jun 2027 13:03:23.909            48.201                Irkutsk          1506.281
       137   02 Jun 2027 13:04:25.000   02 Jun 2027 13:05:31.457            66.457                Novosib          2076.781
       138   02 Jun 2027 13:06:13.433   02 Jun 2027 13:07:43.651            90.218                Irkutsk          2819.313
       139   02 Jun 2027 13:09:21.346   02 Jun 2027 13:09:33.294            11.948                Norilsk           373.375
       140   02 Jun 2027 14:32:23.489   02 Jun 2027 14:33:22.980            59.491                  Delhi          1859.094
       141   02 Jun 2027 14:34:28.844   02 Jun 2027 14:36:52.123           143.279                  Delhi          4477.469
       142   02 Jun 2027 14:40:36.816   02 Jun 2027 14:43:39.180           182.364                Novosib          5698.875
       143   02 Jun 2027 14:44:28.880   02 Jun 2027 14:45:00.588            31.708                Norilsk           990.875
       144   02 Jun 2027 14:45:38.015   02 Jun 2027 14:46:00.704            22.689                Novosib           709.031
       145   02 Jun 2027 14:48:24.515   02 Jun 2027 14:49:04.751            40.236                Norilsk          1257.375
       146   02 Jun 2027 14:52:44.058   02 Jun 2027 14:54:24.153           100.095                Norilsk          3127.969
       147   02 Jun 2027 16:16:10.235   02 Jun 2027 16:16:48.866            38.631                 Moscow          1207.219
       148   02 Jun 2027 16:17:10.372   02 Jun 2027 16:17:19.025             8.653                 Moscow           270.406
       149   02 Jun 2027 16:17:39.928   02 Jun 2027 16:19:23.838           103.910                 Moscow          3247.187
       150   02 Jun 2027 16:20:52.608   02 Jun 2027 16:21:30.022            37.414              Murmansk1          1169.188
       151   02 Jun 2027 16:25:14.199   02 Jun 2027 16:29:43.185           268.986                Norilsk          8405.813
       152   02 Jun 2027 17:36:31.285   02 Jun 2027 17:37:08.787            37.502               CapeTown          1171.937
       153   02 Jun 2027 17:54:36.783   02 Jun 2027 17:56:43.417           126.634                 Moscow          3957.312
       154   02 Jun 2027 17:57:17.223   02 Jun 2027 18:00:21.449           184.226              Murmansk2          5757.062
       155   02 Jun 2027 18:11:51.732   02 Jun 2027 18:11:59.482             7.750                Anadyr1           242.188
       156   02 Jun 2027 18:13:10.979   02 Jun 2027 18:13:29.108            18.129                Anadyr2           566.531
       157   02 Jun 2027 18:17:27.362   02 Jun 2027 18:17:36.237             8.875                Anadyr1           277.344
       158   02 Jun 2027 19:05:55.018   02 Jun 2027 19:08:05.961           130.943               CapeTown          4091.969
       159   02 Jun 2027 19:12:37.249   02 Jun 2027 19:13:15.379            38.130               CapeTown          1191.563
       160   02 Jun 2027 19:15:41.103   02 Jun 2027 19:16:15.162            34.059               CapeTown          1064.344
       161   02 Jun 2027 19:37:25.284   02 Jun 2027 19:43:23.941           358.657              Murmansk1         11208.031
       162   02 Jun 2027 21:22:06.462   02 Jun 2027 21:25:51.602           225.140                Anadyr1          7035.625
       163   02 Jun 2027 21:25:52.920   02 Jun 2027 21:29:35.300           222.380               Magadan2          6949.375
       164   02 Jun 2027 21:29:35.300   02 Jun 2027 21:30:25.432            50.132               Magadan1          1566.625
       165   02 Jun 2027 21:34:36.767   02 Jun 2027 21:35:14.818            38.051               Magadan1          1189.094
       166   02 Jun 2027 21:35:18.495   02 Jun 2027 21:35:19.704             1.209               Magadan1            37.781
       167   02 Jun 2027 21:35:41.897   02 Jun 2027 21:35:58.475            16.578               Magadan1           518.063
       168   02 Jun 2027 21:36:41.986   02 Jun 2027 21:37:11.131            29.145               Magadan1           910.781
       169   02 Jun 2027 22:17:35.021   02 Jun 2027 22:19:20.465           105.444            RioGallegos          3295.125
       170   02 Jun 2027 22:19:53.578   02 Jun 2027 22:20:10.512            16.934            RioGallegos           529.187
       171   02 Jun 2027 22:21:20.022   02 Jun 2027 22:22:17.744            57.722            RioGallegos          1803.813
       172   02 Jun 2027 22:57:53.711   02 Jun 2027 22:59:01.793            68.082                Anadyr2          2127.562
       173   02 Jun 2027 22:59:09.783   02 Jun 2027 22:59:33.018            23.235                Anadyr2           726.094
       174   02 Jun 2027 22:59:56.968   02 Jun 2027 23:00:21.155            24.187                Anadyr2           755.844
       175   02 Jun 2027 23:00:21.294   02 Jun 2027 23:01:25.537            64.243               Magadan2          2007.594
       176   02 Jun 2027 23:01:34.623   02 Jun 2027 23:01:42.735             8.112               Magadan2           253.500
       177   02 Jun 2027 23:01:49.554   02 Jun 2027 23:02:02.876            13.322               Magadan2           416.313
       178   02 Jun 2027 23:02:14.052   02 Jun 2027 23:02:22.522             8.470               Magadan1           264.687
       179   02 Jun 2027 23:02:58.066   02 Jun 2027 23:04:12.314            74.248               Magadan2          2320.250
       180   02 Jun 2027 23:04:40.160   02 Jun 2027 23:05:30.710            50.550                Irkutsk          1579.687
       181   02 Jun 2027 23:08:52.455   02 Jun 2027 23:09:11.607            19.152                Irkutsk           598.500
       182   02 Jun 2027 23:09:31.169   02 Jun 2027 23:09:50.298            19.129                Irkutsk           597.781
       183   02 Jun 2027 23:10:12.373   02 Jun 2027 23:10:25.971            13.598                Irkutsk           424.938
       184   02 Jun 2027 23:11:00.095   02 Jun 2027 23:11:56.715            56.620                Irkutsk          1769.375
       185   02 Jun 2027 23:19:17.530   02 Jun 2027 23:20:46.784            89.254                Sumatra          2789.188
       186   02 Jun 2027 23:25:38.755   02 Jun 2027 23:26:22.864            44.109                Sumatra          1378.406
       187   02 Jun 2027 23:59:19.676   02 Jun 2027 23:59:39.456            19.780            RioGallegos           618.125
       188   03 Jun 2027 00:00:16.833   03 Jun 2027 00:00:27.278            10.445            RioGallegos           326.406
       189   03 Jun 2027 00:01:25.790   03 Jun 2027 00:02:31.382            65.592            RioGallegos          2049.750
       190   03 Jun 2027 00:33:03.723   03 Jun 2027 00:33:27.959            24.236                Anadyr2           757.375
       191   03 Jun 2027 00:34:07.459   03 Jun 2027 00:35:11.762            64.303                Anadyr1          2009.469
       192   03 Jun 2027 00:35:50.038   03 Jun 2027 00:37:33.849           103.811                Norilsk          3244.094
       193   03 Jun 2027 00:37:45.774   03 Jun 2027 00:37:56.220            10.446               Magadan1           326.437
       194   03 Jun 2027 00:38:50.980   03 Jun 2027 00:39:07.114            16.134               Magadan2           504.187
       195   03 Jun 2027 00:39:43.647   03 Jun 2027 00:40:43.730            60.083                Irkutsk          1877.594
       196   03 Jun 2027 00:40:57.242   03 Jun 2027 00:41:01.584             4.342                Novosib           135.687
       197   03 Jun 2027 00:41:14.741   03 Jun 2027 00:41:45.902            31.161                Novosib           973.781
       198   03 Jun 2027 00:43:03.325   03 Jun 2027 00:43:13.655            10.330                Novosib           322.813
       199   03 Jun 2027 00:43:22.968   03 Jun 2027 00:44:33.046            70.078                Novosib          2189.938
       200   03 Jun 2027 00:49:32.148   03 Jun 2027 00:51:41.498           129.350                  Delhi          4042.187
       201   03 Jun 2027 01:01:41.128   03 Jun 2027 01:02:25.970            44.842                Sumatra          1401.312
       202   03 Jun 2027 01:05:05.617   03 Jun 2027 01:05:41.454            35.837                Sumatra          1119.906
       203   03 Jun 2027 01:35:57.895   03 Jun 2027 01:36:29.975            32.080            RioGallegos          1002.500
       204   03 Jun 2027 01:38:36.922   03 Jun 2027 01:39:12.397            35.475            RioGallegos          1108.594
       205   03 Jun 2027 02:07:49.019   03 Jun 2027 02:08:14.649            25.630                Anadyr2           800.938
       206   03 Jun 2027 02:09:10.385   03 Jun 2027 02:09:35.130            24.745                Anadyr2           773.281
       207   03 Jun 2027 02:11:38.020   03 Jun 2027 02:12:01.470            23.450                Anadyr1           732.812
       208   03 Jun 2027 02:12:11.759   03 Jun 2027 02:13:05.734            53.975                Norilsk          1686.719
       209   03 Jun 2027 02:14:31.502   03 Jun 2027 02:16:17.126           105.624              Murmansk1          3300.750
       210   03 Jun 2027 02:16:57.886   03 Jun 2027 02:17:13.063            15.177                Irkutsk           474.281
       211   03 Jun 2027 02:18:40.808   03 Jun 2027 02:20:28.839           108.031                Irkutsk          3375.969
       212   03 Jun 2027 02:29:34.829   03 Jun 2027 02:31:13.255            98.426                  Delhi          3075.813
       213   03 Jun 2027 03:05:15.759   03 Jun 2027 03:07:22.889           127.130            RioGallegos          3972.812
       214   03 Jun 2027 03:08:25.887   03 Jun 2027 03:09:09.403            43.516            RioGallegos          1359.875
       215   03 Jun 2027 03:09:43.078   03 Jun 2027 03:10:23.326            40.248            RioGallegos          1257.750
       216   03 Jun 2027 03:55:55.587   03 Jun 2027 03:56:00.847             5.260                Irkutsk           164.375
       217   03 Jun 2027 03:56:15.743   03 Jun 2027 03:59:52.953           217.210                 Moscow          6787.813
       218   03 Jun 2027 03:59:54.101   03 Jun 2027 04:01:27.484            93.383                Novosib          2918.219
       219   03 Jun 2027 04:01:47.572   03 Jun 2027 04:03:10.744            83.172                  Delhi          2599.125
       220   03 Jun 2027 04:05:37.148   03 Jun 2027 04:06:11.435            34.287                  Delhi          1071.469
       221   03 Jun 2027 05:33:25.863   03 Jun 2027 05:33:43.702            17.839                Novosib           557.469
       222   03 Jun 2027 05:34:12.704   03 Jun 2027 05:34:30.569            17.865              Murmansk1           558.281
       223   03 Jun 2027 05:34:41.250   03 Jun 2027 05:38:46.961           245.711              Murmansk1          7678.469
       224   03 Jun 2027 06:57:31.627   03 Jun 2027 07:01:53.880           262.253                Anadyr2          8195.406
       225   03 Jun 2027 07:01:53.880   03 Jun 2027 07:02:42.944            49.064                Anadyr1          1533.250
       226   03 Jun 2027 07:02:56.043   03 Jun 2027 07:03:10.414            14.371              Murmansk1           449.094
       227   03 Jun 2027 07:05:23.744   03 Jun 2027 07:06:21.238            57.494                 Moscow          1796.688
       228   03 Jun 2027 07:07:06.649   03 Jun 2027 07:07:45.553            38.904                 Moscow          1215.750
       229   03 Jun 2027 08:34:17.056   03 Jun 2027 08:35:17.838            60.782                Norilsk          1899.437
       230   03 Jun 2027 08:35:25.807   03 Jun 2027 08:37:10.783           104.976                Norilsk          3280.500
       231   03 Jun 2027 08:37:12.038   03 Jun 2027 08:38:20.253            68.215               Magadan1          2131.719
       232   03 Jun 2027 08:38:46.550   03 Jun 2027 08:39:46.963            60.413                Norilsk          1887.906
       233   03 Jun 2027 08:40:04.641   03 Jun 2027 08:40:12.551             7.910              Murmansk2           247.187
       234   03 Jun 2027 08:40:16.387   03 Jun 2027 08:40:34.735            18.348                Norilsk           573.375
       235   03 Jun 2027 08:42:27.032   03 Jun 2027 08:42:58.381            31.349              Murmansk1           979.656
       236   03 Jun 2027 09:15:29.275   03 Jun 2027 09:16:09.800            40.525            RioGallegos          1266.406
       237   03 Jun 2027 09:17:16.724   03 Jun 2027 09:17:38.441            21.717            RioGallegos           678.656
       238   03 Jun 2027 10:04:22.546   03 Jun 2027 10:07:49.921           207.375               Magadan2          6480.469
       239   03 Jun 2027 10:07:49.921   03 Jun 2027 10:08:12.275            22.354               Magadan1           698.563
       240   03 Jun 2027 10:09:05.736   03 Jun 2027 10:09:36.969            31.233               Magadan1           976.031
       241   03 Jun 2027 10:09:56.007   03 Jun 2027 10:11:20.052            84.045                Irkutsk          2626.406
       242   03 Jun 2027 10:11:41.450   03 Jun 2027 10:12:21.797            40.347                Novosib          1260.844
       243   03 Jun 2027 10:12:29.227   03 Jun 2027 10:13:11.506            42.279                Irkutsk          1321.219
       244   03 Jun 2027 10:13:18.125   03 Jun 2027 10:13:30.359            12.234                Norilsk           382.312
       245   03 Jun 2027 10:13:34.765   03 Jun 2027 10:13:53.091            18.326               Magadan1           572.688
       246   03 Jun 2027 10:13:56.427   03 Jun 2027 10:14:31.665            35.238                Norilsk          1101.187
       247   03 Jun 2027 10:15:07.564   03 Jun 2027 10:15:56.834            49.270              Murmansk1          1539.688
       248   03 Jun 2027 10:48:49.128   03 Jun 2027 10:49:53.592            64.464            RioGallegos          2014.500
       249   03 Jun 2027 10:59:08.810   03 Jun 2027 10:59:27.219            18.409            RioGallegos           575.281
       250   03 Jun 2027 11:25:21.189   03 Jun 2027 11:25:58.003            36.814                Sumatra          1150.438
       251   03 Jun 2027 11:28:20.174   03 Jun 2027 11:29:42.004            81.830                Sumatra          2557.188
       252   03 Jun 2027 11:43:26.867   03 Jun 2027 11:43:39.518            12.651                Novosib           395.344
       253   03 Jun 2027 11:44:00.903   03 Jun 2027 11:45:05.436            64.533                Norilsk          2016.656
       254   03 Jun 2027 11:45:09.329   03 Jun 2027 11:45:55.276            45.947                Novosib          1435.844
       255   03 Jun 2027 11:46:13.928   03 Jun 2027 11:46:46.057            32.129                Irkutsk          1004.031
       256   03 Jun 2027 11:47:04.025   03 Jun 2027 11:47:27.097            23.072              Murmansk2           721.000
       257   03 Jun 2027 11:47:30.657   03 Jun 2027 11:48:19.342            48.685                Novosib          1521.406
       258   03 Jun 2027 11:48:43.292   03 Jun 2027 11:48:54.958            11.666                Novosib           364.562
       259   03 Jun 2027 11:48:55.788   03 Jun 2027 11:49:45.678            49.890              Murmansk2          1559.063
       260   03 Jun 2027 11:49:58.438   03 Jun 2027 11:50:02.481             4.043                Irkutsk           126.344
       261   03 Jun 2027 11:50:29.567   03 Jun 2027 11:50:40.304            10.737              Murmansk2           335.531
       262   03 Jun 2027 11:51:14.734   03 Jun 2027 11:51:38.991            24.257              Murmansk2           758.031
       263   03 Jun 2027 11:52:30.899   03 Jun 2027 11:52:50.685            19.786                Norilsk           618.313
       264   03 Jun 2027 12:25:43.886   03 Jun 2027 12:26:01.050            17.164            RioGallegos           536.375
       265   03 Jun 2027 12:26:40.477   03 Jun 2027 12:27:35.514            55.037            RioGallegos          1719.906
       266   03 Jun 2027 12:29:50.883   03 Jun 2027 12:30:41.738            50.855            RioGallegos          1589.219
       267   03 Jun 2027 13:00:00.212   03 Jun 2027 13:01:32.404            92.192                Sumatra          2881.000
       268   03 Jun 2027 13:04:36.795   03 Jun 2027 13:04:49.431            12.636                Sumatra           394.875
       269   03 Jun 2027 13:07:32.654   03 Jun 2027 13:08:22.948            50.294                Sumatra          1571.687
       270   03 Jun 2027 13:09:53.587   03 Jun 2027 13:11:05.001            71.414                Sumatra          2231.687
       271   03 Jun 2027 13:15:09.293   03 Jun 2027 13:18:11.574           182.281                Irkutsk          5696.281
       272   03 Jun 2027 14:44:52.529   03 Jun 2027 14:48:52.812           240.283                  Delhi          7508.844
       273   03 Jun 2027 14:53:14.837   03 Jun 2027 14:55:50.400           155.563                Novosib          4861.344
       274   03 Jun 2027 14:56:56.576   03 Jun 2027 14:57:20.796            24.220                Norilsk           756.875
       275   03 Jun 2027 14:57:36.519   03 Jun 2027 14:58:30.373            53.854                Novosib          1682.937
       276   03 Jun 2027 15:05:42.995   03 Jun 2027 15:06:50.540            67.545                Norilsk          2110.781
       277   03 Jun 2027 16:28:17.753   03 Jun 2027 16:30:08.894           111.141                 Moscow          3473.156
       278   03 Jun 2027 16:31:25.874   03 Jun 2027 16:31:55.996            30.122                 Moscow           941.313
       279   03 Jun 2027 16:32:25.279   03 Jun 2027 16:32:54.492            29.213              Murmansk1           912.906
       280   03 Jun 2027 16:37:27.742   03 Jun 2027 16:38:16.004            48.262              Murmansk2          1508.187
       281   03 Jun 2027 16:38:46.109   03 Jun 2027 16:42:00.184           194.075                Norilsk          6064.844
       282   03 Jun 2027 17:42:07.853   03 Jun 2027 17:42:38.981            31.128               CapeTown           972.750
       283   03 Jun 2027 17:45:08.286   03 Jun 2027 17:45:25.993            17.707               CapeTown           553.344
       284   03 Jun 2027 17:48:00.713   03 Jun 2027 17:48:38.310            37.597               CapeTown          1174.906
       285   03 Jun 2027 17:52:15.828   03 Jun 2027 17:52:42.740            26.912               CapeTown           841.000
       286   03 Jun 2027 18:07:20.593   03 Jun 2027 18:12:03.912           283.319                 Moscow          8853.719
       287   03 Jun 2027 18:27:45.895   03 Jun 2027 18:28:02.458            16.563                Anadyr1           517.594
       288   03 Jun 2027 18:33:34.688   03 Jun 2027 18:33:36.318             1.630                Anadyr2            50.938
       289   03 Jun 2027 19:18:10.347   03 Jun 2027 19:19:32.297            81.950               CapeTown          2560.937
       290   03 Jun 2027 19:22:42.890   03 Jun 2027 19:22:49.765             6.875               CapeTown           214.844
       291   03 Jun 2027 19:25:12.906   03 Jun 2027 19:26:06.693            53.787               CapeTown          1680.844
       292   03 Jun 2027 19:27:54.725   03 Jun 2027 19:28:00.062             5.337               CapeTown           166.781
       293   03 Jun 2027 19:50:16.600   03 Jun 2027 19:54:46.973           270.373              Murmansk2          8449.156
       294   03 Jun 2027 20:00:56.046   03 Jun 2027 20:01:10.467            14.421               Magadan2           450.656
       295   03 Jun 2027 20:01:32.386   03 Jun 2027 20:01:51.220            18.834               Magadan2           588.563
       296   03 Jun 2027 20:05:08.644   03 Jun 2027 20:05:26.290            17.646               Magadan1           551.438
       297   03 Jun 2027 20:06:27.073   03 Jun 2027 20:06:56.396            29.323               Magadan2           916.344
       298   03 Jun 2027 20:10:47.405   03 Jun 2027 20:10:53.843             6.438               Magadan1           201.188
       299   03 Jun 2027 21:34:07.950   03 Jun 2027 21:39:18.395           310.445                Anadyr2          9701.406
       300   03 Jun 2027 21:39:38.313   03 Jun 2027 21:41:53.528           135.215               Magadan1          4225.469
       301   03 Jun 2027 21:42:27.125   03 Jun 2027 21:42:29.753             2.628               Magadan2            82.125
       302   03 Jun 2027 21:43:29.079   03 Jun 2027 21:43:47.596            18.517               Magadan2           578.656
       303   03 Jun 2027 21:47:05.295   03 Jun 2027 21:47:18.213            12.918               Magadan2           403.688
       304   03 Jun 2027 22:29:09.383   03 Jun 2027 22:31:23.695           134.312            RioGallegos          4197.250
       305   03 Jun 2027 22:31:36.713   03 Jun 2027 22:32:16.112            39.399            RioGallegos          1231.219
       306   03 Jun 2027 22:37:47.628   03 Jun 2027 22:37:58.174            10.546            RioGallegos           329.562
       307   03 Jun 2027 23:09:52.402   03 Jun 2027 23:11:43.814           111.412                Anadyr2          3481.625
       308   03 Jun 2027 23:11:58.626   03 Jun 2027 23:13:35.420            96.794                Norilsk          3024.813
       309   03 Jun 2027 23:13:39.417   03 Jun 2027 23:14:57.755            78.338               Magadan1          2448.062
       310   03 Jun 2027 23:15:18.262   03 Jun 2027 23:15:40.315            22.053               Magadan1           689.156
       311   03 Jun 2027 23:17:06.276   03 Jun 2027 23:17:29.956            23.680                Irkutsk           740.000
       312   03 Jun 2027 23:18:36.583   03 Jun 2027 23:19:51.762            75.179                Irkutsk          2349.344
       313   03 Jun 2027 23:26:18.982   03 Jun 2027 23:27:04.455            45.473                Irkutsk          1421.031
       314   03 Jun 2027 23:31:51.068   03 Jun 2027 23:33:36.202           105.134                Sumatra          3285.437
       315   04 Jun 2027 00:12:33.356   04 Jun 2027 00:12:50.529            17.173            RioGallegos           536.656
       316   04 Jun 2027 00:13:25.753   04 Jun 2027 00:13:36.328            10.575            RioGallegos           330.469
       317   04 Jun 2027 00:14:07.104   04 Jun 2027 00:14:25.565            18.461            RioGallegos           576.906
       318   04 Jun 2027 00:15:36.480   04 Jun 2027 00:16:31.163            54.683            RioGallegos          1708.844
       319   04 Jun 2027 00:46:08.687   04 Jun 2027 00:47:12.544            63.857                Anadyr2          1995.531
       320   04 Jun 2027 00:47:52.242   04 Jun 2027 00:48:48.197            55.955                Norilsk          1748.594
       321   04 Jun 2027 00:49:24.450   04 Jun 2027 00:49:48.011            23.561               Magadan1           736.281
       322   04 Jun 2027 00:50:06.039   04 Jun 2027 00:50:39.325            33.286               Magadan1          1040.187
       323   04 Jun 2027 00:51:44.779   04 Jun 2027 00:52:34.851            50.072                Irkutsk          1564.750
       324   04 Jun 2027 00:52:38.432   04 Jun 2027 00:53:23.366            44.934                Novosib          1404.188
       325   04 Jun 2027 00:54:39.923   04 Jun 2027 00:55:38.751            58.828                Novosib          1838.375
       326   04 Jun 2027 01:00:35.957   04 Jun 2027 01:01:16.164            40.207                  Delhi          1256.469
       327   04 Jun 2027 01:03:55.265   04 Jun 2027 01:04:34.291            39.026                  Delhi          1219.562
       328   04 Jun 2027 01:07:30.955   04 Jun 2027 01:08:02.857            31.902                Sumatra           996.938
       329   04 Jun 2027 01:11:31.907   04 Jun 2027 01:13:25.877           113.970                Sumatra          3561.563
       330   04 Jun 2027 01:50:49.937   04 Jun 2027 01:51:20.486            30.549            RioGallegos           954.656
       331   04 Jun 2027 02:19:50.699   04 Jun 2027 02:20:49.651            58.952                Anadyr2          1842.250
       332   04 Jun 2027 02:23:53.097   04 Jun 2027 02:24:55.751            62.654                Norilsk          1957.938
       333   04 Jun 2027 02:26:24.650   04 Jun 2027 02:27:45.621            80.971              Murmansk1          2530.344
       334   04 Jun 2027 02:28:05.539   04 Jun 2027 02:28:47.211            41.672                Irkutsk          1302.250
       335   04 Jun 2027 02:28:57.210   04 Jun 2027 02:29:21.060            23.850                Irkutsk           745.313
       336   04 Jun 2027 02:32:32.019   04 Jun 2027 02:33:14.219            42.200                Irkutsk          1318.750
       337   04 Jun 2027 02:38:28.620   04 Jun 2027 02:38:35.825             7.205                Irkutsk           225.156
       338   04 Jun 2027 02:41:18.032   04 Jun 2027 02:43:13.731           115.699                  Delhi          3615.594
       339   04 Jun 2027 03:17:48.223   04 Jun 2027 03:20:08.529           140.306            RioGallegos          4384.563
       340   04 Jun 2027 04:07:25.826   04 Jun 2027 04:07:53.876            28.050                Norilsk           876.562
       341   04 Jun 2027 04:08:08.354   04 Jun 2027 04:08:34.506            26.152              Murmansk1           817.250
       342   04 Jun 2027 04:08:41.717   04 Jun 2027 04:09:19.891            38.174                Norilsk          1192.938
       343   04 Jun 2027 04:09:24.407   04 Jun 2027 04:09:45.129            20.722              Murmansk1           647.563
       344   04 Jun 2027 04:09:49.743   04 Jun 2027 04:10:46.966            57.223                Norilsk          1788.219
       345   04 Jun 2027 04:11:11.348   04 Jun 2027 04:12:47.058            95.710                 Moscow          2990.937
       346   04 Jun 2027 04:12:57.767   04 Jun 2027 04:13:31.806            34.039              Murmansk2          1063.719
       347   04 Jun 2027 04:13:33.809   04 Jun 2027 04:14:30.438            56.629                Novosib          1769.656
       348   04 Jun 2027 04:30:35.892   04 Jun 2027 04:33:24.194           168.302               CapeTown          5259.437
       349   04 Jun 2027 04:36:40.547   04 Jun 2027 04:37:25.440            44.893               CapeTown          1402.906
       350   04 Jun 2027 04:40:27.176   04 Jun 2027 04:40:48.345            21.169               CapeTown           661.531
       351   04 Jun 2027 04:41:02.584   04 Jun 2027 04:41:23.574            20.990               CapeTown           655.938
       352   04 Jun 2027 05:46:15.109   04 Jun 2027 05:47:56.743           101.634                 Moscow          3176.063
       353   04 Jun 2027 05:48:05.644   04 Jun 2027 05:50:53.017           167.373              Murmansk1          5230.406
       354   04 Jun 2027 06:05:51.524   04 Jun 2027 06:07:09.923            78.399               CapeTown          2449.969
       355   04 Jun 2027 07:09:21.443   04 Jun 2027 07:10:30.118            68.675               Magadan1          2146.094
       356   04 Jun 2027 07:10:31.934   04 Jun 2027 07:11:43.137            71.203                Anadyr1          2225.094
       357   04 Jun 2027 08:45:04.088   04 Jun 2027 08:46:44.734           100.646                Anadyr2          3145.188
       358   04 Jun 2027 08:46:44.734   04 Jun 2027 08:47:42.423            57.689                Anadyr1          1802.781
       359   04 Jun 2027 08:50:14.682   04 Jun 2027 08:50:23.420             8.738                Anadyr2           273.063
       360   04 Jun 2027 10:18:32.994   04 Jun 2027 10:19:39.811            66.817               Magadan1          2088.031
       361   04 Jun 2027 10:20:35.710   04 Jun 2027 10:22:15.096            99.386               Magadan2          3105.813
       362   04 Jun 2027 10:22:15.096   04 Jun 2027 10:22:38.739            23.643               Magadan1           738.844
       363   04 Jun 2027 10:22:52.582   04 Jun 2027 10:23:09.151            16.569                Irkutsk           517.781
       364   04 Jun 2027 10:23:19.240   04 Jun 2027 10:23:33.101            13.861                Norilsk           433.156
       365   04 Jun 2027 10:23:36.978   04 Jun 2027 10:23:58.614            21.636                Novosib           676.125
       366   04 Jun 2027 10:24:01.873   04 Jun 2027 10:24:29.807            27.934                Irkutsk           872.937
       367   04 Jun 2027 10:24:33.876   04 Jun 2027 10:25:09.158            35.282              Murmansk1          1102.562
       368   04 Jun 2027 10:25:11.143   04 Jun 2027 10:25:15.303             4.160              Murmansk1           130.000
       369   04 Jun 2027 10:25:18.351   04 Jun 2027 10:25:46.613            28.262                Norilsk           883.187
       370   04 Jun 2027 10:25:51.130   04 Jun 2027 10:26:08.252            17.122                Norilsk           535.063
       371   04 Jun 2027 10:26:54.763   04 Jun 2027 10:27:04.966            10.203                Norilsk           318.844
       372   04 Jun 2027 10:27:57.914   04 Jun 2027 10:28:29.933            32.019              Murmansk2          1000.594
       373   04 Jun 2027 11:00:45.834   04 Jun 2027 11:01:36.542            50.708            RioGallegos          1584.625
       374   04 Jun 2027 11:02:36.170   04 Jun 2027 11:03:12.995            36.825            RioGallegos          1150.781
       375   04 Jun 2027 11:36:43.368   04 Jun 2027 11:37:33.094            49.726                Sumatra          1553.937
       376   04 Jun 2027 11:56:11.064   04 Jun 2027 11:57:07.378            56.314                Norilsk          1759.813
       377   04 Jun 2027 11:57:22.197   04 Jun 2027 11:57:47.311            25.114                Irkutsk           784.813
       378   04 Jun 2027 11:57:53.318   04 Jun 2027 11:59:08.035            74.717                Norilsk          2334.906
       379   04 Jun 2027 11:59:15.666   04 Jun 2027 11:59:36.796            21.130              Murmansk1           660.313
       380   04 Jun 2027 11:59:38.621   04 Jun 2027 11:59:53.797            15.176                Norilsk           474.250
       381   04 Jun 2027 11:59:56.427   04 Jun 2027 12:02:02.772           126.345                Irkutsk          3948.281
       382   04 Jun 2027 12:03:29.949   04 Jun 2027 12:03:31.647             1.698                Novosib            53.062
       383   04 Jun 2027 12:03:55.542   04 Jun 2027 12:04:06.358            10.816              Murmansk1           338.000
       384   04 Jun 2027 12:04:45.750   04 Jun 2027 12:05:00.725            14.975              Murmansk2           467.969
       385   04 Jun 2027 12:05:04.887   04 Jun 2027 12:05:44.012            39.125                Norilsk          1222.656
       386   04 Jun 2027 12:06:32.669   04 Jun 2027 12:07:05.651            32.982              Murmansk1          1030.687
       387   04 Jun 2027 12:07:47.325   04 Jun 2027 12:08:20.533            33.208              Murmansk1          1037.750
       388   04 Jun 2027 12:42:39.605   04 Jun 2027 12:43:19.586            39.981            RioGallegos          1249.406
       389   04 Jun 2027 12:44:18.477   04 Jun 2027 12:45:15.120            56.643            RioGallegos          1770.094
       390   04 Jun 2027 12:47:33.977   04 Jun 2027 12:48:12.795            38.818            RioGallegos          1213.063
       391   04 Jun 2027 13:16:01.508   04 Jun 2027 13:17:39.248            97.740                Sumatra          3054.375
       392   04 Jun 2027 13:20:12.388   04 Jun 2027 13:22:13.080           120.692                Sumatra          3771.625
       393   04 Jun 2027 13:33:39.629   04 Jun 2027 13:35:56.421           136.792                Irkutsk          4274.750
       394   04 Jun 2027 14:57:31.769   04 Jun 2027 14:59:53.299           141.530                  Delhi          4422.812
       395   04 Jun 2027 15:00:50.066   04 Jun 2027 15:02:24.119            94.053                  Delhi          2939.156
       396   04 Jun 2027 15:06:00.425   04 Jun 2027 15:07:33.046            92.621                Novosib          2894.406
       397   04 Jun 2027 15:09:26.734   04 Jun 2027 15:09:39.844            13.110                Norilsk           409.688
       398   04 Jun 2027 15:13:53.406   04 Jun 2027 15:14:30.392            36.986                Norilsk          1155.812
       399   04 Jun 2027 16:40:28.514   04 Jun 2027 16:42:07.299            98.785                 Moscow          3087.031
       400   04 Jun 2027 16:43:25.421   04 Jun 2027 16:44:21.782            56.361                 Moscow          1761.281
       401   04 Jun 2027 16:44:56.256   04 Jun 2027 16:46:31.915            95.659              Murmansk2          2989.344
       402   04 Jun 2027 16:51:13.405   04 Jun 2027 16:52:11.071            57.666              Murmansk1          1802.062
       403   04 Jun 2027 16:52:21.829   04 Jun 2027 16:53:20.294            58.465                Norilsk          1827.031
       404   04 Jun 2027 16:59:29.805   04 Jun 2027 16:59:42.792            12.987                Anadyr2           405.844
       405   04 Jun 2027 17:04:11.694   04 Jun 2027 17:04:31.119            19.425                Anadyr2           607.031
       406   04 Jun 2027 17:04:48.590   04 Jun 2027 17:05:23.076            34.486                Anadyr2          1077.688
       407   04 Jun 2027 17:53:47.138   04 Jun 2027 17:54:27.910            40.772               CapeTown          1274.125
       408   04 Jun 2027 17:59:48.585   04 Jun 2027 18:00:12.188            23.603               CapeTown           737.594
       409   04 Jun 2027 18:01:20.729   04 Jun 2027 18:02:05.062            44.333               CapeTown          1385.406
       410   04 Jun 2027 18:20:14.058   04 Jun 2027 18:20:59.560            45.502                 Moscow          1421.937
       411   04 Jun 2027 18:22:06.905   04 Jun 2027 18:24:09.587           122.682              Murmansk2          3833.813
       412   04 Jun 2027 18:24:25.043   04 Jun 2027 18:24:43.224            18.181                 Moscow           568.156
       413   04 Jun 2027 18:27:08.143   04 Jun 2027 18:27:24.165            16.022                 Moscow           500.687
       414   04 Jun 2027 18:27:24.175   04 Jun 2027 18:27:25.810             1.635              Murmansk1            51.094
       415   04 Jun 2027 18:30:13.767   04 Jun 2027 18:32:27.361           133.594              Murmansk2          4174.812
       416   04 Jun 2027 19:30:30.389   04 Jun 2027 19:31:14.826            44.437               CapeTown          1388.656
       417   04 Jun 2027 19:33:23.981   04 Jun 2027 19:34:37.215            73.234               CapeTown          2288.563
       418   04 Jun 2027 20:03:16.747   04 Jun 2027 20:07:30.170           253.423              Murmansk1          7919.469
       419   04 Jun 2027 20:13:03.455   04 Jun 2027 20:13:07.792             4.337               Magadan2           135.531
       420   04 Jun 2027 20:15:13.683   04 Jun 2027 20:15:15.789             2.106                Anadyr2            65.812
       421   04 Jun 2027 20:15:23.955   04 Jun 2027 20:15:31.922             7.967               Magadan1           248.969
       422   04 Jun 2027 20:15:55.278   04 Jun 2027 20:16:19.214            23.936               Magadan1           748.000
       423   04 Jun 2027 20:16:40.131   04 Jun 2027 20:17:14.209            34.078               Magadan1          1064.937
       424   04 Jun 2027 20:19:26.287   04 Jun 2027 20:20:32.679            66.392               Magadan1          2074.750
       425   04 Jun 2027 21:46:09.265   04 Jun 2027 21:49:40.782           211.517                Anadyr2          6609.906
       426   04 Jun 2027 21:49:40.782   04 Jun 2027 21:50:10.995            30.213                Anadyr1           944.156
       427   04 Jun 2027 21:50:26.409   04 Jun 2027 21:51:30.834            64.425               Magadan1          2013.281
       428   04 Jun 2027 21:51:30.834   04 Jun 2027 21:52:31.493            60.659               Magadan2          1895.594
       429   04 Jun 2027 21:52:42.163   04 Jun 2027 21:52:52.559            10.396               Magadan2           324.875
       430   04 Jun 2027 21:53:07.292   04 Jun 2027 21:53:56.385            49.093               Magadan1          1534.156
       431   04 Jun 2027 21:59:05.687   04 Jun 2027 21:59:18.793            13.106               Magadan1           409.563
       432   04 Jun 2027 22:40:51.124   04 Jun 2027 22:42:47.132           116.008            RioGallegos          3625.250
       433   04 Jun 2027 22:43:09.685   04 Jun 2027 22:43:27.779            18.094            RioGallegos           565.438
       434   04 Jun 2027 22:45:44.144   04 Jun 2027 22:45:46.394             2.250            RioGallegos            70.312
       435   04 Jun 2027 22:49:08.990   04 Jun 2027 22:49:30.313            21.323            RioGallegos           666.344
       436   04 Jun 2027 23:21:50.459   04 Jun 2027 23:23:35.146           104.687                Anadyr1          3271.469
       437   04 Jun 2027 23:23:35.146   04 Jun 2027 23:23:57.932            22.786                Anadyr2           712.062
       438   04 Jun 2027 23:23:58.622   04 Jun 2027 23:25:37.357            98.735                Norilsk          3085.469
       439   04 Jun 2027 23:25:41.647   04 Jun 2027 23:25:53.815            12.168               Magadan1           380.250
       440   04 Jun 2027 23:25:54.315   04 Jun 2027 23:26:44.711            50.396               Magadan2          1574.875
       441   04 Jun 2027 23:28:18.357   04 Jun 2027 23:28:47.268            28.911                Irkutsk           903.469
       442   04 Jun 2027 23:30:15.515   04 Jun 2027 23:31:24.985            69.470                Irkutsk          2170.938
       443   04 Jun 2027 23:32:42.915   04 Jun 2027 23:33:01.090            18.175                Novosib           567.969
       444   04 Jun 2027 23:42:21.253   04 Jun 2027 23:42:42.995            21.742                Sumatra           679.438
       445   04 Jun 2027 23:43:41.541   04 Jun 2027 23:44:18.038            36.497                Sumatra          1140.531
       446   04 Jun 2027 23:46:02.990   04 Jun 2027 23:47:12.431            69.441                Sumatra          2170.031
       447   05 Jun 2027 00:20:34.060   05 Jun 2027 00:21:08.975            34.915            RioGallegos          1091.094
       448   05 Jun 2027 00:56:44.665   05 Jun 2027 00:59:00.717           136.052                Anadyr1          4251.625
       449   05 Jun 2027 00:59:54.532   05 Jun 2027 01:01:35.622           101.090                Norilsk          3159.062
       450   05 Jun 2027 01:01:48.019   05 Jun 2027 01:02:24.292            36.273               Magadan1          1133.531
       451   05 Jun 2027 01:03:46.767   05 Jun 2027 01:05:33.240           106.473                Irkutsk          3327.281
       452   05 Jun 2027 01:05:40.866   05 Jun 2027 01:05:58.443            17.577                Novosib           549.281
       453   05 Jun 2027 01:08:46.209   05 Jun 2027 01:09:37.454            51.245                Novosib          1601.406
       454   05 Jun 2027 01:15:55.838   05 Jun 2027 01:16:12.930            17.092                  Delhi           534.125
       455   05 Jun 2027 01:18:41.459   05 Jun 2027 01:19:32.322            50.863                Sumatra          1589.469
       456   05 Jun 2027 01:21:29.747   05 Jun 2027 01:22:40.370            70.623                Sumatra          2206.969
       457   05 Jun 2027 01:58:46.627   05 Jun 2027 01:59:07.822            21.195            RioGallegos           662.344
       458   05 Jun 2027 02:00:04.484   05 Jun 2027 02:00:27.294            22.810            RioGallegos           712.812
       459   05 Jun 2027 02:02:39.205   05 Jun 2027 02:03:00.261            21.056            RioGallegos           658.000
       460   05 Jun 2027 02:31:12.133   05 Jun 2027 02:31:25.535            13.402                Anadyr1           418.813
       461   05 Jun 2027 02:32:44.284   05 Jun 2027 02:32:50.452             6.168                Anadyr1           192.750
       462   05 Jun 2027 02:32:50.452   05 Jun 2027 02:33:10.121            19.669                Anadyr2           614.656
       463   05 Jun 2027 02:35:55.038   05 Jun 2027 02:37:31.473            96.435                Norilsk          3013.594
       464   05 Jun 2027 02:38:20.200   05 Jun 2027 02:38:33.910            13.710              Murmansk1           428.438
       465   05 Jun 2027 02:39:06.704   05 Jun 2027 02:39:54.589            47.885              Murmansk2          1496.406
       466   05 Jun 2027 02:40:13.545   05 Jun 2027 02:41:35.799            82.254                Novosib          2570.438
       467   05 Jun 2027 02:43:25.468   05 Jun 2027 02:43:44.757            19.289                Irkutsk           602.781
       468   05 Jun 2027 02:47:10.048   05 Jun 2027 02:47:44.868            34.820                  Delhi          1088.125
       469   05 Jun 2027 02:51:25.735   05 Jun 2027 02:51:56.078            30.343                  Delhi           948.219
       470   05 Jun 2027 02:55:59.322   05 Jun 2027 02:56:13.758            14.436                  Delhi           451.125
       471   05 Jun 2027 03:31:00.114   05 Jun 2027 03:32:13.593            73.479            RioGallegos          2296.219
       472   05 Jun 2027 04:20:24.308   05 Jun 2027 04:20:49.228            24.920              Murmansk2           778.750
       473   05 Jun 2027 04:21:11.116   05 Jun 2027 04:21:34.072            22.956              Murmansk1           717.375
       474   05 Jun 2027 04:21:34.072   05 Jun 2027 04:21:51.009            16.937              Murmansk2           529.281
       475   05 Jun 2027 04:22:14.695   05 Jun 2027 04:25:51.040           216.345              Murmansk1          6760.781
       476   05 Jun 2027 04:26:36.258   05 Jun 2027 04:28:05.061            88.803                 Moscow          2775.094
       477   05 Jun 2027 04:42:08.828   05 Jun 2027 04:42:54.504            45.676               CapeTown          1427.375
       478   05 Jun 2027 04:43:43.647   05 Jun 2027 04:45:10.885            87.238               CapeTown          2726.187
       479   05 Jun 2027 05:58:23.631   05 Jun 2027 05:59:00.549            36.918                 Moscow          1153.687
       480   05 Jun 2027 05:59:00.781   05 Jun 2027 06:00:48.509           107.728              Murmansk1          3366.500
       481   05 Jun 2027 06:00:48.509   05 Jun 2027 06:01:31.080            42.571              Murmansk2          1330.344
       482   05 Jun 2027 06:01:43.380   05 Jun 2027 06:01:55.841            12.461              Murmansk2           389.406
