uniorb/output/strategy_1/Drop/Drop_KinoSat_111907.txt

KinoSat_111907
-------------------------
    Access    *     Start Time (UTCG)     *     Stop Time (UTCG)  *   Duration (s)        *       Station  *  Data (Mbytes)
         1   01 Jun 2027 04:21:42.107   01 Jun 2027 04:25:31.957           229.850                Novosib          7182.812
         2   01 Jun 2027 04:25:58.224   01 Jun 2027 04:32:40.671           402.447                  Delhi         12576.469
         3   01 Jun 2027 05:59:57.335   01 Jun 2027 06:01:00.087            62.752                Norilsk          1961.000
         4   01 Jun 2027 06:01:02.462   01 Jun 2027 06:02:23.899            81.437              Murmansk2          2544.906
         5   01 Jun 2027 06:02:41.693   01 Jun 2027 06:04:22.667           100.974              Murmansk2          3155.438
         6   01 Jun 2027 06:04:35.547   01 Jun 2027 06:06:18.181           102.634                 Moscow          3207.312
         7   01 Jun 2027 06:22:06.283   01 Jun 2027 06:22:50.591            44.308               CapeTown          1384.625
         8   01 Jun 2027 07:23:25.167   01 Jun 2027 07:23:37.553            12.386               Magadan1           387.062
         9   01 Jun 2027 07:23:46.042   01 Jun 2027 07:24:37.802            51.760                Anadyr1          1617.500
        10   01 Jun 2027 07:26:15.974   01 Jun 2027 07:27:05.843            49.869               Magadan1          1558.406
        11   01 Jun 2027 07:57:25.660   01 Jun 2027 07:57:42.388            16.728               CapeTown           522.750
        12   01 Jun 2027 08:56:08.188   01 Jun 2027 08:57:37.037            88.849                Anadyr1          2776.531
        13   01 Jun 2027 08:59:09.069   01 Jun 2027 09:00:52.042           102.973               Magadan1          3217.906
        14   01 Jun 2027 09:00:52.042   01 Jun 2027 09:02:28.433            96.391               Magadan2          3012.219
        15   01 Jun 2027 09:02:28.433   01 Jun 2027 09:03:23.555            55.122               Magadan1          1722.563
        16   01 Jun 2027 09:03:29.223   01 Jun 2027 09:04:10.886            41.663               Magadan1          1301.969
        17   01 Jun 2027 10:32:53.153   01 Jun 2027 10:33:18.807            25.654               Magadan1           801.687
        18   01 Jun 2027 10:33:24.245   01 Jun 2027 10:39:17.619           353.374                Anadyr2         11042.937
        19   01 Jun 2027 10:40:08.897   01 Jun 2027 10:40:17.275             8.378              Murmansk1           261.813
        20   01 Jun 2027 11:15:00.963   01 Jun 2027 11:15:28.210            27.247            RioGallegos           851.469
        21   01 Jun 2027 11:15:55.242   01 Jun 2027 11:16:32.471            37.229            RioGallegos          1163.406
        22   01 Jun 2027 11:17:43.780   01 Jun 2027 11:18:29.047            45.267            RioGallegos          1414.594
        23   01 Jun 2027 11:20:28.919   01 Jun 2027 11:20:29.357             0.438            RioGallegos            13.687
        24   01 Jun 2027 11:52:27.574   01 Jun 2027 11:54:17.488           109.914                Sumatra          3434.812
        25   01 Jun 2027 11:54:22.751   01 Jun 2027 11:54:27.053             4.302                Sumatra           134.437
        26   01 Jun 2027 12:04:19.858   01 Jun 2027 12:04:56.481            36.623                Irkutsk          1144.469
        27   01 Jun 2027 12:06:16.370   01 Jun 2027 12:06:51.475            35.105                Irkutsk          1097.031
        28   01 Jun 2027 12:09:06.662   01 Jun 2027 12:13:57.350           290.688               Magadan1          9084.000
        29   01 Jun 2027 13:00:33.250   01 Jun 2027 13:00:42.490             9.240            RioGallegos           288.750
        30   01 Jun 2027 13:29:49.676   01 Jun 2027 13:31:06.010            76.334                Sumatra          2385.437
        31   01 Jun 2027 13:31:43.135   01 Jun 2027 13:34:12.232           149.097                Sumatra          4659.281
        32   01 Jun 2027 13:34:33.934   01 Jun 2027 13:35:03.522            29.588                Sumatra           924.625
        33   01 Jun 2027 13:45:20.704   01 Jun 2027 13:47:40.709           140.005                Irkutsk          4375.156
        34   01 Jun 2027 14:32:20.640   01 Jun 2027 14:36:08.549           227.909            RioGallegos          7122.156
        35   01 Jun 2027 15:25:40.002   01 Jun 2027 15:27:54.106           134.104                Novosib          4190.750
        36   01 Jun 2027 17:02:16.946   01 Jun 2027 17:08:00.084           343.138                Norilsk         10723.062
        37   01 Jun 2027 18:32:44.269   01 Jun 2027 18:33:11.285            27.016                 Moscow           844.250
        38   01 Jun 2027 18:36:43.053   01 Jun 2027 18:37:19.636            36.583                 Moscow          1143.219
        39   01 Jun 2027 18:56:46.116   01 Jun 2027 18:57:25.720            39.604                Anadyr2          1237.625
        40   01 Jun 2027 19:46:18.160   01 Jun 2027 19:47:58.547           100.387               CapeTown          3137.094
        41   01 Jun 2027 20:14:28.341   01 Jun 2027 20:20:17.635           349.294              Murmansk2         10915.438
        42   01 Jun 2027 20:20:34.918   01 Jun 2027 20:22:00.042            85.124              Murmansk1          2660.125
        43   01 Jun 2027 21:59:58.904   01 Jun 2027 22:01:45.134           106.230                Anadyr1          3319.687
        44   01 Jun 2027 22:01:45.806   01 Jun 2027 22:02:12.316            26.510                Anadyr2           828.437
        45   01 Jun 2027 22:02:17.075   01 Jun 2027 22:03:59.158           102.083               Magadan2          3190.094
        46   01 Jun 2027 22:04:32.916   01 Jun 2027 22:05:12.053            39.137               Magadan1          1223.031
        47   01 Jun 2027 22:05:16.833   01 Jun 2027 22:05:25.157             8.324                Anadyr2           260.125
        48   01 Jun 2027 22:06:22.451   01 Jun 2027 22:06:38.278            15.827               Magadan2           494.594
        49   01 Jun 2027 22:06:53.599   01 Jun 2027 22:07:17.447            23.848               Magadan1           745.250
        50   01 Jun 2027 22:09:22.057   01 Jun 2027 22:09:29.022             6.965               Magadan1           217.656
        51   01 Jun 2027 22:09:59.832   01 Jun 2027 22:10:19.140            19.308               Magadan1           603.375
        52   01 Jun 2027 22:10:27.802   01 Jun 2027 22:10:37.313             9.511               Magadan1           297.219
        53   01 Jun 2027 22:10:43.174   01 Jun 2027 22:11:12.640            29.466               Magadan1           920.813
        54   01 Jun 2027 22:56:13.002   01 Jun 2027 22:57:44.121            91.119            RioGallegos          2847.469
        55   01 Jun 2027 22:58:26.301   01 Jun 2027 22:58:43.327            17.026            RioGallegos           532.063
        56   01 Jun 2027 23:01:02.377   01 Jun 2027 23:01:41.417            39.040            RioGallegos          1220.000
        57   01 Jun 2027 23:35:48.988   01 Jun 2027 23:37:27.959            98.971                Anadyr2          3092.844
        58   01 Jun 2027 23:37:41.381   01 Jun 2027 23:37:51.812            10.431                Anadyr2           325.969
        59   01 Jun 2027 23:37:54.892   01 Jun 2027 23:39:23.217            88.325                Norilsk          2760.156
        60   01 Jun 2027 23:39:53.671   01 Jun 2027 23:40:35.707            42.036               Magadan2          1313.625
        61   01 Jun 2027 23:42:40.914   01 Jun 2027 23:43:09.921            29.007               Magadan1           906.469
        62   01 Jun 2027 23:43:40.644   01 Jun 2027 23:44:57.811            77.167                Irkutsk          2411.469
        63   01 Jun 2027 23:46:48.761   01 Jun 2027 23:46:55.006             6.245               Magadan2           195.156
        64   01 Jun 2027 23:48:12.926   01 Jun 2027 23:49:27.097            74.171                Irkutsk          2317.844
        65   02 Jun 2027 00:01:43.229   02 Jun 2027 00:03:16.116            92.887                Sumatra          2902.719
        66   02 Jun 2027 00:35:24.265   02 Jun 2027 00:35:39.761            15.496            RioGallegos           484.250
        67   02 Jun 2027 00:37:36.407   02 Jun 2027 00:37:55.038            18.631            RioGallegos           582.219
        68   02 Jun 2027 00:40:36.577   02 Jun 2027 00:40:56.640            20.063            RioGallegos           626.969
        69   02 Jun 2027 01:11:06.851   02 Jun 2027 01:12:11.600            64.749                Anadyr1          2023.406
        70   02 Jun 2027 01:12:47.884   02 Jun 2027 01:13:21.917            34.033                Anadyr2          1063.531
        71   02 Jun 2027 01:13:41.582   02 Jun 2027 01:15:35.861           114.279                Norilsk          3571.219
        72   02 Jun 2027 01:15:44.836   02 Jun 2027 01:15:56.726            11.890               Magadan1           371.563
        73   02 Jun 2027 01:16:07.153   02 Jun 2027 01:17:35.232            88.079               Magadan1          2752.469
        74   02 Jun 2027 01:18:18.027   02 Jun 2027 01:19:03.053            45.026                Novosib          1407.062
        75   02 Jun 2027 01:26:26.887   02 Jun 2027 01:26:47.180            20.293                Novosib           634.156
        76   02 Jun 2027 01:27:59.368   02 Jun 2027 01:28:19.217            19.849                Novosib           620.281
        77   02 Jun 2027 01:28:55.651   02 Jun 2027 01:29:44.318            48.667                  Delhi          1520.844
        78   02 Jun 2027 01:31:49.290   02 Jun 2027 01:34:27.103           157.813                Sumatra          4931.656
        79   02 Jun 2027 02:15:01.603   02 Jun 2027 02:15:21.438            19.835            RioGallegos           619.844
        80   02 Jun 2027 02:17:20.439   02 Jun 2027 02:17:53.400            32.961            RioGallegos          1030.031
        81   02 Jun 2027 02:47:50.397   02 Jun 2027 02:47:54.403             4.006                Anadyr1           125.188
        82   02 Jun 2027 02:48:57.955   02 Jun 2027 02:49:00.942             2.987                Anadyr2            93.344
        83   02 Jun 2027 02:49:42.672   02 Jun 2027 02:50:51.713            69.041                Norilsk          2157.531
        84   02 Jun 2027 02:51:09.493   02 Jun 2027 02:51:20.201            10.708                Norilsk           334.625
        85   02 Jun 2027 02:52:36.521   02 Jun 2027 02:53:41.164            64.643              Murmansk1          2020.094
        86   02 Jun 2027 02:53:41.164   02 Jun 2027 02:53:55.275            14.111              Murmansk2           440.969
        87   02 Jun 2027 02:53:57.592   02 Jun 2027 02:54:43.865            46.273                Novosib          1446.031
        88   02 Jun 2027 02:55:07.805   02 Jun 2027 02:55:26.368            18.563                Novosib           580.094
        89   02 Jun 2027 02:55:29.128   02 Jun 2027 02:55:57.009            27.881                Irkutsk           871.281
        90   02 Jun 2027 02:57:00.518   02 Jun 2027 02:57:59.098            58.580                Irkutsk          1830.625
        91   02 Jun 2027 03:00:39.145   02 Jun 2027 03:02:12.224            93.079                Novosib          2908.719
        92   02 Jun 2027 03:03:39.676   02 Jun 2027 03:04:01.913            22.237                  Delhi           694.906
        93   02 Jun 2027 03:04:17.292   02 Jun 2027 03:04:46.197            28.905                  Delhi           903.281
        94   02 Jun 2027 03:42:46.028   02 Jun 2027 03:43:36.150            50.122            RioGallegos          1566.313
        95   02 Jun 2027 04:33:18.424   02 Jun 2027 04:35:12.168           113.744                Novosib          3554.500
        96   02 Jun 2027 04:35:30.899   02 Jun 2027 04:36:16.407            45.508              Murmansk1          1422.125
        97   02 Jun 2027 04:36:16.407   02 Jun 2027 04:37:26.997            70.590              Murmansk2          2205.938
        98   02 Jun 2027 04:37:29.703   02 Jun 2027 04:37:39.709            10.006                Novosib           312.688
        99   02 Jun 2027 04:38:35.768   02 Jun 2027 04:44:07.497           331.729                  Delhi         10366.531
       100   02 Jun 2027 06:12:10.036   02 Jun 2027 06:12:58.034            47.998                Novosib          1499.937
       101   02 Jun 2027 06:13:00.780   02 Jun 2027 06:14:02.532            61.752              Murmansk1          1929.750
       102   02 Jun 2027 06:14:02.532   02 Jun 2027 06:14:45.816            43.284              Murmansk2          1352.625
       103   02 Jun 2027 06:14:51.572   02 Jun 2027 06:16:00.954            69.382              Murmansk1          2168.188
       104   02 Jun 2027 06:30:55.070   02 Jun 2027 06:31:44.679            49.609               CapeTown          1550.281
       105   02 Jun 2027 06:34:08.849   02 Jun 2027 06:34:41.455            32.606               CapeTown          1018.938
       106   02 Jun 2027 07:35:08.176   02 Jun 2027 07:36:00.329            52.153                Anadyr1          1629.781
       107   02 Jun 2027 08:10:39.507   02 Jun 2027 08:14:27.747           228.240               CapeTown          7132.500
       108   02 Jun 2027 09:11:54.872   02 Jun 2027 09:12:52.975            58.103               Magadan1          1815.719
       109   02 Jun 2027 09:14:04.971   02 Jun 2027 09:16:22.906           137.935                Anadyr2          4310.469
       110   02 Jun 2027 10:42:58.831   02 Jun 2027 10:44:23.419            84.588               Magadan1          2643.375
       111   02 Jun 2027 10:45:24.748   02 Jun 2027 10:48:07.260           162.512               Magadan1          5078.500
       112   02 Jun 2027 10:48:08.777   02 Jun 2027 10:50:52.115           163.338                Anadyr2          5104.312
       113   02 Jun 2027 12:11:18.071   02 Jun 2027 12:12:13.579            55.508                Sumatra          1734.625
       114   02 Jun 2027 12:15:02.929   02 Jun 2027 12:16:18.938            76.009                Irkutsk          2375.281
       115   02 Jun 2027 12:17:03.883   02 Jun 2027 12:17:38.932            35.049                Irkutsk          1095.281
       116   02 Jun 2027 12:20:53.631   02 Jun 2027 12:22:10.008            76.377                Irkutsk          2386.781
       117   02 Jun 2027 12:23:06.326   02 Jun 2027 12:24:37.768            91.442               Magadan1          2857.562
       118   02 Jun 2027 13:03:12.782   02 Jun 2027 13:03:17.488             4.706            RioGallegos           147.063
       119   02 Jun 2027 13:05:35.907   02 Jun 2027 13:08:04.861           148.954            RioGallegos          4654.812
       120   02 Jun 2027 13:09:06.260   02 Jun 2027 13:09:26.334            20.074            RioGallegos           627.312
       121   02 Jun 2027 13:37:35.885   02 Jun 2027 13:37:41.630             5.745                Sumatra           179.531
       122   02 Jun 2027 13:40:22.645   02 Jun 2027 13:43:05.619           162.974                Sumatra          5092.937
       123   02 Jun 2027 13:45:19.669   02 Jun 2027 13:47:22.528           122.859                Sumatra          3839.344
       124   02 Jun 2027 13:52:26.334   02 Jun 2027 13:53:32.467            66.133                Irkutsk          2066.656
       125   02 Jun 2027 13:57:06.423   02 Jun 2027 13:59:42.030           155.607                Irkutsk          4862.719
       126   02 Jun 2027 13:59:47.713   02 Jun 2027 14:02:26.103           158.390                Irkutsk          4949.687
       127   02 Jun 2027 15:27:21.811   02 Jun 2027 15:27:30.505             8.694                  Delhi           271.687
       128   02 Jun 2027 15:29:05.579   02 Jun 2027 15:32:10.724           185.145                  Delhi          5785.781
       129   02 Jun 2027 15:34:28.409   02 Jun 2027 15:35:17.812            49.403                Novosib          1543.844
       130   02 Jun 2027 15:39:48.715   02 Jun 2027 15:40:30.125            41.410                Novosib          1294.062
       131   02 Jun 2027 17:15:00.977   02 Jun 2027 17:19:47.420           286.443                Norilsk          8951.344
       132   02 Jun 2027 18:47:08.694   02 Jun 2027 18:47:19.113            10.419              Murmansk1           325.594
       133   02 Jun 2027 18:47:42.899   02 Jun 2027 18:50:17.608           154.709                 Moscow          4834.656
       134   02 Jun 2027 19:55:47.961   02 Jun 2027 19:58:02.260           134.299               CapeTown          4196.844
       135   02 Jun 2027 20:04:09.951   02 Jun 2027 20:05:33.752            83.801               CapeTown          2618.781
       136   02 Jun 2027 20:27:13.300   02 Jun 2027 20:33:22.384           369.084              Murmansk2         11533.875
       137   02 Jun 2027 22:12:00.643   02 Jun 2027 22:12:59.857            59.214                Anadyr2          1850.438
       138   02 Jun 2027 22:14:13.554   02 Jun 2027 22:15:01.316            47.762                Anadyr2          1492.563
       139   02 Jun 2027 22:15:22.594   02 Jun 2027 22:16:57.358            94.764               Magadan1          2961.375
       140   02 Jun 2027 22:17:23.378   02 Jun 2027 22:18:18.952            55.574               Magadan2          1736.688
       141   02 Jun 2027 23:07:31.974   02 Jun 2027 23:09:42.262           130.288            RioGallegos          4071.500
       142   02 Jun 2027 23:10:17.002   02 Jun 2027 23:10:27.083            10.081            RioGallegos           315.031
       143   02 Jun 2027 23:13:09.034   02 Jun 2027 23:13:47.623            38.589            RioGallegos          1205.906
       144   02 Jun 2027 23:47:48.402   02 Jun 2027 23:49:07.356            78.954                Anadyr1          2467.312
       145   02 Jun 2027 23:49:21.913   02 Jun 2027 23:49:22.478             0.565                Anadyr1            17.656
       146   02 Jun 2027 23:49:53.091   02 Jun 2027 23:51:25.023            91.932                Norilsk          2872.875
       147   02 Jun 2027 23:51:40.712   02 Jun 2027 23:51:42.884             2.172               Magadan2            67.875
       148   02 Jun 2027 23:52:08.143   02 Jun 2027 23:52:59.148            51.005               Magadan2          1593.906
       149   02 Jun 2027 23:53:50.907   02 Jun 2027 23:53:58.689             7.782               Magadan1           243.188
       150   02 Jun 2027 23:54:08.815   02 Jun 2027 23:54:43.443            34.628               Magadan2          1082.125
       151   02 Jun 2027 23:54:46.559   02 Jun 2027 23:55:34.539            47.980                Irkutsk          1499.375
       152   03 Jun 2027 00:00:08.932   03 Jun 2027 00:00:53.875            44.943                Irkutsk          1404.469
       153   03 Jun 2027 00:09:08.489   03 Jun 2027 00:10:50.430           101.941                Sumatra          3185.656
       154   03 Jun 2027 00:41:46.623   03 Jun 2027 00:43:01.976            75.353            RioGallegos          2354.781
       155   03 Jun 2027 01:22:59.440   03 Jun 2027 01:23:19.182            19.742                Anadyr1           616.938
       156   03 Jun 2027 01:23:19.373   03 Jun 2027 01:24:07.680            48.307                Anadyr2          1509.594
       157   03 Jun 2027 01:25:09.767   03 Jun 2027 01:25:29.264            19.497                Anadyr2           609.281
       158   03 Jun 2027 01:25:43.750   03 Jun 2027 01:27:38.114           114.364                Norilsk          3573.875
       159   03 Jun 2027 01:28:08.054   03 Jun 2027 01:29:06.309            58.255               Magadan1          1820.469
       160   03 Jun 2027 01:29:37.758   03 Jun 2027 01:31:41.837           124.079                Irkutsk          3877.469
       161   03 Jun 2027 01:38:50.259   03 Jun 2027 01:39:12.819            22.560                Irkutsk           705.000
       162   03 Jun 2027 01:42:26.513   03 Jun 2027 01:42:32.095             5.582                  Delhi           174.438
       163   03 Jun 2027 01:43:43.224   03 Jun 2027 01:44:17.343            34.119                Sumatra          1066.219
       164   03 Jun 2027 01:46:16.641   03 Jun 2027 01:48:36.584           139.943                Sumatra          4373.219
       165   03 Jun 2027 02:27:09.194   03 Jun 2027 02:27:27.808            18.614            RioGallegos           581.688
       166   03 Jun 2027 02:29:10.723   03 Jun 2027 02:29:38.108            27.385            RioGallegos           855.781
       167   03 Jun 2027 02:59:07.815   03 Jun 2027 02:59:37.186            29.371                Anadyr1           917.844
       168   03 Jun 2027 03:06:08.198   03 Jun 2027 03:06:49.283            41.085                Irkutsk          1283.906
       169   03 Jun 2027 03:07:10.662   03 Jun 2027 03:08:39.447            88.785              Murmansk2          2774.531
       170   03 Jun 2027 03:08:39.447   03 Jun 2027 03:09:15.257            35.810              Murmansk1          1119.062
       171   03 Jun 2027 03:09:24.199   03 Jun 2027 03:09:39.149            14.950                Novosib           467.188
       172   03 Jun 2027 03:09:44.518   03 Jun 2027 03:10:27.613            43.095                Irkutsk          1346.719
       173   03 Jun 2027 03:10:45.928   03 Jun 2027 03:11:13.511            27.583                Novosib           861.969
       174   03 Jun 2027 03:11:18.859   03 Jun 2027 03:12:42.836            83.977                Norilsk          2624.281
       175   03 Jun 2027 03:12:51.975   03 Jun 2027 03:16:50.652           238.677                  Delhi          7458.656
       176   03 Jun 2027 03:55:08.129   03 Jun 2027 03:55:56.607            48.478            RioGallegos          1514.937
       177   03 Jun 2027 03:57:43.611   03 Jun 2027 04:00:07.970           144.359            RioGallegos          4511.219
       178   03 Jun 2027 04:45:07.091   03 Jun 2027 04:45:55.019            47.928                Irkutsk          1497.750
       179   03 Jun 2027 04:46:00.738   03 Jun 2027 04:46:42.843            42.105                 Moscow          1315.781
       180   03 Jun 2027 04:47:04.163   03 Jun 2027 04:47:21.978            17.815                Irkutsk           556.719
       181   03 Jun 2027 04:47:24.805   03 Jun 2027 04:50:13.109           168.304                Norilsk          5259.500
       182   03 Jun 2027 04:50:14.140   03 Jun 2027 04:50:52.715            38.575              Murmansk2          1205.469
       183   03 Jun 2027 04:51:16.518   03 Jun 2027 04:52:16.903            60.385                Novosib          1887.031
       184   03 Jun 2027 04:54:29.558   03 Jun 2027 04:56:48.462           138.904                  Delhi          4340.750
       185   03 Jun 2027 06:23:02.958   03 Jun 2027 06:24:33.411            90.453              Murmansk1          2826.656
       186   03 Jun 2027 06:24:44.417   03 Jun 2027 06:26:50.258           125.841                 Moscow          3932.531
       187   03 Jun 2027 06:28:39.549   03 Jun 2027 06:28:45.923             6.374                 Moscow           199.187
       188   03 Jun 2027 06:42:59.525   03 Jun 2027 06:46:08.482           188.957               CapeTown          5904.906
       189   03 Jun 2027 07:47:11.190   03 Jun 2027 07:47:19.541             8.351               Magadan1           260.969
       190   03 Jun 2027 07:47:19.541   03 Jun 2027 07:48:58.465            98.924               Magadan2          3091.375
       191   03 Jun 2027 07:50:21.259   03 Jun 2027 07:50:48.633            27.374               Magadan2           855.437
       192   03 Jun 2027 07:51:54.953   03 Jun 2027 07:52:37.137            42.184                Anadyr1          1318.250
       193   03 Jun 2027 08:25:41.563   03 Jun 2027 08:25:55.985            14.422               CapeTown           450.687
       194   03 Jun 2027 09:23:50.305   03 Jun 2027 09:24:18.639            28.334               Magadan2           885.438
       195   03 Jun 2027 09:24:33.091   03 Jun 2027 09:28:21.246           228.155                Anadyr1          7129.844
       196   03 Jun 2027 10:54:17.603   03 Jun 2027 10:58:01.420           223.817               Magadan2          6994.281
       197   03 Jun 2027 10:58:01.420   03 Jun 2027 11:01:03.020           181.600               Magadan1          5675.000
       198   03 Jun 2027 11:01:03.020   03 Jun 2027 11:02:49.834           106.814               Magadan2          3337.937
       199   03 Jun 2027 13:15:35.226   03 Jun 2027 13:16:08.638            33.412            RioGallegos          1044.125
       200   03 Jun 2027 13:17:30.763   03 Jun 2027 13:20:41.548           190.785            RioGallegos          5962.031
       201   03 Jun 2027 13:49:52.317   03 Jun 2027 13:51:06.814            74.497                Sumatra          2328.031
       202   03 Jun 2027 13:54:48.481   03 Jun 2027 13:54:58.667            10.186                Sumatra           318.313
       203   03 Jun 2027 13:58:12.128   03 Jun 2027 13:59:44.972            92.844                Sumatra          2901.375
       204   03 Jun 2027 14:05:39.068   03 Jun 2027 14:07:04.338            85.270                Irkutsk          2664.687
       205   03 Jun 2027 14:08:46.857   03 Jun 2027 14:09:48.039            61.182                Irkutsk          1911.937
       206   03 Jun 2027 15:34:43.102   03 Jun 2027 15:36:09.339            86.237                  Delhi          2694.906
       207   03 Jun 2027 15:38:46.088   03 Jun 2027 15:40:31.979           105.891                  Delhi          3309.094
       208   03 Jun 2027 15:42:16.419   03 Jun 2027 15:44:46.477           150.058                  Delhi          4689.313
       209   03 Jun 2027 15:46:07.168   03 Jun 2027 15:46:14.298             7.130                Novosib           222.813
       210   03 Jun 2027 15:46:47.296   03 Jun 2027 15:48:45.541           118.245                Norilsk          3695.156
       211   03 Jun 2027 17:19:09.451   03 Jun 2027 17:21:20.249           130.798                 Moscow          4087.437
       212   03 Jun 2027 17:28:00.479   03 Jun 2027 17:31:00.766           180.287                Norilsk          5633.969
       213   03 Jun 2027 17:31:06.318   03 Jun 2027 17:31:39.496            33.178                Norilsk          1036.813
       214   03 Jun 2027 18:57:09.215   03 Jun 2027 19:01:41.105           271.890                 Moscow          8496.562
       215   03 Jun 2027 19:08:20.008   03 Jun 2027 19:08:57.020            37.012              Murmansk2          1156.625
       216   03 Jun 2027 20:08:02.997   03 Jun 2027 20:09:40.614            97.617               CapeTown          3050.531
       217   03 Jun 2027 20:10:45.815   03 Jun 2027 20:11:16.265            30.450               CapeTown           951.562
       218   03 Jun 2027 20:11:38.161   03 Jun 2027 20:12:04.403            26.242               CapeTown           820.063
       219   03 Jun 2027 20:40:03.791   03 Jun 2027 20:45:44.250           340.459              Murmansk1         10639.344
       220   03 Jun 2027 22:24:02.240   03 Jun 2027 22:27:52.348           230.108                Anadyr2          7190.875
       221   03 Jun 2027 22:27:53.236   03 Jun 2027 22:28:49.952            56.716                Anadyr1          1772.375
       222   03 Jun 2027 22:29:31.884   03 Jun 2027 22:31:48.171           136.287               Magadan2          4258.969
       223   03 Jun 2027 22:35:47.135   03 Jun 2027 22:35:56.202             9.067               Magadan1           283.344
       224   03 Jun 2027 23:19:05.448   03 Jun 2027 23:22:15.074           189.626            RioGallegos          5925.813
       225   03 Jun 2027 23:25:14.321   03 Jun 2027 23:25:41.886            27.565            RioGallegos           861.406
       226   03 Jun 2027 23:59:47.260   04 Jun 2027 00:00:58.846            71.586                Anadyr2          2237.063
       227   04 Jun 2027 00:01:03.488   04 Jun 2027 00:01:15.855            12.367                Anadyr1           386.469
       228   04 Jun 2027 00:01:52.343   04 Jun 2027 00:03:26.701            94.358                Norilsk          2948.688
       229   04 Jun 2027 00:03:34.248   04 Jun 2027 00:04:35.822            61.574               Magadan2          1924.188
       230   04 Jun 2027 00:04:35.822   04 Jun 2027 00:04:46.476            10.654               Magadan1           332.937
       231   04 Jun 2027 00:04:53.230   04 Jun 2027 00:05:29.210            35.980               Magadan1          1124.375
       232   04 Jun 2027 00:06:22.737   04 Jun 2027 00:06:37.450            14.713                Irkutsk           459.781
       233   04 Jun 2027 00:06:56.806   04 Jun 2027 00:07:34.041            37.235                Irkutsk          1163.594
       234   04 Jun 2027 00:10:46.372   04 Jun 2027 00:11:10.588            24.216                Irkutsk           756.750
       235   04 Jun 2027 00:11:21.820   04 Jun 2027 00:11:56.631            34.811                Irkutsk          1087.844
       236   04 Jun 2027 00:20:34.617   04 Jun 2027 00:23:35.521           180.904                Sumatra          5653.250
       237   04 Jun 2027 00:58:19.617   04 Jun 2027 00:58:27.658             8.041            RioGallegos           251.281
       238   04 Jun 2027 00:59:31.394   04 Jun 2027 00:59:37.518             6.124            RioGallegos           191.375
       239   04 Jun 2027 01:00:52.628   04 Jun 2027 01:01:22.344            29.716            RioGallegos           928.625
       240   04 Jun 2027 01:34:50.776   04 Jun 2027 01:35:28.291            37.515                Anadyr2          1172.344
       241   04 Jun 2027 01:36:05.520   04 Jun 2027 01:36:45.708            40.188                Anadyr2          1255.875
       242   04 Jun 2027 01:37:13.771   04 Jun 2027 01:37:38.819            25.048                Anadyr1           782.750
       243   04 Jun 2027 01:37:46.047   04 Jun 2027 01:39:40.305           114.258                Norilsk          3570.563
       244   04 Jun 2027 01:40:37.742   04 Jun 2027 01:40:47.403             9.661               Magadan2           301.906
       245   04 Jun 2027 01:41:22.775   04 Jun 2027 01:41:49.981            27.206               Magadan1           850.187
       246   04 Jun 2027 01:41:59.108   04 Jun 2027 01:44:16.901           137.793                Irkutsk          4306.031
       247   04 Jun 2027 01:50:33.667   04 Jun 2027 01:50:47.597            13.930                  Delhi           435.312
       248   04 Jun 2027 01:51:16.247   04 Jun 2027 01:52:23.707            67.460                  Delhi          2108.125
       249   04 Jun 2027 01:56:03.341   04 Jun 2027 01:58:47.651           164.310                Sumatra          5134.688
       250   04 Jun 2027 02:32:04.320   04 Jun 2027 02:32:51.155            46.835            RioGallegos          1463.594
       251   04 Jun 2027 03:18:08.475   04 Jun 2027 03:18:47.903            39.428               Magadan1          1232.125
       252   04 Jun 2027 03:19:24.567   04 Jun 2027 03:19:32.280             7.713                Norilsk           241.031
       253   04 Jun 2027 03:19:52.476   04 Jun 2027 03:22:10.297           137.821                Irkutsk          4306.906
       254   04 Jun 2027 03:22:18.338   04 Jun 2027 03:22:50.810            32.472              Murmansk2          1014.750
       255   04 Jun 2027 03:22:54.919   04 Jun 2027 03:23:36.969            42.050              Murmansk1          1314.062
       256   04 Jun 2027 03:23:46.940   04 Jun 2027 03:26:44.668           177.728                Norilsk          5554.000
       257   04 Jun 2027 03:26:47.900   04 Jun 2027 03:28:55.944           128.044                  Delhi          4001.375
       258   04 Jun 2027 04:07:39.576   04 Jun 2027 04:11:59.921           260.345            RioGallegos          8135.781
       259   04 Jun 2027 04:57:31.732   04 Jun 2027 04:58:32.796            61.064              Murmansk2          1908.250
       260   04 Jun 2027 04:58:32.796   04 Jun 2027 04:58:46.632            13.836              Murmansk1           432.375
       261   04 Jun 2027 04:58:47.082   04 Jun 2027 04:59:06.970            19.888                 Moscow           621.500
       262   04 Jun 2027 04:59:12.514   04 Jun 2027 05:01:12.087           119.573                Norilsk          3736.656
       263   04 Jun 2027 05:01:16.868   04 Jun 2027 05:02:24.921            68.053              Murmansk1          2126.656
       264   04 Jun 2027 05:02:34.168   04 Jun 2027 05:03:27.788            53.620                Novosib          1675.625
       265   04 Jun 2027 06:36:21.666   04 Jun 2027 06:38:52.763           151.097              Murmansk1          4721.781
       266   04 Jun 2027 06:39:18.480   04 Jun 2027 06:40:46.790            88.310              Murmansk1          2759.687
       267   04 Jun 2027 06:41:04.734   04 Jun 2027 06:41:59.466            54.732                 Moscow          1710.375
       268   04 Jun 2027 06:55:09.309   04 Jun 2027 06:59:46.736           277.427               CapeTown          8669.594
       269   04 Jun 2027 07:58:53.316   04 Jun 2027 08:00:09.043            75.727                Anadyr2          2366.469
       270   04 Jun 2027 08:00:09.043   04 Jun 2027 08:00:20.299            11.256                Anadyr1           351.750
       271   04 Jun 2027 08:00:23.080   04 Jun 2027 08:01:36.199            73.119                Anadyr1          2284.969
       272   04 Jun 2027 08:02:38.255   04 Jun 2027 08:03:48.286            70.031                Anadyr2          2188.469
       273   04 Jun 2027 09:30:05.465   04 Jun 2027 09:30:46.548            41.083                Anadyr2          1283.844
       274   04 Jun 2027 09:34:23.692   04 Jun 2027 09:40:04.963           341.271                Anadyr1         10664.719
       275   04 Jun 2027 11:06:13.009   04 Jun 2027 11:06:20.981             7.972               Magadan2           249.125
       276   04 Jun 2027 11:09:39.851   04 Jun 2027 11:15:30.315           350.464               Magadan2         10952.000
       277   04 Jun 2027 11:17:02.838   04 Jun 2027 11:17:26.509            23.671              Murmansk2           739.719
       278   04 Jun 2027 11:50:40.388   04 Jun 2027 11:51:55.465            75.077            RioGallegos          2346.156
       279   04 Jun 2027 12:26:21.455   04 Jun 2027 12:27:39.322            77.867                Sumatra          2433.344
       280   04 Jun 2027 12:39:06.570   04 Jun 2027 12:43:17.059           250.489                Irkutsk          7827.781
       281   04 Jun 2027 13:28:02.794   04 Jun 2027 13:29:14.999            72.205            RioGallegos          2256.406
       282   04 Jun 2027 13:32:39.472   04 Jun 2027 13:33:00.726            21.254            RioGallegos           664.187
       283   04 Jun 2027 14:02:16.529   04 Jun 2027 14:07:22.323           305.794                Sumatra          9556.062
       284   04 Jun 2027 14:17:39.128   04 Jun 2027 14:18:05.652            26.524                Irkutsk           828.875
       285   04 Jun 2027 14:20:18.865   04 Jun 2027 14:23:53.484           214.619                Irkutsk          6706.844
       286   04 Jun 2027 15:47:21.165   04 Jun 2027 15:49:52.403           151.238                  Delhi          4726.187
       287   04 Jun 2027 15:55:48.924   04 Jun 2027 16:00:18.063           269.139                Novosib          8410.594
       288   04 Jun 2027 17:33:20.002   04 Jun 2027 17:34:43.289            83.287                 Moscow          2602.719
       289   04 Jun 2027 17:36:54.510   04 Jun 2027 17:37:24.505            29.995              Murmansk1           937.344
       290   04 Jun 2027 17:41:19.448   04 Jun 2027 17:43:25.896           126.448                Norilsk          3951.500
       291   04 Jun 2027 18:43:41.875   04 Jun 2027 18:45:20.133            98.258               CapeTown          3070.562
       292   04 Jun 2027 19:10:01.440   04 Jun 2027 19:14:18.584           257.144                 Moscow          8035.750
       293   04 Jun 2027 19:16:48.151   04 Jun 2027 19:17:22.310            34.159                 Moscow          1067.469
       294   04 Jun 2027 19:29:14.091   04 Jun 2027 19:29:32.960            18.869                Anadyr2           589.656
       295   04 Jun 2027 20:20:22.640   04 Jun 2027 20:23:13.644           171.004               CapeTown          5343.875
       296   04 Jun 2027 20:23:59.872   04 Jun 2027 20:25:32.537            92.665               CapeTown          2895.781
       297   04 Jun 2027 20:53:02.454   04 Jun 2027 20:57:28.562           266.108              Murmansk1          8315.875
       298   04 Jun 2027 22:36:03.674   04 Jun 2027 22:39:53.121           229.447                Anadyr2          7170.219
       299   04 Jun 2027 22:39:54.493   04 Jun 2027 22:41:37.130           102.637                Norilsk          3207.406
       300   04 Jun 2027 22:41:37.693   04 Jun 2027 22:42:12.076            34.383               Magadan1          1074.469
       301   04 Jun 2027 22:42:31.817   04 Jun 2027 22:43:38.339            66.522               Magadan2          2078.813
       302   04 Jun 2027 22:44:47.746   04 Jun 2027 22:45:08.702            20.956               Magadan1           654.875
       303   04 Jun 2027 23:30:46.696   04 Jun 2027 23:33:23.343           156.647            RioGallegos          4895.219
       304   04 Jun 2027 23:35:39.323   04 Jun 2027 23:36:03.183            23.860            RioGallegos           745.625
       305   04 Jun 2027 23:36:40.621   04 Jun 2027 23:37:07.897            27.276            RioGallegos           852.375
       306   05 Jun 2027 00:11:45.484   05 Jun 2027 00:12:44.599            59.115                Anadyr1          1847.344
       307   05 Jun 2027 00:12:49.046   05 Jun 2027 00:13:09.592            20.546                Anadyr2           642.062
       308   05 Jun 2027 00:13:52.399   05 Jun 2027 00:15:28.236            95.837                Norilsk          2994.906
       309   05 Jun 2027 00:16:10.800   05 Jun 2027 00:16:20.481             9.681               Magadan2           302.531
       310   05 Jun 2027 00:16:21.754   05 Jun 2027 00:16:34.909            13.155                Norilsk           411.094
       311   05 Jun 2027 00:16:36.328   05 Jun 2027 00:17:39.680            63.352               Magadan1          1979.750
       312   05 Jun 2027 00:18:13.252   05 Jun 2027 00:19:30.508            77.256                Irkutsk          2414.250
       313   05 Jun 2027 00:20:30.127   05 Jun 2027 00:20:55.296            25.169                Irkutsk           786.531
       314   05 Jun 2027 00:24:09.512   05 Jun 2027 00:24:15.303             5.791                Irkutsk           180.969
       315   05 Jun 2027 00:26:32.843   05 Jun 2027 00:26:41.050             8.207                Irkutsk           256.469
       316   05 Jun 2027 00:29:09.896   05 Jun 2027 00:29:19.938            10.042                Irkutsk           313.813
       317   05 Jun 2027 00:32:10.406   05 Jun 2027 00:33:48.284            97.878                Sumatra          3058.688
       318   05 Jun 2027 00:36:05.292   05 Jun 2027 00:38:32.758           147.466                Sumatra          4608.313
       319   05 Jun 2027 01:46:40.797   05 Jun 2027 01:47:14.774            33.977                Anadyr2          1061.781
       320   05 Jun 2027 01:47:39.441   05 Jun 2027 01:48:05.176            25.735                Anadyr2           804.219
       321   05 Jun 2027 01:48:05.176   05 Jun 2027 01:48:23.143            17.967                Anadyr1           561.469
       322   05 Jun 2027 01:48:47.976   05 Jun 2027 01:49:13.919            25.943                Anadyr1           810.719
       323   05 Jun 2027 01:49:48.431   05 Jun 2027 01:51:32.307           103.876                Norilsk          3246.125
       324   05 Jun 2027 01:52:11.404   05 Jun 2027 01:53:07.338            55.934               Magadan1          1747.938
       325   05 Jun 2027 01:53:40.904   05 Jun 2027 01:55:32.771           111.867                Irkutsk          3495.844
       326   05 Jun 2027 02:01:22.150   05 Jun 2027 02:02:31.178            69.028                Irkutsk          2157.125
       327   05 Jun 2027 02:08:32.220   05 Jun 2027 02:11:28.264           176.044                Sumatra          5501.375
       328   05 Jun 2027 02:48:44.995   05 Jun 2027 02:49:56.068            71.073            RioGallegos          2221.031
       329   05 Jun 2027 03:31:27.958   05 Jun 2027 03:31:46.542            18.584                Norilsk           580.750
       330   05 Jun 2027 03:31:50.318   05 Jun 2027 03:32:51.088            60.770                Novosib          1899.063
       331   05 Jun 2027 03:32:51.668   05 Jun 2027 03:35:36.581           164.913                Irkutsk          5153.531
       332   05 Jun 2027 03:35:46.126   05 Jun 2027 03:36:18.704            32.578              Murmansk2          1018.062
       333   05 Jun 2027 03:36:21.829   05 Jun 2027 03:39:37.436           195.607                Irkutsk          6112.719
       334   05 Jun 2027 04:20:42.998   05 Jun 2027 04:22:23.334           100.336            RioGallegos          3135.500
       335   05 Jun 2027 05:10:24.358   05 Jun 2027 05:10:41.317            16.959              Murmansk2           529.969
       336   05 Jun 2027 05:10:58.260   05 Jun 2027 05:12:51.201           112.941              Murmansk2          3529.406
       337   05 Jun 2027 05:12:54.086   05 Jun 2027 05:13:18.470            24.384              Murmansk2           762.000
       338   05 Jun 2027 05:13:24.303   05 Jun 2027 05:13:59.150            34.847                Norilsk          1088.969
       339   05 Jun 2027 05:14:05.577   05 Jun 2027 05:17:46.178           220.601                 Moscow          6893.781
       340   05 Jun 2027 05:32:21.341   05 Jun 2027 05:32:59.916            38.575               CapeTown          1205.469
       341   05 Jun 2027 05:33:45.105   05 Jun 2027 05:35:10.351            85.246               CapeTown          2663.938
       342   05 Jun 2027 06:47:54.611   05 Jun 2027 06:48:00.363             5.752                Norilsk           179.750
       343   05 Jun 2027 06:48:21.670   05 Jun 2027 06:52:51.432           269.762              Murmansk2          8430.063
       344   05 Jun 2027 06:52:54.955   05 Jun 2027 06:53:50.257            55.302                 Moscow          1728.187
       345   05 Jun 2027 07:07:24.864   05 Jun 2027 07:12:20.502           295.638               CapeTown          9238.687
       346   05 Jun 2027 08:10:54.024   05 Jun 2027 08:12:44.493           110.469                Anadyr2          3452.156
       347   05 Jun 2027 08:15:38.996   05 Jun 2027 08:16:39.874            60.878                Anadyr2          1902.437
       348   05 Jun 2027 09:42:38.579   05 Jun 2027 09:42:43.666             5.087                Anadyr2           158.969
       349   05 Jun 2027 09:44:13.936   05 Jun 2027 09:47:26.203           192.267                Anadyr2          6008.344
       350   05 Jun 2027 09:48:05.548   05 Jun 2027 09:48:14.805             9.257               Magadan2           289.281
       351   05 Jun 2027 09:48:22.615   05 Jun 2027 09:49:11.263            48.648               Magadan1          1520.250
       352   05 Jun 2027 09:49:27.769   05 Jun 2027 09:52:14.689           166.920                Anadyr2          5216.250
       353   05 Jun 2027 11:17:56.357   05 Jun 2027 11:18:06.678            10.321               Magadan2           322.531
       354   05 Jun 2027 11:21:26.131   05 Jun 2027 11:27:21.415           355.284               Magadan2         11102.625
       355   05 Jun 2027 11:27:47.160   05 Jun 2027 11:28:07.104            19.944                Norilsk           623.250
       356   05 Jun 2027 11:28:59.718   05 Jun 2027 11:29:04.059             4.341              Murmansk1           135.656
       357   05 Jun 2027 11:30:38.836   05 Jun 2027 11:30:41.010             2.174              Murmansk1            67.937
       358   05 Jun 2027 11:34:03.612   05 Jun 2027 11:34:26.309            22.697              Murmansk1           709.281
       359   05 Jun 2027 12:02:40.073   05 Jun 2027 12:03:53.171            73.098            RioGallegos          2284.312
       360   05 Jun 2027 12:38:01.257   05 Jun 2027 12:38:43.732            42.475                Sumatra          1327.344
       361   05 Jun 2027 12:40:20.549   05 Jun 2027 12:41:26.827            66.278                Sumatra          2071.187
       362   05 Jun 2027 12:51:13.426   05 Jun 2027 12:54:22.954           189.528                Irkutsk          5922.750
       363   05 Jun 2027 12:55:28.998   05 Jun 2027 12:55:33.059             4.061                Irkutsk           126.906
       364   05 Jun 2027 12:56:00.284   05 Jun 2027 12:57:06.379            66.095                Norilsk          2065.469
       365   05 Jun 2027 13:40:36.322   05 Jun 2027 13:41:13.678            37.356            RioGallegos          1167.375
       366   05 Jun 2027 13:44:18.297   05 Jun 2027 13:45:24.320            66.023            RioGallegos          2063.219
       367   05 Jun 2027 14:14:50.909   05 Jun 2027 14:19:40.467           289.558                Sumatra          9048.687
       368   05 Jun 2027 14:30:27.939   05 Jun 2027 14:33:41.055           193.116                Irkutsk          6034.875
       369   05 Jun 2027 16:00:13.266   05 Jun 2027 16:04:34.162           260.896                  Delhi          8153.000
       370   05 Jun 2027 16:08:43.611   05 Jun 2027 16:15:45.902           422.291                Novosib         13196.594
       371   05 Jun 2027 18:55:38.792   05 Jun 2027 18:58:07.686           148.894               CapeTown          4652.937
       372   05 Jun 2027 19:23:07.993   05 Jun 2027 19:27:03.437           235.444                 Moscow          7357.625
       373   05 Jun 2027 19:28:27.983   05 Jun 2027 19:28:36.986             9.003              Murmansk1           281.344
       374   05 Jun 2027 19:28:53.739   05 Jun 2027 19:29:35.716            41.977              Murmansk2          1311.781
       375   05 Jun 2027 19:34:22.342   05 Jun 2027 19:34:25.829             3.487              Murmansk2           108.969
       376   05 Jun 2027 19:41:40.722   05 Jun 2027 19:41:59.728            19.006               Magadan1           593.937
       377   05 Jun 2027 19:43:31.057   05 Jun 2027 19:43:46.536            15.479               Magadan2           483.719
       378   05 Jun 2027 20:32:48.519   05 Jun 2027 20:36:16.411           207.892               CapeTown          6496.625
       379   05 Jun 2027 20:37:50.473   05 Jun 2027 20:38:46.062            55.589               CapeTown          1737.156
       380   05 Jun 2027 21:06:18.069   05 Jun 2027 21:08:57.994           159.925              Murmansk2          4997.656
       381   05 Jun 2027 21:14:40.734   05 Jun 2027 21:15:22.556            41.822               Magadan1          1306.937
       382   05 Jun 2027 21:18:34.378   05 Jun 2027 21:19:16.364            41.986               Magadan1          1312.062
       383   05 Jun 2027 21:23:24.705   05 Jun 2027 21:23:27.272             2.567               Magadan2            80.219
       384   05 Jun 2027 21:23:47.911   05 Jun 2027 21:24:03.673            15.762               Magadan1           492.563
       385   05 Jun 2027 22:48:04.885   05 Jun 2027 22:51:53.554           228.669                Anadyr2          7145.906
       386   05 Jun 2027 22:51:54.924   05 Jun 2027 22:53:14.924            80.000                Anadyr1          2500.000
       387   05 Jun 2027 22:53:37.648   05 Jun 2027 22:55:31.727           114.079               Magadan2          3564.969
       388   05 Jun 2027 22:55:31.727   05 Jun 2027 22:56:01.310            29.583               Magadan1           924.469
       389   05 Jun 2027 23:42:32.945   05 Jun 2027 23:45:28.338           175.393            RioGallegos          5481.031
       390   05 Jun 2027 23:47:03.610   05 Jun 2027 23:47:25.418            21.808            RioGallegos           681.500
       391   06 Jun 2027 00:23:42.982   06 Jun 2027 00:24:57.985            75.003                Anadyr2          2343.844
       392   06 Jun 2027 00:24:57.985   06 Jun 2027 00:25:09.523            11.538                Anadyr1           360.563
       393   06 Jun 2027 00:25:16.893   06 Jun 2027 00:25:59.743            42.850                Anadyr2          1339.063
       394   06 Jun 2027 00:26:03.337   06 Jun 2027 00:27:43.749           100.412                Norilsk          3137.875
       395   06 Jun 2027 00:27:44.205   06 Jun 2027 00:28:25.545            41.340               Magadan2          1291.875
       396   06 Jun 2027 00:28:51.323   06 Jun 2027 00:29:08.494            17.171               Magadan2           536.594
       397   06 Jun 2027 00:30:06.282   06 Jun 2027 00:31:35.945            89.663                Irkutsk          2801.969
       398   06 Jun 2027 00:32:10.661   06 Jun 2027 00:33:11.180            60.519                Novosib          1891.219
       399   06 Jun 2027 00:43:53.851   06 Jun 2027 00:44:40.275            46.424                Sumatra          1450.750
       400   06 Jun 2027 00:46:29.379   06 Jun 2027 00:47:26.799            57.420                Sumatra          1794.375
       401   06 Jun 2027 00:49:58.961   06 Jun 2027 00:50:11.501            12.540                Sumatra           391.875
       402   06 Jun 2027 00:54:05.991   06 Jun 2027 00:56:12.435           126.444                Sumatra          3951.375
       403   06 Jun 2027 01:58:29.482   06 Jun 2027 01:58:52.028            22.546                Anadyr2           704.562
       404   06 Jun 2027 01:58:52.028   06 Jun 2027 01:59:16.091            24.063                Anadyr1           751.969
       405   06 Jun 2027 01:59:52.937   06 Jun 2027 02:00:46.374            53.437                Anadyr1          1669.906
       406   06 Jun 2027 02:01:50.872   06 Jun 2027 02:02:58.526            67.654                Norilsk          2114.188
       407   06 Jun 2027 02:04:49.268   06 Jun 2027 02:05:54.266            64.998               Magadan1          2031.188
       408   06 Jun 2027 02:06:09.052   06 Jun 2027 02:08:55.092           166.040                Irkutsk          5188.750
       409   06 Jun 2027 02:19:53.180   06 Jun 2027 02:20:09.007            15.827                  Delhi           494.594
       410   06 Jun 2027 02:21:13.319   06 Jun 2027 02:25:52.483           279.164                Sumatra          8723.875
       411   06 Jun 2027 03:43:59.733   06 Jun 2027 03:44:35.522            35.789                Irkutsk          1118.406
       412   06 Jun 2027 03:44:56.405   06 Jun 2027 03:47:04.704           128.299                Novosib          4009.344
       413   06 Jun 2027 03:47:11.722   06 Jun 2027 03:51:13.290           241.568                Irkutsk          7549.000
       414   06 Jun 2027 05:23:05.642   06 Jun 2027 05:23:57.250            51.608                 Moscow          1612.750
       415   06 Jun 2027 05:24:00.772   06 Jun 2027 05:27:34.396           213.624                Novosib          6675.750
       416   06 Jun 2027 05:27:35.161   06 Jun 2027 05:28:01.042            25.881              Murmansk1           808.781
       417   06 Jun 2027 05:28:41.827   06 Jun 2027 05:31:44.077           182.250                 Moscow          5695.313
       418   06 Jun 2027 05:43:44.481   06 Jun 2027 05:51:13.648           449.167               CapeTown         14036.469
       419   06 Jun 2027 05:51:57.433   06 Jun 2027 05:53:05.848            68.415               CapeTown          2137.969
       420   06 Jun 2027 05:55:13.448   06 Jun 2027 05:55:43.354            29.906               CapeTown           934.563
       421   06 Jun 2027 06:58:52.673   06 Jun 2027 07:00:40.614           107.941              Murmansk1          3373.156
       422   06 Jun 2027 07:00:44.173   06 Jun 2027 07:03:03.985           139.812                 Moscow          4369.125
       423   06 Jun 2027 07:04:35.690   06 Jun 2027 07:04:49.065            13.375                 Moscow           417.969
       424   06 Jun 2027 07:04:52.108   06 Jun 2027 07:05:03.066            10.958                 Moscow           342.438
       425   06 Jun 2027 07:19:46.885   06 Jun 2027 07:21:08.825            81.940               CapeTown          2560.625
       426   06 Jun 2027 07:21:48.784   06 Jun 2027 07:24:48.517           179.733               CapeTown          5616.656
       427   06 Jun 2027 08:21:39.633   06 Jun 2027 08:24:10.170           150.537                Anadyr2          4704.281
       428   06 Jun 2027 08:24:18.755   06 Jun 2027 08:24:22.827             4.072               Magadan1           127.250
       429   06 Jun 2027 08:24:46.923   06 Jun 2027 08:26:02.179            75.256                Anadyr1          2351.750
       430   06 Jun 2027 08:35:01.427   06 Jun 2027 08:35:19.136            17.709                 Moscow           553.406
       431   06 Jun 2027 09:11:06.651   06 Jun 2027 09:11:21.982            15.331            RioGallegos           479.094
       432   06 Jun 2027 09:13:23.501   06 Jun 2027 09:13:26.091             2.590            RioGallegos            80.938
       433   06 Jun 2027 09:53:03.933   06 Jun 2027 09:53:16.342            12.409               Magadan1           387.781
       434   06 Jun 2027 09:55:14.189   06 Jun 2027 10:00:28.157           313.968                Anadyr1          9811.500
       435   06 Jun 2027 10:00:29.461   06 Jun 2027 10:01:48.054            78.593                Anadyr2          2456.031
       436   06 Jun 2027 11:30:36.166   06 Jun 2027 11:33:06.692           150.526               Magadan2          4703.937
       437   06 Jun 2027 11:33:06.692   06 Jun 2027 11:35:12.785           126.093               Magadan1          3940.406
       438   06 Jun 2027 11:35:52.992   06 Jun 2027 11:35:57.137             4.145                Irkutsk           129.531
       439   06 Jun 2027 11:36:05.229   06 Jun 2027 11:37:02.770            57.541                Norilsk          1798.156
       440   06 Jun 2027 11:37:14.631   06 Jun 2027 11:37:39.309            24.678                Irkutsk           771.187
       441   06 Jun 2027 11:37:44.383   06 Jun 2027 11:38:26.100            41.717                Norilsk          1303.656
       442   06 Jun 2027 11:38:46.051   06 Jun 2027 11:39:27.812            41.761                Irkutsk          1305.031
       443   06 Jun 2027 11:39:31.339   06 Jun 2027 11:40:24.346            53.007                Novosib          1656.469
       444   06 Jun 2027 12:14:43.132   06 Jun 2027 12:15:47.005            63.873            RioGallegos          1996.031
       445   06 Jun 2027 12:22:21.849   06 Jun 2027 12:23:22.509            60.660            RioGallegos          1895.625
       446   06 Jun 2027 12:49:48.071   06 Jun 2027 12:50:35.322            47.251                Sumatra          1476.594
       447   06 Jun 2027 12:57:39.656   06 Jun 2027 12:58:17.347            37.691                Sumatra          1177.844
       448   06 Jun 2027 13:03:23.843   06 Jun 2027 13:06:22.217           178.374                Irkutsk          5574.187
       449   06 Jun 2027 13:08:03.735   06 Jun 2027 13:09:06.730            62.995                Norilsk          1968.594
       450   06 Jun 2027 13:53:17.126   06 Jun 2027 13:55:47.680           150.554            RioGallegos          4704.813
       451   06 Jun 2027 14:27:40.679   06 Jun 2027 14:32:06.813           266.134                Sumatra          8316.688
       452   06 Jun 2027 14:43:29.946   06 Jun 2027 14:47:32.689           242.743                Irkutsk          7585.719
       453   06 Jun 2027 16:13:30.436   06 Jun 2027 16:19:15.232           344.796                  Delhi         10774.875
       454   06 Jun 2027 16:21:54.595   06 Jun 2027 16:27:08.812           314.217                Novosib          9819.281
       455   06 Jun 2027 19:07:38.647   06 Jun 2027 19:10:29.791           171.144               CapeTown          5348.250
       456   06 Jun 2027 19:36:48.467   06 Jun 2027 19:39:44.926           176.459                 Moscow          5514.344
       457   06 Jun 2027 19:39:55.881   06 Jun 2027 19:42:14.648           138.767              Murmansk2          4336.469
       458   06 Jun 2027 19:52:32.286   06 Jun 2027 19:52:39.340             7.054               Magadan1           220.437
       459   06 Jun 2027 20:45:23.998   06 Jun 2027 20:50:11.452           287.454               CapeTown          8982.937
       460   06 Jun 2027 20:50:48.271   06 Jun 2027 20:51:33.873            45.602               CapeTown          1425.063
       461   06 Jun 2027 20:52:08.379   06 Jun 2027 20:52:40.856            32.477               CapeTown          1014.906
       462   06 Jun 2027 21:26:57.316   06 Jun 2027 21:27:31.105            33.789               Magadan1          1055.906
       463   06 Jun 2027 21:28:39.126   06 Jun 2027 21:29:16.581            37.455               Magadan2          1170.469
       464   06 Jun 2027 21:29:32.060   06 Jun 2027 21:29:42.438            10.378               Magadan1           324.312
       465   06 Jun 2027 21:30:32.844   06 Jun 2027 21:31:06.304            33.460               Magadan1          1045.625
       466   06 Jun 2027 23:00:05.840   06 Jun 2027 23:04:58.972           293.132                Anadyr2          9160.375
       467   06 Jun 2027 23:05:05.764   06 Jun 2027 23:06:51.326           105.562               Magadan2          3298.812
       468   06 Jun 2027 23:07:27.602   06 Jun 2027 23:07:48.249            20.647               Magadan2           645.219
       469   06 Jun 2027 23:08:44.718   06 Jun 2027 23:08:57.764            13.046               Magadan2           407.688
       470   06 Jun 2027 23:09:15.504   06 Jun 2027 23:09:40.544            25.040                Irkutsk           782.500
       471   06 Jun 2027 23:09:57.430   06 Jun 2027 23:11:07.864            70.434                Irkutsk          2201.062
       472   06 Jun 2027 23:54:22.763   06 Jun 2027 23:56:35.696           132.933            RioGallegos          4154.156
       473   06 Jun 2027 23:58:59.825   06 Jun 2027 23:59:28.056            28.231            RioGallegos           882.219
       474   07 Jun 2027 00:00:17.071   07 Jun 2027 00:00:26.251             9.180            RioGallegos           286.875
       475   07 Jun 2027 00:02:57.822   07 Jun 2027 00:03:18.146            20.324            RioGallegos           635.125
       476   07 Jun 2027 00:35:39.673   07 Jun 2027 00:36:07.849            28.176                Anadyr2           880.500
       477   07 Jun 2027 00:36:25.293   07 Jun 2027 00:36:47.773            22.480                Anadyr1           702.500
       478   07 Jun 2027 00:37:07.002   07 Jun 2027 00:37:48.259            41.257                Anadyr1          1289.281
       479   07 Jun 2027 00:37:54.188   07 Jun 2027 00:39:46.006           111.818                Norilsk          3494.313
       480   07 Jun 2027 00:40:05.325   07 Jun 2027 00:40:08.622             3.297               Magadan1           103.031
       481   07 Jun 2027 00:40:25.266   07 Jun 2027 00:41:47.612            82.346               Magadan1          2573.313
       482   07 Jun 2027 00:43:04.090   07 Jun 2027 00:43:38.181            34.091                Irkutsk          1065.344
