uniorb/output/strategy_1/Drop/Drop_KinoSat_111402.txt

KinoSat_111402
-------------------------
    Access    *     Start Time (UTCG)     *     Stop Time (UTCG)  *   Duration (s)        *       Station  *  Data (Mbytes)
         1   01 Jun 2027 03:54:43.530   01 Jun 2027 03:55:47.754            64.224                Norilsk          2007.000
         2   01 Jun 2027 03:55:48.646   01 Jun 2027 03:56:09.370            20.724              Murmansk2           647.625
         3   01 Jun 2027 03:56:23.616   01 Jun 2027 03:57:25.103            61.487              Murmansk2          1921.469
         4   01 Jun 2027 03:57:42.865   01 Jun 2027 03:59:23.223           100.358              Murmansk2          3136.188
         5   01 Jun 2027 04:00:41.255   01 Jun 2027 04:01:32.259            51.004                 Moscow          1593.875
         6   01 Jun 2027 04:02:33.184   01 Jun 2027 04:02:54.296            21.112                 Moscow           659.750
         7   01 Jun 2027 04:23:27.462   01 Jun 2027 04:24:02.418            34.956               CapeTown          1092.375
         8   01 Jun 2027 05:17:38.990   01 Jun 2027 05:18:56.787            77.797                Anadyr2          2431.156
         9   01 Jun 2027 05:18:56.787   01 Jun 2027 05:19:49.888            53.101                Anadyr1          1659.406
        10   01 Jun 2027 05:20:00.697   01 Jun 2027 05:20:15.256            14.559                Anadyr1           454.969
        11   01 Jun 2027 05:21:09.431   01 Jun 2027 05:21:31.025            21.594                Anadyr1           674.813
        12   01 Jun 2027 06:52:19.681   01 Jun 2027 06:53:22.018            62.337               Magadan1          1948.031
        13   01 Jun 2027 06:53:29.310   01 Jun 2027 06:54:38.629            69.319                Anadyr2          2166.219
        14   01 Jun 2027 06:54:38.629   01 Jun 2027 06:55:50.665            72.036                Anadyr1          2251.125
        15   01 Jun 2027 06:56:27.167   01 Jun 2027 06:58:44.951           137.784                Anadyr2          4305.750
        16   01 Jun 2027 06:58:44.951   01 Jun 2027 06:59:24.085            39.134                Anadyr1          1222.937
        17   01 Jun 2027 06:59:55.964   01 Jun 2027 07:00:10.264            14.300              Murmansk2           446.875
        18   01 Jun 2027 07:00:45.716   01 Jun 2027 07:01:02.514            16.798              Murmansk2           524.938
        19   01 Jun 2027 07:01:25.816   01 Jun 2027 07:02:10.590            44.774              Murmansk2          1399.188
        20   01 Jun 2027 07:02:49.238   01 Jun 2027 07:03:49.456            60.218                 Moscow          1881.812
        21   01 Jun 2027 07:37:54.003   01 Jun 2027 07:38:12.337            18.334            RioGallegos           572.938
        22   01 Jun 2027 08:28:15.709   01 Jun 2027 08:34:16.345           360.636                Anadyr1         11269.875
        23   01 Jun 2027 08:34:31.637   01 Jun 2027 08:34:49.884            18.247              Murmansk2           570.219
        24   01 Jun 2027 08:34:49.884   01 Jun 2027 08:34:57.344             7.460              Murmansk1           233.125
        25   01 Jun 2027 08:35:22.310   01 Jun 2027 08:35:34.616            12.306              Murmansk1           384.563
        26   01 Jun 2027 09:10:02.244   01 Jun 2027 09:11:06.479            64.235            RioGallegos          2007.344
        27   01 Jun 2027 09:47:31.459   01 Jun 2027 09:49:07.037            95.578                Sumatra          2986.813
        28   01 Jun 2027 10:04:08.135   01 Jun 2027 10:07:24.172           196.037               Magadan1          6126.156
        29   01 Jun 2027 10:08:19.964   01 Jun 2027 10:08:29.960             9.996               Magadan2           312.375
        30   01 Jun 2027 10:08:53.071   01 Jun 2027 10:10:54.121           121.050                Irkutsk          3782.812
        31   01 Jun 2027 10:11:05.526   01 Jun 2027 10:11:56.407            50.881              Murmansk1          1590.031
        32   01 Jun 2027 10:45:55.704   01 Jun 2027 10:46:55.334            59.630            RioGallegos          1863.437
        33   01 Jun 2027 11:20:26.821   01 Jun 2027 11:21:47.728            80.907                Sumatra          2528.344
        34   01 Jun 2027 11:30:01.718   01 Jun 2027 11:30:22.512            20.794                  Delhi           649.812
        35   01 Jun 2027 11:42:31.923   01 Jun 2027 11:43:14.060            42.137                Novosib          1316.781
        36   01 Jun 2027 11:43:18.078   01 Jun 2027 11:44:08.667            50.589                Irkutsk          1580.906
        37   01 Jun 2027 11:44:13.500   01 Jun 2027 11:46:13.851           120.351                Novosib          3760.969
        38   01 Jun 2027 11:46:23.470   01 Jun 2027 11:46:33.759            10.289              Murmansk1           321.531
        39   01 Jun 2027 11:46:33.759   01 Jun 2027 11:47:44.049            70.290              Murmansk2          2196.562
        40   01 Jun 2027 11:47:56.793   01 Jun 2027 11:49:01.906            65.113              Murmansk2          2034.781
        41   01 Jun 2027 12:27:21.167   01 Jun 2027 12:29:09.910           108.743            RioGallegos          3398.219
        42   01 Jun 2027 13:04:55.152   01 Jun 2027 13:04:59.460             4.308                  Delhi           134.625
        43   01 Jun 2027 13:05:49.220   01 Jun 2027 13:05:56.535             7.315                  Delhi           228.594
        44   01 Jun 2027 13:06:47.398   01 Jun 2027 13:07:56.582            69.184                  Delhi          2162.000
        45   01 Jun 2027 13:12:56.129   01 Jun 2027 13:14:57.365           121.236                Novosib          3788.625
        46   01 Jun 2027 13:16:45.297   01 Jun 2027 13:18:00.746            75.449                Novosib          2357.781
        47   01 Jun 2027 13:18:13.605   01 Jun 2027 13:20:18.747           125.142                Norilsk          3910.688
        48   01 Jun 2027 13:20:42.462   01 Jun 2027 13:21:40.013            57.551                Norilsk          1798.469
        49   01 Jun 2027 14:49:00.643   01 Jun 2027 14:52:19.446           198.803                 Moscow          6212.594
        50   01 Jun 2027 14:52:30.028   01 Jun 2027 14:55:02.627           152.599              Murmansk1          4768.719
        51   01 Jun 2027 14:57:11.814   01 Jun 2027 14:58:34.237            82.423                Norilsk          2575.719
        52   01 Jun 2027 14:58:38.989   01 Jun 2027 14:59:51.566            72.577                Norilsk          2268.031
        53   01 Jun 2027 16:03:15.091   01 Jun 2027 16:06:22.899           187.808               CapeTown          5869.000
        54   01 Jun 2027 16:13:25.060   01 Jun 2027 16:13:59.762            34.702               CapeTown          1084.438
        55   01 Jun 2027 16:26:50.859   01 Jun 2027 16:27:32.309            41.450                 Moscow          1295.312
        56   01 Jun 2027 16:29:48.499   01 Jun 2027 16:29:52.386             3.887              Murmansk1           121.469
        57   01 Jun 2027 16:31:47.187   01 Jun 2027 16:33:25.848            98.661              Murmansk2          3083.156
        58   01 Jun 2027 16:39:15.110   01 Jun 2027 16:39:39.280            24.170              Murmansk1           755.313
        59   01 Jun 2027 16:40:29.276   01 Jun 2027 16:41:22.649            53.373              Murmansk2          1667.906
        60   01 Jun 2027 16:43:25.419   01 Jun 2027 16:44:25.121            59.702                Anadyr1          1865.688
        61   01 Jun 2027 16:46:11.156   01 Jun 2027 16:46:32.502            21.346                Anadyr1           667.062
        62   01 Jun 2027 16:47:01.837   01 Jun 2027 16:47:39.859            38.022                Anadyr2          1188.188
        63   01 Jun 2027 16:49:25.846   01 Jun 2027 16:49:47.991            22.145                Anadyr1           692.031
        64   01 Jun 2027 16:50:32.584   01 Jun 2027 16:50:37.972             5.388                Anadyr2           168.375
        65   01 Jun 2027 16:50:44.294   01 Jun 2027 16:51:29.804            45.510                Anadyr2          1422.188
        66   01 Jun 2027 16:52:57.228   01 Jun 2027 16:53:14.430            17.202                Anadyr2           537.563
        67   01 Jun 2027 17:44:19.801   01 Jun 2027 17:44:39.755            19.954               CapeTown           623.562
        68   01 Jun 2027 17:47:26.618   01 Jun 2027 17:47:35.529             8.911               CapeTown           278.469
        69   01 Jun 2027 17:48:00.797   01 Jun 2027 17:49:16.470            75.673               CapeTown          2364.781
        70   01 Jun 2027 18:09:29.800   01 Jun 2027 18:13:26.112           236.312              Murmansk2          7384.750
        71   01 Jun 2027 18:13:43.868   01 Jun 2027 18:14:33.240            49.372              Murmansk1          1542.875
        72   01 Jun 2027 18:23:18.502   01 Jun 2027 18:23:47.054            28.552               Magadan1           892.250
        73   01 Jun 2027 18:24:28.674   01 Jun 2027 18:24:43.394            14.720               Magadan1           460.000
        74   01 Jun 2027 18:26:06.090   01 Jun 2027 18:26:49.957            43.867               Magadan2          1370.844
        75   01 Jun 2027 18:30:08.937   01 Jun 2027 18:30:13.960             5.023               Magadan2           156.969
        76   01 Jun 2027 18:30:57.325   01 Jun 2027 18:31:00.054             2.729               Magadan2            85.281
        77   01 Jun 2027 18:31:45.053   01 Jun 2027 18:31:46.879             1.826                Anadyr2            57.063
        78   01 Jun 2027 19:54:59.635   01 Jun 2027 19:58:51.438           231.803                Anadyr2          7243.844
        79   01 Jun 2027 19:59:12.719   01 Jun 2027 20:02:09.667           176.948               Magadan1          5529.625
        80   01 Jun 2027 20:04:02.420   01 Jun 2027 20:04:16.359            13.939               Magadan2           435.594
        81   01 Jun 2027 20:04:59.807   01 Jun 2027 20:05:04.935             5.128               Magadan2           160.250
        82   01 Jun 2027 20:05:13.730   01 Jun 2027 20:05:36.534            22.804               Magadan2           712.625
        83   01 Jun 2027 20:06:06.433   01 Jun 2027 20:06:18.857            12.424               Magadan2           388.250
        84   01 Jun 2027 20:07:02.993   01 Jun 2027 20:07:29.081            26.088               Magadan2           815.250
        85   01 Jun 2027 20:07:56.035   01 Jun 2027 20:08:07.661            11.626               Magadan1           363.312
        86   01 Jun 2027 20:08:26.632   01 Jun 2027 20:08:56.554            29.922               Magadan2           935.062
        87   01 Jun 2027 20:51:19.144   01 Jun 2027 20:53:43.573           144.429            RioGallegos          4513.406
        88   01 Jun 2027 21:30:49.162   01 Jun 2027 21:33:11.059           141.897                Anadyr1          4434.281
        89   01 Jun 2027 21:33:13.109   01 Jun 2027 21:33:42.727            29.618               Magadan1           925.563
        90   01 Jun 2027 21:33:42.727   01 Jun 2027 21:34:20.419            37.692               Magadan2          1177.875
        91   01 Jun 2027 21:35:24.776   01 Jun 2027 21:35:44.873            20.097                Norilsk           628.031
        92   01 Jun 2027 21:37:38.397   01 Jun 2027 21:37:57.303            18.906               Magadan2           590.812
        93   01 Jun 2027 21:38:35.871   01 Jun 2027 21:40:04.293            88.422                Irkutsk          2763.188
        94   01 Jun 2027 21:41:49.445   01 Jun 2027 21:42:23.872            34.427                Irkutsk          1075.844
        95   01 Jun 2027 21:45:11.273   01 Jun 2027 21:45:39.003            27.730                Irkutsk           866.563
        96   01 Jun 2027 21:52:59.508   01 Jun 2027 21:54:32.142            92.634                Sumatra          2894.813
        97   01 Jun 2027 21:55:27.347   01 Jun 2027 21:56:28.661            61.314                Sumatra          1916.062
        98   01 Jun 2027 22:01:04.861   01 Jun 2027 22:01:06.611             1.750                Sumatra            54.687
        99   01 Jun 2027 22:35:31.495   01 Jun 2027 22:36:07.936            36.441            RioGallegos          1138.781
       100   01 Jun 2027 23:06:06.639   01 Jun 2027 23:07:05.860            59.221                Anadyr1          1850.656
       101   01 Jun 2027 23:08:43.408   01 Jun 2027 23:09:53.174            69.766                Norilsk          2180.188
       102   01 Jun 2027 23:09:53.403   01 Jun 2027 23:10:11.110            17.707               Magadan2           553.344
       103   01 Jun 2027 23:10:25.881   01 Jun 2027 23:10:35.196             9.315                Norilsk           291.094
       104   01 Jun 2027 23:11:02.190   01 Jun 2027 23:11:20.684            18.494               Magadan2           577.937
       105   01 Jun 2027 23:12:36.399   01 Jun 2027 23:12:44.103             7.704               Magadan2           240.750
       106   01 Jun 2027 23:13:20.797   01 Jun 2027 23:15:57.890           157.093                Novosib          4909.156
       107   01 Jun 2027 23:19:41.587   01 Jun 2027 23:19:44.994             3.407                Novosib           106.469
       108   01 Jun 2027 23:22:02.650   01 Jun 2027 23:22:50.857            48.207                Novosib          1506.469
       109   01 Jun 2027 23:24:42.271   01 Jun 2027 23:25:07.315            25.044                  Delhi           782.625
       110   01 Jun 2027 23:26:08.328   01 Jun 2027 23:27:58.407           110.079                  Delhi          3439.969
       111   02 Jun 2027 00:11:47.030   02 Jun 2027 00:11:55.566             8.536            RioGallegos           266.750
       112   02 Jun 2027 00:12:19.153   02 Jun 2027 00:12:49.310            30.157            RioGallegos           942.406
       113   02 Jun 2027 00:40:22.973   02 Jun 2027 00:40:37.723            14.750                Anadyr1           460.938
       114   02 Jun 2027 00:41:17.257   02 Jun 2027 00:42:21.078            63.821                Anadyr2          1994.406
       115   02 Jun 2027 00:44:43.831   02 Jun 2027 00:45:13.636            29.805                Norilsk           931.406
       116   02 Jun 2027 00:45:19.608   02 Jun 2027 00:46:23.440            63.832               Magadan2          1994.750
       117   02 Jun 2027 00:46:23.440   02 Jun 2027 00:46:50.884            27.444               Magadan1           857.625
       118   02 Jun 2027 00:47:22.435   02 Jun 2027 00:48:30.408            67.973               Magadan1          2124.156
       119   02 Jun 2027 00:48:31.872   02 Jun 2027 00:49:39.617            67.745                Novosib          2117.031
       120   02 Jun 2027 00:52:36.614   02 Jun 2027 00:52:54.022            17.408              Murmansk2           544.000
       121   02 Jun 2027 00:55:02.581   02 Jun 2027 00:55:34.676            32.095                Novosib          1002.969
       122   02 Jun 2027 00:56:39.091   02 Jun 2027 00:57:06.463            27.372                Novosib           855.375
       123   02 Jun 2027 00:58:25.691   02 Jun 2027 00:58:37.954            12.263                Novosib           383.219
       124   02 Jun 2027 01:00:02.411   02 Jun 2027 01:01:24.551            82.140                Novosib          2566.875
       125   02 Jun 2027 01:37:44.267   02 Jun 2027 01:39:07.433            83.166            RioGallegos          2598.937
       126   02 Jun 2027 01:42:47.495   02 Jun 2027 01:43:14.114            26.619            RioGallegos           831.844
       127   02 Jun 2027 01:44:46.840   02 Jun 2027 01:44:57.325            10.485            RioGallegos           327.656
       128   02 Jun 2027 02:13:33.013   02 Jun 2027 02:13:49.885            16.872                Anadyr2           527.250
       129   02 Jun 2027 02:13:59.704   02 Jun 2027 02:14:14.924            15.220                Anadyr2           475.625
       130   02 Jun 2027 02:14:59.618   02 Jun 2027 02:15:58.310            58.692                Anadyr2          1834.125
       131   02 Jun 2027 02:19:24.605   02 Jun 2027 02:19:28.562             3.957                Anadyr2           123.656
       132   02 Jun 2027 02:19:38.456   02 Jun 2027 02:20:03.175            24.719               Magadan2           772.469
       133   02 Jun 2027 02:20:16.858   02 Jun 2027 02:20:50.539            33.681               Magadan1          1052.531
       134   02 Jun 2027 02:21:18.804   02 Jun 2027 02:21:45.565            26.761               Magadan1           836.281
       135   02 Jun 2027 02:22:01.275   02 Jun 2027 02:22:04.754             3.479                Norilsk           108.719
       136   02 Jun 2027 02:22:54.138   02 Jun 2027 02:23:01.328             7.190              Murmansk2           224.688
       137   02 Jun 2027 02:23:02.295   02 Jun 2027 02:24:16.216            73.921              Murmansk1          2310.031
       138   02 Jun 2027 02:25:04.544   02 Jun 2027 02:25:35.093            30.549              Murmansk2           954.656
       139   02 Jun 2027 02:27:14.309   02 Jun 2027 02:27:56.965            42.656                 Moscow          1333.000
       140   02 Jun 2027 02:30:31.804   02 Jun 2027 02:30:59.969            28.165                Irkutsk           880.156
       141   02 Jun 2027 02:34:15.637   02 Jun 2027 02:34:57.574            41.937                Novosib          1310.531
       142   02 Jun 2027 02:38:29.690   02 Jun 2027 02:39:06.813            37.123                  Delhi          1160.094
       143   02 Jun 2027 02:58:54.098   02 Jun 2027 03:00:19.336            85.238               CapeTown          2663.688
       144   02 Jun 2027 04:06:57.013   02 Jun 2027 04:07:30.284            33.271                 Moscow          1039.719
       145   02 Jun 2027 04:07:43.504   02 Jun 2027 04:07:56.499            12.995                Norilsk           406.094
       146   02 Jun 2027 04:08:11.748   02 Jun 2027 04:11:32.917           201.169              Murmansk2          6286.531
       147   02 Jun 2027 04:11:38.418   02 Jun 2027 04:13:36.611           118.193                 Moscow          3693.531
       148   02 Jun 2027 04:36:04.165   02 Jun 2027 04:36:24.563            20.398               CapeTown           637.437
       149   02 Jun 2027 04:38:01.456   02 Jun 2027 04:38:44.006            42.550               CapeTown          1329.688
       150   02 Jun 2027 05:29:30.568   02 Jun 2027 05:30:08.184            37.616                Anadyr2          1175.500
       151   02 Jun 2027 05:30:23.567   02 Jun 2027 05:32:42.685           139.118                Anadyr2          4347.437
       152   02 Jun 2027 05:32:42.685   02 Jun 2027 05:33:29.090            46.405                Anadyr1          1450.156
       153   02 Jun 2027 05:35:18.776   02 Jun 2027 05:35:36.215            17.439                Anadyr2           544.969
       154   02 Jun 2027 07:06:47.402   02 Jun 2027 07:07:43.807            56.405                Anadyr2          1762.656
       155   02 Jun 2027 07:07:43.807   02 Jun 2027 07:10:06.055           142.248                Anadyr1          4445.250
       156   02 Jun 2027 08:40:37.273   02 Jun 2027 08:42:50.749           133.476                Irkutsk          4171.125
       157   02 Jun 2027 08:42:56.375   02 Jun 2027 08:45:50.056           173.681                Anadyr1          5427.531
       158   02 Jun 2027 08:45:58.415   02 Jun 2027 08:46:58.585            60.170              Murmansk2          1880.313
       159   02 Jun 2027 09:21:51.957   02 Jun 2027 09:22:33.678            41.721            RioGallegos          1303.781
       160   02 Jun 2027 09:22:50.771   02 Jun 2027 09:23:20.518            29.747            RioGallegos           929.594
       161   02 Jun 2027 10:00:43.431   02 Jun 2027 10:00:57.335            13.904                Sumatra           434.500
       162   02 Jun 2027 10:17:45.820   02 Jun 2027 10:22:10.251           264.431                Irkutsk          8263.469
       163   02 Jun 2027 10:22:25.266   02 Jun 2027 10:22:56.133            30.867                Irkutsk           964.594
       164   02 Jun 2027 10:24:05.318   02 Jun 2027 10:24:11.105             5.787              Murmansk1           180.844
       165   02 Jun 2027 10:24:17.657   02 Jun 2027 10:24:32.966            15.309              Murmansk1           478.406
       166   02 Jun 2027 10:25:47.609   02 Jun 2027 10:26:56.257            68.648              Murmansk1          2145.250
       167   02 Jun 2027 10:58:37.451   02 Jun 2027 10:59:09.299            31.848            RioGallegos           995.250
       168   02 Jun 2027 10:59:39.492   02 Jun 2027 11:00:36.407            56.915            RioGallegos          1778.594
       169   02 Jun 2027 11:01:54.493   02 Jun 2027 11:02:55.224            60.731            RioGallegos          1897.844
       170   02 Jun 2027 11:41:34.864   02 Jun 2027 11:42:26.400            51.536                  Delhi          1610.500
       171   02 Jun 2027 11:54:31.046   02 Jun 2027 11:54:38.195             7.149                Norilsk           223.406
       172   02 Jun 2027 11:54:42.493   02 Jun 2027 11:56:08.642            86.149                Novosib          2692.156
       173   02 Jun 2027 11:56:20.127   02 Jun 2027 11:58:02.796           102.669                Norilsk          3208.406
       174   02 Jun 2027 11:58:05.812   02 Jun 2027 11:58:15.703             9.891                Irkutsk           309.094
       175   02 Jun 2027 11:58:17.429   02 Jun 2027 11:58:47.563            30.134                Norilsk           941.687
       176   02 Jun 2027 11:58:51.554   02 Jun 2027 11:59:14.509            22.955                Novosib           717.344
       177   02 Jun 2027 12:04:45.275   02 Jun 2027 12:05:39.733            54.458              Murmansk1          1701.813
       178   02 Jun 2027 13:17:14.996   02 Jun 2027 13:18:12.783            57.787                  Delhi          1805.844
       179   02 Jun 2027 13:21:57.295   02 Jun 2027 13:23:29.799            92.504                  Delhi          2890.750
       180   02 Jun 2027 13:24:12.883   02 Jun 2027 13:25:33.477            80.594                  Delhi          2518.562
       181   02 Jun 2027 13:26:05.110   02 Jun 2027 13:30:35.022           269.912                Novosib          8434.750
       182   02 Jun 2027 13:31:47.442   02 Jun 2027 13:32:20.944            33.502                Norilsk          1046.938
       183   02 Jun 2027 13:32:37.767   02 Jun 2027 13:33:19.778            42.011                Novosib          1312.844
       184   02 Jun 2027 13:34:37.994   02 Jun 2027 13:35:38.898            60.904                Novosib          1903.250
       185   02 Jun 2027 13:37:08.138   02 Jun 2027 13:37:36.595            28.457              Murmansk2           889.281
       186   02 Jun 2027 13:37:40.365   02 Jun 2027 13:39:16.394            96.029                Norilsk          3000.906
       187   02 Jun 2027 13:40:17.531   02 Jun 2027 13:40:26.636             9.105              Murmansk1           284.531
       188   02 Jun 2027 13:40:48.795   02 Jun 2027 13:41:30.346            41.551              Murmansk1          1298.469
       189   02 Jun 2027 15:02:07.610   02 Jun 2027 15:05:42.267           214.657                 Moscow          6708.031
       190   02 Jun 2027 15:06:16.109   02 Jun 2027 15:06:35.019            18.910              Murmansk1           590.937
       191   02 Jun 2027 15:07:30.348   02 Jun 2027 15:07:50.670            20.322              Murmansk2           635.062
       192   02 Jun 2027 15:08:01.640   02 Jun 2027 15:08:17.237            15.597                 Moscow           487.406
       193   02 Jun 2027 15:08:52.112   02 Jun 2027 15:09:40.297            48.185              Murmansk2          1505.781
       194   02 Jun 2027 15:09:56.312   02 Jun 2027 15:10:12.042            15.730                 Moscow           491.562
       195   02 Jun 2027 15:10:19.633   02 Jun 2027 15:14:39.914           260.281                Norilsk          8133.781
       196   02 Jun 2027 15:17:22.900   02 Jun 2027 15:17:26.590             3.690              Murmansk1           115.313
       197   02 Jun 2027 15:22:20.029   02 Jun 2027 15:23:04.367            44.338                Anadyr2          1385.563
       198   02 Jun 2027 16:21:18.397   02 Jun 2027 16:22:05.849            47.452               CapeTown          1482.875
       199   02 Jun 2027 16:22:06.094   02 Jun 2027 16:24:25.896           139.802               CapeTown          4368.812
       200   02 Jun 2027 16:26:42.628   02 Jun 2027 16:26:53.574            10.946               CapeTown           342.063
       201   02 Jun 2027 16:45:16.303   02 Jun 2027 16:45:42.075            25.772                 Moscow           805.375
       202   02 Jun 2027 16:46:11.096   02 Jun 2027 16:46:50.130            39.034                 Moscow          1219.812
       203   02 Jun 2027 16:48:07.871   02 Jun 2027 16:48:59.982            52.111                 Moscow          1628.469
       204   02 Jun 2027 16:49:39.917   02 Jun 2027 16:50:17.925            38.008              Murmansk1          1187.750
       205   02 Jun 2027 16:51:14.761   02 Jun 2027 16:52:58.725           103.964              Murmansk1          3248.875
       206   02 Jun 2027 16:59:00.752   02 Jun 2027 16:59:20.185            19.433                Anadyr2           607.281
       207   02 Jun 2027 16:59:46.165   02 Jun 2027 16:59:52.881             6.716                Anadyr1           209.875
       208   02 Jun 2027 17:00:17.058   02 Jun 2027 17:01:07.829            50.771                Anadyr2          1586.594
       209   02 Jun 2027 17:01:20.648   02 Jun 2027 17:01:43.735            23.087                Anadyr2           721.469
       210   02 Jun 2027 17:01:56.718   02 Jun 2027 17:02:32.216            35.498                Anadyr2          1109.313
       211   02 Jun 2027 17:02:44.421   02 Jun 2027 17:03:30.909            46.488                Anadyr2          1452.750
       212   02 Jun 2027 17:04:20.454   02 Jun 2027 17:04:50.809            30.355                Anadyr1           948.594
       213   02 Jun 2027 17:05:26.518   02 Jun 2027 17:05:58.980            32.462                Anadyr2          1014.438
       214   02 Jun 2027 17:06:01.009   02 Jun 2027 17:06:01.547             0.538                Anadyr2            16.812
       215   02 Jun 2027 18:01:32.408   02 Jun 2027 18:02:02.454            30.046               CapeTown           938.937
       216   02 Jun 2027 18:22:14.617   02 Jun 2027 18:25:41.291           206.674              Murmansk2          6458.562
       217   02 Jun 2027 18:25:41.291   02 Jun 2027 18:27:00.242            78.951              Murmansk1          2467.219
       218   02 Jun 2027 18:27:39.327   02 Jun 2027 18:28:10.384            31.057              Murmansk2           970.531
       219   02 Jun 2027 18:38:31.114   02 Jun 2027 18:39:04.104            32.990               Magadan1          1030.937
       220   02 Jun 2027 18:39:52.138   02 Jun 2027 18:39:55.009             2.871                Anadyr2            89.719
       221   02 Jun 2027 18:40:11.208   02 Jun 2027 18:40:43.924            32.716               Magadan1          1022.375
       222   02 Jun 2027 18:40:43.924   02 Jun 2027 18:41:00.334            16.410               Magadan2           512.813
       223   02 Jun 2027 18:41:16.596   02 Jun 2027 18:41:50.879            34.283                Anadyr1          1071.344
       224   02 Jun 2027 18:42:48.638   02 Jun 2027 18:43:08.244            19.606                Anadyr1           612.687
       225   02 Jun 2027 18:43:28.512   02 Jun 2027 18:43:39.820            11.308                Anadyr2           353.375
       226   02 Jun 2027 20:07:01.115   02 Jun 2027 20:11:20.520           259.405                Anadyr2          8106.406
       227   02 Jun 2027 20:11:34.716   02 Jun 2027 20:12:23.683            48.967               Magadan2          1530.219
       228   02 Jun 2027 20:12:27.572   02 Jun 2027 20:12:31.019             3.447                Anadyr2           107.719
       229   02 Jun 2027 20:13:35.773   02 Jun 2027 20:13:44.112             8.339               Magadan2           260.594
       230   02 Jun 2027 20:13:55.771   02 Jun 2027 20:14:43.957            48.186               Magadan1          1505.813
       231   02 Jun 2027 20:16:18.878   02 Jun 2027 20:16:40.454            21.576                Anadyr1           674.250
       232   02 Jun 2027 20:17:00.096   02 Jun 2027 20:17:24.865            24.769               Magadan1           774.031
       233   02 Jun 2027 20:17:52.504   02 Jun 2027 20:17:58.705             6.201               Magadan1           193.781
       234   02 Jun 2027 20:17:58.768   02 Jun 2027 20:18:17.072            18.304                Anadyr1           572.000
       235   02 Jun 2027 20:18:49.220   02 Jun 2027 20:19:01.006            11.786               Magadan2           368.313
       236   02 Jun 2027 20:19:34.420   02 Jun 2027 20:20:06.520            32.100               Magadan1          1003.125
       237   02 Jun 2027 20:20:56.068   02 Jun 2027 20:21:18.599            22.531               Magadan1           704.094
       238   02 Jun 2027 20:21:45.098   02 Jun 2027 20:21:58.709            13.611               Magadan2           425.344
       239   02 Jun 2027 20:21:58.709   02 Jun 2027 20:22:05.003             6.294               Magadan1           196.688
       240   02 Jun 2027 21:02:36.331   02 Jun 2027 21:02:47.144            10.813            RioGallegos           337.906
       241   02 Jun 2027 21:04:10.876   02 Jun 2027 21:05:00.342            49.466            RioGallegos          1545.813
       242   02 Jun 2027 21:05:26.054   02 Jun 2027 21:06:31.661            65.607            RioGallegos          2050.219
       243   02 Jun 2027 21:08:44.246   02 Jun 2027 21:09:14.842            30.596            RioGallegos           956.125
       244   02 Jun 2027 21:43:50.548   02 Jun 2027 21:44:56.145            65.597                Anadyr2          2049.906
       245   02 Jun 2027 21:45:15.682   02 Jun 2027 21:45:34.644            18.962               Magadan1           592.563
       246   02 Jun 2027 21:46:13.107   02 Jun 2027 21:46:44.841            31.734                Norilsk           991.687
       247   02 Jun 2027 21:47:15.568   02 Jun 2027 21:47:39.136            23.568                Norilsk           736.500
       248   02 Jun 2027 21:49:04.155   02 Jun 2027 21:50:14.925            70.770                Norilsk          2211.562
       249   02 Jun 2027 21:52:11.050   02 Jun 2027 21:52:22.437            11.387                Norilsk           355.844
       250   02 Jun 2027 21:52:54.768   02 Jun 2027 21:53:16.737            21.969               Magadan2           686.531
       251   02 Jun 2027 21:53:45.387   02 Jun 2027 21:54:10.875            25.488                Irkutsk           796.500
       252   02 Jun 2027 21:54:52.213   02 Jun 2027 21:55:08.726            16.513               Magadan1           516.031
       253   02 Jun 2027 21:55:26.301   02 Jun 2027 21:56:01.792            35.491               Magadan2          1109.094
       254   02 Jun 2027 21:57:16.411   02 Jun 2027 21:57:31.506            15.095               Magadan2           471.719
       255   02 Jun 2027 21:58:25.809   02 Jun 2027 21:58:55.851            30.042                Irkutsk           938.813
       256   02 Jun 2027 22:08:05.311   02 Jun 2027 22:08:59.049            53.738                Sumatra          1679.312
       257   02 Jun 2027 22:10:06.204   02 Jun 2027 22:10:44.928            38.724                Sumatra          1210.125
       258   02 Jun 2027 22:13:12.765   02 Jun 2027 22:13:17.439             4.674                Sumatra           146.063
       259   02 Jun 2027 22:14:02.046   02 Jun 2027 22:14:08.462             6.416                Sumatra           200.500
       260   02 Jun 2027 22:47:29.116   02 Jun 2027 22:48:12.974            43.858            RioGallegos          1370.563
       261   02 Jun 2027 23:17:59.076   02 Jun 2027 23:18:38.261            39.185                Anadyr1          1224.531
       262   02 Jun 2027 23:18:50.624   02 Jun 2027 23:19:11.490            20.866                Anadyr2           652.063
       263   02 Jun 2027 23:20:28.806   02 Jun 2027 23:20:51.266            22.460                Anadyr2           701.875
       264   02 Jun 2027 23:20:55.339   02 Jun 2027 23:21:38.032            42.693                Norilsk          1334.156
       265   02 Jun 2027 23:21:58.943   02 Jun 2027 23:22:30.472            31.529               Magadan1           985.281
       266   02 Jun 2027 23:22:30.472   02 Jun 2027 23:23:12.233            41.761               Magadan2          1305.031
       267   02 Jun 2027 23:24:08.675   02 Jun 2027 23:24:25.216            16.541               Magadan2           516.906
       268   02 Jun 2027 23:25:10.579   02 Jun 2027 23:25:19.837             9.258                Novosib           289.313
       269   02 Jun 2027 23:25:29.339   02 Jun 2027 23:25:51.026            21.687                Novosib           677.719
       270   02 Jun 2027 23:26:41.406   02 Jun 2027 23:27:05.331            23.925               Magadan1           747.656
       271   02 Jun 2027 23:28:26.899   02 Jun 2027 23:28:32.797             5.898                Novosib           184.313
       272   02 Jun 2027 23:29:10.179   02 Jun 2027 23:29:15.124             4.945               Magadan1           154.531
       273   02 Jun 2027 23:29:24.414   02 Jun 2027 23:29:34.022             9.608                Irkutsk           300.250
       274   02 Jun 2027 23:29:36.514   02 Jun 2027 23:30:39.188            62.674                Novosib          1958.562
       275   02 Jun 2027 23:32:58.353   02 Jun 2027 23:33:34.746            36.393                Irkutsk          1137.281
       276   02 Jun 2027 23:34:46.627   02 Jun 2027 23:35:09.546            22.919                Irkutsk           716.219
       277   02 Jun 2027 23:36:25.389   02 Jun 2027 23:36:59.912            34.523                Irkutsk          1078.844
       278   02 Jun 2027 23:39:46.386   02 Jun 2027 23:40:46.889            60.503                  Delhi          1890.719
       279   02 Jun 2027 23:50:10.404   02 Jun 2027 23:50:39.346            28.942                Sumatra           904.438
       280   03 Jun 2027 00:20:58.398   03 Jun 2027 00:21:29.327            30.929            RioGallegos           966.531
       281   03 Jun 2027 00:23:52.201   03 Jun 2027 00:24:21.878            29.677            RioGallegos           927.406
       282   03 Jun 2027 00:51:58.355   03 Jun 2027 00:52:17.940            19.585                Anadyr2           612.031
       283   03 Jun 2027 00:52:38.771   03 Jun 2027 00:53:18.532            39.761                Anadyr2          1242.531
       284   03 Jun 2027 00:54:22.999   03 Jun 2027 00:54:26.933             3.934                Anadyr2           122.937
       285   03 Jun 2027 00:56:05.672   03 Jun 2027 00:56:49.831            44.159                Anadyr2          1379.969
       286   03 Jun 2027 00:57:16.085   03 Jun 2027 00:58:49.760            93.675                Norilsk          2927.344
       287   03 Jun 2027 00:59:23.754   03 Jun 2027 00:59:58.439            34.685               Magadan2          1083.906
       288   03 Jun 2027 01:00:14.831   03 Jun 2027 01:00:54.261            39.430              Murmansk2          1232.187
       289   03 Jun 2027 01:02:05.236   03 Jun 2027 01:03:16.657            71.421              Murmansk1          2231.906
       290   03 Jun 2027 01:08:30.580   03 Jun 2027 01:08:59.212            28.632                Irkutsk           894.750
       291   03 Jun 2027 01:10:41.190   03 Jun 2027 01:10:46.272             5.082                Novosib           158.813
       292   03 Jun 2027 01:11:00.454   03 Jun 2027 01:11:16.760            16.306                Novosib           509.562
       293   03 Jun 2027 01:12:06.865   03 Jun 2027 01:12:30.735            23.870                Novosib           745.937
       294   03 Jun 2027 01:16:52.627   03 Jun 2027 01:17:26.896            34.269                  Delhi          1070.906
       295   03 Jun 2027 01:17:41.977   03 Jun 2027 01:19:36.621           114.644                  Delhi          3582.625
       296   03 Jun 2027 01:52:29.895   03 Jun 2027 01:52:53.341            23.446            RioGallegos           732.688
       297   03 Jun 2027 01:54:11.530   03 Jun 2027 01:55:07.108            55.578            RioGallegos          1736.812
       298   03 Jun 2027 02:27:41.519   03 Jun 2027 02:27:57.754            16.235                Anadyr1           507.344
       299   03 Jun 2027 02:28:39.043   03 Jun 2027 02:28:50.004            10.961                Anadyr2           342.531
       300   03 Jun 2027 02:30:01.244   03 Jun 2027 02:30:21.245            20.001                Anadyr2           625.031
       301   03 Jun 2027 02:31:10.977   03 Jun 2027 02:32:04.126            53.149               Magadan1          1660.906
       302   03 Jun 2027 02:32:49.737   03 Jun 2027 02:33:08.016            18.279               Magadan1           571.219
       303   03 Jun 2027 02:33:53.176   03 Jun 2027 02:34:24.386            31.210                Norilsk           975.312
       304   03 Jun 2027 02:36:08.273   03 Jun 2027 02:36:22.736            14.463              Murmansk1           451.969
       305   03 Jun 2027 02:36:47.712   03 Jun 2027 02:37:15.708            27.996                Novosib           874.875
       306   03 Jun 2027 02:38:48.487   03 Jun 2027 02:39:25.649            37.162                Irkutsk          1161.312
       307   03 Jun 2027 02:41:36.954   03 Jun 2027 02:41:57.294            20.340                Irkutsk           635.625
       308   03 Jun 2027 02:43:52.832   03 Jun 2027 02:44:43.177            50.345              Murmansk1          1573.281
       309   03 Jun 2027 02:47:56.617   03 Jun 2027 02:48:13.917            17.300                  Delhi           540.625
       310   03 Jun 2027 02:50:39.131   03 Jun 2027 02:51:06.533            27.402                  Delhi           856.313
       311   03 Jun 2027 03:11:18.297   03 Jun 2027 03:12:42.988            84.691               CapeTown          2646.594
       312   03 Jun 2027 04:17:57.270   03 Jun 2027 04:19:38.779           101.509              Murmansk2          3172.156
       313   03 Jun 2027 04:19:39.848   03 Jun 2027 04:19:45.415             5.567                Norilsk           173.969
       314   03 Jun 2027 04:19:59.374   03 Jun 2027 04:23:40.848           221.474              Murmansk1          6921.062
       315   03 Jun 2027 05:41:58.095   03 Jun 2027 05:42:45.681            47.586                Anadyr2          1487.062
       316   03 Jun 2027 05:42:47.740   03 Jun 2027 05:43:19.168            31.428               Magadan1           982.125
       317   03 Jun 2027 05:43:25.613   03 Jun 2027 05:44:27.417            61.804               Magadan1          1931.375
       318   03 Jun 2027 05:44:27.417   03 Jun 2027 05:44:43.323            15.906               Magadan2           497.062
       319   03 Jun 2027 07:19:22.163   03 Jun 2027 07:23:03.029           220.866               Magadan1          6902.062
       320   03 Jun 2027 08:53:09.463   03 Jun 2027 08:57:50.023           280.560               Magadan2          8767.500
       321   03 Jun 2027 08:57:59.697   03 Jun 2027 08:58:08.179             8.482                Novosib           265.062
       322   03 Jun 2027 08:58:21.734   03 Jun 2027 08:58:34.262            12.528               Magadan1           391.500
       323   03 Jun 2027 08:58:34.262   03 Jun 2027 08:58:48.255            13.993               Magadan2           437.281
       324   03 Jun 2027 08:58:53.439   03 Jun 2027 08:59:15.695            22.256              Murmansk2           695.500
       325   03 Jun 2027 09:00:35.907   03 Jun 2027 09:00:44.790             8.883              Murmansk1           277.594
       326   03 Jun 2027 09:01:21.510   03 Jun 2027 09:01:47.027            25.517              Murmansk1           797.406
       327   03 Jun 2027 09:01:56.501   03 Jun 2027 09:02:27.554            31.053                Norilsk           970.406
       328   03 Jun 2027 09:33:44.879   03 Jun 2027 09:34:44.408            59.529            RioGallegos          1860.281
       329   03 Jun 2027 09:36:05.958   03 Jun 2027 09:36:18.221            12.263            RioGallegos           383.219
       330   03 Jun 2027 10:09:52.701   03 Jun 2027 10:10:24.660            31.959                Sumatra           998.719
       331   03 Jun 2027 10:14:51.772   03 Jun 2027 10:15:00.854             9.082                Sumatra           283.812
       332   03 Jun 2027 10:18:41.762   03 Jun 2027 10:19:03.078            21.316                Sumatra           666.125
       333   03 Jun 2027 10:29:04.717   03 Jun 2027 10:29:05.544             0.827                Irkutsk            25.844
       334   03 Jun 2027 10:29:09.380   03 Jun 2027 10:29:21.160            11.780                Norilsk           368.125
       335   03 Jun 2027 10:29:27.887   03 Jun 2027 10:30:02.785            34.898                Novosib          1090.562
       336   03 Jun 2027 10:30:11.490   03 Jun 2027 10:30:15.930             4.440                Irkutsk           138.750
       337   03 Jun 2027 10:30:18.896   03 Jun 2027 10:30:29.332            10.436                Norilsk           326.125
       338   03 Jun 2027 10:30:35.891   03 Jun 2027 10:30:42.602             6.711                Novosib           209.719
       339   03 Jun 2027 10:30:43.405   03 Jun 2027 10:30:51.510             8.105                Norilsk           253.281
       340   03 Jun 2027 10:30:54.934   03 Jun 2027 10:31:12.845            17.911                Novosib           559.719
       341   03 Jun 2027 10:31:45.705   03 Jun 2027 10:31:56.245            10.540                Norilsk           329.375
       342   03 Jun 2027 10:32:00.354   03 Jun 2027 10:32:12.345            11.991              Murmansk1           374.719
       343   03 Jun 2027 10:32:17.545   03 Jun 2027 10:32:38.182            20.637              Murmansk1           644.906
       344   03 Jun 2027 10:32:42.989   03 Jun 2027 10:33:01.138            18.149                Irkutsk           567.156
       345   03 Jun 2027 10:33:06.720   03 Jun 2027 10:34:36.737            90.017                Irkutsk          2813.031
       346   03 Jun 2027 10:34:45.617   03 Jun 2027 10:35:00.125            14.508                Novosib           453.375
       347   03 Jun 2027 10:35:07.709   03 Jun 2027 10:35:30.965            23.256              Murmansk2           726.750
       348   03 Jun 2027 10:35:54.748   03 Jun 2027 10:36:15.473            20.725              Murmansk1           647.656
       349   03 Jun 2027 10:36:35.059   03 Jun 2027 10:36:48.587            13.528              Murmansk2           422.750
       350   03 Jun 2027 10:40:07.368   03 Jun 2027 10:40:26.177            18.809              Murmansk1           587.781
       351   03 Jun 2027 11:10:35.310   03 Jun 2027 11:10:54.236            18.926            RioGallegos           591.437
       352   03 Jun 2027 11:12:31.038   03 Jun 2027 11:12:59.025            27.987            RioGallegos           874.594
       353   03 Jun 2027 11:14:55.623   03 Jun 2027 11:15:30.540            34.917            RioGallegos          1091.156
       354   03 Jun 2027 11:44:51.987   03 Jun 2027 11:45:28.483            36.496                Sumatra          1140.500
       355   03 Jun 2027 11:47:10.256   03 Jun 2027 11:48:13.709            63.453                Sumatra          1982.906
       356   03 Jun 2027 12:05:25.954   03 Jun 2027 12:05:53.612            27.658                Irkutsk           864.313
       357   03 Jun 2027 12:07:07.914   03 Jun 2027 12:07:55.839            47.925                Irkutsk          1497.656
       358   03 Jun 2027 12:12:00.505   03 Jun 2027 12:12:08.206             7.701                Norilsk           240.656
       359   03 Jun 2027 12:12:13.637   03 Jun 2027 12:12:51.019            37.382                Norilsk          1168.187
       360   03 Jun 2027 12:15:16.917   03 Jun 2027 12:15:30.278            13.361              Murmansk1           417.531
       361   03 Jun 2027 12:15:53.777   03 Jun 2027 12:15:54.186             0.409                Norilsk            12.781
       362   03 Jun 2027 12:16:01.308   03 Jun 2027 12:16:22.726            21.418              Murmansk1           669.313
       363   03 Jun 2027 13:29:42.548   03 Jun 2027 13:31:10.202            87.654                  Delhi          2739.187
       364   03 Jun 2027 13:31:11.261   03 Jun 2027 13:33:16.195           124.934                  Delhi          3904.187
       365   03 Jun 2027 13:33:47.120   03 Jun 2027 13:34:57.040            69.920                  Delhi          2185.000
       366   03 Jun 2027 13:39:39.537   03 Jun 2027 13:40:34.566            55.029                Novosib          1719.656
       367   03 Jun 2027 13:42:43.038   03 Jun 2027 13:43:03.401            20.363                Novosib           636.344
       368   03 Jun 2027 13:46:04.564   03 Jun 2027 13:46:22.431            17.867                Norilsk           558.344
       369   03 Jun 2027 13:47:31.033   03 Jun 2027 13:48:07.930            36.897                Norilsk          1153.031
       370   03 Jun 2027 13:50:12.082   03 Jun 2027 13:51:45.543            93.461                Norilsk          2920.656
       371   03 Jun 2027 15:13:11.477   03 Jun 2027 15:15:13.499           122.022                 Moscow          3813.188
       372   03 Jun 2027 15:16:42.955   03 Jun 2027 15:17:13.358            30.403              Murmansk2           950.094
       373   03 Jun 2027 15:19:32.802   03 Jun 2027 15:19:52.620            19.818              Murmansk2           619.313
       374   03 Jun 2027 15:21:41.587   03 Jun 2027 15:21:57.768            16.181              Murmansk1           505.656
       375   03 Jun 2027 15:23:03.064   03 Jun 2027 15:25:53.864           170.800                Norilsk          5337.500
       376   03 Jun 2027 15:34:18.798   03 Jun 2027 15:35:26.552            67.754                Anadyr1          2117.313
       377   03 Jun 2027 16:34:09.943   03 Jun 2027 16:34:40.283            30.340               CapeTown           948.125
       378   03 Jun 2027 16:36:18.429   03 Jun 2027 16:37:11.529            53.100               CapeTown          1659.375
       379   03 Jun 2027 16:52:08.987   03 Jun 2027 16:52:11.362             2.375                 Moscow            74.219
       380   03 Jun 2027 16:52:35.136   03 Jun 2027 16:53:16.245            41.109                 Moscow          1284.656
       381   03 Jun 2027 16:54:32.533   03 Jun 2027 16:55:27.669            55.136              Murmansk1          1723.000
       382   03 Jun 2027 16:58:22.514   03 Jun 2027 16:59:32.167            69.653              Murmansk1          2176.656
       383   03 Jun 2027 17:07:20.238   03 Jun 2027 17:08:22.668            62.430                Anadyr1          1950.938
       384   03 Jun 2027 17:12:03.578   03 Jun 2027 17:12:23.955            20.377                Anadyr1           636.781
       385   03 Jun 2027 17:13:14.940   03 Jun 2027 17:13:16.967             2.027                Anadyr1            63.344
       386   03 Jun 2027 17:13:37.722   03 Jun 2027 17:13:41.720             3.998                Anadyr1           124.937
       387   03 Jun 2027 17:14:31.417   03 Jun 2027 17:14:44.915            13.498                Anadyr1           421.812
       388   03 Jun 2027 17:17:49.558   03 Jun 2027 17:18:18.399            28.841                Anadyr1           901.281
       389   03 Jun 2027 18:03:59.993   03 Jun 2027 18:04:36.259            36.266               CapeTown          1133.312
       390   03 Jun 2027 18:10:06.132   03 Jun 2027 18:10:26.800            20.668               CapeTown           645.875
       391   03 Jun 2027 18:11:06.413   03 Jun 2027 18:12:51.238           104.825               CapeTown          3275.781
       392   03 Jun 2027 18:35:05.058   03 Jun 2027 18:39:39.531           274.473              Murmansk2          8577.281
       393   03 Jun 2027 18:53:29.813   03 Jun 2027 18:54:22.765            52.952               Magadan2          1654.750
       394   03 Jun 2027 20:19:02.456   03 Jun 2027 20:22:46.610           224.154                Anadyr1          7004.813
       395   03 Jun 2027 20:23:09.477   03 Jun 2027 20:24:53.826           104.349                Anadyr2          3260.906
       396   03 Jun 2027 20:25:23.833   03 Jun 2027 20:25:54.011            30.178               Magadan1           943.063
       397   03 Jun 2027 20:25:54.615   03 Jun 2027 20:25:56.075             1.460               Magadan1            45.625
       398   03 Jun 2027 20:26:04.532   03 Jun 2027 20:26:21.540            17.008               Magadan1           531.500
       399   03 Jun 2027 20:31:02.633   03 Jun 2027 20:31:08.469             5.836               Magadan2           182.375
       400   03 Jun 2027 20:32:03.017   03 Jun 2027 20:32:37.845            34.828               Magadan2          1088.375
       401   03 Jun 2027 21:14:08.830   03 Jun 2027 21:16:11.163           122.333            RioGallegos          3822.906
       402   03 Jun 2027 21:16:25.716   03 Jun 2027 21:17:01.822            36.106            RioGallegos          1128.313
       403   03 Jun 2027 21:20:25.662   03 Jun 2027 21:20:37.839            12.177            RioGallegos           380.531
       404   03 Jun 2027 21:54:46.965   03 Jun 2027 21:55:15.536            28.571                Anadyr2           892.844
       405   03 Jun 2027 21:56:54.747   03 Jun 2027 21:59:15.181           140.434                Norilsk          4388.562
       406   03 Jun 2027 21:59:37.109   03 Jun 2027 21:59:54.779            17.670               Magadan1           552.188
       407   03 Jun 2027 22:00:00.261   03 Jun 2027 22:00:29.435            29.174                Norilsk           911.688
       408   03 Jun 2027 22:00:54.490   03 Jun 2027 22:01:39.171            44.681               Magadan2          1396.281
       409   03 Jun 2027 22:01:55.132   03 Jun 2027 22:02:33.028            37.896                Irkutsk          1184.250
       410   03 Jun 2027 22:04:03.882   03 Jun 2027 22:05:04.312            60.430                Irkutsk          1888.438
       411   03 Jun 2027 22:15:36.889   03 Jun 2027 22:17:08.553            91.664                Sumatra          2864.500
       412   03 Jun 2027 22:21:25.951   03 Jun 2027 22:22:05.640            39.689                Sumatra          1240.281
       413   03 Jun 2027 23:29:50.286   03 Jun 2027 23:31:06.379            76.093                Anadyr1          2377.906
       414   03 Jun 2027 23:32:13.053   03 Jun 2027 23:32:32.318            19.265                Anadyr2           602.031
       415   03 Jun 2027 23:32:47.300   03 Jun 2027 23:33:13.245            25.945                Norilsk           810.781
       416   03 Jun 2027 23:33:25.655   03 Jun 2027 23:35:11.715           106.060               Magadan2          3314.375
       417   03 Jun 2027 23:35:39.635   03 Jun 2027 23:36:32.222            52.587               Magadan2          1643.344
       418   03 Jun 2027 23:36:39.544   03 Jun 2027 23:37:04.365            24.821                Irkutsk           775.656
       419   03 Jun 2027 23:38:22.653   03 Jun 2027 23:39:47.754            85.101                Novosib          2659.406
       420   03 Jun 2027 23:45:06.153   03 Jun 2027 23:45:20.086            13.933                Novosib           435.406
       421   03 Jun 2027 23:45:36.474   03 Jun 2027 23:46:26.581            50.107                Novosib          1565.844
       422   03 Jun 2027 23:48:12.356   03 Jun 2027 23:48:20.534             8.178                  Delhi           255.562
       423   03 Jun 2027 23:48:55.265   03 Jun 2027 23:48:58.736             3.471                  Delhi           108.469
       424   03 Jun 2027 23:49:45.171   03 Jun 2027 23:50:02.428            17.257                  Delhi           539.281
       425   03 Jun 2027 23:54:34.305   03 Jun 2027 23:54:57.221            22.916                  Delhi           716.125
       426   04 Jun 2027 00:27:46.212   04 Jun 2027 00:28:33.294            47.082            RioGallegos          1471.312
       427   04 Jun 2027 01:03:40.506   04 Jun 2027 01:04:15.881            35.375                Anadyr1          1105.469
       428   04 Jun 2027 01:04:39.640   04 Jun 2027 01:05:19.856            40.216                Anadyr2          1256.750
       429   04 Jun 2027 01:06:01.474   04 Jun 2027 01:06:25.578            24.104                Anadyr2           753.250
       430   04 Jun 2027 01:08:47.808   04 Jun 2027 01:08:58.128            10.320                Norilsk           322.500
       431   04 Jun 2027 01:09:09.477   04 Jun 2027 01:09:16.021             6.544                Anadyr2           204.500
       432   04 Jun 2027 01:09:16.344   04 Jun 2027 01:11:04.893           108.549               Magadan1          3392.156
       433   04 Jun 2027 01:11:04.893   04 Jun 2027 01:11:23.507            18.614               Magadan2           581.688
       434   04 Jun 2027 01:12:13.634   04 Jun 2027 01:14:06.693           113.059              Murmansk2          3533.094
       435   04 Jun 2027 01:14:43.145   04 Jun 2027 01:14:44.597             1.452                Novosib            45.375
       436   04 Jun 2027 01:15:05.254   04 Jun 2027 01:15:11.993             6.739              Murmansk1           210.594
       437   04 Jun 2027 01:16:07.770   04 Jun 2027 01:16:43.438            35.668                Irkutsk          1114.625
       438   04 Jun 2027 01:17:28.213   04 Jun 2027 01:17:56.975            28.762              Murmansk2           898.813
       439   04 Jun 2027 01:24:26.894   04 Jun 2027 01:24:52.584            25.690                  Delhi           802.812
       440   04 Jun 2027 01:30:34.104   04 Jun 2027 01:32:30.415           116.311                  Delhi          3634.719
       441   04 Jun 2027 02:02:34.705   04 Jun 2027 02:03:16.924            42.219            RioGallegos          1319.344
       442   04 Jun 2027 02:36:58.088   04 Jun 2027 02:37:22.722            24.634                Anadyr1           769.812
       443   04 Jun 2027 02:38:00.476   04 Jun 2027 02:38:17.644            17.168                Anadyr1           536.500
       444   04 Jun 2027 02:39:59.936   04 Jun 2027 02:40:03.229             3.293                Anadyr2           102.906
       445   04 Jun 2027 02:42:22.573   04 Jun 2027 02:43:10.470            47.897                Anadyr1          1496.781
       446   04 Jun 2027 02:43:21.437   04 Jun 2027 02:43:34.601            13.164               Magadan1           411.375
       447   04 Jun 2027 02:43:51.749   04 Jun 2027 02:44:40.739            48.990               Magadan1          1530.938
       448   04 Jun 2027 02:44:58.581   04 Jun 2027 02:44:59.100             0.519                Norilsk            16.219
       449   04 Jun 2027 02:46:55.830   04 Jun 2027 02:47:59.510            63.680              Murmansk1          1990.000
       450   04 Jun 2027 02:48:01.789   04 Jun 2027 02:48:31.778            29.989              Murmansk2           937.156
       451   04 Jun 2027 02:48:47.878   04 Jun 2027 02:49:33.439            45.561                Novosib          1423.781
       452   04 Jun 2027 02:50:12.841   04 Jun 2027 02:50:20.606             7.765                Novosib           242.656
       453   04 Jun 2027 02:52:00.082   04 Jun 2027 02:52:57.582            57.500                Novosib          1796.875
       454   04 Jun 2027 04:30:53.281   04 Jun 2027 04:32:29.109            95.828              Murmansk1          2994.625
       455   04 Jun 2027 04:32:50.701   04 Jun 2027 04:33:04.151            13.450              Murmansk2           420.312
       456   04 Jun 2027 04:33:09.876   04 Jun 2027 04:35:42.834           152.958              Murmansk2          4779.938
       457   04 Jun 2027 05:53:44.968   04 Jun 2027 05:56:36.558           171.590                Anadyr1          5362.187
       458   04 Jun 2027 07:31:11.801   04 Jun 2027 07:31:42.640            30.839                Anadyr2           963.719
       459   04 Jun 2027 07:31:56.405   04 Jun 2027 07:31:58.072             1.667                Anadyr2            52.094
       460   04 Jun 2027 07:32:02.880   04 Jun 2027 07:33:05.465            62.585               Magadan1          1955.781
       461   04 Jun 2027 07:33:05.465   04 Jun 2027 07:35:15.958           130.493               Magadan2          4077.906
       462   04 Jun 2027 09:04:35.125   04 Jun 2027 09:05:32.394            57.269               Magadan1          1789.656
       463   04 Jun 2027 09:05:32.507   04 Jun 2027 09:05:44.933            12.426               Magadan1           388.313
       464   04 Jun 2027 09:05:49.982   04 Jun 2027 09:05:53.185             3.203                Irkutsk           100.094
       465   04 Jun 2027 09:06:14.325   04 Jun 2027 09:06:18.005             3.680                Novosib           115.000
       466   04 Jun 2027 09:06:33.190   04 Jun 2027 09:07:13.221            40.031               Magadan2          1250.969
       467   04 Jun 2027 09:07:32.643   04 Jun 2027 09:09:30.576           117.933               Magadan1          3685.406
       468   04 Jun 2027 09:09:42.044   04 Jun 2027 09:10:10.963            28.919                Irkutsk           903.719
       469   04 Jun 2027 09:10:12.998   04 Jun 2027 09:10:37.335            24.337                Norilsk           760.531
       470   04 Jun 2027 09:10:48.541   04 Jun 2027 09:11:53.064            64.523              Murmansk2          2016.344
       471   04 Jun 2027 09:45:41.014   04 Jun 2027 09:46:09.365            28.351            RioGallegos           885.969
       472   04 Jun 2027 09:46:53.623   04 Jun 2027 09:47:45.945            52.322            RioGallegos          1635.062
       473   04 Jun 2027 10:21:23.467   04 Jun 2027 10:22:36.741            73.274                Sumatra          2289.812
       474   04 Jun 2027 10:41:16.820   04 Jun 2027 10:42:16.728            59.908                Norilsk          1872.125
       475   04 Jun 2027 10:42:20.417   04 Jun 2027 10:42:31.074            10.657                Norilsk           333.031
       476   04 Jun 2027 10:42:32.265   04 Jun 2027 10:43:13.785            41.520                Irkutsk          1297.500
       477   04 Jun 2027 10:43:17.371   04 Jun 2027 10:43:46.251            28.880                Irkutsk           902.500
       478   04 Jun 2027 10:43:48.120   04 Jun 2027 10:44:10.807            22.687                Norilsk           708.969
       479   04 Jun 2027 10:44:16.836   04 Jun 2027 10:44:26.852            10.016              Murmansk2           313.000
       480   04 Jun 2027 10:44:27.982   04 Jun 2027 10:44:52.198            24.216                Norilsk           756.750
       481   04 Jun 2027 10:45:12.228   04 Jun 2027 10:45:51.311            39.083                Irkutsk          1221.344
       482   04 Jun 2027 10:45:54.177   04 Jun 2027 10:46:46.605            52.428                Irkutsk          1638.375
