uniorb/output/strategy_1/Drop/Drop_KinoSat_111004.txt

KinoSat_111004
-------------------------
    Access    *     Start Time (UTCG)     *     Stop Time (UTCG)  *   Duration (s)        *       Station  *  Data (Mbytes)
         1   01 Jun 2027 03:38:03.974   01 Jun 2027 03:39:33.572            89.598                Anadyr1          2799.937
         2   01 Jun 2027 03:40:27.072   01 Jun 2027 03:41:43.973            76.901                Anadyr1          2403.156
         3   01 Jun 2027 05:14:31.492   01 Jun 2027 05:15:34.321            62.829                Anadyr1          1963.406
         4   01 Jun 2027 05:16:19.398   01 Jun 2027 05:19:19.434           180.036               Magadan2          5626.125
         5   01 Jun 2027 06:48:12.711   01 Jun 2027 06:50:02.873           110.162                Irkutsk          3442.562
         6   01 Jun 2027 06:50:10.825   01 Jun 2027 06:50:42.000            31.175                Anadyr1           974.219
         7   01 Jun 2027 06:50:42.000   01 Jun 2027 06:52:43.292           121.292                Anadyr2          3790.375
         8   01 Jun 2027 06:52:53.941   01 Jun 2027 06:53:14.196            20.255               Magadan2           632.969
         9   01 Jun 2027 06:53:14.406   01 Jun 2027 06:53:29.310            14.904                Anadyr2           465.750
        10   01 Jun 2027 06:53:29.310   01 Jun 2027 06:54:02.667            33.357                Anadyr1          1042.406
        11   01 Jun 2027 06:54:10.347   01 Jun 2027 06:54:33.853            23.506                Irkutsk           734.562
        12   01 Jun 2027 06:54:41.199   01 Jun 2027 06:56:21.743           100.544              Murmansk2          3142.000
        13   01 Jun 2027 07:30:09.985   01 Jun 2027 07:30:51.125            41.140            RioGallegos          1285.625
        14   01 Jun 2027 07:31:31.572   01 Jun 2027 07:32:50.081            78.509            RioGallegos          2453.406
        15   01 Jun 2027 08:25:46.128   01 Jun 2027 08:28:51.498           185.370               Magadan1          5792.813
        16   01 Jun 2027 08:28:59.366   01 Jun 2027 08:30:57.359           117.993              Murmansk2          3687.281
        17   01 Jun 2027 08:32:44.283   01 Jun 2027 08:32:49.714             5.431                Norilsk           169.719
        18   01 Jun 2027 08:32:58.838   01 Jun 2027 08:33:27.823            28.985                Norilsk           905.781
        19   01 Jun 2027 09:06:10.462   01 Jun 2027 09:06:45.796            35.334            RioGallegos          1104.187
        20   01 Jun 2027 09:06:57.685   01 Jun 2027 09:07:31.419            33.734            RioGallegos          1054.188
        21   01 Jun 2027 09:40:39.183   01 Jun 2027 09:41:04.718            25.535                Sumatra           797.969
        22   01 Jun 2027 09:44:15.299   01 Jun 2027 09:45:10.753            55.454                Sumatra          1732.937
        23   01 Jun 2027 09:50:05.084   01 Jun 2027 09:51:49.255           104.171                  Delhi          3255.344
        24   01 Jun 2027 10:02:33.787   01 Jun 2027 10:03:01.546            27.759                Norilsk           867.469
        25   01 Jun 2027 10:03:04.082   01 Jun 2027 10:03:40.515            36.433                 Moscow          1138.531
        26   01 Jun 2027 10:03:49.921   01 Jun 2027 10:05:54.094           124.173              Murmansk2          3880.406
        27   01 Jun 2027 10:06:00.293   01 Jun 2027 10:07:49.195           108.902              Murmansk1          3403.187
        28   01 Jun 2027 10:07:53.224   01 Jun 2027 10:08:11.089            17.865              Murmansk2           558.281
        29   01 Jun 2027 10:08:18.936   01 Jun 2027 10:08:44.496            25.560                 Moscow           798.750
        30   01 Jun 2027 11:25:10.057   01 Jun 2027 11:26:52.481           102.424                  Delhi          3200.750
        31   01 Jun 2027 11:29:48.650   01 Jun 2027 11:30:01.718            13.068                  Delhi           408.375
        32   01 Jun 2027 11:38:47.579   01 Jun 2027 11:40:21.329            93.750                Novosib          2929.688
        33   01 Jun 2027 11:40:40.534   01 Jun 2027 11:41:12.378            31.844                Novosib           995.125
        34   01 Jun 2027 11:41:25.533   01 Jun 2027 11:42:31.923            66.390                Novosib          2074.688
        35   01 Jun 2027 14:23:22.209   01 Jun 2027 14:25:31.090           128.881               CapeTown          4027.531
        36   01 Jun 2027 14:26:34.233   01 Jun 2027 14:28:00.832            86.599               CapeTown          2706.219
        37   01 Jun 2027 14:50:04.481   01 Jun 2027 14:50:21.159            16.678              Murmansk1           521.187
        38   01 Jun 2027 14:50:21.159   01 Jun 2027 14:52:20.803           119.644              Murmansk2          3738.875
        39   01 Jun 2027 14:54:09.294   01 Jun 2027 14:54:21.283            11.989              Murmansk2           374.656
        40   01 Jun 2027 15:03:36.200   01 Jun 2027 15:05:59.320           143.120                Anadyr1          4472.500
        41   01 Jun 2027 15:07:13.389   01 Jun 2027 15:08:24.880            71.491                Anadyr2          2234.094
        42   01 Jun 2027 15:58:49.683   01 Jun 2027 15:59:21.782            32.099               CapeTown          1003.094
        43   01 Jun 2027 16:07:28.217   01 Jun 2027 16:07:51.204            22.987               CapeTown           718.344
        44   01 Jun 2027 16:29:52.386   01 Jun 2027 16:33:25.848           213.462              Murmansk1          6670.688
        45   01 Jun 2027 16:39:15.125   01 Jun 2027 16:39:57.073            41.948                Anadyr1          1310.875
        46   01 Jun 2027 16:40:16.252   01 Jun 2027 16:40:56.021            39.769                Anadyr2          1242.781
        47   01 Jun 2027 16:40:58.069   01 Jun 2027 16:41:03.766             5.697                Anadyr2           178.031
        48   01 Jun 2027 16:42:21.232   01 Jun 2027 16:45:53.994           212.762               Magadan2          6648.813
        49   01 Jun 2027 16:47:06.356   01 Jun 2027 16:47:12.877             6.521               Magadan1           203.781
        50   01 Jun 2027 16:48:28.177   01 Jun 2027 16:48:34.315             6.138               Magadan1           191.812
        51   01 Jun 2027 18:15:10.452   01 Jun 2027 18:19:09.036           238.584                Anadyr2          7455.750
        52   01 Jun 2027 18:19:14.058   01 Jun 2027 18:20:25.891            71.833               Magadan2          2244.781
        53   01 Jun 2027 18:20:25.891   01 Jun 2027 18:20:49.613            23.722               Magadan1           741.312
        54   01 Jun 2027 18:20:55.037   01 Jun 2027 18:21:03.226             8.189               Magadan1           255.906
        55   01 Jun 2027 18:22:12.347   01 Jun 2027 18:23:09.573            57.226               Magadan1          1788.312
        56   01 Jun 2027 18:25:32.666   01 Jun 2027 18:25:43.676            11.010               Magadan2           344.062
        57   01 Jun 2027 18:26:49.957   01 Jun 2027 18:27:01.385            11.428               Magadan1           357.125
        58   01 Jun 2027 18:28:31.134   01 Jun 2027 18:28:38.815             7.681               Magadan2           240.031
        59   01 Jun 2027 18:28:47.441   01 Jun 2027 18:28:57.667            10.226               Magadan2           319.563
        60   01 Jun 2027 19:11:19.363   01 Jun 2027 19:13:57.871           158.508            RioGallegos          4953.375
        61   01 Jun 2027 19:15:23.722   01 Jun 2027 19:16:01.067            37.345            RioGallegos          1167.031
        62   01 Jun 2027 19:16:05.161   01 Jun 2027 19:17:06.439            61.278            RioGallegos          1914.938
        63   01 Jun 2027 19:53:09.801   01 Jun 2027 19:54:48.574            98.773                Norilsk          3086.656
        64   01 Jun 2027 19:55:18.791   01 Jun 2027 19:57:01.650           102.859                Norilsk          3214.344
        65   01 Jun 2027 19:58:03.359   01 Jun 2027 19:58:41.779            38.420                Irkutsk          1200.625
        66   01 Jun 2027 19:59:09.261   01 Jun 2027 19:59:58.140            48.879                Norilsk          1527.469
        67   01 Jun 2027 20:00:27.155   01 Jun 2027 20:01:22.547            55.392                Irkutsk          1731.000
        68   01 Jun 2027 20:01:39.394   01 Jun 2027 20:02:31.848            52.454                Irkutsk          1639.187
        69   01 Jun 2027 20:03:26.182   01 Jun 2027 20:03:49.210            23.028                Irkutsk           719.625
        70   01 Jun 2027 20:04:20.606   01 Jun 2027 20:04:35.551            14.945                Irkutsk           467.031
        71   01 Jun 2027 20:12:57.153   01 Jun 2027 20:15:19.970           142.817                Sumatra          4463.031
        72   01 Jun 2027 20:17:13.635   01 Jun 2027 20:18:47.131            93.496                Sumatra          2921.750
        73   01 Jun 2027 21:33:29.648   01 Jun 2027 21:35:06.241            96.593                Novosib          3018.531
        74   01 Jun 2027 21:35:45.692   01 Jun 2027 21:37:13.562            87.870                Novosib          2745.937
        75   01 Jun 2027 21:43:22.942   01 Jun 2027 21:45:57.364           154.422                  Delhi          4825.687
        76   01 Jun 2027 23:04:30.099   01 Jun 2027 23:05:28.254            58.155                Anadyr1          1817.344
        77   01 Jun 2027 23:05:36.698   01 Jun 2027 23:05:49.788            13.090                Norilsk           409.063
        78   01 Jun 2027 23:05:53.768   01 Jun 2027 23:06:03.162             9.394                Anadyr1           293.563
        79   01 Jun 2027 23:06:13.874   01 Jun 2027 23:06:30.330            16.456               Magadan2           514.250
        80   01 Jun 2027 23:07:01.464   01 Jun 2027 23:08:20.214            78.750               Magadan2          2460.938
        81   01 Jun 2027 23:08:30.461   01 Jun 2027 23:11:25.062           174.601              Murmansk2          5456.281
        82   01 Jun 2027 23:16:02.876   01 Jun 2027 23:16:53.995            51.119                  Delhi          1597.469
        83   01 Jun 2027 23:23:32.677   01 Jun 2027 23:24:42.271            69.594                  Delhi          2174.812
        84   01 Jun 2027 23:28:36.239   01 Jun 2027 23:28:50.134            13.895                  Delhi           434.219
        85   02 Jun 2027 00:33:38.606   02 Jun 2027 00:33:59.193            20.587                Anadyr2           643.344
        86   02 Jun 2027 00:34:34.351   02 Jun 2027 00:35:08.298            33.947                Anadyr2          1060.844
        87   02 Jun 2027 00:36:06.273   02 Jun 2027 00:36:47.469            41.196                Anadyr1          1287.375
        88   02 Jun 2027 00:38:32.799   02 Jun 2027 00:39:26.574            53.775                Anadyr1          1680.469
        89   02 Jun 2027 00:39:39.422   02 Jun 2027 00:40:36.863            57.441               Magadan1          1795.031
        90   02 Jun 2027 00:40:45.233   02 Jun 2027 00:40:57.200            11.967               Magadan1           373.969
        91   02 Jun 2027 00:43:05.714   02 Jun 2027 00:47:20.523           254.809              Murmansk1          7962.781
        92   02 Jun 2027 00:50:07.013   02 Jun 2027 00:50:31.381            24.368                 Moscow           761.500
        93   02 Jun 2027 00:52:56.459   02 Jun 2027 00:53:16.517            20.058                 Moscow           626.813
        94   02 Jun 2027 00:57:26.686   02 Jun 2027 00:57:32.724             6.038                 Moscow           188.688
        95   02 Jun 2027 01:12:54.263   02 Jun 2027 01:13:26.379            32.116               CapeTown          1003.625
        96   02 Jun 2027 01:14:17.251   02 Jun 2027 01:15:15.090            57.839               CapeTown          1807.469
        97   02 Jun 2027 01:16:23.935   02 Jun 2027 01:16:50.530            26.595               CapeTown           831.094
        98   02 Jun 2027 01:21:23.816   02 Jun 2027 01:21:47.796            23.980               CapeTown           749.375
        99   02 Jun 2027 02:07:29.802   02 Jun 2027 02:08:28.420            58.618                Anadyr1          1831.813
       100   02 Jun 2027 02:10:16.176   02 Jun 2027 02:10:35.473            19.297                Anadyr1           603.031
       101   02 Jun 2027 02:11:18.557   02 Jun 2027 02:12:29.687            71.130               Magadan1          2222.813
       102   02 Jun 2027 02:15:03.962   02 Jun 2027 02:15:21.468            17.506               Magadan2           547.062
       103   02 Jun 2027 02:16:26.500   02 Jun 2027 02:16:33.405             6.905                Norilsk           215.781
       104   02 Jun 2027 02:16:51.372   02 Jun 2027 02:16:51.916             0.544               Magadan1            17.000
       105   02 Jun 2027 02:17:28.675   02 Jun 2027 02:17:35.088             6.413               Magadan1           200.406
       106   02 Jun 2027 02:17:46.963   02 Jun 2027 02:18:15.117            28.154                Norilsk           879.813
       107   02 Jun 2027 02:19:01.005   02 Jun 2027 02:20:08.115            67.110              Murmansk2          2097.187
       108   02 Jun 2027 02:20:42.389   02 Jun 2027 02:20:50.249             7.860              Murmansk2           245.625
       109   02 Jun 2027 02:20:52.595   02 Jun 2027 02:21:35.693            43.098              Murmansk1          1346.812
       110   02 Jun 2027 02:24:37.326   02 Jun 2027 02:24:48.502            11.176                Novosib           349.250
       111   02 Jun 2027 02:25:54.247   02 Jun 2027 02:26:14.153            19.906                 Moscow           622.062
       112   02 Jun 2027 02:27:38.375   02 Jun 2027 02:27:41.473             3.098                Novosib            96.813
       113   02 Jun 2027 02:29:33.360   02 Jun 2027 02:30:16.247            42.887              Murmansk1          1340.219
       114   02 Jun 2027 02:33:46.033   02 Jun 2027 02:34:23.524            37.491                 Moscow          1171.594
       115   02 Jun 2027 02:50:28.910   02 Jun 2027 02:50:51.049            22.139               CapeTown           691.844
       116   02 Jun 2027 02:52:17.529   02 Jun 2027 02:52:28.041            10.512               CapeTown           328.500
       117   02 Jun 2027 02:55:06.766   02 Jun 2027 02:55:38.739            31.973               CapeTown           999.156
       118   02 Jun 2027 03:49:12.120   02 Jun 2027 03:50:04.952            52.832                Anadyr2          1651.000
       119   02 Jun 2027 03:50:21.382   02 Jun 2027 03:52:47.871           146.489                Anadyr2          4577.781
       120   02 Jun 2027 03:52:49.389   02 Jun 2027 03:53:56.443            67.054               Magadan1          2095.437
       121   02 Jun 2027 03:54:12.343   02 Jun 2027 03:54:19.757             7.414                Anadyr2           231.687
       122   02 Jun 2027 03:54:38.837   02 Jun 2027 03:55:18.445            39.608               Magadan2          1237.750
       123   02 Jun 2027 05:27:20.187   02 Jun 2027 05:28:05.021            44.834               Magadan1          1401.062
       124   02 Jun 2027 05:28:15.768   02 Jun 2027 05:30:08.184           112.416                Anadyr1          3513.000
       125   02 Jun 2027 05:30:08.184   02 Jun 2027 05:30:23.567            15.383                Anadyr2           480.719
       126   02 Jun 2027 07:00:37.534   02 Jun 2027 07:01:21.704            44.170                Irkutsk          1380.312
       127   02 Jun 2027 07:01:34.355   02 Jun 2027 07:03:11.073            96.718                Novosib          3022.437
       128   02 Jun 2027 07:03:13.914   02 Jun 2027 07:04:30.717            76.803                Irkutsk          2400.094
       129   02 Jun 2027 07:04:38.404   02 Jun 2027 07:05:01.582            23.178               Magadan1           724.312
       130   02 Jun 2027 07:05:12.539   02 Jun 2027 07:07:40.530           147.991                Norilsk          4624.719
       131   02 Jun 2027 07:08:12.059   02 Jun 2027 07:09:02.654            50.595              Murmansk2          1581.094
       132   02 Jun 2027 07:10:22.120   02 Jun 2027 07:10:52.000            29.880              Murmansk1           933.750
       133   02 Jun 2027 07:42:00.420   02 Jun 2027 07:43:26.805            86.385            RioGallegos          2699.531
       134   02 Jun 2027 07:44:59.926   02 Jun 2027 07:45:07.143             7.217            RioGallegos           225.531
       135   02 Jun 2027 07:47:05.255   02 Jun 2027 07:47:30.160            24.905            RioGallegos           778.281
       136   02 Jun 2027 08:18:33.117   02 Jun 2027 08:19:30.108            56.991                Sumatra          1780.969
       137   02 Jun 2027 08:20:45.820   02 Jun 2027 08:21:10.189            24.369                Sumatra           761.531
       138   02 Jun 2027 08:38:25.253   02 Jun 2027 08:38:28.522             3.269                Norilsk           102.156
       139   02 Jun 2027 08:38:33.756   02 Jun 2027 08:40:57.474           143.718                Norilsk          4491.188
       140   02 Jun 2027 08:41:10.224   02 Jun 2027 08:45:29.663           259.439                Norilsk          8107.469
       141   02 Jun 2027 09:18:28.916   02 Jun 2027 09:19:34.302            65.386            RioGallegos          2043.312
       142   02 Jun 2027 09:52:49.796   02 Jun 2027 09:54:18.653            88.857                Sumatra          2776.781
       143   02 Jun 2027 10:02:33.621   02 Jun 2027 10:03:09.729            36.108                  Delhi          1128.375
       144   02 Jun 2027 10:03:39.519   02 Jun 2027 10:04:08.367            28.848                  Delhi           901.500
       145   02 Jun 2027 10:14:33.438   02 Jun 2027 10:16:03.487            90.049                Irkutsk          2814.031
       146   02 Jun 2027 10:16:40.964   02 Jun 2027 10:17:20.298            39.334                Novosib          1229.188
       147   02 Jun 2027 10:17:30.651   02 Jun 2027 10:17:55.482            24.831              Murmansk1           775.969
       148   02 Jun 2027 10:17:55.482   02 Jun 2027 10:18:41.412            45.930              Murmansk2          1435.313
       149   02 Jun 2027 10:18:56.178   02 Jun 2027 10:19:13.524            17.346                 Moscow           542.062
       150   02 Jun 2027 10:19:47.225   02 Jun 2027 10:20:18.664            31.439              Murmansk2           982.469
       151   02 Jun 2027 11:37:31.445   02 Jun 2027 11:41:34.864           243.419                  Delhi          7606.844
       152   02 Jun 2027 11:51:50.290   02 Jun 2027 11:54:45.185           174.895              Murmansk1          5465.469
       153   02 Jun 2027 11:54:45.185   02 Jun 2027 11:55:16.151            30.966              Murmansk2           967.688
       154   02 Jun 2027 11:55:26.037   02 Jun 2027 11:55:34.872             8.835                 Moscow           276.094
       155   02 Jun 2027 13:21:16.521   02 Jun 2027 13:24:19.515           182.994                 Moscow          5718.563
       156   02 Jun 2027 13:24:47.906   02 Jun 2027 13:29:03.435           255.529              Murmansk1          7985.281
       157   02 Jun 2027 13:30:29.765   02 Jun 2027 13:31:20.108            50.343                Norilsk          1573.219
       158   02 Jun 2027 13:32:45.593   02 Jun 2027 13:33:58.477            72.884                Norilsk          2277.625
       159   02 Jun 2027 13:36:05.319   02 Jun 2027 13:37:08.138            62.819              Murmansk1          1963.094
       160   02 Jun 2027 13:42:00.883   02 Jun 2027 13:43:55.550           114.667                Anadyr1          3583.344
       161   02 Jun 2027 14:36:24.065   02 Jun 2027 14:37:17.615            53.550               CapeTown          1673.437
       162   02 Jun 2027 14:38:45.516   02 Jun 2027 14:38:53.691             8.175               CapeTown           255.469
       163   02 Jun 2027 14:41:20.056   02 Jun 2027 14:42:06.867            46.811               CapeTown          1462.844
       164   02 Jun 2027 14:42:46.776   02 Jun 2027 14:43:32.685            45.909               CapeTown          1434.656
       165   02 Jun 2027 14:44:34.646   02 Jun 2027 14:45:54.631            79.985               CapeTown          2499.531
       166   02 Jun 2027 15:05:42.267   02 Jun 2027 15:06:07.941            25.674                 Moscow           802.313
       167   02 Jun 2027 15:06:16.109   02 Jun 2027 15:06:35.019            18.910              Murmansk2           590.937
       168   02 Jun 2027 15:07:30.348   02 Jun 2027 15:07:33.011             2.663              Murmansk1            83.219
       169   02 Jun 2027 15:07:50.670   02 Jun 2027 15:08:52.112            61.442              Murmansk2          1920.063
       170   02 Jun 2027 15:09:40.297   02 Jun 2027 15:09:47.757             7.460              Murmansk1           233.125
       171   02 Jun 2027 15:09:56.038   02 Jun 2027 15:10:21.083            25.045              Murmansk2           782.656
       172   02 Jun 2027 15:11:37.087   02 Jun 2027 15:13:33.783           116.696              Murmansk2          3646.750
       173   02 Jun 2027 15:16:21.422   02 Jun 2027 15:16:38.903            17.481                Anadyr2           546.281
       174   02 Jun 2027 15:17:04.631   02 Jun 2027 15:17:53.079            48.448                Anadyr1          1514.000
       175   02 Jun 2027 15:19:01.820   02 Jun 2027 15:19:24.835            23.015                Anadyr1           719.219
       176   02 Jun 2027 15:19:56.065   02 Jun 2027 15:21:07.888            71.823                Anadyr1          2244.469
       177   02 Jun 2027 15:21:23.308   02 Jun 2027 15:21:37.706            14.398                Anadyr1           449.938
       178   02 Jun 2027 15:22:17.468   02 Jun 2027 15:22:20.029             2.561                Anadyr2            80.031
       179   02 Jun 2027 15:22:47.640   02 Jun 2027 15:24:05.411            77.771                Anadyr1          2430.344
       180   02 Jun 2027 15:24:05.411   02 Jun 2027 15:24:31.492            26.081                Anadyr2           815.031
       181   02 Jun 2027 15:25:05.848   02 Jun 2027 15:25:38.164            32.316                Anadyr1          1009.875
       182   02 Jun 2027 15:25:55.207   02 Jun 2027 15:26:12.155            16.948                Anadyr2           529.625
       183   02 Jun 2027 16:42:50.020   02 Jun 2027 16:43:12.715            22.695              Murmansk2           709.219
       184   02 Jun 2027 16:44:02.361   02 Jun 2027 16:44:39.938            37.577              Murmansk2          1174.281
       185   02 Jun 2027 16:45:23.216   02 Jun 2027 16:45:54.808            31.592              Murmansk1           987.250
       186   02 Jun 2027 16:46:49.636   02 Jun 2027 16:47:03.269            13.633              Murmansk1           426.031
       187   02 Jun 2027 16:47:31.614   02 Jun 2027 16:47:54.658            23.044              Murmansk1           720.125
       188   02 Jun 2027 16:48:45.455   02 Jun 2027 16:48:58.603            13.148              Murmansk2           410.875
       189   02 Jun 2027 16:52:12.674   02 Jun 2027 16:52:37.311            24.637                Anadyr1           769.906
       190   02 Jun 2027 16:52:58.004   02 Jun 2027 16:53:09.858            11.854                Anadyr2           370.437
       191   02 Jun 2027 16:53:55.510   02 Jun 2027 16:54:26.661            31.151                Anadyr1           973.469
       192   02 Jun 2027 16:54:28.317   02 Jun 2027 16:56:13.706           105.389               Magadan2          3293.406
       193   02 Jun 2027 16:56:49.332   02 Jun 2027 16:58:16.021            86.689               Magadan2          2709.031
       194   02 Jun 2027 17:01:20.648   02 Jun 2027 17:01:43.735            23.087                Anadyr1           721.469
       195   02 Jun 2027 17:02:13.055   02 Jun 2027 17:02:31.074            18.019               Magadan1           563.094
       196   02 Jun 2027 17:02:31.074   02 Jun 2027 17:03:11.240            40.166               Magadan2          1255.188
       197   02 Jun 2027 17:03:48.984   02 Jun 2027 17:03:57.771             8.787               Magadan1           274.594
       198   02 Jun 2027 17:04:05.816   02 Jun 2027 17:04:06.721             0.905                Anadyr1            28.281
       199   02 Jun 2027 18:27:11.703   02 Jun 2027 18:29:02.402           110.699                Anadyr2          3459.344
       200   02 Jun 2027 18:29:29.342   02 Jun 2027 18:31:40.642           131.300               Magadan1          4103.125
       201   02 Jun 2027 18:32:09.883   02 Jun 2027 18:32:35.302            25.419               Magadan2           794.344
       202   02 Jun 2027 18:33:13.963   02 Jun 2027 18:33:43.002            29.039                Anadyr1           907.469
       203   02 Jun 2027 18:34:01.164   02 Jun 2027 18:34:50.443            49.279               Magadan1          1539.969
       204   02 Jun 2027 18:35:59.622   02 Jun 2027 18:36:31.275            31.653               Magadan1           989.156
       205   02 Jun 2027 18:37:07.815   02 Jun 2027 18:37:42.304            34.489                Anadyr1          1077.781
       206   02 Jun 2027 18:37:59.426   02 Jun 2027 18:38:16.393            16.967               Magadan2           530.219
       207   02 Jun 2027 18:38:31.114   02 Jun 2027 18:38:35.022             3.908               Magadan2           122.125
       208   02 Jun 2027 18:39:04.104   02 Jun 2027 18:40:11.208            67.104               Magadan1          2097.000
       209   02 Jun 2027 18:41:00.334   02 Jun 2027 18:41:11.995            11.661               Magadan1           364.406
       210   02 Jun 2027 18:41:52.761   02 Jun 2027 18:42:17.179            24.418               Magadan2           763.063
       211   02 Jun 2027 19:22:40.847   02 Jun 2027 19:23:35.576            54.729            RioGallegos          1710.281
       212   02 Jun 2027 19:25:42.870   02 Jun 2027 19:27:29.510           106.640            RioGallegos          3332.500
       213   02 Jun 2027 19:28:23.176   02 Jun 2027 19:29:19.068            55.892            RioGallegos          1746.625
       214   02 Jun 2027 20:06:26.699   02 Jun 2027 20:06:50.450            23.751                Norilsk           742.219
       215   02 Jun 2027 20:07:40.811   02 Jun 2027 20:08:06.358            25.547                Norilsk           798.344
       216   02 Jun 2027 20:09:08.514   02 Jun 2027 20:09:38.928            30.414                Norilsk           950.438
       217   02 Jun 2027 20:10:08.825   02 Jun 2027 20:10:39.010            30.185                Irkutsk           943.281
       218   02 Jun 2027 20:11:33.710   02 Jun 2027 20:12:44.093            70.383                Irkutsk          2199.469
       219   02 Jun 2027 20:14:48.184   02 Jun 2027 20:15:00.103            11.919                Irkutsk           372.469
       220   02 Jun 2027 20:15:33.128   02 Jun 2027 20:16:45.452            72.324                Irkutsk          2260.125
       221   02 Jun 2027 20:16:48.872   02 Jun 2027 20:19:03.469           134.597                Irkutsk          4206.156
       222   02 Jun 2027 20:28:06.839   02 Jun 2027 20:29:33.548            86.709                Sumatra          2709.656
       223   02 Jun 2027 20:33:55.636   02 Jun 2027 20:34:27.468            31.832                Sumatra           994.750
       224   02 Jun 2027 21:41:45.143   02 Jun 2027 21:42:12.780            27.637                Norilsk           863.656
       225   02 Jun 2027 21:44:10.127   02 Jun 2027 21:44:17.221             7.094               Magadan1           221.688
       226   02 Jun 2027 21:44:40.571   02 Jun 2027 21:44:52.728            12.157               Magadan2           379.906
       227   02 Jun 2027 21:45:02.839   02 Jun 2027 21:45:13.327            10.488               Magadan1           327.750
       228   02 Jun 2027 21:45:19.857   02 Jun 2027 21:46:09.055            49.198                Novosib          1537.437
       229   02 Jun 2027 21:47:40.585   02 Jun 2027 21:48:05.526            24.941                Irkutsk           779.406
       230   02 Jun 2027 21:49:09.771   02 Jun 2027 21:49:19.684             9.913                Novosib           309.781
       231   02 Jun 2027 21:49:37.728   02 Jun 2027 21:52:01.867           144.139                Irkutsk          4504.344
       232   02 Jun 2027 21:54:20.267   02 Jun 2027 21:55:30.762            70.495                  Delhi          2202.969
       233   02 Jun 2027 21:58:12.748   02 Jun 2027 21:59:21.571            68.823                  Delhi          2150.719
       234   02 Jun 2027 23:13:14.665   02 Jun 2027 23:13:41.060            26.395                Anadyr1           824.844
       235   02 Jun 2027 23:14:13.885   02 Jun 2027 23:14:34.175            20.290                Anadyr1           634.063
       236   02 Jun 2027 23:15:33.149   02 Jun 2027 23:16:31.357            58.208                Anadyr1          1819.000
       237   02 Jun 2027 23:16:56.949   02 Jun 2027 23:17:31.286            34.337                Norilsk          1073.031
       238   02 Jun 2027 23:17:31.387   02 Jun 2027 23:18:04.617            33.230               Magadan2          1038.437
       239   02 Jun 2027 23:18:35.194   02 Jun 2027 23:18:43.768             8.574                Norilsk           267.938
       240   02 Jun 2027 23:19:40.234   02 Jun 2027 23:23:00.451           200.217              Murmansk1          6256.781
       241   02 Jun 2027 23:23:27.868   02 Jun 2027 23:25:17.614           109.746              Murmansk1          3429.562
       242   02 Jun 2027 23:36:53.525   02 Jun 2027 23:37:12.272            18.747                  Delhi           585.844
       243   02 Jun 2027 23:37:28.430   02 Jun 2027 23:37:36.346             7.916                  Delhi           247.375
       244   02 Jun 2027 23:38:57.570   02 Jun 2027 23:39:46.386            48.816                  Delhi          1525.500
       245   03 Jun 2027 00:45:20.929   03 Jun 2027 00:45:37.612            16.683                Anadyr1           521.344
       246   03 Jun 2027 00:46:32.355   03 Jun 2027 00:47:19.917            47.562                Anadyr2          1486.312
       247   03 Jun 2027 00:49:30.318   03 Jun 2027 00:50:03.373            33.055                Anadyr1          1032.969
       248   03 Jun 2027 00:50:56.462   03 Jun 2027 00:51:09.348            12.886                Anadyr2           402.687
       249   03 Jun 2027 00:51:11.561   03 Jun 2027 00:52:31.929            80.368               Magadan1          2511.500
       250   03 Jun 2027 00:52:31.929   03 Jun 2027 00:52:47.711            15.782               Magadan2           493.187
       251   03 Jun 2027 00:53:16.183   03 Jun 2027 00:53:33.399            17.216               Magadan2           538.000
       252   03 Jun 2027 00:53:50.229   03 Jun 2027 00:54:56.331            66.102               Magadan2          2065.688
       253   03 Jun 2027 00:56:14.331   03 Jun 2027 00:56:23.788             9.457              Murmansk1           295.531
       254   03 Jun 2027 00:56:54.380   03 Jun 2027 00:57:46.590            52.210              Murmansk2          1631.563
       255   03 Jun 2027 01:00:13.564   03 Jun 2027 01:00:59.041            45.477                 Moscow          1421.156
       256   03 Jun 2027 01:04:32.221   03 Jun 2027 01:05:25.778            53.557              Murmansk1          1673.656
       257   03 Jun 2027 01:08:54.829   03 Jun 2027 01:09:18.918            24.089                 Moscow           752.781
       258   03 Jun 2027 01:09:51.505   03 Jun 2027 01:09:59.996             8.491                 Moscow           265.344
       259   03 Jun 2027 01:26:52.833   03 Jun 2027 01:28:04.048            71.215               CapeTown          2225.469
       260   03 Jun 2027 01:31:55.823   03 Jun 2027 01:33:19.069            83.246               CapeTown          2601.437
       261   03 Jun 2027 02:20:45.638   03 Jun 2027 02:21:50.584            64.946                Anadyr1          2029.562
       262   03 Jun 2027 02:23:33.478   03 Jun 2027 02:24:02.042            28.564               Magadan2           892.625
       263   03 Jun 2027 02:24:32.355   03 Jun 2027 02:24:59.290            26.935               Magadan1           841.719
       264   03 Jun 2027 02:27:22.712   03 Jun 2027 02:27:48.415            25.703               Magadan2           803.219
       265   03 Jun 2027 02:28:13.280   03 Jun 2027 02:28:16.303             3.023               Magadan1            94.469
       266   03 Jun 2027 02:28:23.329   03 Jun 2027 02:28:32.189             8.860                Norilsk           276.875
       267   03 Jun 2027 02:28:59.316   03 Jun 2027 02:29:39.259            39.943                Norilsk          1248.219
       268   03 Jun 2027 02:31:22.945   03 Jun 2027 02:31:51.099            28.154              Murmansk1           879.813
       269   03 Jun 2027 02:33:42.693   03 Jun 2027 02:34:12.600            29.907              Murmansk2           934.594
       270   03 Jun 2027 02:35:26.587   03 Jun 2027 02:36:11.272            44.685                 Moscow          1396.406
       271   03 Jun 2027 02:39:07.928   03 Jun 2027 02:39:19.608            11.680                Novosib           365.000
       272   03 Jun 2027 02:40:21.805   03 Jun 2027 02:40:38.654            16.849              Murmansk2           526.531
       273   03 Jun 2027 02:41:41.539   03 Jun 2027 02:41:43.755             2.216                 Moscow            69.250
       274   03 Jun 2027 02:42:05.425   03 Jun 2027 02:42:12.576             7.151                 Moscow           223.469
       275   03 Jun 2027 02:42:15.021   03 Jun 2027 02:42:28.025            13.004              Murmansk2           406.375
       276   03 Jun 2027 02:43:12.527   03 Jun 2027 02:43:51.087            38.560                 Moscow          1205.000
       277   03 Jun 2027 02:46:49.661   03 Jun 2027 02:47:07.688            18.027                 Moscow           563.344
       278   03 Jun 2027 03:06:50.611   03 Jun 2027 03:07:03.175            12.564               CapeTown           392.625
       279   03 Jun 2027 03:08:00.110   03 Jun 2027 03:08:32.988            32.878               CapeTown          1027.437
       280   03 Jun 2027 03:09:46.719   03 Jun 2027 03:10:50.403            63.684               CapeTown          1990.125
       281   03 Jun 2027 04:01:30.320   03 Jun 2027 04:07:20.053           349.733               Magadan2         10929.156
       282   03 Jun 2027 04:07:20.053   03 Jun 2027 04:07:25.335             5.282               Magadan1           165.063
       283   03 Jun 2027 05:39:12.575   03 Jun 2027 05:41:04.177           111.602                Irkutsk          3487.562
       284   03 Jun 2027 05:41:18.826   03 Jun 2027 05:41:58.095            39.269                Anadyr2          1227.156
       285   03 Jun 2027 05:42:06.385   03 Jun 2027 05:42:47.740            41.355               Magadan1          1292.344
       286   03 Jun 2027 07:14:20.448   03 Jun 2027 07:14:30.700            10.252                Irkutsk           320.375
       287   03 Jun 2027 07:14:35.569   03 Jun 2027 07:14:50.133            14.564                Novosib           455.125
       288   03 Jun 2027 07:15:01.058   03 Jun 2027 07:17:08.803           127.745                Irkutsk          3992.031
       289   03 Jun 2027 07:17:13.587   03 Jun 2027 07:17:34.351            20.764                Norilsk           648.875
       290   03 Jun 2027 07:17:39.591   03 Jun 2027 07:18:54.827            75.236                Irkutsk          2351.125
       291   03 Jun 2027 07:18:55.464   03 Jun 2027 07:19:46.603            51.139                Novosib          1598.094
       292   03 Jun 2027 07:21:29.404   03 Jun 2027 07:21:51.680            22.276                Norilsk           696.125
       293   03 Jun 2027 07:22:44.291   03 Jun 2027 07:23:27.619            43.328                Norilsk          1354.000
       294   03 Jun 2027 07:54:37.225   03 Jun 2027 07:55:30.152            52.927            RioGallegos          1653.969
       295   03 Jun 2027 08:00:11.962   03 Jun 2027 08:00:28.714            16.752            RioGallegos           523.500
       296   03 Jun 2027 08:01:01.053   03 Jun 2027 08:01:04.990             3.937            RioGallegos           123.031
       297   03 Jun 2027 08:29:55.566   03 Jun 2027 08:31:45.066           109.500                Sumatra          3421.875
       298   03 Jun 2027 08:35:40.809   03 Jun 2027 08:36:46.190            65.381                Sumatra          2043.156
       299   03 Jun 2027 08:50:49.391   03 Jun 2027 08:52:12.336            82.945                Norilsk          2592.031
       300   03 Jun 2027 08:52:21.000   03 Jun 2027 08:55:26.762           185.762                Norilsk          5805.062
       301   03 Jun 2027 08:55:34.305   03 Jun 2027 08:56:40.851            66.546              Murmansk1          2079.562
       302   03 Jun 2027 08:58:01.051   03 Jun 2027 08:58:35.433            34.382                Norilsk          1074.438
       303   03 Jun 2027 09:30:51.987   03 Jun 2027 09:31:40.256            48.269            RioGallegos          1508.406
       304   03 Jun 2027 09:33:02.432   03 Jun 2027 09:33:44.879            42.447            RioGallegos          1326.469
       305   03 Jun 2027 10:05:07.019   03 Jun 2027 10:06:33.020            86.001                Sumatra          2687.531
       306   03 Jun 2027 10:08:15.349   03 Jun 2027 10:09:36.611            81.262                Sumatra          2539.437
       307   03 Jun 2027 10:26:46.265   03 Jun 2027 10:27:22.739            36.474                Irkutsk          1139.813
       308   03 Jun 2027 10:27:47.759   03 Jun 2027 10:27:58.619            10.860                Irkutsk           339.375
       309   03 Jun 2027 10:28:00.548   03 Jun 2027 10:28:41.506            40.958                Norilsk          1279.937
       310   03 Jun 2027 10:28:42.598   03 Jun 2027 10:29:12.786            30.188                Novosib           943.375
       311   03 Jun 2027 10:29:15.794   03 Jun 2027 10:29:57.204            41.410                 Moscow          1294.063
       312   03 Jun 2027 10:30:02.785   03 Jun 2027 10:30:35.891            33.106                Novosib          1034.563
       313   03 Jun 2027 10:30:51.042   03 Jun 2027 10:31:27.630            36.588              Murmansk1          1143.375
       314   03 Jun 2027 11:50:00.882   03 Jun 2027 11:53:14.730           193.848                  Delhi          6057.750
       315   03 Jun 2027 11:53:52.895   03 Jun 2027 11:54:57.863            64.968                  Delhi          2030.250
       316   03 Jun 2027 12:10:22.700   03 Jun 2027 12:10:50.207            27.507                Norilsk           859.594
       317   03 Jun 2027 12:12:16.556   03 Jun 2027 12:12:44.823            28.267              Murmansk1           883.344
       318   03 Jun 2027 13:33:24.093   03 Jun 2027 13:35:09.126           105.033                 Moscow          3282.281
       319   03 Jun 2027 13:36:55.497   03 Jun 2027 13:39:31.259           155.762              Murmansk2          4867.562
       320   03 Jun 2027 13:40:03.264   03 Jun 2027 13:40:56.594            53.330              Murmansk2          1666.563
       321   03 Jun 2027 13:41:20.363   03 Jun 2027 13:41:36.699            16.336              Murmansk2           510.500
       322   03 Jun 2027 13:42:49.817   03 Jun 2027 13:43:22.339            32.522              Murmansk2          1016.313
       323   03 Jun 2027 13:43:33.833   03 Jun 2027 13:43:41.860             8.027                Norilsk           250.844
       324   03 Jun 2027 13:44:23.026   03 Jun 2027 13:44:50.233            27.207                Norilsk           850.219
       325   03 Jun 2027 13:45:58.331   03 Jun 2027 13:46:04.564             6.233                Norilsk           194.781
       326   03 Jun 2027 13:46:22.431   03 Jun 2027 13:46:43.707            21.276                Norilsk           664.875
       327   03 Jun 2027 13:53:03.811   03 Jun 2027 13:55:24.600           140.789                Anadyr2          4399.656
       328   03 Jun 2027 13:56:05.584   03 Jun 2027 13:57:31.437            85.853                Anadyr2          2682.906
       329   03 Jun 2027 15:14:49.330   03 Jun 2027 15:15:20.941            31.611              Murmansk1           987.844
       330   03 Jun 2027 15:17:51.207   03 Jun 2027 15:18:08.427            17.220              Murmansk2           538.125
       331   03 Jun 2027 15:18:36.195   03 Jun 2027 15:19:32.802            56.607              Murmansk1          1768.969
       332   03 Jun 2027 15:25:08.360   03 Jun 2027 15:25:34.258            25.898              Murmansk1           809.312
       333   03 Jun 2027 15:27:31.013   03 Jun 2027 15:28:39.104            68.091                Anadyr2          2127.844
       334   03 Jun 2027 15:28:48.752   03 Jun 2027 15:29:07.835            19.083                Anadyr1           596.344
       335   03 Jun 2027 15:32:56.548   03 Jun 2027 15:33:38.595            42.047                Anadyr1          1313.969
       336   03 Jun 2027 15:34:18.798   03 Jun 2027 15:35:50.030            91.232                Anadyr2          2851.000
       337   03 Jun 2027 16:55:30.781   03 Jun 2027 16:57:56.744           145.963              Murmansk1          4561.344
       338   03 Jun 2027 16:58:22.514   03 Jun 2027 16:59:32.167            69.653              Murmansk2          2176.656
       339   03 Jun 2027 17:03:17.615   03 Jun 2027 17:03:40.798            23.183                Anadyr1           724.469
       340   03 Jun 2027 17:04:57.554   03 Jun 2027 17:05:56.584            59.030                Anadyr2          1844.688
       341   03 Jun 2027 17:06:02.536   03 Jun 2027 17:06:30.276            27.740               Magadan2           866.875
       342   03 Jun 2027 17:06:45.571   03 Jun 2027 17:07:02.711            17.140               Magadan2           535.625
       343   03 Jun 2027 17:07:20.819   03 Jun 2027 17:08:13.867            53.048               Magadan2          1657.750
       344   03 Jun 2027 18:39:12.816   03 Jun 2027 18:43:10.288           237.472                Anadyr2          7421.000
       345   03 Jun 2027 18:43:26.332   03 Jun 2027 18:45:13.542           107.210               Magadan2          3350.312
       346   03 Jun 2027 18:46:50.641   03 Jun 2027 18:47:13.930            23.289               Magadan1           727.781
       347   03 Jun 2027 18:49:59.978   03 Jun 2027 18:50:12.147            12.169               Magadan1           380.281
       348   03 Jun 2027 18:53:02.958   03 Jun 2027 18:53:29.813            26.855               Magadan1           839.219
       349   03 Jun 2027 19:34:15.271   03 Jun 2027 19:37:17.498           182.227            RioGallegos          5694.594
       350   03 Jun 2027 19:38:48.717   03 Jun 2027 19:39:36.293            47.576            RioGallegos          1486.750
       351   03 Jun 2027 19:40:47.141   03 Jun 2027 19:40:52.093             4.952            RioGallegos           154.750
       352   03 Jun 2027 20:14:56.144   03 Jun 2027 20:15:18.233            22.089                Anadyr2           690.281
       353   03 Jun 2027 20:17:06.226   03 Jun 2027 20:21:02.039           235.813                Norilsk          7369.156
       354   03 Jun 2027 20:21:33.640   03 Jun 2027 20:22:04.590            30.950                Irkutsk           967.187
       355   03 Jun 2027 20:22:23.335   03 Jun 2027 20:22:50.660            27.325                Irkutsk           853.906
       356   03 Jun 2027 20:25:15.501   03 Jun 2027 20:26:42.242            86.741                Irkutsk          2710.656
       357   03 Jun 2027 20:35:40.887   03 Jun 2027 20:36:59.391            78.504                Sumatra          2453.250
       358   03 Jun 2027 20:41:46.454   03 Jun 2027 20:42:19.917            33.463                Sumatra          1045.719
       359   03 Jun 2027 21:53:35.505   03 Jun 2027 21:53:53.620            18.115               Magadan1           566.094
       360   03 Jun 2027 21:54:28.725   03 Jun 2027 21:54:56.360            27.635               Magadan2           863.594
       361   03 Jun 2027 21:55:42.390   03 Jun 2027 21:56:43.474            61.084                Norilsk          1908.875
       362   03 Jun 2027 21:57:12.491   03 Jun 2027 21:57:58.501            46.010                Novosib          1437.812
       363   03 Jun 2027 21:58:39.287   03 Jun 2027 22:00:01.668            82.381                Novosib          2574.406
       364   03 Jun 2027 22:04:27.095   03 Jun 2027 22:06:42.467           135.372                Novosib          4230.375
       365   03 Jun 2027 22:08:11.077   03 Jun 2027 22:08:36.159            25.082                  Delhi           783.812
       366   03 Jun 2027 23:26:50.558   03 Jun 2027 23:26:53.537             2.979                Anadyr1            93.094
       367   03 Jun 2027 23:26:57.126   03 Jun 2027 23:27:14.542            17.416                Anadyr2           544.250
       368   03 Jun 2027 23:28:32.501   03 Jun 2027 23:29:09.363            36.862                Anadyr2          1151.938
       369   03 Jun 2027 23:29:22.979   03 Jun 2027 23:31:29.195           126.216               Magadan2          3944.250
       370   03 Jun 2027 23:31:32.797   03 Jun 2027 23:33:51.322           138.525              Murmansk2          4328.906
       371   03 Jun 2027 23:34:27.660   03 Jun 2027 23:35:18.761            51.101              Murmansk1          1596.906
       372   03 Jun 2027 23:37:18.333   03 Jun 2027 23:37:31.611            13.278              Murmansk2           414.938
       373   03 Jun 2027 23:46:27.861   03 Jun 2027 23:47:30.004            62.143                  Delhi          1941.969
       374   03 Jun 2027 23:50:02.428   03 Jun 2027 23:51:38.656            96.228                  Delhi          3007.125
       375   04 Jun 2027 00:57:03.989   04 Jun 2027 00:57:18.958            14.969                Anadyr1           467.781
       376   04 Jun 2027 00:58:30.957   04 Jun 2027 00:59:13.977            43.020                Anadyr2          1344.375
       377   04 Jun 2027 01:00:08.902   04 Jun 2027 01:00:18.668             9.766                Anadyr1           305.187
       378   04 Jun 2027 01:02:41.555   04 Jun 2027 01:04:44.179           122.624               Magadan1          3832.000
       379   04 Jun 2027 01:05:45.660   04 Jun 2027 01:05:52.177             6.517               Magadan1           203.656
       380   04 Jun 2027 01:06:12.719   04 Jun 2027 01:06:27.880            15.161               Magadan1           473.781
       381   04 Jun 2027 01:07:07.123   04 Jun 2027 01:08:46.812            99.689              Murmansk1          3115.281
       382   04 Jun 2027 01:08:49.639   04 Jun 2027 01:08:55.477             5.838              Murmansk1           182.438
       383   04 Jun 2027 01:09:38.534   04 Jun 2027 01:09:48.260             9.726              Murmansk1           303.938
       384   04 Jun 2027 01:10:39.403   04 Jun 2027 01:12:02.944            83.541                Novosib          2610.656
       385   04 Jun 2027 01:21:56.210   04 Jun 2027 01:22:07.312            11.102                 Moscow           346.937
       386   04 Jun 2027 01:35:38.390   04 Jun 2027 01:36:42.191            63.801               CapeTown          1993.781
       387   04 Jun 2027 01:45:31.856   04 Jun 2027 01:46:00.835            28.979               CapeTown           905.594
       388   04 Jun 2027 01:46:15.752   04 Jun 2027 01:46:31.152            15.400               CapeTown           481.250
       389   04 Jun 2027 02:31:14.235   04 Jun 2027 02:32:26.760            72.525                Anadyr2          2266.406
       390   04 Jun 2027 02:33:42.765   04 Jun 2027 02:33:48.756             5.991                Anadyr1           187.219
       391   04 Jun 2027 02:34:21.392   04 Jun 2027 02:35:46.328            84.936               Magadan2          2654.250
       392   04 Jun 2027 02:37:05.393   04 Jun 2027 02:37:09.165             3.772               Magadan1           117.875
       393   04 Jun 2027 02:39:43.203   04 Jun 2027 02:40:06.666            23.463               Magadan2           733.219
       394   04 Jun 2027 02:42:16.911   04 Jun 2027 02:42:28.462            11.551                Norilsk           360.969
       395   04 Jun 2027 02:43:04.525   04 Jun 2027 02:43:12.825             8.300              Murmansk1           259.375
       396   04 Jun 2027 02:43:15.947   04 Jun 2027 02:44:40.177            84.230              Murmansk2          2632.187
       397   04 Jun 2027 02:44:53.322   04 Jun 2027 02:45:17.667            24.345              Murmansk2           760.781
       398   04 Jun 2027 02:46:05.164   04 Jun 2027 02:46:19.347            14.183                Novosib           443.219
       399   04 Jun 2027 02:48:07.276   04 Jun 2027 02:49:02.331            55.055                 Moscow          1720.469
       400   04 Jun 2027 03:11:01.605   04 Jun 2027 03:11:12.295            10.690               CapeTown           334.062
       401   04 Jun 2027 03:13:14.798   04 Jun 2027 03:13:32.234            17.436               CapeTown           544.875
       402   04 Jun 2027 03:14:56.674   04 Jun 2027 03:15:09.916            13.242               CapeTown           413.812
       403   04 Jun 2027 04:13:32.484   04 Jun 2027 04:15:30.089           117.605               Magadan1          3675.156
       404   04 Jun 2027 04:15:36.536   04 Jun 2027 04:16:48.968            72.432               Magadan1          2263.500
       405   04 Jun 2027 04:17:00.167   04 Jun 2027 04:17:52.977            52.810                Anadyr1          1650.313
       406   04 Jun 2027 05:51:08.618   04 Jun 2027 05:52:37.449            88.831                Anadyr2          2775.969
       407   04 Jun 2027 05:53:28.295   04 Jun 2027 05:53:31.949             3.654               Magadan2           114.187
       408   04 Jun 2027 05:54:19.460   04 Jun 2027 05:55:26.249            66.789               Magadan1          2087.156
       409   04 Jun 2027 07:26:42.888   04 Jun 2027 07:29:17.362           154.474                Novosib          4827.312
       410   04 Jun 2027 07:29:23.890   04 Jun 2027 07:30:37.003            73.113               Magadan1          2284.781
       411   04 Jun 2027 07:30:40.303   04 Jun 2027 07:31:01.157            20.854                Irkutsk           651.688
       412   04 Jun 2027 08:05:50.846   04 Jun 2027 08:06:00.358             9.512            RioGallegos           297.250
       413   04 Jun 2027 08:07:27.663   04 Jun 2027 08:07:42.068            14.405            RioGallegos           450.156
       414   04 Jun 2027 08:08:11.316   04 Jun 2027 08:08:23.110            11.794            RioGallegos           368.563
       415   04 Jun 2027 08:41:28.434   04 Jun 2027 08:42:19.274            50.840                Sumatra          1588.750
       416   04 Jun 2027 08:43:13.383   04 Jun 2027 08:44:07.462            54.079                Sumatra          1689.969
       417   04 Jun 2027 09:01:25.337   04 Jun 2027 09:02:14.596            49.259                Irkutsk          1539.344
       418   04 Jun 2027 09:02:44.506   04 Jun 2027 09:03:42.727            58.221                Irkutsk          1819.406
       419   04 Jun 2027 09:03:44.769   04 Jun 2027 09:04:04.028            19.259                Norilsk           601.844
       420   04 Jun 2027 09:04:22.177   04 Jun 2027 09:04:52.856            30.679                Norilsk           958.719
       421   04 Jun 2027 09:04:58.695   04 Jun 2027 09:05:10.843            12.148              Murmansk1           379.625
       422   04 Jun 2027 09:05:10.843   04 Jun 2027 09:05:36.844            26.001              Murmansk2           812.531
       423   04 Jun 2027 09:05:39.985   04 Jun 2027 09:06:04.408            24.423              Murmansk2           763.219
       424   04 Jun 2027 09:06:14.165   04 Jun 2027 09:06:14.325             0.160                Novosib             5.000
       425   04 Jun 2027 09:06:18.005   04 Jun 2027 09:07:11.057            53.052                Novosib          1657.875
       426   04 Jun 2027 09:43:20.277   04 Jun 2027 09:43:49.805            29.528            RioGallegos           922.750
       427   04 Jun 2027 09:44:31.106   04 Jun 2027 09:45:07.397            36.291            RioGallegos          1134.094
       428   04 Jun 2027 10:17:32.227   04 Jun 2027 10:18:30.795            58.568                Sumatra          1830.250
       429   04 Jun 2027 10:25:08.376   04 Jun 2027 10:26:23.960            75.584                  Delhi          2362.000
       430   04 Jun 2027 10:38:42.010   04 Jun 2027 10:38:59.500            17.490              Murmansk1           546.563
       431   04 Jun 2027 10:39:17.163   04 Jun 2027 10:39:31.938            14.775                 Moscow           461.719
       432   04 Jun 2027 10:39:35.933   04 Jun 2027 10:40:23.996            48.063              Murmansk1          1501.969
       433   04 Jun 2027 10:40:33.915   04 Jun 2027 10:40:44.628            10.713                Norilsk           334.781
       434   04 Jun 2027 10:40:48.447   04 Jun 2027 10:41:10.486            22.039              Murmansk2           688.719
       435   04 Jun 2027 10:41:13.310   04 Jun 2027 10:41:52.630            39.320                Irkutsk          1228.750
       436   04 Jun 2027 10:41:58.557   04 Jun 2027 10:42:00.519             1.962              Murmansk1            61.312
       437   04 Jun 2027 10:42:14.552   04 Jun 2027 10:42:35.362            20.810                Novosib           650.313
       438   04 Jun 2027 10:42:36.903   04 Jun 2027 10:42:47.109            10.206                Norilsk           318.937
       439   04 Jun 2027 10:42:51.820   04 Jun 2027 10:43:38.255            46.435              Murmansk1          1451.094
       440   04 Jun 2027 12:02:40.697   04 Jun 2027 12:04:37.919           117.222                  Delhi          3663.188
       441   04 Jun 2027 12:09:47.128   04 Jun 2027 12:10:10.395            23.267                 Moscow           727.094
       442   04 Jun 2027 12:11:07.299   04 Jun 2027 12:12:15.387            68.088                 Moscow          2127.750
       443   04 Jun 2027 12:12:30.648   04 Jun 2027 12:12:32.208             1.560                Novosib            48.750
       444   04 Jun 2027 12:12:51.006   04 Jun 2027 12:13:31.339            40.333              Murmansk2          1260.406
       445   04 Jun 2027 12:15:39.574   04 Jun 2027 12:16:01.056            21.482                Norilsk           671.312
       446   04 Jun 2027 12:18:34.314   04 Jun 2027 12:18:48.536            14.222              Murmansk1           444.437
       447   04 Jun 2027 12:20:06.864   04 Jun 2027 12:20:13.598             6.734              Murmansk2           210.438
       448   04 Jun 2027 12:20:38.632   04 Jun 2027 12:20:52.035            13.403              Murmansk1           418.844
       449   04 Jun 2027 12:22:01.833   04 Jun 2027 12:22:24.533            22.700              Murmansk1           709.375
       450   04 Jun 2027 13:45:34.879   04 Jun 2027 13:47:07.158            92.279                 Moscow          2883.719
       451   04 Jun 2027 13:49:04.852   04 Jun 2027 13:52:41.373           216.521              Murmansk2          6766.281
       452   04 Jun 2027 13:52:51.970   04 Jun 2027 13:53:21.685            29.715              Murmansk1           928.594
       453   04 Jun 2027 13:55:57.228   04 Jun 2027 13:56:05.033             7.805              Murmansk1           243.906
       454   04 Jun 2027 13:57:16.967   04 Jun 2027 13:57:45.564            28.597              Murmansk1           893.656
       455   04 Jun 2027 14:00:42.765   04 Jun 2027 14:01:40.907            58.142              Murmansk1          1816.938
       456   04 Jun 2027 14:04:37.664   04 Jun 2027 14:06:14.485            96.821                Anadyr2          3025.656
       457   04 Jun 2027 14:06:34.984   04 Jun 2027 14:07:59.655            84.671                Anadyr1          2645.969
       458   04 Jun 2027 14:09:32.435   04 Jun 2027 14:09:44.871            12.436                Anadyr2           388.625
       459   04 Jun 2027 15:08:17.854   04 Jun 2027 15:08:25.550             7.696               CapeTown           240.500
       460   04 Jun 2027 15:27:15.332   04 Jun 2027 15:28:18.409            63.077              Murmansk2          1971.156
       461   04 Jun 2027 15:28:18.985   04 Jun 2027 15:28:52.017            33.032              Murmansk1          1032.250
       462   04 Jun 2027 15:31:53.506   04 Jun 2027 15:32:11.145            17.639              Murmansk1           551.219
       463   04 Jun 2027 15:36:27.614   04 Jun 2027 15:37:12.374            44.760              Murmansk2          1398.750
       464   04 Jun 2027 15:39:29.684   04 Jun 2027 15:41:37.962           128.278                Anadyr1          4008.688
       465   04 Jun 2027 16:38:42.946   04 Jun 2027 16:39:25.207            42.261               CapeTown          1320.656
       466   04 Jun 2027 17:08:33.143   04 Jun 2027 17:11:31.591           178.448              Murmansk1          5576.500
       467   04 Jun 2027 17:15:18.653   04 Jun 2027 17:16:56.660            98.007                Anadyr2          3062.719
       468   04 Jun 2027 17:17:56.540   04 Jun 2027 17:18:59.706            63.166               Magadan1          1973.938
       469   04 Jun 2027 17:19:12.833   04 Jun 2027 17:19:22.985            10.152               Magadan1           317.250
       470   04 Jun 2027 17:20:10.758   04 Jun 2027 17:21:42.916            92.158               Magadan2          2879.938
       471   04 Jun 2027 18:51:13.755   04 Jun 2027 18:53:05.452           111.697                Anadyr1          3490.531
       472   04 Jun 2027 18:53:30.580   04 Jun 2027 18:58:02.243           271.663               Magadan2          8489.469
       473   04 Jun 2027 19:45:56.899   04 Jun 2027 19:48:21.089           144.190            RioGallegos          4505.937
       474   04 Jun 2027 19:49:23.175   04 Jun 2027 19:50:55.778            92.603            RioGallegos          2893.844
       475   04 Jun 2027 20:29:31.679   04 Jun 2027 20:31:09.229            97.550               Magadan2          3048.438
       476   04 Jun 2027 20:31:24.622   04 Jun 2027 20:31:34.381             9.759               Magadan2           304.969
       477   04 Jun 2027 20:31:49.340   04 Jun 2027 20:31:53.021             3.681               Magadan2           115.031
       478   04 Jun 2027 20:32:25.174   04 Jun 2027 20:33:02.893            37.719                Norilsk          1178.719
       479   04 Jun 2027 20:33:24.103   04 Jun 2027 20:36:30.093           185.990                Irkutsk          5812.187
       480   04 Jun 2027 20:36:57.388   04 Jun 2027 20:37:41.194            43.806                Novosib          1368.937
       481   04 Jun 2027 20:48:16.262   04 Jun 2027 20:49:25.095            68.833                Sumatra          2151.031
       482   04 Jun 2027 20:51:32.773   04 Jun 2027 20:52:19.789            47.016                Sumatra          1469.250
