uniorb/output/strategy_1/Drop/Drop_KinoSat_111609.txt

KinoSat_111609
-------------------------
    Access    *     Start Time (UTCG)     *     Stop Time (UTCG)  *   Duration (s)        *       Station  *  Data (Mbytes)
         1   01 Jun 2027 04:15:24.580   01 Jun 2027 04:16:28.153            63.573                Norilsk          1986.656
         2   01 Jun 2027 04:16:51.538   01 Jun 2027 04:17:50.347            58.809                Norilsk          1837.781
         3   01 Jun 2027 04:18:11.548   01 Jun 2027 04:19:21.035            69.487                Novosib          2171.469
         4   01 Jun 2027 04:19:21.934   01 Jun 2027 04:20:15.365            53.431              Murmansk1          1669.719
         5   01 Jun 2027 04:20:48.343   01 Jun 2027 04:23:56.834           188.491                 Moscow          5890.344
         6   01 Jun 2027 04:35:38.764   01 Jun 2027 04:42:01.141           382.377               CapeTown         11949.281
         7   01 Jun 2027 04:42:09.678   01 Jun 2027 04:42:46.135            36.457               CapeTown          1139.281
         8   01 Jun 2027 04:43:43.570   01 Jun 2027 04:45:02.814            79.244               CapeTown          2476.375
         9   01 Jun 2027 05:40:53.399   01 Jun 2027 05:43:00.149           126.750               Magadan2          3960.938
        10   01 Jun 2027 05:43:02.277   01 Jun 2027 05:43:15.714            13.437                Anadyr1           419.906
        11   01 Jun 2027 05:51:05.785   01 Jun 2027 05:55:01.079           235.294                 Moscow          7352.938
        12   01 Jun 2027 05:55:31.632   01 Jun 2027 05:57:00.319            88.687              Murmansk1          2771.469
        13   01 Jun 2027 05:57:36.402   01 Jun 2027 05:59:00.090            83.688                 Moscow          2615.250
        14   01 Jun 2027 06:12:28.045   01 Jun 2027 06:13:10.454            42.409               CapeTown          1325.281
        15   01 Jun 2027 07:15:37.272   01 Jun 2027 07:20:45.691           308.419                Anadyr1          9638.094
        16   01 Jun 2027 07:27:04.433   01 Jun 2027 07:27:05.239             0.806                 Moscow            25.187
        17   01 Jun 2027 07:27:52.501   01 Jun 2027 07:27:53.890             1.389                 Moscow            43.406
        18   01 Jun 2027 08:01:02.069   01 Jun 2027 08:01:16.263            14.194            RioGallegos           443.562
        19   01 Jun 2027 08:49:01.574   01 Jun 2027 08:49:21.418            19.844                Anadyr1           620.125
        20   01 Jun 2027 08:49:57.313   01 Jun 2027 08:52:32.787           155.474                Anadyr2          4858.563
        21   01 Jun 2027 08:52:32.787   01 Jun 2027 08:56:08.188           215.401                Anadyr1          6731.281
        22   01 Jun 2027 10:26:33.636   01 Jun 2027 10:27:56.304            82.668               Magadan1          2583.375
        23   01 Jun 2027 10:27:56.304   01 Jun 2027 10:31:18.119           201.815               Magadan2          6306.719
        24   01 Jun 2027 10:32:37.929   01 Jun 2027 10:33:18.724            40.795                Novosib          1274.844
        25   01 Jun 2027 11:06:51.550   01 Jun 2027 11:07:22.917            31.367            RioGallegos           980.219
        26   01 Jun 2027 11:08:05.027   01 Jun 2027 11:08:58.768            53.741            RioGallegos          1679.406
        27   01 Jun 2027 11:42:25.359   01 Jun 2027 11:44:02.923            97.564                Sumatra          3048.875
        28   01 Jun 2027 12:52:29.936   01 Jun 2027 12:53:39.339            69.403            RioGallegos          2168.844
        29   01 Jun 2027 13:25:13.291   01 Jun 2027 13:26:44.097            90.806                Sumatra          2837.688
        30   01 Jun 2027 13:39:04.987   01 Jun 2027 13:41:27.794           142.807                Irkutsk          4462.719
        31   01 Jun 2027 15:09:11.513   01 Jun 2027 15:10:06.128            54.615                  Delhi          1706.719
        32   01 Jun 2027 15:15:03.179   01 Jun 2027 15:18:31.835           208.656                Novosib          6520.500
        33   01 Jun 2027 15:22:12.022   01 Jun 2027 15:22:16.199             4.177                Norilsk           130.531
        34   01 Jun 2027 16:32:24.999   01 Jun 2027 16:34:12.861           107.862               CapeTown          3370.688
        35   01 Jun 2027 16:55:15.543   01 Jun 2027 16:55:59.968            44.425                 Moscow          1388.281
        36   01 Jun 2027 16:56:51.687   01 Jun 2027 16:57:29.023            37.336              Murmansk1          1166.750
        37   01 Jun 2027 16:58:41.166   01 Jun 2027 16:58:49.755             8.589                 Moscow           268.406
        38   01 Jun 2027 16:58:53.720   01 Jun 2027 16:59:17.824            24.104              Murmansk2           753.250
        39   01 Jun 2027 17:00:33.044   01 Jun 2027 17:00:37.079             4.035              Murmansk1           126.094
        40   01 Jun 2027 17:00:47.901   01 Jun 2027 17:01:33.714            45.813              Murmansk2          1431.656
        41   01 Jun 2027 17:07:38.509   01 Jun 2027 17:07:45.961             7.452                Anadyr1           232.875
        42   01 Jun 2027 17:08:00.822   01 Jun 2027 17:08:09.052             8.230                Anadyr1           257.188
        43   01 Jun 2027 17:08:27.001   01 Jun 2027 17:08:36.929             9.928                Anadyr1           310.250
        44   01 Jun 2027 17:08:54.434   01 Jun 2027 17:09:40.871            46.437                Anadyr1          1451.156
        45   01 Jun 2027 17:11:05.692   01 Jun 2027 17:11:18.980            13.288                Anadyr2           415.250
        46   01 Jun 2027 17:11:20.251   01 Jun 2027 17:12:00.647            40.396                Anadyr2          1262.375
        47   01 Jun 2027 17:13:25.803   01 Jun 2027 17:13:31.099             5.296                Anadyr1           165.500
        48   01 Jun 2027 18:08:10.359   01 Jun 2027 18:08:12.660             2.301               CapeTown            71.906
        49   01 Jun 2027 18:09:15.876   01 Jun 2027 18:11:32.019           136.143               CapeTown          4254.469
        50   01 Jun 2027 18:29:37.704   01 Jun 2027 18:29:52.276            14.572              Murmansk2           455.375
        51   01 Jun 2027 18:30:32.657   01 Jun 2027 18:30:54.941            22.284              Murmansk1           696.375
        52   01 Jun 2027 18:32:30.507   01 Jun 2027 18:32:50.979            20.472              Murmansk1           639.750
        53   01 Jun 2027 18:32:50.979   01 Jun 2027 18:34:47.551           116.572              Murmansk2          3642.875
        54   01 Jun 2027 18:35:44.709   01 Jun 2027 18:36:06.988            22.279              Murmansk2           696.219
        55   01 Jun 2027 18:47:49.767   01 Jun 2027 18:48:10.988            21.221               Magadan1           663.156
        56   01 Jun 2027 18:48:48.328   01 Jun 2027 18:49:29.771            41.443               Magadan1          1295.094
        57   01 Jun 2027 19:38:10.489   01 Jun 2027 19:39:30.515            80.026               CapeTown          2500.812
        58   01 Jun 2027 19:42:43.967   01 Jun 2027 19:42:47.168             3.201               CapeTown           100.031
        59   01 Jun 2027 19:43:36.635   01 Jun 2027 19:44:02.117            25.482               CapeTown           796.313
        60   01 Jun 2027 20:16:16.959   01 Jun 2027 20:19:36.013           199.054                Anadyr1          6220.438
        61   01 Jun 2027 20:19:37.745   01 Jun 2027 20:19:46.618             8.873               Magadan2           277.281
        62   01 Jun 2027 20:20:45.778   01 Jun 2027 20:22:13.505            87.727               Magadan2          2741.469
        63   01 Jun 2027 20:23:31.664   01 Jun 2027 20:24:08.912            37.248               Magadan2          1164.000
        64   01 Jun 2027 20:26:32.582   01 Jun 2027 20:27:09.105            36.523               Magadan1          1141.344
        65   01 Jun 2027 20:28:35.130   01 Jun 2027 20:29:17.794            42.664               Magadan2          1333.250
        66   01 Jun 2027 21:52:10.572   01 Jun 2027 21:54:14.586           124.014                Anadyr1          3875.437
        67   01 Jun 2027 21:54:18.946   01 Jun 2027 21:55:51.405            92.459                Anadyr2          2889.344
        68   01 Jun 2027 21:55:57.692   01 Jun 2027 21:56:14.307            16.615                Norilsk           519.219
        69   01 Jun 2027 21:56:15.907   01 Jun 2027 21:56:48.327            32.420               Magadan1          1013.125
        70   01 Jun 2027 21:57:05.511   01 Jun 2027 21:58:18.956            73.445               Magadan2          2295.156
        71   01 Jun 2027 21:59:42.327   01 Jun 2027 22:00:05.365            23.038               Magadan2           719.937
        72   01 Jun 2027 22:00:38.014   01 Jun 2027 22:00:49.159            11.145               Magadan2           348.281
        73   01 Jun 2027 22:01:13.506   01 Jun 2027 22:01:15.452             1.946               Magadan1            60.813
        74   01 Jun 2027 22:01:19.675   01 Jun 2027 22:01:37.107            17.432               Magadan2           544.750
        75   01 Jun 2027 22:01:38.271   01 Jun 2027 22:01:45.921             7.650                Irkutsk           239.062
        76   01 Jun 2027 22:02:40.549   01 Jun 2027 22:02:56.893            16.344                Irkutsk           510.750
        77   01 Jun 2027 22:06:44.677   01 Jun 2027 22:06:53.599             8.922               Magadan1           278.813
        78   01 Jun 2027 22:46:22.979   01 Jun 2027 22:46:59.724            36.745            RioGallegos          1148.281
        79   01 Jun 2027 22:47:24.582   01 Jun 2027 22:47:39.425            14.843            RioGallegos           463.844
        80   01 Jun 2027 22:47:55.045   01 Jun 2027 22:48:01.711             6.666            RioGallegos           208.312
        81   01 Jun 2027 22:50:39.802   01 Jun 2027 22:51:27.304            47.502            RioGallegos          1484.437
        82   01 Jun 2027 22:53:29.535   01 Jun 2027 22:54:11.115            41.580            RioGallegos          1299.375
        83   01 Jun 2027 22:55:52.134   01 Jun 2027 22:56:13.002            20.868            RioGallegos           652.125
        84   01 Jun 2027 23:27:41.097   01 Jun 2027 23:28:21.778            40.681                Anadyr1          1271.281
        85   01 Jun 2027 23:28:30.127   01 Jun 2027 23:29:58.922            88.795                Anadyr1          2774.844
        86   01 Jun 2027 23:30:34.306   01 Jun 2027 23:31:21.001            46.695               Magadan2          1459.219
        87   01 Jun 2027 23:31:43.198   01 Jun 2027 23:32:02.160            18.962               Magadan1           592.563
        88   01 Jun 2027 23:32:53.746   01 Jun 2027 23:34:05.640            71.894               Magadan2          2246.688
        89   01 Jun 2027 23:34:43.471   01 Jun 2027 23:35:05.270            21.799                Irkutsk           681.219
        90   01 Jun 2027 23:35:45.837   01 Jun 2027 23:36:02.007            16.170                Novosib           505.313
        91   01 Jun 2027 23:37:57.105   01 Jun 2027 23:38:18.134            21.029                Novosib           657.156
        92   01 Jun 2027 23:40:10.429   01 Jun 2027 23:40:26.825            16.396                Novosib           512.375
        93   01 Jun 2027 23:40:46.260   01 Jun 2027 23:41:44.729            58.469                Novosib          1827.156
        94   01 Jun 2027 23:44:57.811   01 Jun 2027 23:45:11.003            13.192                Irkutsk           412.250
        95   01 Jun 2027 23:56:01.723   01 Jun 2027 23:57:18.624            76.901                Sumatra          2403.156
        96   02 Jun 2027 00:27:40.970   02 Jun 2027 00:27:44.141             3.171            RioGallegos            99.094
        97   02 Jun 2027 00:27:48.288   02 Jun 2027 00:27:52.535             4.247            RioGallegos           132.719
        98   02 Jun 2027 00:28:31.979   02 Jun 2027 00:29:40.462            68.483            RioGallegos          2140.094
        99   02 Jun 2027 00:33:42.030   02 Jun 2027 00:34:26.756            44.726            RioGallegos          1397.688
       100   02 Jun 2027 01:02:41.415   02 Jun 2027 01:03:13.989            32.574                Anadyr2          1017.937
       101   02 Jun 2027 01:04:23.452   02 Jun 2027 01:04:53.011            29.559                Anadyr1           923.719
       102   02 Jun 2027 01:04:53.011   02 Jun 2027 01:04:53.171             0.160                Anadyr2             5.000
       103   02 Jun 2027 01:05:59.732   02 Jun 2027 01:07:41.832           102.100                Norilsk          3190.625
       104   02 Jun 2027 01:08:22.171   02 Jun 2027 01:08:38.292            16.121               Magadan1           503.781
       105   02 Jun 2027 01:09:21.269   02 Jun 2027 01:09:45.727            24.458                Norilsk           764.313
       106   02 Jun 2027 01:09:53.694   02 Jun 2027 01:10:57.306            63.612                Novosib          1987.875
       107   02 Jun 2027 01:12:43.171   02 Jun 2027 01:12:44.440             1.269                Novosib            39.656
       108   02 Jun 2027 01:12:48.934   02 Jun 2027 01:13:30.670            41.736                Irkutsk          1304.250
       109   02 Jun 2027 01:17:33.474   02 Jun 2027 01:17:58.467            24.993                Novosib           781.031
       110   02 Jun 2027 01:18:10.705   02 Jun 2027 01:18:18.027             7.322                Novosib           228.812
       111   02 Jun 2027 01:19:03.053   02 Jun 2027 01:20:01.715            58.662                Novosib          1833.188
       112   02 Jun 2027 01:25:10.618   02 Jun 2027 01:26:10.903            60.285                  Delhi          1883.906
       113   02 Jun 2027 01:27:32.984   02 Jun 2027 01:28:18.754            45.770                Sumatra          1430.312
       114   02 Jun 2027 02:00:54.524   02 Jun 2027 02:00:56.773             2.249            RioGallegos            70.281
       115   02 Jun 2027 02:01:41.430   02 Jun 2027 02:02:18.777            37.347            RioGallegos          1167.094
       116   02 Jun 2027 02:04:24.485   02 Jun 2027 02:04:55.638            31.153            RioGallegos           973.531
       117   02 Jun 2027 02:35:36.555   02 Jun 2027 02:35:51.035            14.480                Anadyr2           452.500
       118   02 Jun 2027 02:38:22.314   02 Jun 2027 02:38:35.774            13.460                Anadyr2           420.625
       119   02 Jun 2027 02:40:41.149   02 Jun 2027 02:41:04.691            23.542                Anadyr1           735.687
       120   02 Jun 2027 02:41:41.612   02 Jun 2027 02:41:58.453            16.841                Anadyr2           526.281
       121   02 Jun 2027 02:42:17.605   02 Jun 2027 02:43:30.268            72.663                Norilsk          2270.719
       122   02 Jun 2027 02:44:14.809   02 Jun 2027 02:45:06.170            51.361              Murmansk2          1605.031
       123   02 Jun 2027 02:45:34.091   02 Jun 2027 02:46:08.102            34.011              Murmansk1          1062.844
       124   02 Jun 2027 02:46:23.656   02 Jun 2027 02:47:01.621            37.965                Novosib          1186.406
       125   02 Jun 2027 02:47:39.395   02 Jun 2027 02:48:09.406            30.011                Irkutsk           937.844
       126   02 Jun 2027 02:51:58.049   02 Jun 2027 02:52:15.765            17.716                Irkutsk           553.625
       127   02 Jun 2027 02:53:46.544   02 Jun 2027 02:54:21.856            35.312                  Delhi          1103.500
       128   02 Jun 2027 02:57:20.275   02 Jun 2027 02:57:52.926            32.651                  Delhi          1020.344
       129   02 Jun 2027 04:27:15.851   02 Jun 2027 04:28:22.187            66.336                Norilsk          2073.000
       130   02 Jun 2027 04:28:25.022   02 Jun 2027 04:29:27.196            62.174                Norilsk          1942.938
       131   02 Jun 2027 04:29:37.168   02 Jun 2027 04:30:48.574            71.406                Novosib          2231.437
       132   02 Jun 2027 04:31:23.656   02 Jun 2027 04:32:29.389            65.733              Murmansk1          2054.156
       133   02 Jun 2027 04:32:53.502   02 Jun 2027 04:36:07.036           193.534                 Moscow          6047.938
       134   02 Jun 2027 04:47:26.363   02 Jun 2027 04:49:04.184            97.821               CapeTown          3056.906
       135   02 Jun 2027 04:49:35.025   02 Jun 2027 04:50:21.309            46.284               CapeTown          1446.375
       136   02 Jun 2027 04:51:31.218   02 Jun 2027 04:53:40.137           128.919               CapeTown          4028.719
       137   02 Jun 2027 05:50:36.164   02 Jun 2027 05:51:44.286            68.122               Magadan1          2128.813
       138   02 Jun 2027 05:54:17.096   02 Jun 2027 05:54:47.085            29.989                Anadyr2           937.156
       139   02 Jun 2027 05:54:47.085   02 Jun 2027 05:55:03.531            16.446                Anadyr1           513.937
       140   02 Jun 2027 05:55:11.218   02 Jun 2027 05:55:49.176            37.958                Anadyr1          1186.188
       141   02 Jun 2027 05:55:51.734   02 Jun 2027 05:55:58.003             6.269                Anadyr2           195.906
       142   02 Jun 2027 06:03:05.470   02 Jun 2027 06:08:03.276           297.806              Murmansk2          9306.437
       143   02 Jun 2027 06:08:29.748   02 Jun 2027 06:09:00.798            31.050              Murmansk2           970.313
       144   02 Jun 2027 07:27:04.002   02 Jun 2027 07:30:00.490           176.488                Anadyr2          5515.250
       145   02 Jun 2027 07:30:24.366   02 Jun 2027 07:31:27.405            63.039               Magadan2          1969.969
       146   02 Jun 2027 07:31:55.145   02 Jun 2027 07:31:56.022             0.877               Magadan2            27.406
       147   02 Jun 2027 09:00:23.403   02 Jun 2027 09:01:36.985            73.582               Magadan2          2299.438
       148   02 Jun 2027 09:01:39.086   02 Jun 2027 09:07:58.124           379.038                Anadyr1         11844.938
       149   02 Jun 2027 10:38:33.573   02 Jun 2027 10:42:58.831           265.258               Magadan1          8289.312
       150   02 Jun 2027 10:43:40.534   02 Jun 2027 10:44:16.981            36.447                Novosib          1138.969
       151   02 Jun 2027 15:27:02.529   02 Jun 2027 15:27:14.189            11.660              Murmansk1           364.375
       152   02 Jun 2027 15:27:19.280   02 Jun 2027 15:27:29.249             9.969              Murmansk1           311.531
       153   02 Jun 2027 15:27:33.226   02 Jun 2027 15:28:07.066            33.840                 Moscow          1057.500
       154   02 Jun 2027 15:28:18.411   02 Jun 2027 15:29:05.767            47.356                 Moscow          1479.875
       155   02 Jun 2027 15:29:34.830   02 Jun 2027 15:31:19.533           104.703                Norilsk          3271.969
       156   02 Jun 2027 15:33:01.685   02 Jun 2027 15:33:14.148            12.463                Norilsk           389.469
       157   02 Jun 2027 15:33:47.513   02 Jun 2027 15:36:50.666           183.153                Norilsk          5723.531
       158   02 Jun 2027 17:03:14.117   02 Jun 2027 17:03:15.138             1.021              Murmansk2            31.906
       159   02 Jun 2027 17:03:33.008   02 Jun 2027 17:04:30.760            57.752                 Moscow          1804.750
       160   02 Jun 2027 17:06:03.772   02 Jun 2027 17:06:28.741            24.969                 Moscow           780.281
       161   02 Jun 2027 17:08:50.919   02 Jun 2027 17:09:34.856            43.937              Murmansk1          1373.031
       162   02 Jun 2027 17:10:20.218   02 Jun 2027 17:10:55.787            35.569              Murmansk2          1111.531
       163   02 Jun 2027 17:17:46.083   02 Jun 2027 17:18:09.027            22.944                Anadyr1           717.000
       164   02 Jun 2027 17:19:17.781   02 Jun 2027 17:19:24.407             6.626                Anadyr1           207.063
       165   02 Jun 2027 17:19:45.758   02 Jun 2027 17:20:24.042            38.284                Anadyr1          1196.375
       166   02 Jun 2027 17:22:41.379   02 Jun 2027 17:23:03.964            22.585                Anadyr2           705.781
       167   02 Jun 2027 17:23:03.964   02 Jun 2027 17:23:22.896            18.932                Anadyr1           591.625
       168   02 Jun 2027 17:24:52.363   02 Jun 2027 17:25:15.054            22.691                Anadyr2           709.094
       169   02 Jun 2027 17:25:58.548   02 Jun 2027 17:26:12.154            13.606                Anadyr1           425.187
       170   02 Jun 2027 18:19:58.194   02 Jun 2027 18:20:13.046            14.852               CapeTown           464.125
       171   02 Jun 2027 18:23:27.212   02 Jun 2027 18:24:20.674            53.462               CapeTown          1670.688
       172   02 Jun 2027 18:41:59.622   02 Jun 2027 18:46:47.945           288.323              Murmansk2          9010.094
       173   02 Jun 2027 19:00:59.411   02 Jun 2027 19:01:33.824            34.413               Magadan1          1075.406
       174   02 Jun 2027 19:03:16.008   02 Jun 2027 19:03:21.854             5.846               Magadan1           182.688
       175   02 Jun 2027 19:51:21.524   02 Jun 2027 19:53:45.409           143.885               CapeTown          4496.406
       176   02 Jun 2027 20:28:18.704   02 Jun 2027 20:29:55.782            97.078                Anadyr1          3033.688
       177   02 Jun 2027 20:30:12.560   02 Jun 2027 20:31:34.240            81.680                Anadyr2          2552.500
       178   02 Jun 2027 20:32:59.615   02 Jun 2027 20:33:08.057             8.442               Magadan2           263.812
       179   02 Jun 2027 20:33:15.037   02 Jun 2027 20:33:49.450            34.413               Magadan1          1075.406
       180   02 Jun 2027 20:35:32.494   02 Jun 2027 20:35:43.272            10.778               Magadan2           336.812
       181   02 Jun 2027 20:37:05.184   02 Jun 2027 20:37:21.333            16.149               Magadan2           504.656
       182   02 Jun 2027 20:37:43.107   02 Jun 2027 20:38:17.777            34.670               Magadan2          1083.438
       183   02 Jun 2027 20:40:03.729   02 Jun 2027 20:40:14.419            10.690               Magadan2           334.062
       184   02 Jun 2027 20:41:22.570   02 Jun 2027 20:42:27.634            65.064               Magadan2          2033.250
       185   02 Jun 2027 22:04:10.851   02 Jun 2027 22:07:39.379           208.528                Anadyr2          6516.500
       186   02 Jun 2027 22:07:40.429   02 Jun 2027 22:08:47.716            67.287               Magadan2          2102.719
       187   02 Jun 2027 22:09:13.333   02 Jun 2027 22:09:42.264            28.931               Magadan1           904.094
       188   02 Jun 2027 22:10:51.974   02 Jun 2027 22:11:11.879            19.905                Norilsk           622.031
       189   02 Jun 2027 22:12:21.342   02 Jun 2027 22:12:41.614            20.272               Magadan1           633.500
       190   02 Jun 2027 22:13:02.845   02 Jun 2027 22:13:12.417             9.572                Norilsk           299.125
       191   02 Jun 2027 22:13:38.418   02 Jun 2027 22:14:19.746            41.328               Magadan1          1291.500
       192   02 Jun 2027 22:17:25.879   02 Jun 2027 22:17:55.102            29.223                Irkutsk           913.219
       193   02 Jun 2027 22:27:59.972   02 Jun 2027 22:28:31.697            31.725                Sumatra           991.406
       194   02 Jun 2027 22:28:46.992   02 Jun 2027 22:29:05.928            18.936                Sumatra           591.750
       195   02 Jun 2027 23:03:31.030   02 Jun 2027 23:04:19.427            48.397            RioGallegos          1512.406
       196   02 Jun 2027 23:39:36.135   02 Jun 2027 23:41:58.008           141.873                Anadyr2          4433.531
       197   02 Jun 2027 23:42:36.634   02 Jun 2027 23:43:18.633            41.999                Norilsk          1312.469
       198   02 Jun 2027 23:43:36.523   02 Jun 2027 23:44:22.959            46.436               Magadan2          1451.125
       199   02 Jun 2027 23:44:56.281   02 Jun 2027 23:45:34.356            38.075               Magadan1          1189.844
       200   02 Jun 2027 23:46:01.413   02 Jun 2027 23:47:07.191            65.778                Irkutsk          2055.563
       201   02 Jun 2027 23:48:54.154   02 Jun 2027 23:49:16.980            22.826                Novosib           713.313
       202   02 Jun 2027 23:50:15.751   02 Jun 2027 23:50:35.477            19.726                Novosib           616.438
       203   02 Jun 2027 23:52:43.392   02 Jun 2027 23:53:21.354            37.962                Novosib          1186.312
       204   02 Jun 2027 23:59:44.626   03 Jun 2027 00:00:10.422            25.796                Sumatra           806.125
       205   03 Jun 2027 00:03:46.368   03 Jun 2027 00:04:14.658            28.290                Sumatra           884.063
       206   03 Jun 2027 00:35:08.211   03 Jun 2027 00:35:54.952            46.741            RioGallegos          1460.656
       207   03 Jun 2027 00:40:07.275   03 Jun 2027 00:40:19.169            11.894            RioGallegos           371.688
       208   03 Jun 2027 00:41:08.746   03 Jun 2027 00:41:46.623            37.877            RioGallegos          1183.656
       209   03 Jun 2027 01:13:57.362   03 Jun 2027 01:14:28.408            31.046                Anadyr1           970.188
       210   03 Jun 2027 01:14:28.408   03 Jun 2027 01:15:13.305            44.897                Anadyr2          1403.031
       211   03 Jun 2027 01:15:45.295   03 Jun 2027 01:16:08.022            22.727                Anadyr2           710.219
       212   03 Jun 2027 01:16:19.041   03 Jun 2027 01:16:22.919             3.878                Anadyr2           121.188
       213   03 Jun 2027 01:16:54.193   03 Jun 2027 01:16:56.792             2.599                Anadyr1            81.219
       214   03 Jun 2027 01:18:02.020   03 Jun 2027 01:19:43.274           101.254                Norilsk          3164.187
       215   03 Jun 2027 01:19:55.251   03 Jun 2027 01:20:21.766            26.515               Magadan1           828.594
       216   03 Jun 2027 01:20:44.615   03 Jun 2027 01:20:54.583             9.968               Magadan1           311.500
       217   03 Jun 2027 01:21:28.514   03 Jun 2027 01:22:02.668            34.154              Murmansk1          1067.312
       218   03 Jun 2027 01:22:19.238   03 Jun 2027 01:23:01.271            42.033                Novosib          1313.531
       219   03 Jun 2027 01:23:13.584   03 Jun 2027 01:23:37.182            23.598                Irkutsk           737.437
       220   03 Jun 2027 01:25:55.079   03 Jun 2027 01:26:29.049            33.970                Novosib          1061.562
       221   03 Jun 2027 01:31:18.089   03 Jun 2027 01:32:12.724            54.635                  Delhi          1707.344
       222   03 Jun 2027 01:41:07.463   03 Jun 2027 01:41:40.373            32.910                  Delhi          1028.437
       223   03 Jun 2027 02:10:45.748   03 Jun 2027 02:12:07.803            82.055            RioGallegos          2564.219
       224   03 Jun 2027 02:12:59.833   03 Jun 2027 02:13:10.424            10.591            RioGallegos           330.969
       225   03 Jun 2027 02:13:30.577   03 Jun 2027 02:13:44.840            14.263            RioGallegos           445.719
       226   03 Jun 2027 02:14:00.542   03 Jun 2027 02:15:09.462            68.920            RioGallegos          2153.750
       227   03 Jun 2027 02:49:32.353   03 Jun 2027 02:50:14.650            42.297                Anadyr2          1321.781
       228   03 Jun 2027 02:53:31.342   03 Jun 2027 02:54:07.426            36.084               Magadan2          1127.625
       229   03 Jun 2027 02:54:09.333   03 Jun 2027 02:54:43.279            33.946                Norilsk          1060.812
       230   03 Jun 2027 02:56:14.409   03 Jun 2027 02:57:05.620            51.211              Murmansk2          1600.344
       231   03 Jun 2027 02:57:35.840   03 Jun 2027 02:57:55.739            19.899              Murmansk1           621.844
       232   03 Jun 2027 02:58:27.510   03 Jun 2027 02:59:12.428            44.918                Novosib          1403.688
       233   03 Jun 2027 02:59:37.917   03 Jun 2027 03:01:02.149            84.232                Irkutsk          2632.250
       234   03 Jun 2027 03:01:27.965   03 Jun 2027 03:02:14.920            46.955                Novosib          1467.344
       235   03 Jun 2027 03:02:18.028   03 Jun 2027 03:02:48.224            30.196                Norilsk           943.625
       236   03 Jun 2027 03:02:48.311   03 Jun 2027 03:03:04.625            16.314                Novosib           509.813
       237   03 Jun 2027 03:03:10.109   03 Jun 2027 03:03:34.949            24.840              Murmansk2           776.250
       238   03 Jun 2027 03:03:34.949   03 Jun 2027 03:03:40.814             5.865              Murmansk1           183.281
       239   03 Jun 2027 03:03:41.787   03 Jun 2027 03:05:07.086            85.299                Irkutsk          2665.594
       240   03 Jun 2027 03:06:11.035   03 Jun 2027 03:08:21.333           130.298                  Delhi          4071.812
       241   03 Jun 2027 04:39:20.396   03 Jun 2027 04:39:27.042             6.646                 Moscow           207.688
       242   03 Jun 2027 04:39:38.653   03 Jun 2027 04:40:59.222            80.569                 Moscow          2517.781
       243   03 Jun 2027 04:41:26.219   03 Jun 2027 04:43:25.265           119.046              Murmansk2          3720.188
       244   03 Jun 2027 04:43:26.138   03 Jun 2027 04:43:34.104             7.966              Murmansk2           248.937
       245   03 Jun 2027 04:43:44.014   03 Jun 2027 04:44:41.494            57.480              Murmansk1          1796.250
       246   03 Jun 2027 04:46:42.843   03 Jun 2027 04:47:09.126            26.283                 Moscow           821.344
       247   03 Jun 2027 04:59:19.106   03 Jun 2027 05:02:03.392           164.286               CapeTown          5133.938
       248   03 Jun 2027 06:02:39.220   03 Jun 2027 06:03:42.374            63.154               Magadan2          1973.563
       249   03 Jun 2027 06:03:51.804   03 Jun 2027 06:04:12.004            20.200                Anadyr2           631.250
       250   03 Jun 2027 06:04:27.611   03 Jun 2027 06:04:40.105            12.494               Magadan1           390.437
       251   03 Jun 2027 06:05:00.413   03 Jun 2027 06:06:26.954            86.541               Magadan1          2704.406
       252   03 Jun 2027 06:06:29.085   03 Jun 2027 06:07:46.283            77.198               Magadan1          2412.438
       253   03 Jun 2027 06:08:23.185   03 Jun 2027 06:08:55.362            32.177                Anadyr1          1005.531
       254   03 Jun 2027 07:38:05.205   03 Jun 2027 07:40:29.149           143.944               Magadan2          4498.250
       255   03 Jun 2027 07:40:44.977   03 Jun 2027 07:43:26.567           161.590               Magadan2          5049.687
       256   03 Jun 2027 07:43:56.821   03 Jun 2027 07:44:45.658            48.837                Anadyr2          1526.156
       257   03 Jun 2027 09:12:54.099   03 Jun 2027 09:14:42.546           108.447               Magadan2          3388.969
       258   03 Jun 2027 09:14:42.546   03 Jun 2027 09:16:39.046           116.500               Magadan1          3640.625
       259   03 Jun 2027 09:17:21.966   03 Jun 2027 09:23:02.576           340.610                Norilsk         10644.062
       260   03 Jun 2027 09:23:32.851   03 Jun 2027 09:24:12.655            39.804              Murmansk2          1243.875
       261   03 Jun 2027 09:25:04.932   03 Jun 2027 09:25:28.725            23.793              Murmansk2           743.531
       262   03 Jun 2027 09:55:26.628   03 Jun 2027 09:56:50.830            84.202            RioGallegos          2631.313
       263   03 Jun 2027 09:58:46.723   03 Jun 2027 09:59:42.687            55.964            RioGallegos          1748.875
       264   03 Jun 2027 10:33:12.346   03 Jun 2027 10:34:35.845            83.499                Sumatra          2609.344
       265   03 Jun 2027 10:49:07.270   03 Jun 2027 10:49:33.669            26.399               Magadan2           824.969
       266   03 Jun 2027 10:50:16.005   03 Jun 2027 10:50:19.936             3.931                Novosib           122.844
       267   03 Jun 2027 10:50:24.317   03 Jun 2027 10:51:43.397            79.080                Irkutsk          2471.250
       268   03 Jun 2027 10:52:00.553   03 Jun 2027 10:52:27.476            26.923                Norilsk           841.344
       269   03 Jun 2027 10:52:45.604   03 Jun 2027 10:54:00.194            74.590                Irkutsk          2330.937
       270   03 Jun 2027 10:54:06.000   03 Jun 2027 10:56:14.433           128.433                Irkutsk          4013.531
       271   03 Jun 2027 11:31:12.735   03 Jun 2027 11:31:26.797            14.062            RioGallegos           439.438
       272   03 Jun 2027 11:34:33.571   03 Jun 2027 11:35:17.088            43.517            RioGallegos          1359.906
       273   03 Jun 2027 12:05:46.403   03 Jun 2027 12:07:37.699           111.296                Sumatra          3478.000
       274   03 Jun 2027 12:20:14.428   03 Jun 2027 12:21:23.693            69.265                Irkutsk          2164.531
       275   03 Jun 2027 12:23:03.795   03 Jun 2027 12:23:10.006             6.211                Novosib           194.094
       276   03 Jun 2027 12:23:18.030   03 Jun 2027 12:24:35.791            77.761                Irkutsk          2430.031
       277   03 Jun 2027 12:25:26.304   03 Jun 2027 12:26:12.341            46.037                Norilsk          1438.656
       278   03 Jun 2027 12:33:17.300   03 Jun 2027 12:33:57.030            39.730              Murmansk2          1241.562
       279   03 Jun 2027 13:12:11.720   03 Jun 2027 13:13:49.657            97.937            RioGallegos          3060.531
       280   03 Jun 2027 13:14:37.110   03 Jun 2027 13:15:35.226            58.116            RioGallegos          1816.125
       281   03 Jun 2027 13:58:09.644   03 Jun 2027 13:59:02.487            52.843                Novosib          1651.344
       282   03 Jun 2027 13:59:42.604   03 Jun 2027 14:02:02.346           139.742                Novosib          4366.938
       283   03 Jun 2027 14:02:10.230   03 Jun 2027 14:02:34.490            24.260                Norilsk           758.125
       284   03 Jun 2027 14:03:02.179   03 Jun 2027 14:03:34.647            32.468                Norilsk          1014.625
       285   03 Jun 2027 14:05:34.736   03 Jun 2027 14:06:51.490            76.754                Norilsk          2398.562
       286   03 Jun 2027 15:34:21.166   03 Jun 2027 15:37:02.521           161.355                 Moscow          5042.344
       287   03 Jun 2027 15:37:49.846   03 Jun 2027 15:39:01.348            71.502              Murmansk1          2234.437
       288   03 Jun 2027 15:39:01.348   03 Jun 2027 15:39:20.142            18.794              Murmansk2           587.313
       289   03 Jun 2027 15:42:19.335   03 Jun 2027 15:46:11.615           232.280                Norilsk          7258.750
       290   03 Jun 2027 17:12:03.274   03 Jun 2027 17:12:43.328            40.054                 Moscow          1251.688
       291   03 Jun 2027 17:15:04.209   03 Jun 2027 17:17:08.176           123.967              Murmansk1          3873.969
       292   03 Jun 2027 17:22:57.773   03 Jun 2027 17:24:33.698            95.925              Murmansk1          2997.656
       293   03 Jun 2027 17:28:46.919   03 Jun 2027 17:29:21.291            34.372                Anadyr1          1074.125
       294   03 Jun 2027 18:23:55.888   03 Jun 2027 18:25:52.352           116.464               CapeTown          3639.500
       295   03 Jun 2027 18:33:27.690   03 Jun 2027 18:33:37.956            10.266               CapeTown           320.813
       296   03 Jun 2027 18:54:39.091   03 Jun 2027 18:58:39.226           240.135              Murmansk1          7504.219
       297   03 Jun 2027 18:59:18.688   03 Jun 2027 18:59:26.543             7.855              Murmansk2           245.469
       298   03 Jun 2027 19:06:00.889   03 Jun 2027 19:06:18.133            17.244                Anadyr2           538.875
       299   03 Jun 2027 19:07:36.208   03 Jun 2027 19:08:18.208            42.000               Magadan2          1312.500
       300   03 Jun 2027 19:08:18.208   03 Jun 2027 19:08:56.192            37.984               Magadan1          1187.000
       301   03 Jun 2027 19:13:35.361   03 Jun 2027 19:13:56.617            21.256               Magadan2           664.250
       302   03 Jun 2027 20:40:20.397   03 Jun 2027 20:41:56.155            95.758                Anadyr1          2992.438
       303   03 Jun 2027 20:42:03.545   03 Jun 2027 20:44:04.786           121.241                Anadyr2          3788.781
       304   03 Jun 2027 20:44:52.483   03 Jun 2027 20:46:01.929            69.446               Magadan2          2170.187
       305   03 Jun 2027 20:46:01.929   03 Jun 2027 20:46:31.713            29.784               Magadan1           930.750
       306   03 Jun 2027 20:47:25.471   03 Jun 2027 20:48:04.600            39.129               Magadan1          1222.781
       307   03 Jun 2027 20:49:34.762   03 Jun 2027 20:49:44.428             9.666               Magadan1           302.063
       308   03 Jun 2027 20:50:50.619   03 Jun 2027 20:50:57.614             6.995               Magadan1           218.594
       309   03 Jun 2027 20:51:01.606   03 Jun 2027 20:51:13.896            12.290               Magadan1           384.063
       310   03 Jun 2027 20:52:52.004   03 Jun 2027 20:53:23.418            31.414               Magadan1           981.687
       311   03 Jun 2027 21:36:54.946   03 Jun 2027 21:39:09.248           134.302            RioGallegos          4196.937
       312   03 Jun 2027 21:41:20.559   03 Jun 2027 21:41:34.525            13.966            RioGallegos           436.437
       313   03 Jun 2027 22:16:10.725   03 Jun 2027 22:17:24.995            74.270                Anadyr2          2320.937
       314   03 Jun 2027 22:17:50.871   03 Jun 2027 22:18:17.273            26.402                Anadyr1           825.062
       315   03 Jun 2027 22:18:19.182   03 Jun 2027 22:20:07.929           108.747                Norilsk          3398.344
       316   03 Jun 2027 22:20:39.432   03 Jun 2027 22:21:43.586            64.154               Magadan2          2004.813
       317   03 Jun 2027 22:23:22.515   03 Jun 2027 22:25:00.779            98.264                Irkutsk          3070.750
       318   03 Jun 2027 22:38:36.345   03 Jun 2027 22:40:27.836           111.491                Sumatra          3484.094
       319   03 Jun 2027 22:44:15.570   03 Jun 2027 22:46:02.968           107.398                Sumatra          3356.188
       320   03 Jun 2027 23:51:59.142   03 Jun 2027 23:52:29.743            30.601                Anadyr2           956.281
       321   03 Jun 2027 23:52:59.960   03 Jun 2027 23:53:56.526            56.566                Anadyr1          1767.688
       322   03 Jun 2027 23:54:10.143   03 Jun 2027 23:54:15.098             4.955                Anadyr2           154.844
       323   03 Jun 2027 23:54:28.871   03 Jun 2027 23:54:33.018             4.147                Anadyr2           129.594
       324   03 Jun 2027 23:54:40.644   03 Jun 2027 23:55:20.158            39.514               Magadan1          1234.812
       325   03 Jun 2027 23:55:41.595   03 Jun 2027 23:55:46.477             4.882                Norilsk           152.562
       326   03 Jun 2027 23:56:11.863   03 Jun 2027 23:56:27.826            15.963               Magadan2           498.844
       327   03 Jun 2027 23:56:58.691   03 Jun 2027 23:58:03.843            65.152               Magadan1          2036.000
       328   03 Jun 2027 23:58:44.502   03 Jun 2027 23:59:36.946            52.444                Novosib          1638.875
       329   04 Jun 2027 00:02:33.634   04 Jun 2027 00:02:44.214            10.580                Novosib           330.625
       330   04 Jun 2027 00:03:26.720   04 Jun 2027 00:04:37.767            71.047                Novosib          2220.219
       331   04 Jun 2027 00:09:22.677   04 Jun 2027 00:10:36.758            74.081                  Delhi          2315.031
       332   04 Jun 2027 00:46:03.261   04 Jun 2027 00:47:12.390            69.129            RioGallegos          2160.281
       333   04 Jun 2027 00:57:25.060   04 Jun 2027 00:57:34.998             9.938            RioGallegos           310.562
       334   04 Jun 2027 01:25:41.501   04 Jun 2027 01:26:32.573            51.072                Anadyr2          1596.000
       335   04 Jun 2027 01:26:50.986   04 Jun 2027 01:27:13.056            22.070                Anadyr2           689.688
       336   04 Jun 2027 01:27:32.233   04 Jun 2027 01:27:51.700            19.467                Anadyr2           608.344
       337   04 Jun 2027 01:28:10.435   04 Jun 2027 01:28:21.829            11.394                Anadyr2           356.063
       338   04 Jun 2027 01:30:04.265   04 Jun 2027 01:31:44.513           100.248                Norilsk          3132.750
       339   04 Jun 2027 01:32:02.369   04 Jun 2027 01:32:39.647            37.278               Magadan2          1164.938
       340   04 Jun 2027 01:33:05.364   04 Jun 2027 01:35:24.470           139.106              Murmansk1          4347.063
       341   04 Jun 2027 01:40:49.388   04 Jun 2027 01:41:02.645            13.257                Irkutsk           414.281
       342   04 Jun 2027 01:41:13.931   04 Jun 2027 01:41:31.854            17.923                  Delhi           560.094
       343   04 Jun 2027 01:41:55.152   04 Jun 2027 01:43:37.506           102.354                  Delhi          3198.562
       344   04 Jun 2027 02:23:01.506   04 Jun 2027 02:24:35.638            94.132            RioGallegos          2941.625
       345   04 Jun 2027 02:25:04.257   04 Jun 2027 02:25:38.898            34.641            RioGallegos          1082.531
       346   04 Jun 2027 02:58:59.263   04 Jun 2027 02:59:17.427            18.164                Anadyr1           567.625
       347   04 Jun 2027 02:59:20.383   04 Jun 2027 02:59:44.695            24.312                Anadyr1           759.750
       348   04 Jun 2027 03:13:02.439   04 Jun 2027 03:13:17.447            15.008                Norilsk           469.000
       349   04 Jun 2027 03:13:26.521   04 Jun 2027 03:15:51.113           144.592              Murmansk2          4518.500
       350   04 Jun 2027 03:16:00.856   04 Jun 2027 03:17:28.995            88.139                Norilsk          2754.344
       351   04 Jun 2027 03:18:21.020   04 Jun 2027 03:18:27.381             6.361                Novosib           198.781
       352   04 Jun 2027 03:18:44.505   04 Jun 2027 03:19:23.415            38.910                  Delhi          1215.938
       353   04 Jun 2027 03:21:27.264   04 Jun 2027 03:21:36.353             9.089                Novosib           284.031
       354   04 Jun 2027 03:21:56.812   04 Jun 2027 03:24:07.154           130.342                  Delhi          4073.188
       355   04 Jun 2027 04:51:29.100   04 Jun 2027 04:52:10.490            41.390                Norilsk          1293.437
       356   04 Jun 2027 04:52:13.791   04 Jun 2027 04:53:20.195            66.404                Norilsk          2075.125
       357   04 Jun 2027 04:53:46.025   04 Jun 2027 04:55:45.869           119.844              Murmansk1          3745.125
       358   04 Jun 2027 04:55:45.869   04 Jun 2027 04:56:51.742            65.873              Murmansk2          2058.531
       359   04 Jun 2027 06:14:26.959   04 Jun 2027 06:15:05.814            38.855                Anadyr2          1214.219
       360   04 Jun 2027 06:15:32.603   04 Jun 2027 06:18:49.013           196.410                Anadyr2          6137.813
       361   04 Jun 2027 06:18:49.013   04 Jun 2027 06:19:06.613            17.600                Anadyr1           550.000
       362   04 Jun 2027 06:19:41.468   04 Jun 2027 06:20:57.006            75.538                Anadyr1          2360.562
       363   04 Jun 2027 07:52:08.899   04 Jun 2027 07:54:00.874           111.975                Norilsk          3499.219
       364   04 Jun 2027 07:54:19.382   04 Jun 2027 07:55:11.713            52.331                Anadyr1          1635.344
       365   04 Jun 2027 08:00:20.863   04 Jun 2027 08:01:18.586            57.723                 Moscow          1803.844
       366   04 Jun 2027 09:24:54.859   04 Jun 2027 09:25:25.969            31.110               Magadan2           972.188
       367   04 Jun 2027 09:25:35.812   04 Jun 2027 09:26:44.899            69.087               Magadan1          2158.969
       368   04 Jun 2027 09:26:44.899   04 Jun 2027 09:27:23.246            38.347               Magadan2          1198.344
       369   04 Jun 2027 09:28:15.174   04 Jun 2027 09:28:20.561             5.387                Irkutsk           168.344
       370   04 Jun 2027 09:28:38.357   04 Jun 2027 09:29:36.316            57.959               Magadan1          1811.219
       371   04 Jun 2027 09:29:49.444   04 Jun 2027 09:30:12.696            23.252                Norilsk           726.625
       372   04 Jun 2027 09:30:30.503   04 Jun 2027 09:30:49.426            18.923                Irkutsk           591.344
       373   04 Jun 2027 09:30:53.840   04 Jun 2027 09:31:52.704            58.864                Irkutsk          1839.500
       374   04 Jun 2027 09:32:02.849   04 Jun 2027 09:32:07.268             4.419              Murmansk2           138.094
       375   04 Jun 2027 09:32:11.933   04 Jun 2027 09:32:13.513             1.580                Norilsk            49.375
       376   04 Jun 2027 09:32:14.129   04 Jun 2027 09:32:29.620            15.491                Norilsk           484.094
       377   04 Jun 2027 09:33:08.350   04 Jun 2027 09:33:40.410            32.060              Murmansk1          1001.875
       378   04 Jun 2027 10:07:15.530   04 Jun 2027 10:08:07.322            51.792            RioGallegos          1618.500
       379   04 Jun 2027 10:09:25.480   04 Jun 2027 10:10:06.635            41.155            RioGallegos          1286.094
       380   04 Jun 2027 10:44:07.354   04 Jun 2027 10:46:00.674           113.320                Sumatra          3541.250
       381   04 Jun 2027 11:01:27.632   04 Jun 2027 11:01:38.378            10.746                Novosib           335.813
       382   04 Jun 2027 11:02:04.959   04 Jun 2027 11:03:22.956            77.997                Norilsk          2437.406
       383   04 Jun 2027 11:03:24.706   04 Jun 2027 11:05:22.129           117.423               Magadan1          3669.469
       384   04 Jun 2027 11:05:22.129   04 Jun 2027 11:05:33.029            10.900               Magadan2           340.625
       385   04 Jun 2027 11:05:40.875   04 Jun 2027 11:06:11.656            30.781                Novosib           961.906
       386   04 Jun 2027 11:06:17.598   04 Jun 2027 11:07:18.568            60.970                Norilsk          1905.313
       387   04 Jun 2027 11:07:22.704   04 Jun 2027 11:07:41.721            19.017                Norilsk           594.281
       388   04 Jun 2027 11:07:43.700   04 Jun 2027 11:08:16.748            33.048              Murmansk2          1032.750
       389   04 Jun 2027 11:43:29.246   04 Jun 2027 11:44:19.207            49.961            RioGallegos          1561.281
       390   04 Jun 2027 11:45:58.870   04 Jun 2027 11:47:05.175            66.305            RioGallegos          2072.031
       391   04 Jun 2027 12:22:05.915   04 Jun 2027 12:22:19.439            13.524                Sumatra           422.625
       392   04 Jun 2027 12:26:03.972   04 Jun 2027 12:26:21.455            17.483                Sumatra           546.344
       393   04 Jun 2027 12:30:49.445   04 Jun 2027 12:32:06.506            77.061                  Delhi          2408.156
       394   04 Jun 2027 12:32:40.020   04 Jun 2027 12:33:32.902            52.882                Irkutsk          1652.562
       395   04 Jun 2027 12:34:50.040   04 Jun 2027 12:35:36.718            46.678                Novosib          1458.688
       396   04 Jun 2027 12:36:33.806   04 Jun 2027 12:37:32.395            58.589                Norilsk          1830.906
       397   04 Jun 2027 12:39:18.837   04 Jun 2027 12:39:36.579            17.742                Norilsk           554.437
       398   04 Jun 2027 14:02:30.227   04 Jun 2027 14:02:59.555            29.328                  Delhi           916.500
       399   04 Jun 2027 14:04:01.745   04 Jun 2027 14:04:50.128            48.383                  Delhi          1511.969
       400   04 Jun 2027 14:06:56.234   04 Jun 2027 14:07:24.688            28.454                  Delhi           889.188
       401   04 Jun 2027 14:09:56.432   04 Jun 2027 14:12:24.098           147.666                  Delhi          4614.562
       402   04 Jun 2027 14:14:01.243   04 Jun 2027 14:15:47.463           106.220                Novosib          3319.375
       403   04 Jun 2027 14:16:17.966   04 Jun 2027 14:17:37.070            79.104                Norilsk          2472.000
       404   04 Jun 2027 14:19:19.273   04 Jun 2027 14:19:32.886            13.613                Norilsk           425.406
       405   04 Jun 2027 15:46:24.329   04 Jun 2027 15:50:07.682           223.353                 Moscow          6979.781
       406   04 Jun 2027 15:50:58.492   04 Jun 2027 15:52:36.551            98.059              Murmansk2          3064.344
       407   04 Jun 2027 15:55:08.875   04 Jun 2027 15:56:59.970           111.095                Norilsk          3471.719
       408   04 Jun 2027 15:57:10.339   04 Jun 2027 15:59:17.623           127.284                Norilsk          3977.625
       409   04 Jun 2027 17:24:37.373   04 Jun 2027 17:26:06.418            89.045                 Moscow          2782.656
       410   04 Jun 2027 17:29:09.700   04 Jun 2027 17:29:40.381            30.681              Murmansk2           958.781
       411   04 Jun 2027 17:30:37.767   04 Jun 2027 17:31:10.939            33.172              Murmansk1          1036.625
       412   04 Jun 2027 17:31:57.151   04 Jun 2027 17:32:01.771             4.620              Murmansk2           144.375
       413   04 Jun 2027 17:40:43.648   04 Jun 2027 17:42:52.853           129.205                Anadyr1          4037.656
       414   04 Jun 2027 18:36:06.007   04 Jun 2027 18:37:51.220           105.213               CapeTown          3287.906
       415   04 Jun 2027 19:07:22.675   04 Jun 2027 19:12:50.947           328.272              Murmansk2         10258.500
       416   04 Jun 2027 19:19:24.259   04 Jun 2027 19:19:46.238            21.979               Magadan2           686.844
       417   04 Jun 2027 19:23:48.144   04 Jun 2027 19:23:49.355             1.211               Magadan1            37.844
       418   04 Jun 2027 19:24:18.272   04 Jun 2027 19:25:04.735            46.463               Magadan1          1451.969
       419   04 Jun 2027 20:52:22.011   04 Jun 2027 20:55:25.401           183.390                Anadyr1          5730.937
       420   04 Jun 2027 20:55:48.812   04 Jun 2027 20:58:44.400           175.588               Magadan2          5487.125
       421   04 Jun 2027 21:00:17.556   04 Jun 2027 21:01:08.649            51.093               Magadan2          1596.656
       422   04 Jun 2027 21:05:38.839   04 Jun 2027 21:05:53.710            14.871               Magadan1           464.719
       423   04 Jun 2027 21:48:05.656   04 Jun 2027 21:50:17.549           131.893            RioGallegos          4121.656
       424   04 Jun 2027 21:50:25.797   04 Jun 2027 21:50:50.259            24.462            RioGallegos           764.438
       425   04 Jun 2027 21:53:23.919   04 Jun 2027 21:53:49.341            25.422            RioGallegos           794.437
       426   04 Jun 2027 22:28:10.146   04 Jun 2027 22:29:59.828           109.682                Anadyr2          3427.563
       427   04 Jun 2027 22:30:16.718   04 Jun 2027 22:31:11.443            54.725                Norilsk          1710.156
       428   04 Jun 2027 22:31:23.303   04 Jun 2027 22:31:48.745            25.442                Norilsk           795.063
       429   04 Jun 2027 22:32:42.145   04 Jun 2027 22:32:55.153            13.008               Magadan2           406.500
       430   04 Jun 2027 22:33:23.045   04 Jun 2027 22:34:11.365            48.320               Magadan2          1510.000
       431   04 Jun 2027 22:35:03.085   04 Jun 2027 22:35:47.015            43.930                Irkutsk          1372.813
       432   04 Jun 2027 22:37:01.117   04 Jun 2027 22:37:43.272            42.155                Irkutsk          1317.344
       433   04 Jun 2027 22:49:43.302   04 Jun 2027 22:51:27.452           104.150                Sumatra          3254.688
       434   04 Jun 2027 22:55:00.631   04 Jun 2027 22:55:25.149            24.518                Sumatra           766.187
       435   05 Jun 2027 00:03:22.948   05 Jun 2027 00:03:38.276            15.328                Anadyr2           479.000
       436   05 Jun 2027 00:03:41.506   05 Jun 2027 00:05:53.170           131.664                Anadyr1          4114.500
       437   05 Jun 2027 00:05:53.170   05 Jun 2027 00:05:53.450             0.280                Anadyr2             8.750
       438   05 Jun 2027 00:06:43.763   05 Jun 2027 00:08:25.566           101.803               Magadan1          3181.344
       439   05 Jun 2027 00:09:00.954   05 Jun 2027 00:09:36.479            35.525               Magadan2          1110.156
       440   05 Jun 2027 00:09:59.755   05 Jun 2027 00:10:57.364            57.609                Irkutsk          1800.281
       441   05 Jun 2027 00:11:03.325   05 Jun 2027 00:11:42.563            39.238                Novosib          1226.188
       442   05 Jun 2027 00:13:36.764   05 Jun 2027 00:13:54.595            17.831                Novosib           557.219
       443   05 Jun 2027 00:19:56.330   05 Jun 2027 00:21:32.993            96.663                  Delhi          3020.719
       444   05 Jun 2027 00:26:48.994   05 Jun 2027 00:27:04.749            15.755                  Delhi           492.344
       445   05 Jun 2027 00:28:51.400   05 Jun 2027 00:29:36.832            45.432                Sumatra          1419.750
       446   05 Jun 2027 01:02:40.025   05 Jun 2027 01:03:18.330            38.305            RioGallegos          1197.031
       447   05 Jun 2027 01:09:01.661   05 Jun 2027 01:09:37.521            35.860            RioGallegos          1120.625
       448   05 Jun 2027 01:37:24.664   05 Jun 2027 01:38:30.774            66.110                Anadyr1          2065.937
       449   05 Jun 2027 01:39:12.868   05 Jun 2027 01:39:16.592             3.724                Anadyr1           116.375
       450   05 Jun 2027 01:39:36.437   05 Jun 2027 01:39:58.792            22.355                Anadyr2           698.594
       451   05 Jun 2027 01:40:20.042   05 Jun 2027 01:40:23.412             3.370                Anadyr1           105.313
       452   05 Jun 2027 01:42:06.432   05 Jun 2027 01:43:39.545            93.113                Norilsk          2909.781
       453   05 Jun 2027 01:43:44.873   05 Jun 2027 01:44:20.938            36.065               Magadan1          1127.031
       454   05 Jun 2027 01:44:52.229   05 Jun 2027 01:47:16.128           143.899              Murmansk2          4496.844
       455   05 Jun 2027 01:52:58.673   05 Jun 2027 01:53:26.061            27.388                Irkutsk           855.875
       456   05 Jun 2027 01:56:12.392   05 Jun 2027 01:56:26.198            13.806                  Delhi           431.438
       457   05 Jun 2027 01:57:06.087   05 Jun 2027 01:57:43.882            37.795                  Delhi          1181.094
       458   05 Jun 2027 02:05:13.088   05 Jun 2027 02:05:59.763            46.675                  Delhi          1458.594
       459   05 Jun 2027 02:35:21.396   05 Jun 2027 02:37:07.822           106.426            RioGallegos          3325.812
       460   05 Jun 2027 02:37:13.699   05 Jun 2027 02:37:54.292            40.593            RioGallegos          1268.531
       461   05 Jun 2027 02:40:32.764   05 Jun 2027 02:40:39.355             6.591            RioGallegos           205.969
       462   05 Jun 2027 03:25:43.032   05 Jun 2027 03:25:56.586            13.554              Murmansk2           423.562
       463   05 Jun 2027 03:25:56.699   05 Jun 2027 03:28:07.969           131.270                Irkutsk          4102.187
       464   05 Jun 2027 03:28:25.221   05 Jun 2027 03:29:10.935            45.714                Norilsk          1428.563
       465   05 Jun 2027 03:29:11.819   05 Jun 2027 03:30:54.427           102.608              Murmansk2          3206.500
       466   05 Jun 2027 03:31:33.812   05 Jun 2027 03:33:38.684           124.872                  Delhi          3902.250
       467   05 Jun 2027 03:36:10.881   05 Jun 2027 03:37:38.598            87.717                  Delhi          2741.156
       468   05 Jun 2027 05:03:39.910   05 Jun 2027 05:03:58.781            18.871                Norilsk           589.719
       469   05 Jun 2027 05:04:09.144   05 Jun 2027 05:05:09.229            60.085                Norilsk          1877.656
       470   05 Jun 2027 05:05:15.711   05 Jun 2027 05:06:24.877            69.166                 Moscow          2161.437
       471   05 Jun 2027 05:06:30.592   05 Jun 2027 05:08:09.722            99.130                 Moscow          3097.813
       472   05 Jun 2027 05:08:22.576   05 Jun 2027 05:09:00.192            37.616              Murmansk2          1175.500
       473   05 Jun 2027 05:09:00.863   05 Jun 2027 05:09:12.556            11.693                 Moscow           365.406
       474   05 Jun 2027 05:23:19.673   05 Jun 2027 05:25:46.103           146.430               CapeTown          4575.937
       475   05 Jun 2027 06:27:07.031   05 Jun 2027 06:29:46.372           159.341                Anadyr1          4979.406
       476   05 Jun 2027 06:30:16.313   05 Jun 2027 06:32:33.895           137.582               Magadan2          4299.437
       477   05 Jun 2027 08:03:29.620   05 Jun 2027 08:03:55.521            25.901                Irkutsk           809.406
       478   05 Jun 2027 08:04:02.744   05 Jun 2027 08:04:49.759            47.015               Magadan1          1469.219
       479   05 Jun 2027 08:05:03.923   05 Jun 2027 08:06:12.248            68.325                Anadyr2          2135.156
       480   05 Jun 2027 08:06:12.248   05 Jun 2027 08:07:04.667            52.419                Anadyr1          1638.094
       481   05 Jun 2027 08:07:29.147   05 Jun 2027 08:07:35.174             6.027               Magadan1           188.344
       482   05 Jun 2027 08:45:58.975   05 Jun 2027 08:46:44.802            45.827            RioGallegos          1432.094
