uniorb/output/strategy_1/Drop/Drop_KinoSat_110602.txt

KinoSat_110602
-------------------------
    Access    *     Start Time (UTCG)     *     Stop Time (UTCG)  *   Duration (s)        *       Station  *  Data (Mbytes)
         1   01 Jun 2027 04:13:05.682   01 Jun 2027 04:13:07.901             2.219               Magadan2            69.344
         2   01 Jun 2027 04:13:21.893   01 Jun 2027 04:18:32.801           310.908                Anadyr2          9715.875
         3   01 Jun 2027 04:19:03.383   01 Jun 2027 04:19:06.945             3.562               Magadan2           111.313
         4   01 Jun 2027 05:49:39.095   01 Jun 2027 05:50:08.280            29.185               Magadan1           912.031
         5   01 Jun 2027 05:50:22.707   01 Jun 2027 05:51:06.835            44.128                Norilsk          1379.000
         6   01 Jun 2027 05:51:26.787   01 Jun 2027 05:55:04.519           217.732                Norilsk          6804.125
         7   01 Jun 2027 05:55:33.385   01 Jun 2027 05:55:47.238            13.853                Novosib           432.906
         8   01 Jun 2027 05:56:10.226   01 Jun 2027 05:56:16.060             5.834              Murmansk2           182.313
         9   01 Jun 2027 05:57:46.758   01 Jun 2027 05:58:11.129            24.371              Murmansk2           761.594
        10   01 Jun 2027 05:58:17.314   01 Jun 2027 05:58:39.832            22.518                Norilsk           703.687
        11   01 Jun 2027 05:59:46.107   01 Jun 2027 05:59:57.933            11.826              Murmansk1           369.563
        12   01 Jun 2027 06:29:36.647   01 Jun 2027 06:31:06.106            89.459            RioGallegos          2795.594
        13   01 Jun 2027 06:33:52.443   01 Jun 2027 06:34:35.744            43.301            RioGallegos          1353.156
        14   01 Jun 2027 07:04:36.430   01 Jun 2027 07:07:32.271           175.841                Sumatra          5495.031
        15   01 Jun 2027 07:15:56.921   01 Jun 2027 07:16:50.419            53.498                  Delhi          1671.812
        16   01 Jun 2027 07:19:47.723   01 Jun 2027 07:21:44.584           116.861                  Delhi          3651.906
        17   01 Jun 2027 07:25:31.438   01 Jun 2027 07:25:43.799            12.361                Irkutsk           386.281
        18   01 Jun 2027 07:27:15.790   01 Jun 2027 07:28:02.235            46.445                Novosib          1451.406
        19   01 Jun 2027 07:28:11.523   01 Jun 2027 07:30:42.007           150.484                Norilsk          4702.625
        20   01 Jun 2027 07:30:46.145   01 Jun 2027 07:32:00.126            73.981              Murmansk1          2311.906
        21   01 Jun 2027 08:42:55.099   01 Jun 2027 08:43:42.163            47.064                Sumatra          1470.750
        22   01 Jun 2027 08:48:40.297   01 Jun 2027 08:51:02.603           142.306                  Delhi          4447.062
        23   01 Jun 2027 09:04:26.290   01 Jun 2027 09:05:12.401            46.111                 Moscow          1440.969
        24   01 Jun 2027 09:05:17.244   01 Jun 2027 09:06:00.578            43.334              Murmansk2          1354.187
        25   01 Jun 2027 09:06:06.760   01 Jun 2027 09:06:21.425            14.665                 Moscow           458.281
        26   01 Jun 2027 09:06:25.110   01 Jun 2027 09:06:39.029            13.919              Murmansk2           434.969
        27   01 Jun 2027 09:06:39.029   01 Jun 2027 09:07:04.745            25.716              Murmansk1           803.625
        28   01 Jun 2027 09:07:55.255   01 Jun 2027 09:08:22.620            27.365              Murmansk1           855.156
        29   01 Jun 2027 10:29:06.138   01 Jun 2027 10:30:54.525           108.387                  Delhi          3387.094
        30   01 Jun 2027 10:37:16.113   01 Jun 2027 10:37:30.385            14.272                 Moscow           446.000
        31   01 Jun 2027 10:37:45.640   01 Jun 2027 10:41:16.092           210.452              Murmansk2          6576.625
        32   01 Jun 2027 10:41:35.971   01 Jun 2027 10:45:35.932           239.961                 Moscow          7498.781
        33   01 Jun 2027 10:46:14.518   01 Jun 2027 10:46:20.608             6.090              Murmansk1           190.313
        34   01 Jun 2027 11:48:32.871   01 Jun 2027 11:51:31.349           178.478               CapeTown          5577.438
        35   01 Jun 2027 11:52:58.246   01 Jun 2027 11:55:32.715           154.469               CapeTown          4827.156
        36   01 Jun 2027 11:56:02.908   01 Jun 2027 11:56:57.704            54.796               CapeTown          1712.375
        37   01 Jun 2027 12:13:13.230   01 Jun 2027 12:13:36.911            23.681              Murmansk2           740.031
        38   01 Jun 2027 12:14:01.375   01 Jun 2027 12:14:22.538            21.163              Murmansk1           661.344
        39   01 Jun 2027 12:16:36.736   01 Jun 2027 12:16:54.881            18.145              Murmansk2           567.031
        40   01 Jun 2027 12:27:49.794   01 Jun 2027 12:36:08.038           498.244                Anadyr1         15570.125
        41   01 Jun 2027 14:05:09.346   01 Jun 2027 14:05:37.081            27.735                Anadyr1           866.719
        42   01 Jun 2027 14:07:16.767   01 Jun 2027 14:12:48.011           331.244               Magadan2         10351.375
        43   01 Jun 2027 15:41:29.828   01 Jun 2027 15:43:09.018            99.190               Magadan1          3099.687
        44   01 Jun 2027 15:43:37.330   01 Jun 2027 15:43:58.394            21.064               Magadan1           658.250
        45   01 Jun 2027 15:45:37.631   01 Jun 2027 15:45:45.918             8.287               Magadan1           258.969
        46   01 Jun 2027 15:46:54.088   01 Jun 2027 15:48:00.347            66.259               Magadan1          2070.594
        47   01 Jun 2027 17:15:20.686   01 Jun 2027 17:15:43.424            22.738                Anadyr2           710.563
        48   01 Jun 2027 17:17:14.782   01 Jun 2027 17:18:24.846            70.064               Magadan1          2189.500
        49   01 Jun 2027 17:19:15.673   01 Jun 2027 17:19:32.121            16.448                Norilsk           514.000
        50   01 Jun 2027 17:20:24.590   01 Jun 2027 17:22:42.729           138.139                Norilsk          4316.844
        51   01 Jun 2027 17:23:43.571   01 Jun 2027 17:27:52.039           248.468                Irkutsk          7764.625
        52   01 Jun 2027 18:56:50.378   01 Jun 2027 18:57:44.142            53.764                Norilsk          1680.125
        53   01 Jun 2027 18:58:16.098   01 Jun 2027 19:05:29.188           433.090                Novosib         13534.063
        54   01 Jun 2027 19:20:48.388   01 Jun 2027 19:22:39.761           111.373                Sumatra          3480.406
        55   01 Jun 2027 20:35:09.771   01 Jun 2027 20:35:26.834            17.063                Novosib           533.219
        56   01 Jun 2027 20:36:40.568   01 Jun 2027 20:36:59.510            18.942                Novosib           591.938
        57   01 Jun 2027 20:40:03.970   01 Jun 2027 20:40:16.902            12.932                Novosib           404.125
        58   01 Jun 2027 20:42:08.471   01 Jun 2027 20:44:25.443           136.972                  Delhi          4280.375
        59   01 Jun 2027 20:47:32.038   01 Jun 2027 20:49:08.868            96.830                  Delhi          3025.937
        60   01 Jun 2027 22:07:03.875   01 Jun 2027 22:12:31.220           327.345              Murmansk1         10229.531
        61   01 Jun 2027 22:12:36.333   01 Jun 2027 22:19:15.156           398.823                 Moscow         12463.219
        62   01 Jun 2027 22:40:34.162   01 Jun 2027 22:43:05.318           151.156               CapeTown          4723.625
        63   02 Jun 2027 00:12:40.074   02 Jun 2027 00:13:53.172            73.098               CapeTown          2284.313
        64   02 Jun 2027 00:21:39.726   02 Jun 2027 00:21:40.516             0.790               CapeTown            24.688
        65   02 Jun 2027 01:13:30.056   02 Jun 2027 01:13:58.033            27.977               Magadan2           874.281
        66   02 Jun 2027 01:18:39.665   02 Jun 2027 01:18:51.595            11.930               Magadan2           372.812
        67   02 Jun 2027 01:19:37.421   02 Jun 2027 01:22:10.654           153.233              Murmansk2          4788.531
        68   02 Jun 2027 01:31:23.314   02 Jun 2027 01:31:40.904            17.590                 Moscow           549.687
        69   02 Jun 2027 01:33:52.054   02 Jun 2027 01:34:16.382            24.328                 Moscow           760.250
        70   02 Jun 2027 01:47:21.005   02 Jun 2027 01:48:16.846            55.841               CapeTown          1745.031
        71   02 Jun 2027 01:54:07.104   02 Jun 2027 01:54:10.400             3.296               CapeTown           103.000
        72   02 Jun 2027 01:55:37.527   02 Jun 2027 01:55:43.068             5.541               CapeTown           173.156
        73   02 Jun 2027 01:56:30.675   02 Jun 2027 01:56:40.043             9.368               CapeTown           292.750
        74   02 Jun 2027 02:42:33.421   02 Jun 2027 02:45:27.605           174.184               Magadan1          5443.250
        75   02 Jun 2027 02:45:27.605   02 Jun 2027 02:45:40.376            12.771               Magadan2           399.094
        76   02 Jun 2027 02:46:27.445   02 Jun 2027 02:46:41.188            13.743               Magadan2           429.469
        77   02 Jun 2027 02:48:05.876   02 Jun 2027 02:48:28.780            22.904               Magadan2           715.750
        78   02 Jun 2027 02:51:45.481   02 Jun 2027 02:52:19.444            33.963                Norilsk          1061.344
        79   02 Jun 2027 02:54:40.296   02 Jun 2027 02:56:36.478           116.182              Murmansk2          3630.687
        80   02 Jun 2027 03:35:01.385   02 Jun 2027 03:37:40.164           158.779            RioGallegos          4961.844
        81   02 Jun 2027 03:39:56.974   02 Jun 2027 03:40:53.529            56.555            RioGallegos          1767.344
        82   02 Jun 2027 04:23:43.475   02 Jun 2027 04:23:55.130            11.655               Magadan2           364.219
        83   02 Jun 2027 04:24:06.044   02 Jun 2027 04:24:13.502             7.458               Magadan1           233.062
        84   02 Jun 2027 04:24:13.502   02 Jun 2027 04:27:32.142           198.640               Magadan2          6207.500
        85   02 Jun 2027 04:27:35.800   02 Jun 2027 04:30:17.692           161.892                Irkutsk          5059.125
        86   02 Jun 2027 04:30:33.722   02 Jun 2027 04:30:44.039            10.317                Anadyr1           322.406
        87   02 Jun 2027 04:30:48.574   02 Jun 2027 04:30:55.334             6.760                Novosib           211.250
        88   02 Jun 2027 04:31:05.558   02 Jun 2027 04:31:05.686             0.128               Magadan1             4.000
        89   02 Jun 2027 05:06:31.039   02 Jun 2027 05:08:06.291            95.252            RioGallegos          2976.625
        90   02 Jun 2027 05:10:02.506   02 Jun 2027 05:10:04.276             1.770            RioGallegos            55.313
        91   02 Jun 2027 06:01:18.932   02 Jun 2027 06:01:31.012            12.080               Magadan2           377.500
        92   02 Jun 2027 06:01:34.487   02 Jun 2027 06:02:03.630            29.143                Novosib           910.719
        93   02 Jun 2027 06:02:11.465   02 Jun 2027 06:04:41.318           149.853               Magadan1          4682.906
        94   02 Jun 2027 06:04:48.986   02 Jun 2027 06:05:52.557            63.571                Novosib          1986.594
        95   02 Jun 2027 06:06:02.255   02 Jun 2027 06:06:57.116            54.861                Irkutsk          1714.406
        96   02 Jun 2027 06:07:08.603   02 Jun 2027 06:07:36.884            28.281                Novosib           883.781
        97   02 Jun 2027 06:41:44.165   02 Jun 2027 06:42:56.270            72.105            RioGallegos          2253.281
        98   02 Jun 2027 07:16:31.063   02 Jun 2027 07:18:49.902           138.839                Sumatra          4338.719
        99   02 Jun 2027 07:27:05.525   02 Jun 2027 07:29:03.511           117.986                  Delhi          3687.063
       100   02 Jun 2027 07:37:57.277   02 Jun 2027 07:38:26.749            29.472                Novosib           921.000
       101   02 Jun 2027 07:39:22.452   02 Jun 2027 07:40:59.375            96.923                Norilsk          3028.844
       102   02 Jun 2027 07:41:02.603   02 Jun 2027 07:41:25.884            23.281              Murmansk2           727.531
       103   02 Jun 2027 07:41:26.116   02 Jun 2027 07:42:19.287            53.171                 Moscow          1661.594
       104   02 Jun 2027 07:42:20.222   02 Jun 2027 07:43:14.116            53.894                Novosib          1684.187
       105   02 Jun 2027 08:56:42.461   02 Jun 2027 08:57:55.921            73.460                Sumatra          2295.625
       106   02 Jun 2027 09:00:44.555   02 Jun 2027 09:02:36.911           112.356                  Delhi          3511.125
       107   02 Jun 2027 09:06:01.444   02 Jun 2027 09:06:03.789             2.345                  Delhi            73.281
       108   02 Jun 2027 09:16:39.837   02 Jun 2027 09:17:25.517            45.680                Novosib          1427.500
       109   02 Jun 2027 09:17:39.162   02 Jun 2027 09:20:21.631           162.469                 Moscow          5077.156
       110   02 Jun 2027 09:21:24.153   02 Jun 2027 09:21:25.143             0.990              Murmansk1            30.937
       111   02 Jun 2027 09:21:32.300   02 Jun 2027 09:21:47.865            15.565              Murmansk1           486.406
       112   02 Jun 2027 10:49:41.962   02 Jun 2027 10:51:53.205           131.243              Murmansk1          4101.344
       113   02 Jun 2027 10:51:56.263   02 Jun 2027 10:53:01.534            65.271              Murmansk2          2039.719
       114   02 Jun 2027 10:53:07.942   02 Jun 2027 10:54:51.396           103.454              Murmansk2          3232.937
       115   02 Jun 2027 10:55:02.204   02 Jun 2027 10:56:39.924            97.720                Norilsk          3053.750
       116   02 Jun 2027 10:56:45.580   02 Jun 2027 10:58:01.785            76.205              Murmansk2          2381.406
       117   02 Jun 2027 10:58:01.785   02 Jun 2027 10:58:31.444            29.659              Murmansk1           926.844
       118   02 Jun 2027 11:59:58.132   02 Jun 2027 12:00:52.947            54.815               CapeTown          1712.969
       119   02 Jun 2027 12:00:58.676   02 Jun 2027 12:07:09.512           370.836               CapeTown         11588.625
       120   02 Jun 2027 12:39:41.969   02 Jun 2027 12:43:09.630           207.661                Anadyr2          6489.406
       121   02 Jun 2027 12:43:12.500   02 Jun 2027 12:45:25.806           133.306                Anadyr1          4165.813
       122   02 Jun 2027 12:46:12.671   02 Jun 2027 12:48:47.062           154.391                Anadyr2          4824.719
       123   02 Jun 2027 14:15:10.382   02 Jun 2027 14:17:00.400           110.018                Anadyr2          3438.062
       124   02 Jun 2027 14:17:49.831   02 Jun 2027 14:17:52.435             2.604                Anadyr2            81.375
       125   02 Jun 2027 14:18:48.214   02 Jun 2027 14:25:51.099           422.885               Magadan2         13215.156
       126   02 Jun 2027 15:53:27.692   02 Jun 2027 15:54:45.413            77.721               Magadan2          2428.781
       127   02 Jun 2027 15:54:56.312   02 Jun 2027 15:55:56.229            59.917               Magadan2          1872.406
       128   02 Jun 2027 15:58:33.733   02 Jun 2027 15:58:44.477            10.744               Magadan2           335.750
       129   02 Jun 2027 17:26:55.877   02 Jun 2027 17:27:43.602            47.725                Anadyr2          1491.406
       130   02 Jun 2027 17:27:56.784   02 Jun 2027 17:28:29.456            32.672                Anadyr1          1021.000
       131   02 Jun 2027 17:29:15.355   02 Jun 2027 17:33:23.805           248.450                Norilsk          7764.062
       132   02 Jun 2027 17:34:33.397   02 Jun 2027 17:35:40.841            67.444                Norilsk          2107.625
       133   02 Jun 2027 17:36:47.293   02 Jun 2027 17:41:17.532           270.239                Irkutsk          8444.969
       134   02 Jun 2027 17:51:20.659   02 Jun 2027 17:55:28.887           248.228                Sumatra          7757.125
       135   02 Jun 2027 19:10:02.543   02 Jun 2027 19:17:25.282           442.739                Novosib         13835.594
       136   02 Jun 2027 20:46:02.648   02 Jun 2027 20:47:07.773            65.125              Murmansk2          2035.156
       137   02 Jun 2027 22:19:02.746   02 Jun 2027 22:20:36.905            94.159              Murmansk2          2942.469
       138   02 Jun 2027 22:21:26.552   02 Jun 2027 22:24:51.731           205.179              Murmansk1          6411.844
       139   02 Jun 2027 22:25:12.041   02 Jun 2027 22:29:24.094           252.053                 Moscow          7876.656
       140   02 Jun 2027 22:50:39.338   02 Jun 2027 22:56:34.073           354.735               CapeTown         11085.469
       141   03 Jun 2027 01:29:56.085   03 Jun 2027 01:29:58.771             2.686               Magadan2            83.938
       142   03 Jun 2027 01:30:29.253   03 Jun 2027 01:30:41.853            12.600               Magadan2           393.750
       143   03 Jun 2027 01:30:52.124   03 Jun 2027 01:31:57.910            65.786              Murmansk2          2055.813
       144   03 Jun 2027 01:33:00.566   03 Jun 2027 01:33:27.823            27.257              Murmansk1           851.781
       145   03 Jun 2027 01:34:11.073   03 Jun 2027 01:34:48.082            37.009                 Moscow          1156.531
       146   03 Jun 2027 01:38:26.513   03 Jun 2027 01:38:47.278            20.765                 Moscow           648.906
       147   03 Jun 2027 01:40:42.129   03 Jun 2027 01:42:24.084           101.955                 Moscow          3186.094
       148   03 Jun 2027 02:54:28.518   03 Jun 2027 02:57:42.326           193.808               Magadan2          6056.500
       149   03 Jun 2027 02:58:06.799   03 Jun 2027 02:58:11.054             4.255               Magadan2           132.969
       150   03 Jun 2027 03:00:05.728   03 Jun 2027 03:00:24.027            18.299               Magadan2           571.844
       151   03 Jun 2027 03:00:40.884   03 Jun 2027 03:01:06.312            25.428               Magadan2           794.625
       152   03 Jun 2027 03:01:18.210   03 Jun 2027 03:02:58.756           100.546                Anadyr1          3142.063
       153   03 Jun 2027 03:03:11.330   03 Jun 2027 03:05:34.466           143.136                Anadyr2          4473.000
       154   03 Jun 2027 03:05:37.426   03 Jun 2027 03:05:57.282            19.856                Anadyr1           620.500
       155   03 Jun 2027 04:33:37.548   03 Jun 2027 04:34:11.848            34.300                Irkutsk          1071.875
       156   03 Jun 2027 04:35:12.195   03 Jun 2027 04:35:56.643            44.448                Irkutsk          1389.000
       157   03 Jun 2027 04:36:13.174   03 Jun 2027 04:37:39.733            86.559               Magadan1          2704.969
       158   03 Jun 2027 04:37:39.733   03 Jun 2027 04:38:10.921            31.188               Magadan2           974.625
       159   03 Jun 2027 04:38:25.939   03 Jun 2027 04:39:12.594            46.655                Anadyr2          1457.969
       160   03 Jun 2027 04:39:29.774   03 Jun 2027 04:42:01.228           151.454                Irkutsk          4732.938
       161   03 Jun 2027 04:42:15.845   03 Jun 2027 04:42:29.952            14.107                Anadyr1           440.844
       162   03 Jun 2027 04:42:44.380   03 Jun 2027 04:42:58.691            14.311              Murmansk1           447.219
       163   03 Jun 2027 04:42:58.937   03 Jun 2027 04:43:21.313            22.376                Norilsk           699.250
       164   03 Jun 2027 04:44:14.600   03 Jun 2027 04:44:17.576             2.976                Norilsk            93.000
       165   03 Jun 2027 04:45:08.408   03 Jun 2027 04:46:05.089            56.681                Norilsk          1771.281
       166   03 Jun 2027 04:48:43.448   03 Jun 2027 04:49:15.142            31.694              Murmansk1           990.437
       167   03 Jun 2027 05:18:15.791   03 Jun 2027 05:18:47.327            31.536            RioGallegos           985.500
       168   03 Jun 2027 05:19:16.086   03 Jun 2027 05:20:50.039            93.953            RioGallegos          2936.031
       169   03 Jun 2027 05:21:05.078   03 Jun 2027 05:22:08.358            63.280            RioGallegos          1977.500
       170   03 Jun 2027 05:56:22.485   03 Jun 2027 05:56:44.076            21.591                Sumatra           674.719
       171   03 Jun 2027 05:57:57.418   03 Jun 2027 06:01:33.950           216.532                Sumatra          6766.625
       172   03 Jun 2027 06:12:53.778   03 Jun 2027 06:14:34.886           101.108                Irkutsk          3159.625
       173   03 Jun 2027 06:14:39.321   03 Jun 2027 06:14:53.227            13.906               Magadan1           434.562
       174   03 Jun 2027 06:15:14.756   03 Jun 2027 06:18:46.497           211.741                Novosib          6616.906
       175   03 Jun 2027 06:19:00.055   03 Jun 2027 06:19:50.712            50.657              Murmansk2          1583.031
       176   03 Jun 2027 06:20:09.859   03 Jun 2027 06:20:16.943             7.084              Murmansk2           221.375
       177   03 Jun 2027 06:53:55.353   03 Jun 2027 06:54:49.606            54.253            RioGallegos          1695.406
       178   03 Jun 2027 07:28:31.297   03 Jun 2027 07:30:53.451           142.154                Sumatra          4442.313
       179   03 Jun 2027 07:33:34.648   03 Jun 2027 07:34:00.303            25.655                Sumatra           801.719
       180   03 Jun 2027 07:38:25.916   03 Jun 2027 07:41:23.117           177.201                  Delhi          5537.531
       181   03 Jun 2027 07:51:11.616   03 Jun 2027 07:58:02.042           410.426              Murmansk1         12825.813
       182   03 Jun 2027 07:58:16.559   03 Jun 2027 07:58:33.963            17.404              Murmansk1           543.875
       183   03 Jun 2027 09:12:54.409   03 Jun 2027 09:16:17.971           203.562                  Delhi          6361.312
       184   03 Jun 2027 09:28:22.199   03 Jun 2027 09:30:18.854           116.655                Novosib          3645.469
       185   03 Jun 2027 09:30:22.381   03 Jun 2027 09:31:36.043            73.662                Novosib          2301.937
       186   03 Jun 2027 09:32:01.621   03 Jun 2027 09:33:52.171           110.550                 Moscow          3454.688
       187   03 Jun 2027 11:03:02.418   03 Jun 2027 11:03:17.172            14.754              Murmansk2           461.062
       188   03 Jun 2027 11:03:17.172   03 Jun 2027 11:03:43.848            26.676              Murmansk1           833.625
       189   03 Jun 2027 11:03:54.695   03 Jun 2027 11:05:02.155            67.460              Murmansk1          2108.125
       190   03 Jun 2027 11:05:06.578   03 Jun 2027 11:06:18.090            71.512              Murmansk2          2234.750
       191   03 Jun 2027 11:06:26.407   03 Jun 2027 11:06:39.428            13.021              Murmansk1           406.906
       192   03 Jun 2027 11:07:02.123   03 Jun 2027 11:07:33.004            30.881              Murmansk2           965.031
       193   03 Jun 2027 11:08:07.949   03 Jun 2027 11:08:19.899            11.950                 Moscow           373.437
       194   03 Jun 2027 11:11:05.997   03 Jun 2027 11:11:21.360            15.363              Murmansk1           480.094
       195   03 Jun 2027 12:11:33.288   03 Jun 2027 12:14:55.246           201.958               CapeTown          6311.187
       196   03 Jun 2027 12:15:26.112   03 Jun 2027 12:18:07.963           161.851               CapeTown          5057.844
       197   03 Jun 2027 12:37:45.910   03 Jun 2027 12:38:06.418            20.508              Murmansk2           640.875
       198   03 Jun 2027 12:38:34.528   03 Jun 2027 12:39:07.134            32.606              Murmansk2          1018.938
       199   03 Jun 2027 12:51:36.250   03 Jun 2027 12:54:02.957           146.707                Anadyr2          4584.594
       200   03 Jun 2027 12:55:04.316   03 Jun 2027 12:57:17.209           132.893                Anadyr1          4152.906
       201   03 Jun 2027 12:58:22.560   03 Jun 2027 13:01:21.612           179.052                Anadyr1          5595.375
       202   03 Jun 2027 14:27:10.881   03 Jun 2027 14:29:41.661           150.780                Anadyr1          4711.875
       203   03 Jun 2027 14:30:29.109   03 Jun 2027 14:38:41.906           492.797               Magadan2         15399.906
       204   03 Jun 2027 16:05:26.353   03 Jun 2027 16:06:58.584            92.231               Magadan1          2882.219
       205   03 Jun 2027 16:09:46.477   03 Jun 2027 16:09:52.628             6.151               Magadan2           192.219
       206   03 Jun 2027 17:00:08.963   03 Jun 2027 17:03:44.710           215.747            RioGallegos          6742.094
       207   03 Jun 2027 17:41:37.192   03 Jun 2027 17:42:19.057            41.865                Norilsk          1308.281
       208   03 Jun 2027 17:46:17.909   03 Jun 2027 17:53:34.335           436.426                Irkutsk         13638.313
       209   03 Jun 2027 18:01:41.317   03 Jun 2027 18:09:01.342           440.025                Sumatra         13750.781
       210   03 Jun 2027 19:23:59.036   03 Jun 2027 19:27:46.446           227.410                Novosib          7106.563
       211   03 Jun 2027 19:33:01.835   03 Jun 2027 19:35:14.293           132.458                  Delhi          4139.313
       212   03 Jun 2027 20:56:03.008   03 Jun 2027 21:00:24.379           261.371              Murmansk1          8167.844
       213   03 Jun 2027 22:31:02.288   03 Jun 2027 22:32:29.064            86.776              Murmansk2          2711.750
       214   03 Jun 2027 22:33:15.567   03 Jun 2027 22:36:25.280           189.713              Murmansk1          5928.531
       215   03 Jun 2027 22:36:27.133   03 Jun 2027 22:38:12.253           105.120                 Moscow          3285.000
       216   03 Jun 2027 22:38:26.646   03 Jun 2027 22:43:01.136           274.490                 Moscow          8577.812
       217   03 Jun 2027 23:01:31.078   03 Jun 2027 23:09:19.382           468.304               CapeTown         14634.500
       218   04 Jun 2027 03:12:12.355   04 Jun 2027 03:12:19.789             7.434               Magadan1           232.313
       219   04 Jun 2027 03:12:44.788   04 Jun 2027 03:13:56.085            71.297                Anadyr1          2228.031
       220   04 Jun 2027 03:14:05.434   04 Jun 2027 03:14:54.973            49.539                Anadyr1          1548.094
       221   04 Jun 2027 03:15:00.640   04 Jun 2027 03:15:58.504            57.864               Magadan2          1808.250
       222   04 Jun 2027 03:16:00.065   04 Jun 2027 03:16:01.653             1.588               Magadan2            49.625
       223   04 Jun 2027 03:16:14.473   04 Jun 2027 03:18:47.903           153.430               Magadan2          4794.688
       224   04 Jun 2027 03:18:47.903   04 Jun 2027 03:19:19.755            31.852               Magadan1           995.375
       225   04 Jun 2027 03:19:23.487   04 Jun 2027 03:19:29.498             6.011                Anadyr2           187.844
       226   04 Jun 2027 04:47:52.194   04 Jun 2027 04:48:04.637            12.443               Magadan2           388.844
       227   04 Jun 2027 04:48:17.029   04 Jun 2027 04:48:32.071            15.042               Magadan2           470.062
       228   04 Jun 2027 04:48:54.637   04 Jun 2027 04:50:41.463           106.826                Anadyr1          3338.313
       229   04 Jun 2027 04:50:41.463   04 Jun 2027 04:54:08.762           207.299                Anadyr2          6478.094
       230   04 Jun 2027 04:54:09.517   04 Jun 2027 04:54:40.708            31.191               Magadan2           974.719
       231   04 Jun 2027 04:55:10.622   04 Jun 2027 04:55:33.604            22.982                Novosib           718.187
       232   04 Jun 2027 04:56:06.569   04 Jun 2027 04:56:22.791            16.222                Norilsk           506.938
       233   04 Jun 2027 05:30:03.731   04 Jun 2027 05:31:26.948            83.217            RioGallegos          2600.531
       234   04 Jun 2027 05:32:54.754   04 Jun 2027 05:34:06.731            71.977            RioGallegos          2249.281
       235   04 Jun 2027 06:07:08.943   04 Jun 2027 06:08:59.513           110.570                Sumatra          3455.312
       236   04 Jun 2027 06:11:17.899   04 Jun 2027 06:13:32.714           134.815                Sumatra          4212.969
       237   04 Jun 2027 06:25:36.598   04 Jun 2027 06:26:23.996            47.398                Norilsk          1481.187
       238   04 Jun 2027 06:26:39.385   04 Jun 2027 06:31:02.093           262.708                Irkutsk          8209.625
       239   04 Jun 2027 07:06:10.455   04 Jun 2027 07:06:11.705             1.250            RioGallegos            39.063
       240   04 Jun 2027 07:40:37.162   04 Jun 2027 07:42:25.552           108.390                Sumatra          3387.187
       241   04 Jun 2027 07:49:55.077   04 Jun 2027 07:51:34.157            99.080                  Delhi          3096.250
       242   04 Jun 2027 07:55:17.366   04 Jun 2027 07:56:22.528            65.162                  Delhi          2036.312
       243   04 Jun 2027 08:02:29.267   04 Jun 2027 08:03:02.447            33.180              Murmansk2          1036.875
       244   04 Jun 2027 08:03:07.528   04 Jun 2027 08:04:53.003           105.475                Irkutsk          3296.094
       245   04 Jun 2027 08:04:53.347   04 Jun 2027 08:05:54.618            61.271                 Moscow          1914.719
       246   04 Jun 2027 08:06:06.778   04 Jun 2027 08:07:37.242            90.464              Murmansk1          2827.000
       247   04 Jun 2027 08:07:37.242   04 Jun 2027 08:07:41.714             4.472              Murmansk2           139.750
       248   04 Jun 2027 08:07:50.457   04 Jun 2027 08:08:09.580            19.123                 Moscow           597.594
       249   04 Jun 2027 08:09:14.123   04 Jun 2027 08:09:14.500             0.377                 Moscow            11.781
       250   04 Jun 2027 08:49:10.295   04 Jun 2027 08:49:47.684            37.389            RioGallegos          1168.406
       251   04 Jun 2027 09:25:10.369   04 Jun 2027 09:27:38.209           147.840                  Delhi          4620.000
       252   04 Jun 2027 09:33:03.535   04 Jun 2027 09:34:06.667            63.132                  Delhi          1972.875
       253   04 Jun 2027 09:38:05.124   04 Jun 2027 09:38:34.509            29.385              Murmansk2           918.281
       254   04 Jun 2027 09:38:49.765   04 Jun 2027 09:39:20.602            30.837              Murmansk2           963.656
       255   04 Jun 2027 09:39:33.758   04 Jun 2027 09:40:02.230            28.472              Murmansk2           889.750
       256   04 Jun 2027 09:40:27.289   04 Jun 2027 09:40:55.688            28.399                Novosib           887.469
       257   04 Jun 2027 09:41:06.235   04 Jun 2027 09:41:07.690             1.455              Murmansk2            45.469
       258   04 Jun 2027 09:41:19.429   04 Jun 2027 09:41:46.977            27.548              Murmansk2           860.875
       259   04 Jun 2027 09:41:56.382   04 Jun 2027 09:41:59.009             2.627                Norilsk            82.094
       260   04 Jun 2027 09:42:08.388   04 Jun 2027 09:42:21.970            13.582              Murmansk2           424.437
       261   04 Jun 2027 09:42:32.296   04 Jun 2027 09:42:32.872             0.576                Novosib            18.000
       262   04 Jun 2027 09:42:35.965   04 Jun 2027 09:43:06.367            30.402              Murmansk1           950.063
       263   04 Jun 2027 09:43:44.254   04 Jun 2027 09:44:36.609            52.355                 Moscow          1636.094
       264   04 Jun 2027 11:13:00.112   04 Jun 2027 11:13:30.595            30.483              Murmansk2           952.594
       265   04 Jun 2027 11:14:44.254   04 Jun 2027 11:14:55.589            11.335                 Moscow           354.219
       266   04 Jun 2027 11:15:01.842   04 Jun 2027 11:15:18.650            16.808              Murmansk1           525.250
       267   04 Jun 2027 11:15:28.953   04 Jun 2027 11:16:07.016            38.063                 Moscow          1189.469
       268   04 Jun 2027 11:16:17.779   04 Jun 2027 11:17:04.098            46.319                 Moscow          1447.469
       269   04 Jun 2027 11:17:26.509   04 Jun 2027 11:18:27.737            61.228              Murmansk1          1913.375
       270   04 Jun 2027 12:23:15.165   04 Jun 2027 12:27:06.756           231.591               CapeTown          7237.219
       271   04 Jun 2027 12:28:37.323   04 Jun 2027 12:29:28.861            51.538               CapeTown          1610.562
       272   04 Jun 2027 12:50:05.386   04 Jun 2027 12:51:11.649            66.263              Murmansk2          2070.719
       273   04 Jun 2027 12:57:07.929   04 Jun 2027 12:57:11.763             3.834              Murmansk2           119.812
       274   04 Jun 2027 13:03:32.085   04 Jun 2027 13:05:35.262           123.177                Anadyr1          3849.281
       275   04 Jun 2027 13:05:44.457   04 Jun 2027 13:09:39.827           235.370                Anadyr2          7355.313
       276   04 Jun 2027 13:11:29.637   04 Jun 2027 13:12:44.838            75.201                Anadyr2          2350.031
       277   04 Jun 2027 14:39:11.642   04 Jun 2027 14:40:25.120            73.478                Anadyr2          2296.187
       278   04 Jun 2027 14:40:38.193   04 Jun 2027 14:41:18.742            40.549                Anadyr1          1267.156
       279   04 Jun 2027 14:41:48.913   04 Jun 2027 14:42:06.039            17.126                Anadyr1           535.188
       280   04 Jun 2027 14:42:15.390   04 Jun 2027 14:51:24.591           549.201               Magadan2         17162.531
       281   04 Jun 2027 16:17:25.692   04 Jun 2027 16:18:04.679            38.987               Magadan1          1218.344
       282   04 Jun 2027 16:21:25.590   04 Jun 2027 16:21:47.393            21.803               Magadan1           681.344
       283   04 Jun 2027 17:11:06.373   04 Jun 2027 17:17:18.785           372.412            RioGallegos         11637.875
       284   04 Jun 2027 17:54:34.430   04 Jun 2027 17:55:18.658            44.228                Norilsk          1382.125
       285   04 Jun 2027 17:57:55.902   04 Jun 2027 18:05:36.697           460.795                Irkutsk         14399.844
       286   04 Jun 2027 18:12:42.372   04 Jun 2027 18:21:42.955           540.583                Sumatra         16893.219
       287   04 Jun 2027 19:37:08.614   04 Jun 2027 19:39:20.327           131.713                Novosib          4116.031
       288   04 Jun 2027 19:43:02.868   04 Jun 2027 19:49:27.348           384.480                  Delhi         12015.000
       289   04 Jun 2027 21:07:46.049   04 Jun 2027 21:13:22.824           336.775              Murmansk1         10524.219
       290   04 Jun 2027 22:46:15.193   04 Jun 2027 22:47:10.370            55.177              Murmansk1          1724.281
       291   04 Jun 2027 22:54:24.128   04 Jun 2027 22:55:04.644            40.516                 Moscow          1266.125
       292   04 Jun 2027 23:12:40.055   04 Jun 2027 23:12:48.254             8.199               CapeTown           256.219
       293   04 Jun 2027 23:14:27.343   04 Jun 2027 23:20:28.565           361.222               CapeTown         11288.188
       294   05 Jun 2027 01:58:20.111   05 Jun 2027 01:58:36.399            16.288                 Moscow           509.000
       295   05 Jun 2027 01:59:19.725   05 Jun 2027 01:59:21.336             1.611              Murmansk1            50.344
       296   05 Jun 2027 01:59:47.414   05 Jun 2027 02:00:05.954            18.540                 Moscow           579.375
       297   05 Jun 2027 02:02:24.346   05 Jun 2027 02:02:53.343            28.997                 Moscow           906.156
       298   05 Jun 2027 02:26:35.072   05 Jun 2027 02:27:43.869            68.797               CapeTown          2149.906
       299   05 Jun 2027 02:28:55.286   05 Jun 2027 02:29:09.772            14.486               CapeTown           452.688
       300   05 Jun 2027 03:25:19.282   05 Jun 2027 03:26:49.519            90.237               Magadan2          2819.906
       301   05 Jun 2027 03:27:05.755   05 Jun 2027 03:29:22.854           137.099                Anadyr2          4284.344
       302   05 Jun 2027 03:29:58.495   05 Jun 2027 03:30:23.232            24.737                Anadyr1           773.031
       303   05 Jun 2027 03:30:31.279   05 Jun 2027 03:31:20.953            49.674               Magadan2          1552.313
       304   05 Jun 2027 04:59:21.761   05 Jun 2027 05:00:02.419            40.658                Irkutsk          1270.562
       305   05 Jun 2027 05:02:02.628   05 Jun 2027 05:02:34.790            32.162                Irkutsk          1005.062
       306   05 Jun 2027 05:02:38.071   05 Jun 2027 05:03:49.621            71.550                Novosib          2235.937
       307   05 Jun 2027 05:03:58.781   05 Jun 2027 05:04:09.144            10.363                Norilsk           323.844
       308   05 Jun 2027 05:04:12.312   05 Jun 2027 05:05:18.329            66.017               Magadan1          2063.031
       309   05 Jun 2027 05:05:18.329   05 Jun 2027 05:05:52.265            33.936               Magadan2          1060.500
       310   05 Jun 2027 05:05:53.765   05 Jun 2027 05:07:47.866           114.101              Murmansk2          3565.656
       311   05 Jun 2027 05:41:54.831   05 Jun 2027 05:44:15.881           141.050            RioGallegos          4407.812
       312   05 Jun 2027 05:45:41.445   05 Jun 2027 05:46:08.378            26.933            RioGallegos           841.656
       313   05 Jun 2027 06:18:20.080   05 Jun 2027 06:19:00.421            40.341                Sumatra          1260.656
       314   05 Jun 2027 06:19:07.479   05 Jun 2027 06:21:18.675           131.196                Sumatra          4099.875
       315   05 Jun 2027 06:24:26.182   05 Jun 2027 06:25:37.075            70.893                Sumatra          2215.406
       316   05 Jun 2027 06:38:14.497   05 Jun 2027 06:43:26.534           312.037                Novosib          9751.156
       317   05 Jun 2027 06:43:32.638   05 Jun 2027 06:43:44.069            11.431                Norilsk           357.219
       318   05 Jun 2027 07:18:29.814   05 Jun 2027 07:18:45.889            16.075            RioGallegos           502.344
       319   05 Jun 2027 07:19:57.929   05 Jun 2027 07:20:35.953            38.024            RioGallegos          1188.250
       320   05 Jun 2027 07:52:49.027   05 Jun 2027 07:54:05.798            76.771                Sumatra          2399.094
       321   05 Jun 2027 07:55:24.879   05 Jun 2027 07:56:28.477            63.598                Sumatra          1987.437
       322   05 Jun 2027 08:01:31.416   05 Jun 2027 08:05:15.461           224.045                  Delhi          7001.406
       323   05 Jun 2027 08:14:17.262   05 Jun 2027 08:15:10.229            52.967              Murmansk2          1655.219
       324   05 Jun 2027 08:15:14.159   05 Jun 2027 08:16:13.710            59.551              Murmansk1          1860.969
       325   05 Jun 2027 08:16:23.861   05 Jun 2027 08:17:05.817            41.956                 Moscow          1311.125
       326   05 Jun 2027 08:17:17.857   05 Jun 2027 08:18:35.323            77.466                Novosib          2420.813
       327   05 Jun 2027 08:19:58.559   05 Jun 2027 08:20:51.345            52.786                 Moscow          1649.563
       328   05 Jun 2027 09:37:33.289   05 Jun 2027 09:41:03.090           209.801                  Delhi          6556.281
       329   05 Jun 2027 09:50:14.637   05 Jun 2027 09:51:37.606            82.969                 Moscow          2592.781
       330   05 Jun 2027 09:52:02.626   05 Jun 2027 09:52:29.109            26.483              Murmansk2           827.594
       331   05 Jun 2027 09:52:56.270   05 Jun 2027 09:53:07.543            11.273                Norilsk           352.281
       332   05 Jun 2027 09:53:15.927   05 Jun 2027 09:53:17.940             2.013              Murmansk2            62.906
       333   05 Jun 2027 09:53:28.875   05 Jun 2027 09:54:43.452            74.577                Novosib          2330.531
       334   05 Jun 2027 11:28:16.676   05 Jun 2027 11:28:29.209            12.533                 Moscow           391.656
       335   05 Jun 2027 11:28:42.756   05 Jun 2027 11:29:09.397            26.641                 Moscow           832.531
       336   05 Jun 2027 11:30:54.892   05 Jun 2027 11:30:58.460             3.568                 Moscow           111.500
       337   05 Jun 2027 11:34:03.612   05 Jun 2027 11:34:26.309            22.697              Murmansk2           709.281
       338   05 Jun 2027 11:41:40.475   05 Jun 2027 11:44:17.776           157.301                Anadyr2          4915.656
       339   05 Jun 2027 12:35:02.085   05 Jun 2027 12:36:17.848            75.763               CapeTown          2367.594
       340   05 Jun 2027 12:37:18.638   05 Jun 2027 12:38:59.289           100.651               CapeTown          3145.344
       341   05 Jun 2027 13:02:27.086   05 Jun 2027 13:03:02.589            35.503              Murmansk2          1109.469
       342   05 Jun 2027 13:03:09.671   05 Jun 2027 13:03:50.513            40.842              Murmansk2          1276.313
       343   05 Jun 2027 13:15:29.111   05 Jun 2027 13:17:17.992           108.881                Anadyr1          3402.531
       344   05 Jun 2027 13:17:32.116   05 Jun 2027 13:19:15.651           103.535                Anadyr2          3235.469
       345   05 Jun 2027 13:19:45.258   05 Jun 2027 13:21:59.622           134.364                Anadyr2          4198.875
       346   05 Jun 2027 14:51:12.602   05 Jun 2027 14:52:24.294            71.692                Anadyr1          2240.375
       347   05 Jun 2027 14:52:26.436   05 Jun 2027 14:53:45.749            79.313                Anadyr2          2478.531
       348   05 Jun 2027 14:53:56.886   05 Jun 2027 14:54:24.376            27.490                Anadyr1           859.063
       349   05 Jun 2027 14:55:38.489   05 Jun 2027 14:59:55.381           256.892               Magadan2          8027.875
       350   05 Jun 2027 14:59:56.800   05 Jun 2027 15:03:33.463           216.663               Magadan1          6770.719
       351   05 Jun 2027 16:29:25.603   05 Jun 2027 16:31:04.745            99.142               Magadan2          3098.188
       352   05 Jun 2027 17:22:31.282   05 Jun 2027 17:30:10.614           459.332            RioGallegos         14354.125
       353   05 Jun 2027 18:09:39.814   05 Jun 2027 18:11:14.878            95.064                Irkutsk          2970.750
       354   05 Jun 2027 18:12:48.663   05 Jun 2027 18:17:40.972           292.309                Irkutsk          9134.656
       355   05 Jun 2027 18:26:57.006   05 Jun 2027 18:31:27.309           270.303                Sumatra          8446.969
       356   05 Jun 2027 19:46:11.953   05 Jun 2027 19:46:45.575            33.622                Novosib          1050.688
       357   05 Jun 2027 19:47:16.054   05 Jun 2027 19:48:18.516            62.462                Novosib          1951.938
       358   05 Jun 2027 19:54:06.693   05 Jun 2027 20:02:35.612           508.919                  Delhi         15903.719
       359   05 Jun 2027 21:19:35.458   05 Jun 2027 21:20:20.788            45.330              Murmansk2          1416.562
       360   05 Jun 2027 21:20:55.168   05 Jun 2027 21:25:31.587           276.419              Murmansk1          8638.094
       361   05 Jun 2027 22:59:05.945   05 Jun 2027 23:00:45.060            99.115              Murmansk1          3097.344
       362   05 Jun 2027 23:05:27.276   05 Jun 2027 23:05:33.779             6.503                 Moscow           203.219
       363   05 Jun 2027 23:07:08.636   05 Jun 2027 23:07:12.179             3.543                 Moscow           110.719
       364   05 Jun 2027 23:23:59.933   05 Jun 2027 23:26:31.841           151.908               CapeTown          4747.125
       365   05 Jun 2027 23:26:59.575   05 Jun 2027 23:31:11.546           251.971               CapeTown          7874.094
       366   06 Jun 2027 01:54:56.964   06 Jun 2027 01:55:01.277             4.313                Anadyr2           134.781
       367   06 Jun 2027 01:55:29.339   06 Jun 2027 01:56:19.858            50.519               Magadan1          1578.719
       368   06 Jun 2027 01:56:19.858   06 Jun 2027 01:56:53.308            33.450               Magadan2          1045.313
       369   06 Jun 2027 01:57:11.422   06 Jun 2027 01:57:18.356             6.934               Magadan1           216.687
       370   06 Jun 2027 01:57:45.624   06 Jun 2027 01:58:06.995            21.371               Magadan2           667.844
       371   06 Jun 2027 02:01:04.247   06 Jun 2027 02:01:26.838            22.591               Magadan1           705.969
       372   06 Jun 2027 02:04:13.601   06 Jun 2027 02:04:49.268            35.667               Magadan1          1114.594
       373   06 Jun 2027 02:06:54.884   06 Jun 2027 02:07:36.014            41.130              Murmansk2          1285.312
       374   06 Jun 2027 02:08:43.804   06 Jun 2027 02:08:58.407            14.603              Murmansk1           456.344
       375   06 Jun 2027 02:10:25.408   06 Jun 2027 02:11:37.468            72.060                 Moscow          2251.875
       376   06 Jun 2027 02:14:17.840   06 Jun 2027 02:14:39.534            21.694                 Moscow           677.938
       377   06 Jun 2027 02:18:08.583   06 Jun 2027 02:18:30.717            22.134                 Moscow           691.687
       378   06 Jun 2027 03:37:47.817   06 Jun 2027 03:40:37.954           170.137                Anadyr1          5316.781
       379   06 Jun 2027 03:40:56.718   06 Jun 2027 03:41:24.999            28.281               Magadan1           883.781
       380   06 Jun 2027 03:41:37.913   06 Jun 2027 03:42:09.637            31.724                Anadyr1           991.375
       381   06 Jun 2027 03:42:24.718   06 Jun 2027 03:42:55.022            30.304                Anadyr1           947.000
       382   06 Jun 2027 05:14:34.233   06 Jun 2027 05:14:35.189             0.956               Magadan2            29.875
       383   06 Jun 2027 05:14:38.927   06 Jun 2027 05:15:04.537            25.610                Norilsk           800.312
       384   06 Jun 2027 05:15:12.312   06 Jun 2027 05:16:13.324            61.012                Irkutsk          1906.625
       385   06 Jun 2027 05:16:19.818   06 Jun 2027 05:17:19.352            59.534               Magadan2          1860.437
       386   06 Jun 2027 05:17:19.352   06 Jun 2027 05:18:36.978            77.626               Magadan1          2425.812
       387   06 Jun 2027 05:18:48.018   06 Jun 2027 05:19:04.924            16.906              Murmansk2           528.313
       388   06 Jun 2027 05:19:23.441   06 Jun 2027 05:19:48.269            24.828                Norilsk           775.875
       389   06 Jun 2027 05:20:12.421   06 Jun 2027 05:20:38.026            25.605                Norilsk           800.156
       390   06 Jun 2027 05:23:27.135   06 Jun 2027 05:24:03.709            36.574                Norilsk          1142.938
       391   06 Jun 2027 05:53:49.098   06 Jun 2027 05:57:01.612           192.514            RioGallegos          6016.062
       392   06 Jun 2027 06:29:45.072   06 Jun 2027 06:33:09.202           204.130                Sumatra          6379.063
       393   06 Jun 2027 06:50:00.859   06 Jun 2027 06:50:40.562            39.703                Irkutsk          1240.719
       394   06 Jun 2027 06:51:14.106   06 Jun 2027 06:52:02.069            47.963                Norilsk          1498.844
       395   06 Jun 2027 06:52:03.067   06 Jun 2027 06:52:39.992            36.925                Novosib          1153.906
       396   06 Jun 2027 06:52:52.992   06 Jun 2027 06:56:31.044           218.052                Novosib          6814.125
       397   06 Jun 2027 07:32:33.502   06 Jun 2027 07:32:40.774             7.272            RioGallegos           227.250
       398   06 Jun 2027 07:33:16.926   06 Jun 2027 07:33:32.561            15.635            RioGallegos           488.594
       399   06 Jun 2027 07:34:04.531   06 Jun 2027 07:35:26.125            81.594            RioGallegos          2549.813
       400   06 Jun 2027 08:05:07.709   06 Jun 2027 08:05:52.820            45.111                Sumatra          1409.719
       401   06 Jun 2027 08:07:41.816   06 Jun 2027 08:08:43.116            61.300                Sumatra          1915.625
       402   06 Jun 2027 08:14:38.685   06 Jun 2027 08:17:15.912           157.227                  Delhi          4913.344
       403   06 Jun 2027 08:26:43.637   06 Jun 2027 08:27:07.330            23.693                Irkutsk           740.406
       404   06 Jun 2027 08:27:11.321   06 Jun 2027 08:27:32.624            21.303                Novosib           665.719
       405   06 Jun 2027 08:27:39.765   06 Jun 2027 08:27:50.123            10.358              Murmansk2           323.687
       406   06 Jun 2027 08:27:50.811   06 Jun 2027 08:28:05.489            14.678                Novosib           458.687
       407   06 Jun 2027 08:28:15.737   06 Jun 2027 08:29:26.069            70.332                Novosib          2197.875
       408   06 Jun 2027 08:29:40.868   06 Jun 2027 08:29:49.232             8.364                Irkutsk           261.375
       409   06 Jun 2027 08:29:53.207   06 Jun 2027 08:30:43.166            49.959              Murmansk2          1561.219
       410   06 Jun 2027 08:31:12.748   06 Jun 2027 08:31:38.944            26.196                 Moscow           818.625
       411   06 Jun 2027 09:50:04.633   06 Jun 2027 09:52:32.185           147.552                  Delhi          4611.000
       412   06 Jun 2027 09:53:06.522   06 Jun 2027 09:53:14.116             7.594                  Delhi           237.312
       413   06 Jun 2027 09:53:58.660   06 Jun 2027 09:54:25.515            26.855                  Delhi           839.219
       414   06 Jun 2027 10:02:29.572   06 Jun 2027 10:02:37.305             7.733              Murmansk1           241.656
       415   06 Jun 2027 10:02:45.504   06 Jun 2027 10:03:18.309            32.805                Novosib          1025.156
       416   06 Jun 2027 10:03:20.919   06 Jun 2027 10:03:50.310            29.391                 Moscow           918.469
       417   06 Jun 2027 10:04:03.287   06 Jun 2027 10:04:21.009            17.722              Murmansk2           553.813
       418   06 Jun 2027 10:04:21.009   06 Jun 2027 10:05:03.571            42.562              Murmansk1          1330.063
       419   06 Jun 2027 10:05:10.455   06 Jun 2027 10:05:16.894             6.439              Murmansk1           201.219
       420   06 Jun 2027 10:05:22.720   06 Jun 2027 10:05:51.500            28.780              Murmansk1           899.375
       421   06 Jun 2027 10:06:20.697   06 Jun 2027 10:06:27.865             7.168                Norilsk           224.000
       422   06 Jun 2027 10:07:03.672   06 Jun 2027 10:07:09.756             6.084              Murmansk2           190.125
       423   06 Jun 2027 10:08:03.448   06 Jun 2027 10:08:19.459            16.011              Murmansk2           500.344
       424   06 Jun 2027 10:08:47.548   06 Jun 2027 10:09:29.050            41.502                 Moscow          1296.937
       425   06 Jun 2027 11:52:54.369   06 Jun 2027 11:57:44.984           290.615                Anadyr2          9081.719
       426   06 Jun 2027 13:14:51.103   06 Jun 2027 13:16:37.159           106.056              Murmansk1          3314.250
       427   06 Jun 2027 13:27:27.067   06 Jun 2027 13:31:45.158           258.091                Anadyr1          8065.344
       428   06 Jun 2027 13:33:04.187   06 Jun 2027 13:34:02.144            57.957                Anadyr2          1811.156
       429   06 Jun 2027 14:55:40.546   06 Jun 2027 14:56:53.183            72.637              Murmansk1          2269.906
       430   06 Jun 2027 15:03:13.724   06 Jun 2027 15:04:23.989            70.265                Anadyr2          2195.781
       431   06 Jun 2027 15:05:29.402   06 Jun 2027 15:06:30.646            61.244                Anadyr2          1913.875
       432   06 Jun 2027 15:06:33.253   06 Jun 2027 15:08:41.294           128.041               Magadan2          4001.281
       433   06 Jun 2027 15:09:28.688   06 Jun 2027 15:11:40.219           131.531               Magadan1          4110.344
       434   06 Jun 2027 15:11:58.365   06 Jun 2027 15:12:18.135            19.770               Magadan2           617.813
       435   06 Jun 2027 15:12:48.442   06 Jun 2027 15:16:32.477           224.035               Magadan2          7001.094
       436   06 Jun 2027 16:41:25.993   06 Jun 2027 16:43:45.288           139.295               Magadan2          4352.969
       437   06 Jun 2027 17:34:07.409   06 Jun 2027 17:40:42.578           395.169            RioGallegos         12349.031
       438   06 Jun 2027 18:17:02.701   06 Jun 2027 18:20:08.263           185.562                Norilsk          5798.812
       439   06 Jun 2027 18:21:27.756   06 Jun 2027 18:22:16.850            49.094                Irkutsk          1534.188
       440   06 Jun 2027 18:22:42.995   06 Jun 2027 18:23:24.055            41.060                Irkutsk          1283.125
       441   06 Jun 2027 18:24:50.814   06 Jun 2027 18:25:22.654            31.840                Irkutsk           995.000
       442   06 Jun 2027 18:35:31.373   06 Jun 2027 18:39:06.642           215.269                Sumatra          6727.156
       443   06 Jun 2027 18:40:39.685   06 Jun 2027 18:42:19.764           100.079                Sumatra          3127.469
       444   06 Jun 2027 19:57:07.510   06 Jun 2027 19:58:33.690            86.180                Novosib          2693.125
       445   06 Jun 2027 19:59:22.554   06 Jun 2027 20:00:45.678            83.124                Novosib          2597.625
       446   06 Jun 2027 20:05:29.438   06 Jun 2027 20:05:39.312             9.874                  Delhi           308.563
       447   06 Jun 2027 20:06:07.809   06 Jun 2027 20:12:49.320           401.511                  Delhi         12547.219
       448   06 Jun 2027 21:31:28.425   06 Jun 2027 21:33:36.656           128.231              Murmansk2          4007.219
       449   06 Jun 2027 21:35:06.701   06 Jun 2027 21:37:11.374           124.673              Murmansk2          3896.031
       450   06 Jun 2027 21:37:18.502   06 Jun 2027 21:38:57.228            98.726              Murmansk1          3085.187
       451   06 Jun 2027 23:10:34.000   06 Jun 2027 23:11:53.147            79.147                 Moscow          2473.344
       452   06 Jun 2027 23:12:56.340   06 Jun 2027 23:14:18.580            82.240                 Moscow          2570.000
       453   06 Jun 2027 23:35:28.025   06 Jun 2027 23:36:42.742            74.717               CapeTown          2334.906
       454   06 Jun 2027 23:38:47.223   06 Jun 2027 23:40:56.019           128.796               CapeTown          4024.875
       455   06 Jun 2027 23:41:01.302   06 Jun 2027 23:42:16.003            74.701               CapeTown          2334.406
       456   07 Jun 2027 00:56:53.112   07 Jun 2027 00:56:58.517             5.405                 Moscow           168.906
       457   07 Jun 2027 00:58:52.105   07 Jun 2027 00:58:59.233             7.128                 Moscow           222.750
       458   07 Jun 2027 01:10:21.826   07 Jun 2027 01:11:32.643            70.817               CapeTown          2213.031
       459   07 Jun 2027 01:14:17.691   07 Jun 2027 01:14:28.279            10.588               CapeTown           330.875
       460   07 Jun 2027 01:18:38.439   07 Jun 2027 01:19:26.997            48.558               CapeTown          1517.438
       461   07 Jun 2027 02:07:15.834   07 Jun 2027 02:09:12.889           117.055               Magadan2          3657.969
       462   07 Jun 2027 02:09:57.510   07 Jun 2027 02:10:03.284             5.774               Magadan2           180.437
       463   07 Jun 2027 02:12:14.272   07 Jun 2027 02:12:34.172            19.900               Magadan1           621.875
       464   07 Jun 2027 02:14:07.493   07 Jun 2027 02:14:15.900             8.407               Magadan1           262.719
       465   07 Jun 2027 02:15:09.978   07 Jun 2027 02:15:18.564             8.586                Norilsk           268.312
       466   07 Jun 2027 02:16:48.305   07 Jun 2027 02:16:50.936             2.631                Norilsk            82.219
       467   07 Jun 2027 02:17:06.771   07 Jun 2027 02:17:45.409            38.638                Norilsk          1207.438
       468   07 Jun 2027 02:18:55.352   07 Jun 2027 02:19:14.367            19.015              Murmansk2           594.219
       469   07 Jun 2027 02:19:14.367   07 Jun 2027 02:20:04.303            49.936              Murmansk1          1560.500
       470   07 Jun 2027 02:22:31.275   07 Jun 2027 02:23:22.250            50.975                 Moscow          1592.969
       471   07 Jun 2027 02:24:50.052   07 Jun 2027 02:26:02.737            72.685                 Moscow          2271.406
       472   07 Jun 2027 03:50:04.236   07 Jun 2027 03:51:06.019            61.783               Magadan2          1930.719
       473   07 Jun 2027 03:51:06.019   07 Jun 2027 03:52:02.396            56.377               Magadan1          1761.781
       474   07 Jun 2027 03:52:02.396   07 Jun 2027 03:52:12.797            10.401               Magadan2           325.031
       475   07 Jun 2027 03:52:21.704   07 Jun 2027 03:52:38.191            16.487               Magadan1           515.219
       476   07 Jun 2027 03:52:38.191   07 Jun 2027 03:52:56.372            18.181               Magadan2           568.156
       477   07 Jun 2027 03:53:25.972   07 Jun 2027 03:53:43.192            17.220               Magadan2           538.125
       478   07 Jun 2027 03:54:24.273   07 Jun 2027 03:55:22.228            57.955               Magadan1          1811.094
       479   07 Jun 2027 05:26:38.030   07 Jun 2027 05:27:00.209            22.179                Norilsk           693.094
       480   07 Jun 2027 05:27:07.581   07 Jun 2027 05:29:44.367           156.786               Magadan1          4899.563
       481   07 Jun 2027 05:29:44.367   07 Jun 2027 05:30:08.933            24.566               Magadan2           767.687
       482   07 Jun 2027 05:30:30.186   07 Jun 2027 05:32:56.481           146.295              Murmansk2          4571.719
