uniorb/output/strategy_1/Drop/Drop_KinoSat_110908.txt

KinoSat_110908
-------------------------
    Access    *     Start Time (UTCG)     *     Stop Time (UTCG)  *   Duration (s)        *       Station  *  Data (Mbytes)
         1   01 Jun 2027 03:02:47.840   01 Jun 2027 03:03:27.938            40.098                Anadyr2          1253.062
         2   01 Jun 2027 03:03:51.803   01 Jun 2027 03:04:13.851            22.048                Anadyr2           689.000
         3   01 Jun 2027 03:04:13.851   01 Jun 2027 03:05:15.437            61.586                Anadyr1          1924.562
         4   01 Jun 2027 03:05:23.284   01 Jun 2027 03:05:39.257            15.973                Anadyr2           499.156
         5   01 Jun 2027 03:06:54.669   01 Jun 2027 03:07:14.108            19.439                Anadyr2           607.469
         6   01 Jun 2027 04:37:57.811   01 Jun 2027 04:38:02.266             4.455               Magadan1           139.219
         7   01 Jun 2027 04:38:13.295   01 Jun 2027 04:40:40.623           147.328               Magadan2          4604.000
         8   01 Jun 2027 04:40:52.644   01 Jun 2027 04:40:59.121             6.477               Magadan1           202.406
         9   01 Jun 2027 04:41:05.519   01 Jun 2027 04:43:09.770           124.251                Anadyr1          3882.844
        10   01 Jun 2027 04:43:12.972   01 Jun 2027 04:43:37.438            24.466               Magadan1           764.562
        11   01 Jun 2027 04:44:20.712   01 Jun 2027 04:44:23.145             2.433              Murmansk1            76.031
        12   01 Jun 2027 04:44:31.014   01 Jun 2027 04:44:36.154             5.140              Murmansk1           160.625
        13   01 Jun 2027 04:44:40.673   01 Jun 2027 04:44:58.744            18.071               Magadan1           564.719
        14   01 Jun 2027 04:46:29.890   01 Jun 2027 04:47:09.719            39.829                Norilsk          1244.656
        15   01 Jun 2027 06:12:41.550   01 Jun 2027 06:14:58.854           137.304               Magadan1          4290.750
        16   01 Jun 2027 06:15:03.252   01 Jun 2027 06:15:27.437            24.185               Magadan2           755.781
        17   01 Jun 2027 06:15:39.793   01 Jun 2027 06:16:07.617            27.824                Anadyr1           869.500
        18   01 Jun 2027 06:16:07.617   01 Jun 2027 06:17:23.410            75.793                Anadyr2          2368.531
        19   01 Jun 2027 06:17:26.981   01 Jun 2027 06:17:52.109            25.128                Novosib           785.250
        20   01 Jun 2027 06:17:58.414   01 Jun 2027 06:18:20.760            22.346                Anadyr1           698.313
        21   01 Jun 2027 06:18:24.744   01 Jun 2027 06:20:07.179           102.435                Anadyr2          3201.094
        22   01 Jun 2027 06:20:09.030   01 Jun 2027 06:20:28.780            19.750              Murmansk2           617.188
        23   01 Jun 2027 06:20:34.120   01 Jun 2027 06:22:01.105            86.985              Murmansk1          2718.281
        24   01 Jun 2027 06:58:32.763   01 Jun 2027 06:58:44.462            11.699            RioGallegos           365.594
        25   01 Jun 2027 07:50:31.349   01 Jun 2027 07:52:25.893           114.544                Irkutsk          3579.500
        26   01 Jun 2027 07:53:24.212   01 Jun 2027 07:53:45.997            21.785               Magadan1           680.781
        27   01 Jun 2027 07:53:47.791   01 Jun 2027 07:54:33.379            45.588                Novosib          1424.625
        28   01 Jun 2027 07:54:57.863   01 Jun 2027 07:58:22.954           205.091                Norilsk          6409.094
        29   01 Jun 2027 07:58:54.564   01 Jun 2027 08:00:46.569           112.005              Murmansk2          3500.156
        30   01 Jun 2027 08:31:40.508   01 Jun 2027 08:33:01.250            80.742            RioGallegos          2523.188
        31   01 Jun 2027 08:34:28.874   01 Jun 2027 08:34:49.395            20.521            RioGallegos           641.281
        32   01 Jun 2027 08:35:18.369   01 Jun 2027 08:36:17.751            59.382            RioGallegos          1855.687
        33   01 Jun 2027 09:06:13.800   01 Jun 2027 09:06:18.694             4.894                Sumatra           152.938
        34   01 Jun 2027 09:09:20.661   01 Jun 2027 09:10:23.972            63.311                Sumatra          1978.469
        35   01 Jun 2027 09:15:58.157   01 Jun 2027 09:16:47.069            48.912                  Delhi          1528.500
        36   01 Jun 2027 09:16:47.378   01 Jun 2027 09:17:43.575            56.197                  Delhi          1756.156
        37   01 Jun 2027 09:28:19.840   01 Jun 2027 09:30:53.981           154.141              Murmansk1          4816.906
        38   01 Jun 2027 09:30:53.981   01 Jun 2027 09:32:21.030            87.049              Murmansk2          2720.281
        39   01 Jun 2027 09:32:33.824   01 Jun 2027 09:34:46.138           132.314                 Moscow          4134.813
        40   01 Jun 2027 09:34:57.356   01 Jun 2027 09:35:24.728            27.372              Murmansk2           855.375
        41   01 Jun 2027 09:37:44.510   01 Jun 2027 09:37:50.373             5.863              Murmansk1           183.219
        42   01 Jun 2027 10:12:43.327   01 Jun 2027 10:13:00.144            16.817            RioGallegos           525.531
        43   01 Jun 2027 10:14:06.397   01 Jun 2027 10:14:56.082            49.685            RioGallegos          1552.656
        44   01 Jun 2027 10:50:39.610   01 Jun 2027 10:52:18.694            99.084                  Delhi          3096.375
        45   01 Jun 2027 11:05:29.215   01 Jun 2027 11:06:16.888            47.673              Murmansk2          1489.781
        46   01 Jun 2027 11:06:31.606   01 Jun 2027 11:08:21.973           110.367              Murmansk1          3448.969
        47   01 Jun 2027 11:08:21.973   01 Jun 2027 11:09:46.007            84.034              Murmansk2          2626.063
        48   01 Jun 2027 12:34:48.570   01 Jun 2027 12:37:30.532           161.962                 Moscow          5061.312
        49   01 Jun 2027 12:38:07.512   01 Jun 2027 12:39:03.431            55.919                 Moscow          1747.469
        50   01 Jun 2027 12:39:09.667   01 Jun 2027 12:42:36.975           207.308              Murmansk1          6478.375
        51   01 Jun 2027 12:42:46.432   01 Jun 2027 12:43:18.300            31.868              Murmansk2           995.875
        52   01 Jun 2027 13:49:08.991   01 Jun 2027 13:52:35.013           206.022               CapeTown          6438.188
        53   01 Jun 2027 13:52:56.207   01 Jun 2027 13:54:12.188            75.981               CapeTown          2374.406
        54   01 Jun 2027 13:55:21.304   01 Jun 2027 13:55:37.794            16.490               CapeTown           515.312
        55   01 Jun 2027 14:15:32.381   01 Jun 2027 14:17:25.843           113.462              Murmansk1          3545.687
        56   01 Jun 2027 14:17:55.940   01 Jun 2027 14:19:02.861            66.921              Murmansk2          2091.281
        57   01 Jun 2027 14:29:16.101   01 Jun 2027 14:31:54.759           158.658                Anadyr1          4958.063
        58   01 Jun 2027 15:24:22.864   01 Jun 2027 15:26:02.646            99.782               CapeTown          3118.188
        59   01 Jun 2027 15:57:29.386   01 Jun 2027 15:58:59.710            90.324              Murmansk2          2822.625
        60   01 Jun 2027 16:04:52.437   01 Jun 2027 16:06:52.700           120.263                Anadyr1          3758.219
        61   01 Jun 2027 16:07:49.681   01 Jun 2027 16:08:23.659            33.978                Anadyr1          1061.812
        62   01 Jun 2027 16:09:20.948   01 Jun 2027 16:11:39.454           138.506               Magadan1          4328.312
        63   01 Jun 2027 16:12:19.174   01 Jun 2027 16:14:07.702           108.528               Magadan2          3391.500
        64   01 Jun 2027 17:40:47.448   01 Jun 2027 17:42:29.066           101.618                Anadyr1          3175.563
        65   01 Jun 2027 17:42:36.208   01 Jun 2027 17:43:40.570            64.362                Anadyr2          2011.313
        66   01 Jun 2027 17:43:55.732   01 Jun 2027 17:45:16.163            80.431               Magadan2          2513.469
        67   01 Jun 2027 17:46:40.058   01 Jun 2027 17:47:49.592            69.534               Magadan2          2172.937
        68   01 Jun 2027 18:37:26.975   01 Jun 2027 18:39:47.971           140.996            RioGallegos          4406.125
        69   01 Jun 2027 19:16:36.952   01 Jun 2027 19:18:24.264           107.312                Anadyr1          3353.500
        70   01 Jun 2027 19:18:49.516   01 Jun 2027 19:20:57.968           128.452                Norilsk          4014.125
        71   01 Jun 2027 19:21:09.514   01 Jun 2027 19:21:33.768            24.254               Magadan1           757.937
        72   01 Jun 2027 19:21:34.668   01 Jun 2027 19:22:45.098            70.430                Norilsk          2200.937
        73   01 Jun 2027 19:24:03.367   01 Jun 2027 19:25:37.653            94.286                Norilsk          2946.438
        74   01 Jun 2027 19:39:04.026   01 Jun 2027 19:41:11.624           127.598                Sumatra          3987.437
        75   01 Jun 2027 19:42:47.211   01 Jun 2027 19:44:37.173           109.962                Sumatra          3436.312
        76   01 Jun 2027 20:55:03.930   01 Jun 2027 20:55:23.572            19.642                Norilsk           613.813
        77   01 Jun 2027 20:55:45.190   01 Jun 2027 20:55:57.089            11.899                Norilsk           371.844
        78   01 Jun 2027 20:56:08.065   01 Jun 2027 20:56:35.381            27.316                Norilsk           853.625
        79   01 Jun 2027 20:58:27.749   01 Jun 2027 21:00:13.422           105.673                Irkutsk          3302.281
        80   01 Jun 2027 21:00:45.999   01 Jun 2027 21:02:49.503           123.504                Novosib          3859.500
        81   01 Jun 2027 21:09:53.240   01 Jun 2027 21:11:09.038            75.798                  Delhi          2368.688
        82   01 Jun 2027 22:27:41.222   01 Jun 2027 22:27:59.534            18.312                Anadyr1           572.250
        83   01 Jun 2027 22:31:05.465   01 Jun 2027 22:31:50.976            45.511               Magadan2          1422.219
        84   01 Jun 2027 22:33:37.908   01 Jun 2027 22:37:10.267           212.359              Murmansk2          6636.219
        85   01 Jun 2027 22:37:42.000   01 Jun 2027 22:38:23.969            41.969              Murmansk1          1311.531
        86   01 Jun 2027 22:41:41.430   01 Jun 2027 22:42:08.378            26.948                  Delhi           842.125
        87   01 Jun 2027 22:42:48.076   01 Jun 2027 22:44:21.684            93.608                  Delhi          2925.250
        88   01 Jun 2027 23:59:25.298   01 Jun 2027 23:59:31.530             6.232                Anadyr1           194.750
        89   02 Jun 2027 00:05:26.294   02 Jun 2027 00:05:39.501            13.207                Anadyr2           412.719
        90   02 Jun 2027 00:06:05.282   02 Jun 2027 00:06:58.679            53.397               Magadan1          1668.656
        91   02 Jun 2027 00:07:39.618   02 Jun 2027 00:08:09.761            30.143               Magadan2           941.969
        92   02 Jun 2027 00:08:14.993   02 Jun 2027 00:08:28.470            13.477               Magadan1           421.156
        93   02 Jun 2027 00:08:43.465   02 Jun 2027 00:10:37.849           114.384              Murmansk1          3574.500
        94   02 Jun 2027 00:10:46.016   02 Jun 2027 00:11:02.381            16.365              Murmansk2           511.406
        95   02 Jun 2027 00:11:23.965   02 Jun 2027 00:11:58.184            34.219                Novosib          1069.344
        96   02 Jun 2027 00:12:35.126   02 Jun 2027 00:16:09.406           214.280                 Moscow          6696.250
        97   02 Jun 2027 00:38:57.343   02 Jun 2027 00:41:08.034           130.691               CapeTown          4084.094
        98   02 Jun 2027 01:37:11.156   02 Jun 2027 01:38:49.690            98.534               Magadan2          3079.188
        99   02 Jun 2027 01:44:37.855   02 Jun 2027 01:45:30.542            52.687              Murmansk2          1646.469
       100   02 Jun 2027 01:45:30.542   02 Jun 2027 01:46:15.125            44.583              Murmansk1          1393.219
       101   02 Jun 2027 01:47:04.376   02 Jun 2027 01:47:29.836            25.460                Novosib           795.625
       102   02 Jun 2027 01:47:51.328   02 Jun 2027 01:49:15.745            84.417                 Moscow          2638.031
       103   02 Jun 2027 02:11:44.126   02 Jun 2027 02:12:59.840            75.714               CapeTown          2366.062
       104   02 Jun 2027 03:08:29.072   02 Jun 2027 03:08:52.326            23.254                Anadyr2           726.688
       105   02 Jun 2027 03:09:18.201   02 Jun 2027 03:09:19.485             1.284                Anadyr1            40.125
       106   02 Jun 2027 03:09:19.485   02 Jun 2027 03:09:39.908            20.423                Anadyr2           638.219
       107   02 Jun 2027 03:14:28.251   02 Jun 2027 03:15:13.663            45.412               Magadan1          1419.125
       108   02 Jun 2027 03:15:28.659   02 Jun 2027 03:18:52.958           204.299                Anadyr1          6384.344
       109   02 Jun 2027 04:52:47.502   02 Jun 2027 04:53:28.884            41.382                Anadyr2          1293.188
       110   02 Jun 2027 04:53:41.781   02 Jun 2027 04:54:11.401            29.620               Magadan1           925.625
       111   02 Jun 2027 04:54:11.401   02 Jun 2027 04:56:43.684           152.283               Magadan2          4758.844
       112   02 Jun 2027 04:56:43.684   02 Jun 2027 04:57:01.613            17.929               Magadan1           560.281
       113   02 Jun 2027 06:23:30.399   02 Jun 2027 06:25:02.988            92.589                Irkutsk          2893.406
       114   02 Jun 2027 06:26:39.133   02 Jun 2027 06:26:51.509            12.376                Irkutsk           386.750
       115   02 Jun 2027 06:26:57.183   02 Jun 2027 06:28:52.195           115.012               Magadan1          3594.125
       116   02 Jun 2027 06:29:02.935   02 Jun 2027 06:31:34.531           151.596               Magadan1          4737.375
       117   02 Jun 2027 06:31:34.531   02 Jun 2027 06:32:32.703            58.172               Magadan2          1817.875
       118   02 Jun 2027 06:36:18.999   02 Jun 2027 06:36:27.398             8.399                Norilsk           262.469
       119   02 Jun 2027 07:07:42.503   02 Jun 2027 07:09:20.577            98.074            RioGallegos          3064.813
       120   02 Jun 2027 07:10:37.315   02 Jun 2027 07:10:45.362             8.047            RioGallegos           251.469
       121   02 Jun 2027 07:44:35.089   02 Jun 2027 07:45:24.715            49.626                Sumatra          1550.813
       122   02 Jun 2027 08:03:18.593   02 Jun 2027 08:04:41.292            82.699                Irkutsk          2584.344
       123   02 Jun 2027 08:05:00.129   02 Jun 2027 08:05:01.521             1.392               Magadan1            43.500
       124   02 Jun 2027 08:05:04.525   02 Jun 2027 08:05:22.363            17.838                Novosib           557.437
       125   02 Jun 2027 08:05:43.543   02 Jun 2027 08:09:42.491           238.948                Novosib          7467.125
       126   02 Jun 2027 08:43:56.787   02 Jun 2027 08:44:18.341            21.554            RioGallegos           673.563
       127   02 Jun 2027 09:18:21.336   02 Jun 2027 09:19:46.600            85.264                Sumatra          2664.500
       128   02 Jun 2027 09:27:29.415   02 Jun 2027 09:29:08.674            99.259                  Delhi          3101.844
       129   02 Jun 2027 09:40:32.664   02 Jun 2027 09:40:43.774            11.110              Murmansk1           347.188
       130   02 Jun 2027 09:40:43.774   02 Jun 2027 09:41:17.091            33.317              Murmansk2          1041.156
       131   02 Jun 2027 09:41:32.982   02 Jun 2027 09:43:55.123           142.141                Novosib          4441.906
       132   02 Jun 2027 09:44:04.782   02 Jun 2027 09:44:14.763             9.981              Murmansk1           311.906
       133   02 Jun 2027 09:44:25.909   02 Jun 2027 09:46:35.877           129.968                Norilsk          4061.500
       134   02 Jun 2027 09:46:48.089   02 Jun 2027 09:47:47.600            59.511              Murmansk1          1859.719
       135   02 Jun 2027 11:02:57.445   02 Jun 2027 11:06:21.550           204.105                  Delhi          6378.281
       136   02 Jun 2027 11:17:25.258   02 Jun 2027 11:18:11.852            46.594              Murmansk2          1456.063
       137   02 Jun 2027 11:18:13.054   02 Jun 2027 11:19:58.208           105.154                Novosib          3286.062
       138   02 Jun 2027 11:20:05.325   02 Jun 2027 11:21:28.848            83.523                Novosib          2610.094
       139   02 Jun 2027 12:46:51.555   02 Jun 2027 12:49:37.698           166.143                 Moscow          5191.969
       140   02 Jun 2027 12:50:08.408   02 Jun 2027 12:51:04.327            55.919                 Moscow          1747.469
       141   02 Jun 2027 12:51:07.125   02 Jun 2027 12:51:59.800            52.675              Murmansk2          1646.094
       142   02 Jun 2027 12:52:17.841   02 Jun 2027 12:54:03.612           105.771              Murmansk1          3305.344
       143   02 Jun 2027 12:54:39.822   02 Jun 2027 12:54:46.877             7.055              Murmansk1           220.469
       144   02 Jun 2027 12:57:22.473   02 Jun 2027 12:57:42.662            20.189                Norilsk           630.906
       145   02 Jun 2027 13:00:48.283   02 Jun 2027 13:00:59.860            11.577                Norilsk           361.781
       146   02 Jun 2027 14:00:52.460   02 Jun 2027 14:04:29.767           217.307               CapeTown          6790.844
       147   02 Jun 2027 14:11:45.141   02 Jun 2027 14:12:36.325            51.184               CapeTown          1599.500
       148   02 Jun 2027 14:27:52.514   02 Jun 2027 14:29:27.417            94.903              Murmansk2          2965.719
       149   02 Jun 2027 14:29:54.556   02 Jun 2027 14:31:17.317            82.761              Murmansk2          2586.281
       150   02 Jun 2027 14:41:12.377   02 Jun 2027 14:43:31.045           138.668                Anadyr1          4333.375
       151   02 Jun 2027 14:49:03.758   02 Jun 2027 14:49:50.125            46.367                Anadyr2          1448.969
       152   02 Jun 2027 15:36:32.486   02 Jun 2027 15:37:53.144            80.658               CapeTown          2520.563
       153   02 Jun 2027 16:07:52.561   02 Jun 2027 16:08:40.950            48.389              Murmansk1          1512.156
       154   02 Jun 2027 16:09:11.663   02 Jun 2027 16:09:31.186            19.523              Murmansk2           610.094
       155   02 Jun 2027 16:10:57.703   02 Jun 2027 16:11:16.716            19.013              Murmansk1           594.156
       156   02 Jun 2027 16:11:55.934   02 Jun 2027 16:12:12.382            16.448              Murmansk1           514.000
       157   02 Jun 2027 16:16:53.325   02 Jun 2027 16:18:39.295           105.970                Anadyr1          3311.563
       158   02 Jun 2027 16:18:48.612   02 Jun 2027 16:19:50.874            62.262                Anadyr2          1945.688
       159   02 Jun 2027 16:19:53.421   02 Jun 2027 16:22:09.198           135.777               Magadan2          4243.031
       160   02 Jun 2027 16:23:01.223   02 Jun 2027 16:24:39.400            98.177               Magadan2          3068.031
       161   02 Jun 2027 17:52:48.721   02 Jun 2027 17:54:30.508           101.787                Anadyr2          3180.844
       162   02 Jun 2027 17:54:30.822   02 Jun 2027 17:55:52.825            82.003                Anadyr1          2562.594
       163   02 Jun 2027 17:56:01.651   02 Jun 2027 17:56:14.661            13.010                Anadyr1           406.563
       164   02 Jun 2027 17:56:37.263   02 Jun 2027 17:57:27.650            50.387               Magadan2          1574.594
       165   02 Jun 2027 17:57:27.650   02 Jun 2027 17:58:05.157            37.507               Magadan1          1172.094
       166   02 Jun 2027 17:58:39.040   02 Jun 2027 17:59:34.969            55.929               Magadan1          1747.781
       167   02 Jun 2027 18:02:13.231   02 Jun 2027 18:02:28.807            15.576               Magadan1           486.750
       168   02 Jun 2027 18:02:49.338   02 Jun 2027 18:03:23.024            33.686               Magadan1          1052.688
       169   02 Jun 2027 18:48:36.009   02 Jun 2027 18:51:31.172           175.163            RioGallegos          5473.844
       170   02 Jun 2027 19:28:36.031   02 Jun 2027 19:28:38.664             2.633                Anadyr2            82.281
       171   02 Jun 2027 19:29:31.092   02 Jun 2027 19:29:56.115            25.023                Anadyr1           781.969
       172   02 Jun 2027 19:30:07.724   02 Jun 2027 19:30:25.020            17.296                Anadyr1           540.500
       173   02 Jun 2027 19:30:46.444   02 Jun 2027 19:34:44.765           238.321                Norilsk          7447.531
       174   02 Jun 2027 19:35:32.141   02 Jun 2027 19:35:53.955            21.814                Irkutsk           681.688
       175   02 Jun 2027 19:36:42.061   02 Jun 2027 19:37:27.268            45.207                Irkutsk          1412.719
       176   02 Jun 2027 19:38:02.322   02 Jun 2027 19:38:53.849            51.527                Norilsk          1610.219
       177   02 Jun 2027 19:40:33.184   02 Jun 2027 19:42:53.192           140.008                Irkutsk          4375.250
       178   02 Jun 2027 19:50:11.023   02 Jun 2027 19:51:01.029            50.006                Sumatra          1562.688
       179   02 Jun 2027 19:51:22.733   02 Jun 2027 19:52:51.091            88.358                Sumatra          2761.187
       180   02 Jun 2027 19:55:10.084   02 Jun 2027 19:56:35.051            84.967                Sumatra          2655.219
       181   02 Jun 2027 21:11:02.279   02 Jun 2027 21:12:44.194           101.915                Novosib          3184.844
       182   02 Jun 2027 21:13:05.871   02 Jun 2027 21:14:27.569            81.698                Novosib          2553.062
       183   02 Jun 2027 21:20:25.661   02 Jun 2027 21:22:43.348           137.687                  Delhi          4302.719
       184   02 Jun 2027 22:43:04.474   02 Jun 2027 22:44:00.821            56.347               Magadan2          1760.844
       185   02 Jun 2027 22:45:23.425   02 Jun 2027 22:49:05.757           222.332              Murmansk1          6947.875
       186   02 Jun 2027 22:49:55.204   02 Jun 2027 22:51:19.507            84.303              Murmansk2          2634.469
       187   02 Jun 2027 22:59:07.145   02 Jun 2027 22:59:23.897            16.752                  Delhi           523.500
       188   03 Jun 2027 00:11:07.310   03 Jun 2027 00:11:32.711            25.401                Anadyr2           793.781
       189   03 Jun 2027 00:13:36.680   03 Jun 2027 00:13:49.097            12.417                Anadyr2           388.031
       190   03 Jun 2027 00:15:49.553   03 Jun 2027 00:16:05.261            15.708                Anadyr2           490.875
       191   03 Jun 2027 00:17:03.034   03 Jun 2027 00:18:50.102           107.068               Magadan2          3345.875
       192   03 Jun 2027 00:19:07.999   03 Jun 2027 00:19:38.257            30.258               Magadan1           945.563
       193   03 Jun 2027 00:20:09.444   03 Jun 2027 00:20:43.806            34.362               Magadan1          1073.812
       194   03 Jun 2027 00:21:15.163   03 Jun 2027 00:24:47.506           212.343              Murmansk2          6635.719
       195   03 Jun 2027 00:24:53.628   03 Jun 2027 00:25:49.991            56.363                 Moscow          1761.344
       196   03 Jun 2027 00:26:23.540   03 Jun 2027 00:26:54.414            30.874                 Moscow           964.812
       197   03 Jun 2027 00:50:09.661   03 Jun 2027 00:51:54.686           105.025               CapeTown          3282.031
       198   03 Jun 2027 00:52:32.601   03 Jun 2027 00:52:43.499            10.898               CapeTown           340.562
       199   03 Jun 2027 01:45:02.989   03 Jun 2027 01:45:11.492             8.503                Anadyr2           265.719
       200   03 Jun 2027 01:45:40.019   03 Jun 2027 01:45:54.615            14.596                Anadyr2           456.125
       201   03 Jun 2027 01:46:34.366   03 Jun 2027 01:47:19.040            44.674                Anadyr1          1396.063
       202   03 Jun 2027 01:47:36.591   03 Jun 2027 01:47:43.258             6.667                Anadyr1           208.344
       203   03 Jun 2027 01:48:41.381   03 Jun 2027 01:50:27.653           106.272               Magadan2          3321.000
       204   03 Jun 2027 01:55:46.367   03 Jun 2027 01:55:51.328             4.961                Norilsk           155.031
       205   03 Jun 2027 01:56:11.512   03 Jun 2027 01:56:26.099            14.587                Norilsk           455.844
       206   03 Jun 2027 01:56:39.587   03 Jun 2027 01:58:10.573            90.986              Murmansk2          2843.313
       207   03 Jun 2027 01:58:42.607   03 Jun 2027 01:59:00.010            17.403              Murmansk1           543.844
       208   03 Jun 2027 01:59:16.743   03 Jun 2027 02:00:22.304            65.561                Novosib          2048.781
       209   03 Jun 2027 02:07:23.714   03 Jun 2027 02:07:41.231            17.517                 Moscow           547.406
       210   03 Jun 2027 02:10:10.362   03 Jun 2027 02:10:15.983             5.621                 Moscow           175.656
       211   03 Jun 2027 02:11:43.093   03 Jun 2027 02:12:44.649            61.556                 Moscow          1923.625
       212   03 Jun 2027 02:23:46.703   03 Jun 2027 02:24:01.670            14.967               CapeTown           467.719
       213   03 Jun 2027 02:26:48.976   03 Jun 2027 02:28:23.838            94.862               CapeTown          2964.437
       214   03 Jun 2027 03:26:29.581   03 Jun 2027 03:30:00.360           210.779               Magadan1          6586.844
       215   03 Jun 2027 03:30:23.819   03 Jun 2027 03:30:51.580            27.761               Magadan1           867.531
       216   03 Jun 2027 05:04:52.331   03 Jun 2027 05:05:07.606            15.275                Irkutsk           477.344
       217   03 Jun 2027 05:05:16.988   03 Jun 2027 05:05:30.532            13.544                Anadyr1           423.250
       218   03 Jun 2027 05:05:33.032   03 Jun 2027 05:06:14.158            41.126                Irkutsk          1285.188
       219   03 Jun 2027 05:06:22.597   03 Jun 2027 05:06:31.139             8.542                Norilsk           266.938
       220   03 Jun 2027 05:06:34.593   03 Jun 2027 05:07:23.274            48.681                Norilsk          1521.281
       221   03 Jun 2027 05:07:35.656   03 Jun 2027 05:08:14.304            38.648                Anadyr1          1207.750
       222   03 Jun 2027 05:08:26.345   03 Jun 2027 05:09:08.787            42.442                Anadyr2          1326.312
       223   03 Jun 2027 06:38:10.818   03 Jun 2027 06:38:49.109            38.291               Magadan2          1196.594
       224   03 Jun 2027 06:38:52.944   03 Jun 2027 06:39:22.601            29.657                Norilsk           926.781
       225   03 Jun 2027 06:39:34.257   03 Jun 2027 06:40:44.407            70.150                Novosib          2192.188
       226   03 Jun 2027 06:40:50.105   03 Jun 2027 06:42:31.365           101.260                Irkutsk          3164.375
       227   03 Jun 2027 06:42:31.681   03 Jun 2027 06:42:56.484            24.803                Anadyr2           775.094
       228   03 Jun 2027 06:43:05.238   03 Jun 2027 06:43:30.864            25.626               Magadan1           800.813
       229   03 Jun 2027 06:43:30.864   03 Jun 2027 06:44:19.807            48.943               Magadan2          1529.469
       230   03 Jun 2027 06:44:36.628   03 Jun 2027 06:44:42.846             6.218                Norilsk           194.312
       231   03 Jun 2027 06:44:43.261   03 Jun 2027 06:45:22.061            38.800                Novosib          1212.500
       232   03 Jun 2027 06:45:39.942   03 Jun 2027 06:46:00.586            20.644              Murmansk2           645.125
       233   03 Jun 2027 06:46:53.180   03 Jun 2027 06:47:33.849            40.669                Norilsk          1270.906
       234   03 Jun 2027 06:48:30.442   03 Jun 2027 06:48:54.523            24.081              Murmansk2           752.531
       235   03 Jun 2027 07:19:34.500   03 Jun 2027 07:21:19.558           105.058            RioGallegos          3283.062
       236   03 Jun 2027 07:55:50.692   03 Jun 2027 07:57:39.151           108.459                Sumatra          3389.344
       237   03 Jun 2027 08:15:39.825   03 Jun 2027 08:16:41.302            61.477                Novosib          1921.156
       238   03 Jun 2027 08:16:50.396   03 Jun 2027 08:17:01.150            10.754                Irkutsk           336.062
       239   03 Jun 2027 08:17:09.889   03 Jun 2027 08:18:29.181            79.292                Norilsk          2477.875
       240   03 Jun 2027 08:18:31.939   03 Jun 2027 08:19:25.542            53.603                Novosib          1675.094
       241   03 Jun 2027 08:19:32.996   03 Jun 2027 08:20:45.168            72.172                Irkutsk          2255.375
       242   03 Jun 2027 08:56:17.441   03 Jun 2027 08:56:29.689            12.248            RioGallegos           382.750
       243   03 Jun 2027 08:57:04.839   03 Jun 2027 08:57:17.482            12.643            RioGallegos           395.094
       244   03 Jun 2027 09:30:35.061   03 Jun 2027 09:32:07.265            92.204                Sumatra          2881.375
       245   03 Jun 2027 09:33:02.488   03 Jun 2027 09:34:59.527           117.039                Sumatra          3657.469
       246   03 Jun 2027 09:40:20.628   03 Jun 2027 09:40:59.447            38.819                  Delhi          1213.094
       247   03 Jun 2027 09:52:23.677   03 Jun 2027 09:53:08.464            44.787                 Moscow          1399.594
       248   03 Jun 2027 09:53:26.072   03 Jun 2027 09:54:26.061            59.989                Irkutsk          1874.656
       249   03 Jun 2027 09:54:31.255   03 Jun 2027 09:56:15.138           103.883                 Moscow          3246.344
       250   03 Jun 2027 09:56:32.959   03 Jun 2027 09:56:36.593             3.634                Novosib           113.563
       251   03 Jun 2027 09:57:10.444   03 Jun 2027 09:57:20.843            10.399                 Moscow           324.969
       252   03 Jun 2027 11:15:22.575   03 Jun 2027 11:18:55.388           212.813                  Delhi          6650.406
       253   03 Jun 2027 11:28:03.031   03 Jun 2027 11:28:54.376            51.345                 Moscow          1604.531
       254   03 Jun 2027 11:29:10.600   03 Jun 2027 11:30:16.977            66.377                 Moscow          2074.281
       255   03 Jun 2027 11:30:22.458   03 Jun 2027 11:31:13.644            51.186                Norilsk          1599.562
       256   03 Jun 2027 11:31:27.952   03 Jun 2027 11:31:57.772            29.820                Novosib           931.875
       257   03 Jun 2027 11:31:58.579   03 Jun 2027 11:32:22.753            24.174              Murmansk1           755.438
       258   03 Jun 2027 11:32:40.062   03 Jun 2027 11:33:41.875            61.813              Murmansk1          1931.656
       259   03 Jun 2027 12:58:57.543   03 Jun 2027 13:01:44.145           166.602                 Moscow          5206.313
       260   03 Jun 2027 13:02:08.626   03 Jun 2027 13:03:26.410            77.784                 Moscow          2430.750
       261   03 Jun 2027 13:03:30.823   03 Jun 2027 13:04:14.768            43.945              Murmansk1          1373.281
       262   03 Jun 2027 13:04:14.768   03 Jun 2027 13:06:33.984           139.216              Murmansk2          4350.500
       263   03 Jun 2027 13:19:03.301   03 Jun 2027 13:20:11.804            68.503                Anadyr2          2140.719
       264   03 Jun 2027 13:21:18.008   03 Jun 2027 13:21:56.340            38.332                Anadyr1          1197.875
       265   03 Jun 2027 13:22:20.257   03 Jun 2027 13:22:29.574             9.317                Anadyr2           291.156
       266   03 Jun 2027 14:13:46.177   03 Jun 2027 14:15:05.998            79.821               CapeTown          2494.406
       267   03 Jun 2027 14:15:49.229   03 Jun 2027 14:16:09.493            20.264               CapeTown           633.250
       268   03 Jun 2027 14:40:14.888   03 Jun 2027 14:40:39.631            24.743              Murmansk1           773.219
       269   03 Jun 2027 14:41:18.546   03 Jun 2027 14:43:19.046           120.500              Murmansk2          3765.625
       270   03 Jun 2027 14:49:39.241   03 Jun 2027 14:50:08.924            29.683              Murmansk2           927.594
       271   03 Jun 2027 14:53:09.763   03 Jun 2027 14:55:19.776           130.013                Anadyr2          4062.906
       272   03 Jun 2027 14:58:54.064   03 Jun 2027 14:58:54.305             0.241                Anadyr1             7.531
       273   03 Jun 2027 14:59:10.720   03 Jun 2027 14:59:17.230             6.510                Anadyr2           203.438
       274   03 Jun 2027 15:00:21.065   03 Jun 2027 15:00:46.385            25.320                Anadyr2           791.250
       275   03 Jun 2027 15:48:45.534   03 Jun 2027 15:49:09.226            23.692               CapeTown           740.375
       276   03 Jun 2027 15:53:46.304   03 Jun 2027 15:54:02.692            16.388               CapeTown           512.125
       277   03 Jun 2027 16:20:41.479   03 Jun 2027 16:23:18.662           157.183              Murmansk2          4911.969
       278   03 Jun 2027 16:23:21.897   03 Jun 2027 16:23:55.904            34.007              Murmansk1          1062.719
       279   03 Jun 2027 16:28:54.406   03 Jun 2027 16:30:39.150           104.744                Anadyr1          3273.250
       280   03 Jun 2027 16:31:44.114   03 Jun 2027 16:36:08.467           264.353               Magadan2          8261.031
       281   03 Jun 2027 18:04:49.872   03 Jun 2027 18:07:32.954           163.082                Anadyr2          5096.312
       282   03 Jun 2027 18:08:58.581   03 Jun 2027 18:10:07.536            68.955               Magadan1          2154.844
       283   03 Jun 2027 18:12:46.983   03 Jun 2027 18:13:17.999            31.016               Magadan1           969.250
       284   03 Jun 2027 18:14:09.815   03 Jun 2027 18:14:30.509            20.694               Magadan1           646.687
       285   03 Jun 2027 18:14:36.307   03 Jun 2027 18:14:47.593            11.286               Magadan1           352.687
       286   03 Jun 2027 18:19:12.560   03 Jun 2027 18:19:32.778            20.218               Magadan1           631.812
       287   03 Jun 2027 19:00:04.941   03 Jun 2027 19:03:18.613           193.672            RioGallegos          6052.250
       288   03 Jun 2027 19:40:34.585   03 Jun 2027 19:41:22.475            47.890                Anadyr2          1496.562
       289   03 Jun 2027 19:41:45.997   03 Jun 2027 19:42:06.803            20.806                Anadyr2           650.188
       290   03 Jun 2027 19:42:44.631   03 Jun 2027 19:46:45.000           240.369                Norilsk          7511.531
       291   03 Jun 2027 19:47:17.400   03 Jun 2027 19:48:05.250            47.850                Irkutsk          1495.313
       292   03 Jun 2027 19:49:00.934   03 Jun 2027 19:50:53.955           113.021                Irkutsk          3531.906
       293   03 Jun 2027 20:01:33.409   03 Jun 2027 20:02:10.169            36.760                Sumatra          1148.750
       294   03 Jun 2027 20:02:20.266   03 Jun 2027 20:04:37.441           137.175                Sumatra          4286.719
       295   03 Jun 2027 20:07:25.433   03 Jun 2027 20:08:17.065            51.632                Sumatra          1613.500
       296   03 Jun 2027 21:22:27.384   03 Jun 2027 21:23:10.573            43.189                Irkutsk          1349.656
       297   03 Jun 2027 21:23:21.621   03 Jun 2027 21:24:53.638            92.017                Novosib          2875.531
       298   03 Jun 2027 21:30:32.723   03 Jun 2027 21:30:52.861            20.138                Novosib           629.312
       299   03 Jun 2027 21:31:36.256   03 Jun 2027 21:34:24.754           168.498                  Delhi          5265.563
       300   03 Jun 2027 21:38:05.114   03 Jun 2027 21:39:17.755            72.641                  Delhi          2270.031
       301   03 Jun 2027 22:56:02.118   03 Jun 2027 22:56:27.475            25.357               Magadan1           792.406
       302   03 Jun 2027 22:57:14.175   03 Jun 2027 23:02:06.532           292.357              Murmansk2          9136.156
       303   03 Jun 2027 23:02:17.945   03 Jun 2027 23:03:46.810            88.865              Murmansk2          2777.031
       304   04 Jun 2027 00:28:34.051   04 Jun 2027 00:29:18.661            44.610               Magadan2          1394.062
       305   04 Jun 2027 00:29:35.661   04 Jun 2027 00:29:47.037            11.376               Magadan1           355.500
       306   04 Jun 2027 00:29:47.037   04 Jun 2027 00:30:08.482            21.445               Magadan2           670.156
       307   04 Jun 2027 00:30:35.308   04 Jun 2027 00:31:01.673            26.365               Magadan1           823.906
       308   04 Jun 2027 00:31:41.044   04 Jun 2027 00:32:07.546            26.502               Magadan2           828.187
       309   04 Jun 2027 00:32:44.412   04 Jun 2027 00:34:44.815           120.403              Murmansk1          3762.594
       310   04 Jun 2027 00:35:43.603   04 Jun 2027 00:36:53.188            69.585              Murmansk1          2174.531
       311   04 Jun 2027 00:38:27.974   04 Jun 2027 00:38:52.616            24.642                 Moscow           770.063
       312   04 Jun 2027 00:38:55.886   04 Jun 2027 00:39:11.042            15.156                 Moscow           473.625
       313   04 Jun 2027 00:40:12.009   04 Jun 2027 00:40:29.250            17.241                 Moscow           538.781
       314   04 Jun 2027 00:42:13.215   04 Jun 2027 00:42:35.534            22.319                 Moscow           697.469
       315   04 Jun 2027 00:43:22.322   04 Jun 2027 00:44:14.336            52.014                 Moscow          1625.438
       316   04 Jun 2027 01:01:31.976   04 Jun 2027 01:02:57.750            85.774               CapeTown          2680.437
       317   04 Jun 2027 01:06:55.486   04 Jun 2027 01:08:07.276            71.790               CapeTown          2243.437
       318   04 Jun 2027 02:01:03.109   04 Jun 2027 02:01:49.505            46.396               Magadan1          1449.875
       319   04 Jun 2027 02:01:55.643   04 Jun 2027 02:02:30.246            34.603               Magadan2          1081.344
       320   04 Jun 2027 02:05:29.006   04 Jun 2027 02:05:35.823             6.817               Magadan2           213.031
       321   04 Jun 2027 02:07:45.035   04 Jun 2027 02:08:06.394            21.359               Magadan2           667.469
       322   04 Jun 2027 02:08:41.319   04 Jun 2027 02:10:05.340            84.021              Murmansk1          2625.656
       323   04 Jun 2027 02:10:05.340   04 Jun 2027 02:10:48.732            43.392              Murmansk2          1356.000
       324   04 Jun 2027 02:11:32.355   04 Jun 2027 02:11:45.544            13.189                Novosib           412.156
       325   04 Jun 2027 02:13:53.730   04 Jun 2027 02:15:11.268            77.538                 Moscow          2423.062
       326   04 Jun 2027 02:35:54.439   04 Jun 2027 02:36:02.437             7.998               CapeTown           249.937
       327   04 Jun 2027 02:37:46.941   04 Jun 2027 02:38:54.962            68.021               CapeTown          2125.656
       328   04 Jun 2027 03:38:30.571   04 Jun 2027 03:39:22.314            51.743               Magadan1          1616.969
       329   04 Jun 2027 03:39:35.826   04 Jun 2027 03:40:30.361            54.535               Magadan1          1704.219
       330   04 Jun 2027 03:41:00.087   04 Jun 2027 03:44:44.277           224.190               Magadan2          7005.937
       331   04 Jun 2027 03:45:21.436   04 Jun 2027 03:45:26.235             4.799                Anadyr2           149.969
       332   04 Jun 2027 05:16:58.323   04 Jun 2027 05:17:30.404            32.081                Norilsk          1002.531
       333   04 Jun 2027 05:17:32.218   04 Jun 2027 05:20:09.866           157.648                Anadyr1          4926.500
       334   04 Jun 2027 05:20:09.866   04 Jun 2027 05:20:43.201            33.335                Anadyr2          1041.719
       335   04 Jun 2027 05:57:53.154   04 Jun 2027 05:58:31.315            38.161            RioGallegos          1192.531
       336   04 Jun 2027 06:51:48.884   04 Jun 2027 06:56:01.275           252.391               Magadan2          7887.219
       337   04 Jun 2027 06:56:25.971   04 Jun 2027 06:56:37.055            11.084              Murmansk2           346.375
       338   04 Jun 2027 06:56:37.055   04 Jun 2027 06:56:38.798             1.743              Murmansk1            54.469
       339   04 Jun 2027 06:56:51.940   04 Jun 2027 06:57:11.486            19.546                Norilsk           610.812
       340   04 Jun 2027 07:31:29.673   04 Jun 2027 07:33:17.339           107.666            RioGallegos          3364.563
       341   04 Jun 2027 08:07:18.699   04 Jun 2027 08:10:00.911           162.212                Sumatra          5069.125
       342   04 Jun 2027 08:27:11.719   04 Jun 2027 08:28:08.007            56.288                Norilsk          1759.000
       343   04 Jun 2027 08:28:12.710   04 Jun 2027 08:28:47.141            34.431                Irkutsk          1075.969
       344   04 Jun 2027 08:29:14.427   04 Jun 2027 08:29:32.412            17.985                Irkutsk           562.031
       345   04 Jun 2027 08:29:34.124   04 Jun 2027 08:29:43.192             9.068                Norilsk           283.375
       346   04 Jun 2027 08:29:44.739   04 Jun 2027 08:30:52.076            67.337              Murmansk2          2104.281
       347   04 Jun 2027 08:31:02.514   04 Jun 2027 08:31:23.771            21.257                Irkutsk           664.281
       348   04 Jun 2027 08:31:34.193   04 Jun 2027 08:31:34.427             0.234                Novosib             7.313
       349   04 Jun 2027 08:31:39.355   04 Jun 2027 08:32:06.045            26.690                Irkutsk           834.062
       350   04 Jun 2027 08:32:13.413   04 Jun 2027 08:32:41.808            28.395                Norilsk           887.344
       351   04 Jun 2027 08:32:42.094   04 Jun 2027 08:33:04.532            22.438              Murmansk2           701.188
       352   04 Jun 2027 08:36:45.543   04 Jun 2027 08:36:50.047             4.504              Murmansk2           140.750
       353   04 Jun 2027 08:36:50.047   04 Jun 2027 08:37:21.011            30.964              Murmansk1           967.625
       354   04 Jun 2027 09:08:42.978   04 Jun 2027 09:09:11.775            28.797            RioGallegos           899.906
       355   04 Jun 2027 09:10:13.072   04 Jun 2027 09:11:08.325            55.253            RioGallegos          1726.656
       356   04 Jun 2027 09:42:55.962   04 Jun 2027 09:44:00.948            64.986                Sumatra          2030.813
       357   04 Jun 2027 09:52:14.842   04 Jun 2027 09:52:36.117            21.275                  Delhi           664.844
       358   04 Jun 2027 09:53:36.044   04 Jun 2027 09:54:01.229            25.185                  Delhi           787.031
       359   04 Jun 2027 10:04:00.443   04 Jun 2027 10:04:37.991            37.548                 Moscow          1173.375
       360   04 Jun 2027 10:04:52.369   04 Jun 2027 10:05:31.593            39.224              Murmansk1          1225.750
       361   04 Jun 2027 10:05:46.659   04 Jun 2027 10:06:01.466            14.807                Norilsk           462.719
       362   04 Jun 2027 10:06:02.597   04 Jun 2027 10:06:21.733            19.136              Murmansk2           598.000
       363   04 Jun 2027 10:06:30.681   04 Jun 2027 10:07:17.940            47.259                Irkutsk          1476.844
       364   04 Jun 2027 10:07:24.233   04 Jun 2027 10:07:33.107             8.874                Novosib           277.313
       365   04 Jun 2027 10:07:43.485   04 Jun 2027 10:08:10.321            26.836                Norilsk           838.625
       366   04 Jun 2027 10:08:13.384   04 Jun 2027 10:08:21.204             7.820                Norilsk           244.375
       367   04 Jun 2027 10:08:26.157   04 Jun 2027 10:08:41.113            14.956                Novosib           467.375
       368   04 Jun 2027 10:08:47.213   04 Jun 2027 10:09:41.570            54.357              Murmansk1          1698.656
       369   04 Jun 2027 11:27:56.724   04 Jun 2027 11:28:42.453            45.729                  Delhi          1429.031
       370   04 Jun 2027 11:28:42.616   04 Jun 2027 11:30:36.289           113.673                  Delhi          3552.281
       371   04 Jun 2027 11:40:13.489   04 Jun 2027 11:40:25.555            12.066              Murmansk2           377.062
       372   04 Jun 2027 11:40:43.447   04 Jun 2027 11:41:40.731            57.284              Murmansk1          1790.125
       373   04 Jun 2027 11:41:45.062   04 Jun 2027 11:42:03.836            18.774              Murmansk1           586.688
       374   04 Jun 2027 11:42:07.286   04 Jun 2027 11:42:19.607            12.321                 Moscow           385.031
       375   04 Jun 2027 11:42:23.462   04 Jun 2027 11:42:57.784            34.322              Murmansk1          1072.563
       376   04 Jun 2027 11:43:13.783   04 Jun 2027 11:43:17.965             4.182                 Moscow           130.687
       377   04 Jun 2027 11:43:25.929   04 Jun 2027 11:43:40.582            14.653                 Moscow           457.906
       378   04 Jun 2027 11:43:42.676   04 Jun 2027 11:44:02.423            19.747                Norilsk           617.094
       379   04 Jun 2027 11:44:05.147   04 Jun 2027 11:44:16.832            11.685              Murmansk2           365.156
       380   04 Jun 2027 11:44:33.732   04 Jun 2027 11:44:43.843            10.111              Murmansk2           315.969
       381   04 Jun 2027 11:44:56.165   04 Jun 2027 11:45:10.867            14.702                 Moscow           459.438
       382   04 Jun 2027 11:45:39.556   04 Jun 2027 11:45:49.360             9.804              Murmansk1           306.375
       383   04 Jun 2027 13:11:06.664   04 Jun 2027 13:12:37.388            90.724                 Moscow          2835.125
       384   04 Jun 2027 13:13:39.813   04 Jun 2027 13:13:49.978            10.165                 Moscow           317.656
       385   04 Jun 2027 13:14:08.095   04 Jun 2027 13:15:14.273            66.178                 Moscow          2068.062
       386   04 Jun 2027 13:15:23.615   04 Jun 2027 13:17:00.156            96.541              Murmansk1          3016.906
       387   04 Jun 2027 13:17:00.156   04 Jun 2027 13:19:22.322           142.166              Murmansk2          4442.687
       388   04 Jun 2027 13:21:53.075   04 Jun 2027 13:23:24.109            91.034                Norilsk          2844.813
       389   04 Jun 2027 13:30:27.267   04 Jun 2027 13:33:43.301           196.034                Anadyr1          6126.062
       390   04 Jun 2027 14:52:39.622   04 Jun 2027 14:52:54.683            15.061              Murmansk2           470.656
       391   04 Jun 2027 14:53:30.943   04 Jun 2027 14:54:08.719            37.776              Murmansk1          1180.500
       392   04 Jun 2027 14:55:20.689   04 Jun 2027 14:55:53.117            32.428              Murmansk2          1013.375
       393   04 Jun 2027 14:57:36.922   04 Jun 2027 14:58:04.417            27.495              Murmansk2           859.219
       394   04 Jun 2027 15:03:06.814   04 Jun 2027 15:03:11.797             4.983              Murmansk1           155.719
       395   04 Jun 2027 15:05:08.020   04 Jun 2027 15:07:11.707           123.687                Anadyr2          3865.219
       396   04 Jun 2027 15:07:18.294   04 Jun 2027 15:07:57.803            39.509                Anadyr1          1234.656
       397   04 Jun 2027 15:10:22.089   04 Jun 2027 15:10:33.907            11.818                Anadyr1           369.312
       398   04 Jun 2027 15:11:26.331   04 Jun 2027 15:11:36.356            10.025                Anadyr1           313.281
       399   04 Jun 2027 15:11:41.024   04 Jun 2027 15:11:55.153            14.129                Anadyr1           441.531
       400   04 Jun 2027 15:15:40.485   04 Jun 2027 15:16:10.188            29.703                Anadyr2           928.219
       401   04 Jun 2027 16:33:38.082   04 Jun 2027 16:36:51.649           193.567              Murmansk2          6048.969
       402   04 Jun 2027 16:40:55.621   04 Jun 2027 16:42:46.808           111.187                Anadyr2          3474.594
       403   04 Jun 2027 16:43:37.127   04 Jun 2027 16:47:26.859           229.732               Magadan1          7179.125
       404   04 Jun 2027 18:16:50.866   04 Jun 2027 18:19:58.729           187.863                Anadyr1          5870.719
       405   04 Jun 2027 18:20:03.426   04 Jun 2027 18:20:13.672            10.246                Anadyr1           320.188
       406   04 Jun 2027 18:20:52.837   04 Jun 2027 18:22:24.477            91.640               Magadan1          2863.750
       407   04 Jun 2027 18:22:24.477   04 Jun 2027 18:22:47.165            22.688               Magadan2           709.000
       408   04 Jun 2027 18:27:49.145   04 Jun 2027 18:27:59.734            10.589               Magadan1           330.906
       409   04 Jun 2027 19:11:43.297   04 Jun 2027 19:15:09.167           205.870            RioGallegos          6433.438
       410   04 Jun 2027 19:15:38.956   04 Jun 2027 19:16:40.833            61.877            RioGallegos          1933.656
       411   04 Jun 2027 19:18:01.420   04 Jun 2027 19:18:10.435             9.015            RioGallegos           281.719
       412   04 Jun 2027 19:53:12.370   04 Jun 2027 19:53:28.310            15.940                Anadyr2           498.125
       413   04 Jun 2027 19:53:34.767   04 Jun 2027 19:54:25.682            50.915                Anadyr2          1591.094
       414   04 Jun 2027 19:54:43.746   04 Jun 2027 19:56:51.082           127.336                Norilsk          3979.250
       415   04 Jun 2027 19:57:03.439   04 Jun 2027 19:58:45.675           102.236                Norilsk          3194.875
       416   04 Jun 2027 19:59:06.338   04 Jun 2027 19:59:22.919            16.581                Irkutsk           518.156
       417   04 Jun 2027 20:00:07.795   04 Jun 2027 20:01:06.795            59.000                Irkutsk          1843.750
       418   04 Jun 2027 20:01:30.737   04 Jun 2027 20:01:58.626            27.889                Irkutsk           871.531
       419   04 Jun 2027 20:13:06.214   04 Jun 2027 20:16:29.869           203.655                Sumatra          6364.219
       420   04 Jun 2027 21:34:47.303   04 Jun 2027 21:35:08.150            20.847                Novosib           651.469
       421   04 Jun 2027 21:35:25.787   04 Jun 2027 21:35:37.585            11.798                Novosib           368.688
       422   04 Jun 2027 21:36:21.145   04 Jun 2027 21:36:58.173            37.028                Novosib          1157.125
       423   04 Jun 2027 21:37:23.989   04 Jun 2027 21:37:25.013             1.024                Novosib            32.000
       424   04 Jun 2027 21:38:54.812   04 Jun 2027 21:39:06.006            11.194                Novosib           349.812
       425   04 Jun 2027 21:40:42.054   04 Jun 2027 21:41:12.255            30.201                Novosib           943.781
       426   04 Jun 2027 21:43:02.555   04 Jun 2027 21:46:11.575           189.020                  Delhi          5906.875
       427   04 Jun 2027 21:48:37.945   04 Jun 2027 21:49:57.652            79.707                  Delhi          2490.844
       428   04 Jun 2027 23:06:57.616   04 Jun 2027 23:07:40.054            42.438               Magadan1          1326.188
       429   04 Jun 2027 23:08:14.902   04 Jun 2027 23:08:50.363            35.461               Magadan2          1108.156
       430   04 Jun 2027 23:09:08.006   04 Jun 2027 23:14:16.031           308.025              Murmansk2          9625.781
       431   04 Jun 2027 23:15:16.838   04 Jun 2027 23:16:30.454            73.616                 Moscow          2300.500
       432   04 Jun 2027 23:17:40.760   04 Jun 2027 23:18:18.294            37.534                 Moscow          1172.938
       433   05 Jun 2027 00:40:03.352   05 Jun 2027 00:41:10.568            67.216               Magadan2          2100.500
       434   05 Jun 2027 00:42:55.355   05 Jun 2027 00:43:42.611            47.256               Magadan2          1476.750
       435   05 Jun 2027 00:44:45.393   05 Jun 2027 00:46:24.876            99.483              Murmansk1          3108.844
       436   05 Jun 2027 00:46:24.876   05 Jun 2027 00:46:31.567             6.691              Murmansk2           209.094
       437   05 Jun 2027 00:46:39.255   05 Jun 2027 00:47:22.798            43.543                Novosib          1360.719
       438   05 Jun 2027 00:48:14.178   05 Jun 2027 00:48:36.953            22.775                 Moscow           711.719
       439   05 Jun 2027 00:49:38.585   05 Jun 2027 00:49:56.505            17.920                 Moscow           560.000
       440   05 Jun 2027 00:50:32.919   05 Jun 2027 00:50:41.525             8.606                 Moscow           268.938
       441   05 Jun 2027 00:55:06.745   05 Jun 2027 00:55:09.074             2.329                 Moscow            72.781
       442   05 Jun 2027 00:55:14.422   05 Jun 2027 00:55:28.371            13.949                 Moscow           435.906
       443   05 Jun 2027 00:59:49.089   05 Jun 2027 01:00:04.789            15.700                 Moscow           490.625
       444   05 Jun 2027 01:13:02.048   05 Jun 2027 01:13:46.314            44.266               CapeTown          1383.312
       445   05 Jun 2027 01:14:21.174   05 Jun 2027 01:15:11.635            50.461               CapeTown          1576.906
       446   05 Jun 2027 01:23:21.025   05 Jun 2027 01:23:51.079            30.054               CapeTown           939.187
       447   05 Jun 2027 02:08:48.957   05 Jun 2027 02:09:15.633            26.676                Anadyr1           833.625
       448   05 Jun 2027 02:09:40.792   05 Jun 2027 02:09:53.069            12.277                Anadyr1           383.656
       449   05 Jun 2027 02:10:37.022   05 Jun 2027 02:11:08.143            31.121                Anadyr1           972.531
       450   05 Jun 2027 02:11:45.545   05 Jun 2027 02:12:52.340            66.795               Magadan1          2087.344
       451   05 Jun 2027 02:13:56.993   05 Jun 2027 02:14:29.844            32.851               Magadan2          1026.594
       452   05 Jun 2027 02:19:45.016   05 Jun 2027 02:20:03.168            18.152                Norilsk           567.250
       453   05 Jun 2027 02:20:43.015   05 Jun 2027 02:21:09.350            26.335              Murmansk1           822.969
       454   05 Jun 2027 02:21:09.350   05 Jun 2027 02:21:59.386            50.036              Murmansk2          1563.625
       455   05 Jun 2027 02:22:41.114   05 Jun 2027 02:22:51.725            10.611              Murmansk2           331.594
       456   05 Jun 2027 02:23:54.090   05 Jun 2027 02:24:17.143            23.053                Novosib           720.406
       457   05 Jun 2027 02:24:26.091   05 Jun 2027 02:24:49.148            23.057                 Moscow           720.531
       458   05 Jun 2027 02:25:54.753   05 Jun 2027 02:26:12.971            18.218                Novosib           569.313
       459   05 Jun 2027 02:30:47.820   05 Jun 2027 02:31:28.656            40.836                 Moscow          1276.125
       460   05 Jun 2027 02:35:42.027   05 Jun 2027 02:36:39.197            57.170                 Moscow          1786.563
       461   05 Jun 2027 02:59:05.815   05 Jun 2027 02:59:43.906            38.091               CapeTown          1190.344
       462   05 Jun 2027 03:51:16.271   05 Jun 2027 03:51:32.116            15.845                Anadyr1           495.156
       463   05 Jun 2027 03:51:32.116   05 Jun 2027 03:53:28.845           116.729                Anadyr2          3647.781
       464   05 Jun 2027 03:53:42.315   05 Jun 2027 03:54:19.830            37.515               Magadan2          1172.344
       465   05 Jun 2027 03:54:21.226   05 Jun 2027 03:54:32.800            11.574                Anadyr2           361.687
       466   05 Jun 2027 03:55:19.547   05 Jun 2027 03:55:49.541            29.994                Anadyr2           937.313
       467   05 Jun 2027 03:55:59.129   05 Jun 2027 03:56:57.850            58.721                Anadyr2          1835.031
       468   05 Jun 2027 05:29:04.642   05 Jun 2027 05:30:53.060           108.418               Magadan1          3388.062
       469   05 Jun 2027 05:32:07.182   05 Jun 2027 05:33:01.722            54.540                Anadyr2          1704.375
       470   05 Jun 2027 07:04:07.041   05 Jun 2027 07:05:35.583            88.542                Irkutsk          2766.938
       471   05 Jun 2027 07:06:19.878   05 Jun 2027 07:07:28.454            68.576                Irkutsk          2143.000
       472   05 Jun 2027 07:07:32.557   05 Jun 2027 07:08:41.652            69.095                Irkutsk          2159.219
       473   05 Jun 2027 07:08:53.703   05 Jun 2027 07:08:58.044             4.341                Novosib           135.656
       474   05 Jun 2027 07:09:09.158   05 Jun 2027 07:09:59.940            50.782                Norilsk          1586.938
       475   05 Jun 2027 07:10:20.844   05 Jun 2027 07:10:36.648            15.804              Murmansk1           493.875
       476   05 Jun 2027 07:10:36.648   05 Jun 2027 07:12:03.975            87.327              Murmansk2          2728.969
       477   05 Jun 2027 07:43:28.074   05 Jun 2027 07:44:14.542            46.468            RioGallegos          1452.125
       478   05 Jun 2027 07:45:13.749   05 Jun 2027 07:45:37.522            23.773            RioGallegos           742.906
       479   05 Jun 2027 08:18:55.723   05 Jun 2027 08:20:08.190            72.467                Sumatra          2264.594
       480   05 Jun 2027 08:32:20.014   05 Jun 2027 08:32:46.502            26.488                  Delhi           827.750
       481   05 Jun 2027 08:35:34.449   05 Jun 2027 08:36:01.343            26.894                  Delhi           840.438
       482   05 Jun 2027 08:38:27.595   05 Jun 2027 08:38:34.824             7.229                Irkutsk           225.906
