uniorb/output/strategy_1/Drop/Drop_KinoSat_111006.txt

KinoSat_111006
-------------------------
    Access    *     Start Time (UTCG)     *     Stop Time (UTCG)  *   Duration (s)        *       Station  *  Data (Mbytes)
         1   01 Jun 2027 03:18:32.992   01 Jun 2027 03:19:49.921            76.929               Magadan2          2404.031
         2   01 Jun 2027 03:21:47.344   01 Jun 2027 03:22:38.003            50.659                Anadyr2          1583.094
         3   01 Jun 2027 04:53:08.487   01 Jun 2027 04:56:21.434           192.947                Anadyr2          6029.594
         4   01 Jun 2027 04:56:34.675   01 Jun 2027 04:56:44.653             9.978                Anadyr2           311.812
         5   01 Jun 2027 04:56:44.653   01 Jun 2027 04:58:15.451            90.798                Anadyr1          2837.438
         6   01 Jun 2027 04:58:38.923   01 Jun 2027 04:58:41.223             2.300                Anadyr2            71.875
         7   01 Jun 2027 04:58:57.034   01 Jun 2027 04:59:13.177            16.143                Anadyr2           504.469
         8   01 Jun 2027 06:28:58.284   01 Jun 2027 06:30:43.963           105.679                Irkutsk          3302.469
         9   01 Jun 2027 06:30:51.988   01 Jun 2027 06:33:30.428           158.440               Magadan1          4951.250
        10   01 Jun 2027 06:33:30.428   01 Jun 2027 06:34:20.227            49.799               Magadan2          1556.219
        11   01 Jun 2027 06:34:22.763   01 Jun 2027 06:34:51.227            28.464                Anadyr1           889.500
        12   01 Jun 2027 06:35:14.215   01 Jun 2027 06:37:23.940           129.725              Murmansk2          4053.906
        13   01 Jun 2027 06:37:23.940   01 Jun 2027 06:38:38.341            74.401              Murmansk1          2325.031
        14   01 Jun 2027 07:11:22.868   01 Jun 2027 07:13:22.067           119.199            RioGallegos          3724.969
        15   01 Jun 2027 08:06:16.758   01 Jun 2027 08:07:55.694            98.936               Magadan2          3091.750
        16   01 Jun 2027 08:08:07.692   01 Jun 2027 08:08:58.276            50.584                Novosib          1580.750
        17   01 Jun 2027 08:09:05.572   01 Jun 2027 08:09:54.802            49.230               Magadan2          1538.437
        18   01 Jun 2027 08:09:57.053   01 Jun 2027 08:10:57.601            60.548              Murmansk1          1892.125
        19   01 Jun 2027 08:11:30.379   01 Jun 2027 08:13:57.513           147.134                Norilsk          4597.938
        20   01 Jun 2027 08:14:10.016   01 Jun 2027 08:15:22.278            72.262              Murmansk1          2258.187
        21   01 Jun 2027 08:16:05.492   01 Jun 2027 08:16:22.947            17.455              Murmansk1           545.469
        22   01 Jun 2027 08:18:41.159   01 Jun 2027 08:19:22.389            41.230              Murmansk1          1288.437
        23   01 Jun 2027 08:47:43.009   01 Jun 2027 08:48:24.258            41.249            RioGallegos          1289.031
        24   01 Jun 2027 08:49:44.513   01 Jun 2027 08:50:46.645            62.132            RioGallegos          1941.625
        25   01 Jun 2027 09:21:25.390   01 Jun 2027 09:22:03.986            38.596                Sumatra          1206.125
        26   01 Jun 2027 09:22:32.888   01 Jun 2027 09:23:50.166            77.278                Sumatra          2414.938
        27   01 Jun 2027 09:31:52.424   01 Jun 2027 09:32:22.771            30.347                  Delhi           948.344
        28   01 Jun 2027 09:33:51.033   01 Jun 2027 09:34:24.628            33.595                  Delhi          1049.844
        29   01 Jun 2027 09:36:27.689   01 Jun 2027 09:37:25.799            58.110                  Delhi          1815.937
        30   01 Jun 2027 09:43:12.648   01 Jun 2027 09:43:58.761            46.113                Norilsk          1441.031
        31   01 Jun 2027 09:44:02.065   01 Jun 2027 09:46:43.100           161.035              Murmansk1          5032.344
        32   01 Jun 2027 09:46:43.100   01 Jun 2027 09:47:48.894            65.794              Murmansk2          2056.062
        33   01 Jun 2027 09:47:48.894   01 Jun 2027 09:48:34.931            46.037              Murmansk1          1438.656
        34   01 Jun 2027 09:49:12.409   01 Jun 2027 09:49:21.882             9.473                 Moscow           296.031
        35   01 Jun 2027 09:50:13.626   01 Jun 2027 09:50:31.445            17.819              Murmansk2           556.844
        36   01 Jun 2027 11:05:40.630   01 Jun 2027 11:05:59.153            18.523                  Delhi           578.844
        37   01 Jun 2027 11:07:20.375   01 Jun 2027 11:07:51.597            31.222                  Delhi           975.688
        38   01 Jun 2027 11:08:45.765   01 Jun 2027 11:10:20.446            94.681                  Delhi          2958.781
        39   01 Jun 2027 11:21:44.460   01 Jun 2027 11:21:53.394             8.934              Murmansk2           279.188
        40   01 Jun 2027 11:21:53.394   01 Jun 2027 11:22:14.525            21.131              Murmansk1           660.344
        41   01 Jun 2027 11:22:23.627   01 Jun 2027 11:23:17.691            54.064                Novosib          1689.500
        42   01 Jun 2027 11:23:17.858   01 Jun 2027 11:24:50.486            92.628                Novosib          2894.625
        43   01 Jun 2027 11:24:52.740   01 Jun 2027 11:25:17.951            25.211              Murmansk1           787.844
        44   01 Jun 2027 11:25:17.951   01 Jun 2027 11:26:41.253            83.302              Murmansk2          2603.188
        45   01 Jun 2027 12:50:01.938   01 Jun 2027 12:51:42.882           100.944                 Moscow          3154.500
        46   01 Jun 2027 12:52:29.955   01 Jun 2027 12:52:52.118            22.163                 Moscow           692.594
        47   01 Jun 2027 12:53:19.135   01 Jun 2027 12:54:03.751            44.616                 Moscow          1394.250
        48   01 Jun 2027 12:54:12.062   01 Jun 2027 12:57:07.607           175.545              Murmansk2          5485.781
        49   01 Jun 2027 12:57:32.146   01 Jun 2027 12:57:35.207             3.061              Murmansk2            95.656
        50   01 Jun 2027 12:58:09.515   01 Jun 2027 12:58:10.909             1.394              Murmansk1            43.563
        51   01 Jun 2027 12:58:33.736   01 Jun 2027 12:59:08.410            34.674              Murmansk1          1083.562
        52   01 Jun 2027 12:59:12.931   01 Jun 2027 12:59:49.616            36.685                Norilsk          1146.406
        53   01 Jun 2027 13:00:44.960   01 Jun 2027 13:01:06.516            21.556                Norilsk           673.625
        54   01 Jun 2027 13:01:32.029   01 Jun 2027 13:02:36.236            64.207                Norilsk          2006.469
        55   01 Jun 2027 14:04:47.337   01 Jun 2027 14:06:12.046            84.709               CapeTown          2647.156
        56   01 Jun 2027 14:06:27.047   01 Jun 2027 14:06:27.982             0.935               CapeTown            29.219
        57   01 Jun 2027 14:07:09.970   01 Jun 2027 14:07:53.919            43.949               CapeTown          1373.406
        58   01 Jun 2027 14:10:52.454   01 Jun 2027 14:11:37.126            44.672               CapeTown          1396.000
        59   01 Jun 2027 14:27:13.976   01 Jun 2027 14:27:57.498            43.522                 Moscow          1360.062
        60   01 Jun 2027 14:30:26.102   01 Jun 2027 14:30:31.771             5.669              Murmansk1           177.156
        61   01 Jun 2027 14:30:47.484   01 Jun 2027 14:31:58.755            71.271              Murmansk2          2227.219
        62   01 Jun 2027 14:32:46.480   01 Jun 2027 14:32:52.464             5.984              Murmansk2           187.000
        63   01 Jun 2027 14:33:15.094   01 Jun 2027 14:33:27.475            12.381              Murmansk2           386.906
        64   01 Jun 2027 14:44:34.906   01 Jun 2027 14:47:30.513           175.607                Anadyr2          5487.719
        65   01 Jun 2027 14:49:29.710   01 Jun 2027 14:50:10.257            40.547                Anadyr1          1267.094
        66   01 Jun 2027 15:39:29.133   01 Jun 2027 15:41:08.961            99.828               CapeTown          3119.625
        67   01 Jun 2027 16:09:39.247   01 Jun 2027 16:10:11.033            31.786              Murmansk2           993.312
        68   01 Jun 2027 16:10:53.932   01 Jun 2027 16:11:34.318            40.386              Murmansk1          1262.062
        69   01 Jun 2027 16:12:16.275   01 Jun 2027 16:12:35.889            19.614              Murmansk1           612.937
        70   01 Jun 2027 16:12:49.179   01 Jun 2027 16:13:19.367            30.188              Murmansk1           943.375
        71   01 Jun 2027 16:20:04.994   01 Jun 2027 16:22:02.746           117.752                Anadyr2          3679.750
        72   01 Jun 2027 16:22:15.928   01 Jun 2027 16:22:43.173            27.245                Anadyr1           851.406
        73   01 Jun 2027 16:23:38.065   01 Jun 2027 16:26:18.732           160.667               Magadan2          5020.844
        74   01 Jun 2027 16:26:43.736   01 Jun 2027 16:27:25.465            41.729               Magadan2          1304.031
        75   01 Jun 2027 16:29:18.275   01 Jun 2027 16:29:58.900            40.625               Magadan2          1269.531
        76   01 Jun 2027 17:55:59.304   01 Jun 2027 17:59:15.116           195.812                Anadyr1          6119.125
        77   01 Jun 2027 17:59:25.619   01 Jun 2027 18:01:45.603           139.984               Magadan1          4374.500
        78   01 Jun 2027 19:31:50.856   01 Jun 2027 19:33:45.388           114.532                Anadyr1          3579.125
        79   01 Jun 2027 19:33:48.700   01 Jun 2027 19:35:44.245           115.545                Anadyr2          3610.781
        80   01 Jun 2027 19:36:02.417   01 Jun 2027 19:36:12.971            10.554               Magadan2           329.813
        81   01 Jun 2027 19:36:12.971   01 Jun 2027 19:37:14.181            61.210               Magadan1          1912.812
        82   01 Jun 2027 19:37:33.148   01 Jun 2027 19:37:54.230            21.082                Norilsk           658.813
        83   01 Jun 2027 19:39:17.149   01 Jun 2027 19:39:39.379            22.230               Magadan1           694.688
        84   01 Jun 2027 19:39:39.379   01 Jun 2027 19:40:17.695            38.316               Magadan2          1197.375
        85   01 Jun 2027 19:40:28.284   01 Jun 2027 19:42:31.840           123.556                Irkutsk          3861.125
        86   01 Jun 2027 19:43:12.682   01 Jun 2027 19:44:07.885            55.203                Irkutsk          1725.094
        87   01 Jun 2027 19:44:44.285   01 Jun 2027 19:45:00.912            16.627                Irkutsk           519.594
        88   01 Jun 2027 19:55:50.999   01 Jun 2027 19:56:56.163            65.164                Sumatra          2036.375
        89   01 Jun 2027 19:57:13.462   01 Jun 2027 19:57:18.994             5.532                Sumatra           172.875
        90   01 Jun 2027 19:59:51.216   01 Jun 2027 20:00:46.263            55.047                Sumatra          1720.219
        91   01 Jun 2027 21:07:15.859   01 Jun 2027 21:07:35.252            19.393                Anadyr1           606.031
        92   01 Jun 2027 21:09:10.089   01 Jun 2027 21:09:25.344            15.255                Anadyr1           476.719
        93   01 Jun 2027 21:09:43.844   01 Jun 2027 21:11:37.844           114.000                Norilsk          3562.500
        94   01 Jun 2027 21:11:38.560   01 Jun 2027 21:13:02.312            83.752               Magadan2          2617.250
        95   01 Jun 2027 21:13:42.984   01 Jun 2027 21:15:19.531            96.547                Irkutsk          3017.094
        96   01 Jun 2027 21:16:05.912   01 Jun 2027 21:16:18.890            12.978                Novosib           405.562
        97   01 Jun 2027 21:16:53.784   01 Jun 2027 21:18:05.891            72.107                Novosib          2253.344
        98   01 Jun 2027 21:27:25.367   01 Jun 2027 21:28:00.461            35.094                Sumatra          1096.687
        99   01 Jun 2027 22:41:37.674   01 Jun 2027 22:42:10.250            32.576                Anadyr1          1018.000
       100   01 Jun 2027 22:42:15.867   01 Jun 2027 22:42:54.476            38.609                Anadyr2          1206.531
       101   01 Jun 2027 22:45:43.098   01 Jun 2027 22:45:48.355             5.257                Norilsk           164.281
       102   01 Jun 2027 22:46:11.480   01 Jun 2027 22:47:30.953            79.473                Norilsk          2483.531
       103   01 Jun 2027 22:47:37.018   01 Jun 2027 22:47:57.089            20.071               Magadan2           627.219
       104   01 Jun 2027 22:48:24.164   01 Jun 2027 22:48:49.307            25.143                Norilsk           785.719
       105   01 Jun 2027 22:49:19.769   01 Jun 2027 22:52:21.520           181.751              Murmansk1          5679.719
       106   01 Jun 2027 22:56:59.597   01 Jun 2027 22:58:35.564            95.967                  Delhi          2998.969
       107   01 Jun 2027 22:59:43.644   01 Jun 2027 23:00:07.819            24.175                  Delhi           755.469
       108   01 Jun 2027 23:05:03.090   01 Jun 2027 23:06:30.122            87.032                  Delhi          2719.750
       109   02 Jun 2027 00:14:58.973   02 Jun 2027 00:15:06.447             7.474                Anadyr1           233.563
       110   02 Jun 2027 00:16:55.078   02 Jun 2027 00:17:29.304            34.226                Anadyr2          1069.562
       111   02 Jun 2027 00:21:08.193   02 Jun 2027 00:22:25.223            77.030               Magadan1          2407.187
       112   02 Jun 2027 00:22:29.944   02 Jun 2027 00:23:30.650            60.706               Magadan2          1897.062
       113   02 Jun 2027 00:23:56.869   02 Jun 2027 00:27:13.447           196.578              Murmansk2          6143.062
       114   02 Jun 2027 00:27:50.075   02 Jun 2027 00:28:49.041            58.966              Murmansk2          1842.687
       115   02 Jun 2027 00:29:47.971   02 Jun 2027 00:29:48.967             0.996                 Moscow            31.125
       116   02 Jun 2027 00:31:26.818   02 Jun 2027 00:31:30.750             3.932                 Moscow           122.875
       117   02 Jun 2027 00:55:20.240   02 Jun 2027 00:56:55.182            94.942               CapeTown          2966.938
       118   02 Jun 2027 00:58:02.823   02 Jun 2027 00:58:43.367            40.544               CapeTown          1267.000
       119   02 Jun 2027 01:48:37.531   02 Jun 2027 01:48:59.200            21.669                Anadyr2           677.156
       120   02 Jun 2027 01:51:05.993   02 Jun 2027 01:51:34.452            28.459                Anadyr2           889.344
       121   02 Jun 2027 01:52:58.364   02 Jun 2027 01:55:21.202           142.838               Magadan1          4463.688
       122   02 Jun 2027 01:59:49.258   02 Jun 2027 02:00:07.107            17.849              Murmansk2           557.781
       123   02 Jun 2027 02:00:08.280   02 Jun 2027 02:00:51.626            43.346              Murmansk1          1354.562
       124   02 Jun 2027 02:01:18.489   02 Jun 2027 02:02:31.036            72.547              Murmansk1          2267.094
       125   02 Jun 2027 02:05:21.573   02 Jun 2027 02:05:49.651            28.078                 Moscow           877.437
       126   02 Jun 2027 02:12:12.743   02 Jun 2027 02:12:34.352            21.609                 Moscow           675.281
       127   02 Jun 2027 02:14:49.785   02 Jun 2027 02:15:00.202            10.417                 Moscow           325.531
       128   02 Jun 2027 02:27:00.330   02 Jun 2027 02:27:23.778            23.448               CapeTown           732.750
       129   02 Jun 2027 02:27:56.447   02 Jun 2027 02:29:20.763            84.316               CapeTown          2634.875
       130   02 Jun 2027 03:29:57.860   02 Jun 2027 03:30:16.802            18.942               Magadan1           591.938
       131   02 Jun 2027 03:30:31.115   02 Jun 2027 03:30:42.111            10.996               Magadan2           343.625
       132   02 Jun 2027 03:30:54.771   02 Jun 2027 03:36:35.953           341.182                Anadyr2         10661.938
       133   02 Jun 2027 05:05:43.825   02 Jun 2027 05:08:55.281           191.456                Anadyr2          5983.000
       134   02 Jun 2027 05:08:55.281   02 Jun 2027 05:10:33.843            98.562                Anadyr1          3080.063
       135   02 Jun 2027 05:10:34.916   02 Jun 2027 05:10:57.842            22.926                Anadyr1           716.438
       136   02 Jun 2027 05:11:17.723   02 Jun 2027 05:11:52.707            34.984                Anadyr1          1093.250
       137   02 Jun 2027 06:39:50.262   02 Jun 2027 06:40:59.572            69.310               Magadan2          2165.937
       138   02 Jun 2027 06:41:05.826   02 Jun 2027 06:41:46.344            40.518                Anadyr1          1266.188
       139   02 Jun 2027 06:41:56.612   02 Jun 2027 06:42:12.384            15.772               Magadan2           492.875
       140   02 Jun 2027 06:42:27.990   02 Jun 2027 06:45:09.281           161.291               Magadan2          5040.344
       141   02 Jun 2027 06:45:14.863   02 Jun 2027 06:46:12.416            57.553               Magadan2          1798.531
       142   02 Jun 2027 06:46:20.459   02 Jun 2027 06:46:51.974            31.515                Irkutsk           984.844
       143   02 Jun 2027 06:46:53.089   02 Jun 2027 06:47:22.577            29.488                Anadyr2           921.500
       144   02 Jun 2027 06:47:29.495   02 Jun 2027 06:47:53.567            24.072                Novosib           752.250
       145   02 Jun 2027 06:48:10.726   02 Jun 2027 06:48:14.527             3.801                Novosib           118.781
       146   02 Jun 2027 06:49:18.309   02 Jun 2027 06:50:37.788            79.479              Murmansk2          2483.719
       147   02 Jun 2027 06:55:08.029   02 Jun 2027 06:55:39.963            31.934              Murmansk1           997.937
       148   02 Jun 2027 07:23:08.220   02 Jun 2027 07:24:22.158            73.938            RioGallegos          2310.562
       149   02 Jun 2027 08:01:00.708   02 Jun 2027 08:02:39.403            98.695                Sumatra          3084.219
       150   02 Jun 2027 08:18:15.725   02 Jun 2027 08:18:35.997            20.272               Magadan1           633.500
       151   02 Jun 2027 08:19:16.046   02 Jun 2027 08:22:09.506           173.460               Magadan2          5420.625
       152   02 Jun 2027 08:22:19.246   02 Jun 2027 08:23:39.138            79.892                Irkutsk          2496.625
       153   02 Jun 2027 08:23:47.420   02 Jun 2027 08:25:36.210           108.790              Murmansk2          3399.688
       154   02 Jun 2027 08:26:57.971   02 Jun 2027 08:27:08.210            10.239              Murmansk1           319.969
       155   02 Jun 2027 08:27:19.268   02 Jun 2027 08:27:21.764             2.496                Norilsk            78.000
       156   02 Jun 2027 08:27:53.412   02 Jun 2027 08:28:23.103            29.691                Norilsk           927.844
       157   02 Jun 2027 08:58:52.526   02 Jun 2027 09:00:01.037            68.511            RioGallegos          2140.969
       158   02 Jun 2027 09:02:23.065   02 Jun 2027 09:03:01.060            37.995            RioGallegos          1187.344
       159   02 Jun 2027 09:33:26.737   02 Jun 2027 09:35:57.822           151.085                Sumatra          4721.406
       160   02 Jun 2027 09:43:14.535   02 Jun 2027 09:44:22.697            68.162                  Delhi          2130.063
       161   02 Jun 2027 09:54:36.676   02 Jun 2027 09:55:36.737            60.061                Irkutsk          1876.906
       162   02 Jun 2027 09:56:09.533   02 Jun 2027 09:56:27.420            17.887                Norilsk           558.969
       163   02 Jun 2027 09:56:28.007   02 Jun 2027 09:56:58.848            30.841                Norilsk           963.781
       164   02 Jun 2027 09:57:05.264   02 Jun 2027 09:59:12.146           126.882                 Moscow          3965.063
       165   02 Jun 2027 09:59:31.656   02 Jun 2027 10:01:11.622            99.966                Norilsk          3123.937
       166   02 Jun 2027 10:01:12.407   02 Jun 2027 10:02:21.665            69.258              Murmansk1          2164.312
       167   02 Jun 2027 10:02:21.665   02 Jun 2027 10:02:29.968             8.303              Murmansk2           259.469
       168   02 Jun 2027 10:39:47.104   02 Jun 2027 10:41:32.569           105.465            RioGallegos          3295.781
       169   02 Jun 2027 11:17:51.637   02 Jun 2027 11:18:17.288            25.651                  Delhi           801.594
       170   02 Jun 2027 11:18:22.791   02 Jun 2027 11:18:56.310            33.519                  Delhi          1047.469
       171   02 Jun 2027 11:20:40.420   02 Jun 2027 11:21:25.431            45.011                  Delhi          1406.594
       172   02 Jun 2027 11:32:56.374   02 Jun 2027 11:36:19.358           202.984              Murmansk1          6343.250
       173   02 Jun 2027 11:36:53.205   02 Jun 2027 11:36:57.987             4.782                 Moscow           149.437
       174   02 Jun 2027 11:37:08.458   02 Jun 2027 11:37:21.709            13.251                Norilsk           414.094
       175   02 Jun 2027 11:38:08.052   02 Jun 2027 11:38:21.533            13.481                 Moscow           421.281
       176   02 Jun 2027 13:02:01.780   02 Jun 2027 13:06:11.592           249.812                 Moscow          7806.625
       177   02 Jun 2027 13:06:12.902   02 Jun 2027 13:09:42.936           210.034              Murmansk2          6563.563
       178   02 Jun 2027 13:11:03.910   02 Jun 2027 13:11:15.019            11.109                Norilsk           347.156
       179   02 Jun 2027 13:11:21.815   02 Jun 2027 13:11:31.526             9.711              Murmansk1           303.469
       180   02 Jun 2027 13:11:56.809   02 Jun 2027 13:12:43.471            46.662                Norilsk          1458.187
       181   02 Jun 2027 14:16:24.006   02 Jun 2027 14:21:13.453           289.447               CapeTown          9045.219
       182   02 Jun 2027 14:21:38.220   02 Jun 2027 14:22:15.364            37.144               CapeTown          1160.750
       183   02 Jun 2027 14:42:43.920   02 Jun 2027 14:43:53.332            69.412              Murmansk2          2169.125
       184   02 Jun 2027 14:44:45.046   02 Jun 2027 14:45:18.744            33.698              Murmansk2          1053.062
       185   02 Jun 2027 14:56:29.654   02 Jun 2027 14:59:06.464           156.810                Anadyr1          4900.312
       186   02 Jun 2027 15:03:06.393   02 Jun 2027 15:04:03.567            57.174                Anadyr1          1786.688
       187   02 Jun 2027 15:51:35.522   02 Jun 2027 15:53:24.009           108.487               CapeTown          3390.219
       188   02 Jun 2027 16:22:18.304   02 Jun 2027 16:22:32.601            14.297              Murmansk2           446.781
       189   02 Jun 2027 16:22:56.007   02 Jun 2027 16:24:07.359            71.352              Murmansk1          2229.750
       190   02 Jun 2027 16:26:35.856   02 Jun 2027 16:26:54.800            18.944              Murmansk2           592.000
       191   02 Jun 2027 16:32:05.652   02 Jun 2027 16:32:53.581            47.929                Anadyr1          1497.781
       192   02 Jun 2027 16:33:08.961   02 Jun 2027 16:34:01.609            52.648                Anadyr2          1645.250
       193   02 Jun 2027 16:34:44.496   02 Jun 2027 16:35:13.589            29.093                Anadyr1           909.156
       194   02 Jun 2027 16:35:20.362   02 Jun 2027 16:37:05.531           105.169               Magadan1          3286.531
       195   02 Jun 2027 16:37:23.179   02 Jun 2027 16:39:19.850           116.671               Magadan2          3645.969
       196   02 Jun 2027 16:39:49.171   02 Jun 2027 16:40:37.049            47.878               Magadan1          1496.187
       197   02 Jun 2027 16:41:38.379   02 Jun 2027 16:42:36.949            58.570               Magadan1          1830.312
       198   02 Jun 2027 18:08:00.699   02 Jun 2027 18:09:51.140           110.441                Anadyr1          3451.281
       199   02 Jun 2027 18:10:20.818   02 Jun 2027 18:12:27.887           127.069               Magadan2          3970.906
       200   02 Jun 2027 18:13:44.931   02 Jun 2027 18:16:04.477           139.546               Magadan2          4360.812
       201   02 Jun 2027 19:04:46.490   02 Jun 2027 19:07:00.207           133.717            RioGallegos          4178.656
       202   02 Jun 2027 19:43:59.765   02 Jun 2027 19:44:05.217             5.452                Anadyr2           170.375
       203   02 Jun 2027 19:46:02.900   02 Jun 2027 19:49:53.005           230.105                Norilsk          7190.781
       204   02 Jun 2027 19:51:07.411   02 Jun 2027 19:54:19.430           192.019                Irkutsk          6000.594
       205   02 Jun 2027 19:56:39.223   02 Jun 2027 19:57:53.782            74.559                Irkutsk          2329.969
       206   02 Jun 2027 20:06:23.255   02 Jun 2027 20:08:25.143           121.888                Sumatra          3809.000
       207   02 Jun 2027 20:12:49.793   02 Jun 2027 20:14:07.515            77.722                Sumatra          2428.812
       208   02 Jun 2027 21:23:23.039   02 Jun 2027 21:23:36.822            13.783                Norilsk           430.719
       209   02 Jun 2027 21:25:41.169   02 Jun 2027 21:27:17.475            96.306                Irkutsk          3009.562
       210   02 Jun 2027 21:27:19.611   02 Jun 2027 21:28:12.213            52.602                Novosib          1643.812
       211   02 Jun 2027 21:37:19.402   02 Jun 2027 21:38:23.802            64.400                  Delhi          2012.500
       212   02 Jun 2027 21:39:28.280   02 Jun 2027 21:39:57.751            29.471                  Delhi           920.969
       213   02 Jun 2027 21:45:50.602   02 Jun 2027 21:46:29.219            38.617                Sumatra          1206.781
       214   02 Jun 2027 22:24:25.771   02 Jun 2027 22:24:41.326            15.555            RioGallegos           486.094
       215   02 Jun 2027 22:53:21.822   02 Jun 2027 22:53:59.615            37.793                Anadyr2          1181.031
       216   02 Jun 2027 22:53:59.615   02 Jun 2027 22:54:10.623            11.008                Anadyr1           344.000
       217   02 Jun 2027 22:54:44.617   02 Jun 2027 22:55:29.604            44.987                Anadyr2          1405.844
       218   02 Jun 2027 22:57:45.039   02 Jun 2027 22:58:05.913            20.874                Norilsk           652.313
       219   02 Jun 2027 22:58:19.223   02 Jun 2027 22:59:35.814            76.591               Magadan1          2393.469
       220   02 Jun 2027 23:00:03.635   02 Jun 2027 23:00:21.294            17.659               Magadan2           551.844
       221   02 Jun 2027 23:00:52.410   02 Jun 2027 23:03:08.807           136.397              Murmansk1          4262.406
       222   02 Jun 2027 23:03:08.807   02 Jun 2027 23:04:28.443            79.636              Murmansk2          2488.625
       223   02 Jun 2027 23:08:54.998   02 Jun 2027 23:09:21.973            26.975                  Delhi           842.969
       224   02 Jun 2027 23:12:37.849   02 Jun 2027 23:12:53.085            15.236                  Delhi           476.125
       225   02 Jun 2027 23:16:57.868   02 Jun 2027 23:17:56.254            58.386                  Delhi          1824.563
       226   02 Jun 2027 23:19:46.166   02 Jun 2027 23:20:59.032            72.866                  Delhi          2277.062
       227   03 Jun 2027 00:26:40.438   03 Jun 2027 00:26:56.818            16.380                Anadyr2           511.875
       228   03 Jun 2027 00:28:17.193   03 Jun 2027 00:28:56.393            39.200                Anadyr2          1225.000
       229   03 Jun 2027 00:29:14.339   03 Jun 2027 00:29:28.520            14.181                Anadyr1           443.156
       230   03 Jun 2027 00:29:42.324   03 Jun 2027 00:29:49.026             6.702                Anadyr2           209.438
       231   03 Jun 2027 00:31:46.940   03 Jun 2027 00:32:25.591            38.651                Anadyr2          1207.844
       232   03 Jun 2027 00:32:43.235   03 Jun 2027 00:32:57.286            14.051                Anadyr1           439.094
       233   03 Jun 2027 00:32:57.471   03 Jun 2027 00:34:03.955            66.484               Magadan2          2077.625
       234   03 Jun 2027 00:34:19.828   03 Jun 2027 00:35:24.930            65.102               Magadan1          2034.437
       235   03 Jun 2027 00:35:56.647   03 Jun 2027 00:37:43.217           106.570              Murmansk1          3330.313
       236   03 Jun 2027 00:38:34.854   03 Jun 2027 00:39:01.764            26.910              Murmansk1           840.937
       237   03 Jun 2027 00:40:58.592   03 Jun 2027 00:41:22.808            24.216                 Moscow           756.750
       238   03 Jun 2027 00:43:50.241   03 Jun 2027 00:44:02.953            12.712                 Moscow           397.250
       239   03 Jun 2027 00:45:03.469   03 Jun 2027 00:45:19.188            15.719                 Moscow           491.219
       240   03 Jun 2027 00:45:44.779   03 Jun 2027 00:45:57.264            12.485                 Moscow           390.156
       241   03 Jun 2027 00:46:28.121   03 Jun 2027 00:46:29.616             1.495              Murmansk1            46.719
       242   03 Jun 2027 00:47:17.525   03 Jun 2027 00:47:27.429             9.904                 Moscow           309.500
       243   03 Jun 2027 00:49:16.154   03 Jun 2027 00:50:05.139            48.985                 Moscow          1530.781
       244   03 Jun 2027 01:06:15.770   03 Jun 2027 01:07:19.398            63.628               CapeTown          1988.375
       245   03 Jun 2027 01:10:14.412   03 Jun 2027 01:11:25.334            70.922               CapeTown          2216.313
       246   03 Jun 2027 02:00:26.643   03 Jun 2027 02:00:44.429            17.786                Anadyr1           555.812
       247   03 Jun 2027 02:02:14.004   03 Jun 2027 02:03:01.320            47.316                Anadyr1          1478.625
       248   03 Jun 2027 02:04:27.499   03 Jun 2027 02:05:19.021            51.522               Magadan1          1610.062
       249   03 Jun 2027 02:05:45.777   03 Jun 2027 02:06:09.935            24.158               Magadan1           754.937
       250   03 Jun 2027 02:08:12.146   03 Jun 2027 02:08:44.137            31.991               Magadan2           999.719
       251   03 Jun 2027 02:10:38.935   03 Jun 2027 02:10:43.467             4.532               Magadan2           141.625
       252   03 Jun 2027 02:10:59.401   03 Jun 2027 02:12:06.626            67.225               Magadan2          2100.781
       253   03 Jun 2027 02:12:22.729   03 Jun 2027 02:13:06.221            43.492              Murmansk2          1359.125
       254   03 Jun 2027 02:13:33.660   03 Jun 2027 02:13:40.539             6.879              Murmansk1           214.969
       255   03 Jun 2027 02:14:17.006   03 Jun 2027 02:14:27.660            10.654                Novosib           332.938
       256   03 Jun 2027 02:14:56.277   03 Jun 2027 02:15:24.081            27.804                Novosib           868.875
       257   03 Jun 2027 02:17:50.917   03 Jun 2027 02:17:56.732             5.815              Murmansk2           181.719
       258   03 Jun 2027 02:18:56.355   03 Jun 2027 02:19:01.419             5.064                Novosib           158.250
       259   03 Jun 2027 02:19:27.369   03 Jun 2027 02:19:40.409            13.040                 Moscow           407.500
       260   03 Jun 2027 02:21:53.210   03 Jun 2027 02:22:19.973            26.763              Murmansk2           836.344
       261   03 Jun 2027 02:23:18.416   03 Jun 2027 02:24:06.183            47.767              Murmansk2          1492.719
       262   03 Jun 2027 02:27:32.139   03 Jun 2027 02:27:58.348            26.209                 Moscow           819.031
       263   03 Jun 2027 02:44:49.523   03 Jun 2027 02:46:00.834            71.311               CapeTown          2228.469
       264   03 Jun 2027 03:41:58.715   03 Jun 2027 03:42:18.278            19.563               Magadan1           611.344
       265   03 Jun 2027 03:42:18.278   03 Jun 2027 03:42:25.243             6.965               Magadan2           217.656
       266   03 Jun 2027 03:42:38.323   03 Jun 2027 03:46:46.168           247.845               Magadan2          7745.156
       267   03 Jun 2027 03:46:46.168   03 Jun 2027 03:47:01.415            15.247               Magadan1           476.469
       268   03 Jun 2027 03:47:03.282   03 Jun 2027 03:48:37.292            94.010                Anadyr2          2937.812
       269   03 Jun 2027 05:20:19.380   03 Jun 2027 05:24:14.844           235.464               Magadan2          7358.250
       270   03 Jun 2027 06:02:17.924   03 Jun 2027 06:02:35.723            17.799            RioGallegos           556.219
       271   03 Jun 2027 06:04:45.109   03 Jun 2027 06:05:25.120            40.011            RioGallegos          1250.344
       272   03 Jun 2027 06:09:48.954   03 Jun 2027 06:10:14.614            25.660            RioGallegos           801.875
       273   03 Jun 2027 06:53:29.692   03 Jun 2027 06:54:46.503            76.811                Norilsk          2400.344
       274   03 Jun 2027 06:54:55.687   03 Jun 2027 06:59:55.131           299.444               Magadan1          9357.625
       275   03 Jun 2027 07:00:05.812   03 Jun 2027 07:00:29.990            24.178                Novosib           755.563
       276   03 Jun 2027 07:34:56.769   03 Jun 2027 07:35:57.500            60.731            RioGallegos          1897.844
       277   03 Jun 2027 07:36:22.603   03 Jun 2027 07:37:47.389            84.786            RioGallegos          2649.563
       278   03 Jun 2027 08:11:53.249   03 Jun 2027 08:12:15.183            21.934                Sumatra           685.438
       279   03 Jun 2027 08:31:00.179   03 Jun 2027 08:33:14.233           134.054               Magadan1          4189.188
       280   03 Jun 2027 08:33:33.789   03 Jun 2027 08:34:55.653            81.864              Murmansk1          2558.250
       281   03 Jun 2027 08:34:55.653   03 Jun 2027 08:35:51.209            55.556              Murmansk2          1736.125
       282   03 Jun 2027 08:35:52.162   03 Jun 2027 08:35:57.234             5.072                Irkutsk           158.500
       283   03 Jun 2027 08:35:57.397   03 Jun 2027 08:36:29.657            32.260                Novosib          1008.125
       284   03 Jun 2027 09:11:08.456   03 Jun 2027 09:11:41.256            32.800            RioGallegos          1025.000
       285   03 Jun 2027 09:13:43.965   03 Jun 2027 09:13:49.030             5.065            RioGallegos           158.281
       286   03 Jun 2027 09:15:17.981   03 Jun 2027 09:15:29.275            11.294            RioGallegos           352.937
       287   03 Jun 2027 09:19:25.179   03 Jun 2027 09:20:06.306            41.127            RioGallegos          1285.219
       288   03 Jun 2027 09:45:33.783   03 Jun 2027 09:46:20.714            46.931                Sumatra          1466.594
       289   03 Jun 2027 09:49:44.928   03 Jun 2027 09:50:09.327            24.399                Sumatra           762.469
       290   03 Jun 2027 09:55:15.950   03 Jun 2027 09:55:24.775             8.825                  Delhi           275.781
       291   03 Jun 2027 09:56:20.254   03 Jun 2027 09:56:47.071            26.817                  Delhi           838.031
       292   03 Jun 2027 10:01:19.602   03 Jun 2027 10:01:26.631             7.029                  Delhi           219.656
       293   03 Jun 2027 10:07:22.100   03 Jun 2027 10:07:34.798            12.698              Murmansk2           396.812
       294   03 Jun 2027 10:07:37.937   03 Jun 2027 10:09:21.002           103.065              Murmansk1          3220.781
       295   03 Jun 2027 10:09:30.822   03 Jun 2027 10:11:11.180           100.358                Novosib          3136.188
       296   03 Jun 2027 10:11:17.351   03 Jun 2027 10:11:46.789            29.438                Norilsk           919.938
       297   03 Jun 2027 10:11:47.211   03 Jun 2027 10:12:18.470            31.259                 Moscow           976.844
       298   03 Jun 2027 10:12:39.168   03 Jun 2027 10:13:09.748            30.580              Murmansk2           955.625
       299   03 Jun 2027 10:13:12.447   03 Jun 2027 10:13:51.984            39.537                 Moscow          1235.531
       300   03 Jun 2027 11:30:08.895   03 Jun 2027 11:32:26.139           137.244                  Delhi          4288.875
       301   03 Jun 2027 11:42:56.374   03 Jun 2027 11:44:05.696            69.322                 Moscow          2166.313
       302   03 Jun 2027 11:44:10.290   03 Jun 2027 11:45:20.974            70.684                 Moscow          2208.875
       303   03 Jun 2027 11:45:26.295   03 Jun 2027 11:46:48.081            81.786                 Moscow          2555.813
       304   03 Jun 2027 11:46:54.657   03 Jun 2027 11:47:27.097            32.440              Murmansk1          1013.750
       305   03 Jun 2027 11:48:11.709   03 Jun 2027 11:48:54.628            42.919              Murmansk2          1341.219
       306   03 Jun 2027 13:14:04.517   03 Jun 2027 13:18:20.388           255.871                 Moscow          7995.969
       307   03 Jun 2027 13:18:54.920   03 Jun 2027 13:21:41.861           166.941              Murmansk2          5216.906
       308   03 Jun 2027 13:22:48.215   03 Jun 2027 13:24:40.823           112.608                Norilsk          3519.000
       309   03 Jun 2027 14:28:07.024   03 Jun 2027 14:29:53.413           106.389               CapeTown          3324.656
       310   03 Jun 2027 14:30:25.747   03 Jun 2027 14:31:38.565            72.818               CapeTown          2275.563
       311   03 Jun 2027 14:38:48.851   03 Jun 2027 14:39:47.735            58.884               CapeTown          1840.125
       312   03 Jun 2027 14:55:03.876   03 Jun 2027 14:55:49.884            46.008              Murmansk2          1437.750
       313   03 Jun 2027 14:59:01.177   03 Jun 2027 14:59:10.378             9.201              Murmansk2           287.531
       314   03 Jun 2027 14:59:10.378   03 Jun 2027 15:00:13.479            63.101              Murmansk1          1971.906
       315   03 Jun 2027 15:08:25.865   03 Jun 2027 15:10:51.017           145.152                Anadyr1          4536.000
       316   03 Jun 2027 15:14:01.485   03 Jun 2027 15:14:09.483             7.998                Anadyr2           249.937
       317   03 Jun 2027 15:14:28.023   03 Jun 2027 15:15:07.620            39.597                Anadyr1          1237.406
       318   03 Jun 2027 16:14:08.419   03 Jun 2027 16:14:23.123            14.704               CapeTown           459.500
       319   03 Jun 2027 16:35:01.484   03 Jun 2027 16:37:27.742           146.258              Murmansk2          4570.562
       320   03 Jun 2027 16:38:45.011   03 Jun 2027 16:39:24.944            39.933              Murmansk1          1247.906
       321   03 Jun 2027 16:44:06.558   03 Jun 2027 16:45:39.464            92.906                Anadyr2          2903.313
       322   03 Jun 2027 16:45:39.464   03 Jun 2027 16:45:49.012             9.548                Anadyr1           298.375
       323   03 Jun 2027 16:46:45.748   03 Jun 2027 16:47:12.653            26.905                Anadyr2           840.781
       324   03 Jun 2027 16:47:49.358   03 Jun 2027 16:49:04.801            75.443               Magadan1          2357.594
       325   03 Jun 2027 16:49:50.312   03 Jun 2027 16:51:01.851            71.539               Magadan1          2235.594
       326   03 Jun 2027 16:53:16.074   03 Jun 2027 16:53:16.750             0.676               Magadan2            21.125
       327   03 Jun 2027 16:56:19.706   03 Jun 2027 16:56:27.040             7.334               Magadan1           229.188
       328   03 Jun 2027 18:20:02.013   03 Jun 2027 18:23:35.538           213.525                Anadyr1          6672.656
       329   03 Jun 2027 18:23:39.961   03 Jun 2027 18:25:21.511           101.550               Magadan2          3173.437
       330   03 Jun 2027 18:27:57.401   03 Jun 2027 18:28:37.830            40.429               Magadan2          1263.406
       331   03 Jun 2027 18:29:36.029   03 Jun 2027 18:30:34.248            58.219               Magadan1          1819.344
       332   03 Jun 2027 19:15:52.566   03 Jun 2027 19:18:42.283           169.717            RioGallegos          5303.656
       333   03 Jun 2027 19:22:13.743   03 Jun 2027 19:22:27.548            13.805            RioGallegos           431.406
       334   03 Jun 2027 19:55:49.627   03 Jun 2027 19:56:17.355            27.728                Anadyr2           866.500
       335   03 Jun 2027 19:57:59.758   03 Jun 2027 20:01:35.468           215.710                Norilsk          6740.937
       336   03 Jun 2027 20:02:46.870   03 Jun 2027 20:03:34.241            47.371                Irkutsk          1480.344
       337   03 Jun 2027 20:04:24.849   03 Jun 2027 20:06:26.489           121.640                Irkutsk          3801.250
       338   03 Jun 2027 20:17:28.399   03 Jun 2027 20:17:57.793            29.394                Sumatra           918.562
       339   03 Jun 2027 20:19:01.754   03 Jun 2027 20:20:02.924            61.170                Sumatra          1911.562
       340   03 Jun 2027 20:21:11.186   03 Jun 2027 20:22:13.618            62.432                Sumatra          1951.000
       341   03 Jun 2027 20:23:37.098   03 Jun 2027 20:23:44.732             7.634                Sumatra           238.563
       342   03 Jun 2027 20:24:21.203   03 Jun 2027 20:25:09.515            48.312                Sumatra          1509.750
       343   03 Jun 2027 21:34:22.425   03 Jun 2027 21:34:36.718            14.293               Magadan2           446.656
       344   03 Jun 2027 21:35:58.654   03 Jun 2027 21:36:03.065             4.411               Magadan1           137.844
       345   03 Jun 2027 21:37:40.448   03 Jun 2027 21:39:09.447            88.999                Irkutsk          2781.219
       346   03 Jun 2027 21:39:26.114   03 Jun 2027 21:40:48.502            82.388                Novosib          2574.625
       347   03 Jun 2027 21:44:39.603   03 Jun 2027 21:45:46.464            66.861                Novosib          2089.406
       348   03 Jun 2027 21:47:44.515   03 Jun 2027 21:49:56.209           131.694                  Delhi          4115.438
       349   03 Jun 2027 23:09:46.915   03 Jun 2027 23:10:15.905            28.990                Norilsk           905.938
       350   03 Jun 2027 23:10:18.413   03 Jun 2027 23:11:36.041            77.628               Magadan1          2425.875
       351   03 Jun 2027 23:11:53.090   03 Jun 2027 23:13:01.794            68.704               Magadan2          2147.000
       352   03 Jun 2027 23:13:21.568   03 Jun 2027 23:16:22.777           181.209              Murmansk2          5662.781
       353   03 Jun 2027 23:25:33.425   03 Jun 2027 23:26:41.805            68.380                  Delhi          2136.875
       354   04 Jun 2027 00:38:22.401   04 Jun 2027 00:38:45.872            23.471                Anadyr1           733.469
       355   04 Jun 2027 00:40:12.722   04 Jun 2027 00:40:57.734            45.012                Anadyr1          1406.625
       356   04 Jun 2027 00:43:16.744   04 Jun 2027 00:43:44.925            28.181                Anadyr1           880.656
       357   04 Jun 2027 00:44:19.471   04 Jun 2027 00:46:29.154           129.683               Magadan2          4052.594
       358   04 Jun 2027 00:46:41.487   04 Jun 2027 00:48:03.712            82.225               Magadan1          2569.531
       359   04 Jun 2027 00:48:36.141   04 Jun 2027 00:50:36.530           120.389              Murmansk2          3762.156
       360   04 Jun 2027 00:52:37.221   04 Jun 2027 00:52:54.908            17.687                 Moscow           552.719
       361   04 Jun 2027 00:55:23.440   04 Jun 2027 00:55:38.973            15.533                 Moscow           485.406
       362   04 Jun 2027 00:59:07.081   04 Jun 2027 01:01:16.263           129.182                 Moscow          4036.938
       363   04 Jun 2027 01:26:17.296   04 Jun 2027 01:26:30.054            12.758               CapeTown           398.687
       364   04 Jun 2027 02:12:17.188   04 Jun 2027 02:13:19.114            61.926                Anadyr1          1935.187
       365   04 Jun 2027 02:14:30.442   04 Jun 2027 02:14:49.791            19.349                Anadyr2           604.656
       366   04 Jun 2027 02:15:39.295   04 Jun 2027 02:15:41.407             2.112                Anadyr1            66.000
       367   04 Jun 2027 02:15:57.608   04 Jun 2027 02:17:15.040            77.432               Magadan2          2419.750
       368   04 Jun 2027 02:18:48.735   04 Jun 2027 02:18:51.234             2.499               Magadan2            78.094
       369   04 Jun 2027 02:20:41.471   04 Jun 2027 02:21:06.714            25.243               Magadan1           788.844
       370   04 Jun 2027 02:22:34.706   04 Jun 2027 02:22:37.837             3.131                Norilsk            97.844
       371   04 Jun 2027 02:23:02.861   04 Jun 2027 02:23:17.167            14.306                Norilsk           447.063
       372   04 Jun 2027 02:23:52.765   04 Jun 2027 02:25:33.007           100.242              Murmansk1          3132.562
       373   04 Jun 2027 02:26:29.243   04 Jun 2027 02:26:52.680            23.437                Novosib           732.406
       374   04 Jun 2027 02:29:36.066   04 Jun 2027 02:29:58.607            22.541                 Moscow           704.406
       375   04 Jun 2027 02:32:19.712   04 Jun 2027 02:32:47.996            28.284                 Moscow           883.875
       376   04 Jun 2027 02:37:05.500   04 Jun 2027 02:37:15.113             9.613                 Moscow           300.406
       377   04 Jun 2027 02:37:24.839   04 Jun 2027 02:37:39.879            15.040                 Moscow           470.000
       378   04 Jun 2027 02:54:11.297   04 Jun 2027 02:55:27.458            76.161               CapeTown          2380.031
       379   04 Jun 2027 03:54:20.246   04 Jun 2027 03:55:30.958            70.712               Magadan2          2209.750
       380   04 Jun 2027 03:55:30.958   04 Jun 2027 04:00:14.788           283.830               Magadan1          8869.687
       381   04 Jun 2027 05:32:05.581   04 Jun 2027 05:32:21.386            15.805               Magadan2           493.906
       382   04 Jun 2027 05:32:26.707   04 Jun 2027 05:32:57.261            30.554               Magadan1           954.813
       383   04 Jun 2027 05:32:58.636   04 Jun 2027 05:33:22.793            24.157                Anadyr2           754.906
       384   04 Jun 2027 05:34:15.314   04 Jun 2027 05:34:52.008            36.694               Magadan1          1146.688
       385   04 Jun 2027 05:35:01.020   04 Jun 2027 05:35:56.337            55.317               Magadan2          1728.656
       386   04 Jun 2027 06:15:42.252   04 Jun 2027 06:16:19.422            37.170            RioGallegos          1161.562
       387   04 Jun 2027 07:05:31.914   04 Jun 2027 07:05:36.361             4.447               Magadan1           138.969
       388   04 Jun 2027 07:05:49.842   04 Jun 2027 07:06:29.968            40.126               Magadan2          1253.938
       389   04 Jun 2027 07:06:34.664   04 Jun 2027 07:10:14.599           219.935               Magadan2          6872.969
       390   04 Jun 2027 07:10:16.631   04 Jun 2027 07:10:17.289             0.658                Anadyr2            20.562
       391   04 Jun 2027 07:10:30.118   04 Jun 2027 07:11:43.637            73.519               Magadan1          2297.469
       392   04 Jun 2027 07:11:52.738   04 Jun 2027 07:13:00.492            67.754              Murmansk1          2117.313
       393   04 Jun 2027 07:13:54.461   04 Jun 2027 07:15:21.780            87.319              Murmansk1          2728.719
       394   04 Jun 2027 07:46:48.488   04 Jun 2027 07:48:22.009            93.521            RioGallegos          2922.531
       395   04 Jun 2027 08:23:07.458   04 Jun 2027 08:24:26.275            78.817                Sumatra          2463.031
       396   04 Jun 2027 08:41:30.341   04 Jun 2027 08:42:11.338            40.997                Norilsk          1281.156
       397   04 Jun 2027 08:42:19.425   04 Jun 2027 08:43:12.189            52.764                Irkutsk          1648.875
       398   04 Jun 2027 08:43:20.023   04 Jun 2027 08:43:33.090            13.067                Norilsk           408.344
       399   04 Jun 2027 08:43:51.221   04 Jun 2027 08:43:58.231             7.010                Norilsk           219.063
       400   04 Jun 2027 08:44:26.559   04 Jun 2027 08:44:39.577            13.018                Norilsk           406.812
       401   04 Jun 2027 08:44:43.422   04 Jun 2027 08:45:22.657            39.235                Novosib          1226.094
       402   04 Jun 2027 08:45:33.239   04 Jun 2027 08:46:13.494            40.255              Murmansk2          1257.969
       403   04 Jun 2027 08:46:25.559   04 Jun 2027 08:46:28.368             2.809              Murmansk2            87.781
       404   04 Jun 2027 08:46:53.748   04 Jun 2027 08:47:25.879            32.131                Irkutsk          1004.094
       405   04 Jun 2027 08:47:28.998   04 Jun 2027 08:47:58.494            29.496                Irkutsk           921.750
       406   04 Jun 2027 08:48:12.391   04 Jun 2027 08:48:13.196             0.805                Norilsk            25.156
       407   04 Jun 2027 08:48:15.086   04 Jun 2027 08:48:33.158            18.072              Murmansk2           564.750
       408   04 Jun 2027 08:48:56.121   04 Jun 2027 08:49:22.459            26.338                Novosib           823.063
       409   04 Jun 2027 09:23:55.070   04 Jun 2027 09:24:27.452            32.382            RioGallegos          1011.938
       410   04 Jun 2027 09:27:29.773   04 Jun 2027 09:27:42.030            12.257            RioGallegos           383.031
       411   04 Jun 2027 09:31:33.351   04 Jun 2027 09:32:07.842            34.491            RioGallegos          1077.844
       412   04 Jun 2027 09:57:46.963   04 Jun 2027 09:59:28.159           101.196                Sumatra          3162.375
       413   04 Jun 2027 10:08:36.610   04 Jun 2027 10:09:09.067            32.457                  Delhi          1014.281
       414   04 Jun 2027 10:18:39.854   04 Jun 2027 10:19:18.040            38.186                 Moscow          1193.313
       415   04 Jun 2027 10:19:41.163   04 Jun 2027 10:20:11.288            30.125                Irkutsk           941.406
       416   04 Jun 2027 10:20:41.756   04 Jun 2027 10:20:58.834            17.078                 Moscow           533.687
       417   04 Jun 2027 10:21:06.068   04 Jun 2027 10:21:24.579            18.511                 Moscow           578.469
       418   04 Jun 2027 10:21:32.789   04 Jun 2027 10:21:48.396            15.607                Novosib           487.719
       419   04 Jun 2027 10:21:50.450   04 Jun 2027 10:21:59.905             9.455                Norilsk           295.469
       420   04 Jun 2027 10:22:00.947   04 Jun 2027 10:22:21.647            20.700              Murmansk1           646.875
       421   04 Jun 2027 10:22:23.486   04 Jun 2027 10:22:36.721            13.235              Murmansk1           413.594
       422   04 Jun 2027 10:22:43.602   04 Jun 2027 10:23:30.437            46.835              Murmansk1          1463.594
       423   04 Jun 2027 10:25:18.301   04 Jun 2027 10:25:34.743            16.442                 Moscow           513.812
       424   04 Jun 2027 11:42:33.347   04 Jun 2027 11:44:17.411           104.064                  Delhi          3252.000
       425   04 Jun 2027 11:46:17.090   04 Jun 2027 11:46:44.152            27.062                  Delhi           845.687
       426   04 Jun 2027 11:55:00.159   04 Jun 2027 11:55:16.371            16.212                Norilsk           506.625
       427   04 Jun 2027 11:55:25.010   04 Jun 2027 11:55:25.856             0.846              Murmansk1            26.437
       428   04 Jun 2027 11:55:25.856   04 Jun 2027 11:55:36.887            11.031              Murmansk2           344.719
       429   04 Jun 2027 11:55:38.385   04 Jun 2027 11:55:40.746             2.361                Novosib            73.781
       430   04 Jun 2027 11:56:06.139   04 Jun 2027 11:56:23.778            17.639                 Moscow           551.219
       431   04 Jun 2027 11:56:23.808   04 Jun 2027 11:56:57.570            33.762              Murmansk2          1055.063
       432   04 Jun 2027 11:57:00.930   04 Jun 2027 11:57:05.212             4.282                Novosib           133.813
       433   04 Jun 2027 11:57:12.556   04 Jun 2027 11:57:34.109            21.553              Murmansk2           673.531
       434   04 Jun 2027 11:57:35.847   04 Jun 2027 11:58:13.935            38.088              Murmansk2          1190.250
       435   04 Jun 2027 11:58:13.935   04 Jun 2027 11:58:29.208            15.273              Murmansk1           477.281
       436   04 Jun 2027 11:58:41.622   04 Jun 2027 11:58:48.153             6.531                 Moscow           204.094
       437   04 Jun 2027 11:58:53.669   04 Jun 2027 11:59:55.525            61.856                 Moscow          1933.000
       438   04 Jun 2027 12:01:07.271   04 Jun 2027 12:01:40.265            32.994              Murmansk1          1031.062
       439   04 Jun 2027 12:02:54.847   04 Jun 2027 12:03:06.884            12.037                Norilsk           376.156
       440   04 Jun 2027 12:03:13.255   04 Jun 2027 12:03:39.916            26.661                Norilsk           833.156
       441   04 Jun 2027 12:04:37.216   04 Jun 2027 12:04:49.792            12.576                Norilsk           393.000
       442   04 Jun 2027 12:05:00.725   04 Jun 2027 12:05:15.059            14.334              Murmansk2           447.937
       443   04 Jun 2027 12:05:36.446   04 Jun 2027 12:06:06.176            29.730              Murmansk1           929.062
       444   04 Jun 2027 12:06:14.050   04 Jun 2027 12:06:18.895             4.845              Murmansk1           151.406
       445   04 Jun 2027 13:26:10.249   04 Jun 2027 13:30:37.142           266.893                 Moscow          8340.406
       446   04 Jun 2027 13:30:55.924   04 Jun 2027 13:32:30.244            94.320              Murmansk2          2947.500
       447   04 Jun 2027 13:33:51.204   04 Jun 2027 13:34:29.541            38.337              Murmansk1          1198.031
       448   04 Jun 2027 13:35:45.014   04 Jun 2027 13:36:16.196            31.182                Norilsk           974.437
       449   04 Jun 2027 13:38:49.686   04 Jun 2027 13:39:12.508            22.822                Norilsk           713.188
       450   04 Jun 2027 13:46:20.783   04 Jun 2027 13:49:06.861           166.078                Anadyr1          5189.937
       451   04 Jun 2027 14:42:37.276   04 Jun 2027 14:43:26.011            48.735               CapeTown          1522.969
       452   04 Jun 2027 14:50:42.399   04 Jun 2027 14:51:01.846            19.447               CapeTown           607.719
       453   04 Jun 2027 15:07:26.070   04 Jun 2027 15:07:46.185            20.115              Murmansk2           628.594
       454   04 Jun 2027 15:07:46.185   04 Jun 2027 15:08:03.250            17.065              Murmansk1           533.281
       455   04 Jun 2027 15:08:57.449   04 Jun 2027 15:09:11.035            13.586              Murmansk1           424.563
       456   04 Jun 2027 15:10:41.337   04 Jun 2027 15:11:02.431            21.094              Murmansk1           659.188
       457   04 Jun 2027 15:11:02.431   04 Jun 2027 15:11:20.363            17.932              Murmansk2           560.375
       458   04 Jun 2027 15:14:31.930   04 Jun 2027 15:14:48.113            16.183              Murmansk1           505.719
       459   04 Jun 2027 15:16:29.058   04 Jun 2027 15:16:42.530            13.472              Murmansk2           421.000
       460   04 Jun 2027 15:20:23.205   04 Jun 2027 15:22:40.297           137.092                Anadyr1          4284.125
       461   04 Jun 2027 15:26:02.534   04 Jun 2027 15:26:12.092             9.558                Anadyr2           298.687
       462   04 Jun 2027 15:26:13.185   04 Jun 2027 15:26:20.250             7.065                Anadyr1           220.781
       463   04 Jun 2027 15:26:29.012   04 Jun 2027 15:27:08.928            39.916                Anadyr1          1247.375
       464   04 Jun 2027 15:31:07.651   04 Jun 2027 15:31:19.420            11.769                Anadyr2           367.781
       465   04 Jun 2027 16:26:19.375   04 Jun 2027 16:26:58.326            38.951               CapeTown          1217.219
       466   04 Jun 2027 16:47:49.834   04 Jun 2027 16:49:34.411           104.577              Murmansk1          3268.031
       467   04 Jun 2027 16:49:34.411   04 Jun 2027 16:50:12.833            38.422              Murmansk2          1200.687
       468   04 Jun 2027 16:56:07.661   04 Jun 2027 16:57:48.796           101.135                Anadyr2          3160.469
       469   04 Jun 2027 16:57:53.413   04 Jun 2027 16:58:46.900            53.487                Anadyr2          1671.469
       470   04 Jun 2027 16:58:58.060   04 Jun 2027 17:01:33.110           155.050               Magadan2          4845.313
       471   04 Jun 2027 18:32:03.217   04 Jun 2027 18:35:04.364           181.147                Anadyr2          5660.844
       472   04 Jun 2027 18:35:18.433   04 Jun 2027 18:35:50.609            32.176                Anadyr2          1005.500
       473   04 Jun 2027 18:35:56.146   04 Jun 2027 18:36:41.016            44.870               Magadan2          1402.187
       474   04 Jun 2027 18:37:16.498   04 Jun 2027 18:37:30.834            14.336               Magadan2           448.000
       475   04 Jun 2027 18:38:27.523   04 Jun 2027 18:38:48.721            21.198               Magadan2           662.438
       476   04 Jun 2027 18:39:30.869   04 Jun 2027 18:39:48.138            17.269               Magadan2           539.656
       477   04 Jun 2027 18:41:38.296   04 Jun 2027 18:42:05.204            26.908               Magadan1           840.875
       478   04 Jun 2027 18:45:52.324   04 Jun 2027 18:46:34.657            42.333               Magadan1          1322.906
       479   04 Jun 2027 19:27:20.413   04 Jun 2027 19:30:28.936           188.523            RioGallegos          5891.344
       480   04 Jun 2027 19:34:07.904   04 Jun 2027 19:34:13.850             5.946            RioGallegos           185.812
       481   04 Jun 2027 20:07:48.266   04 Jun 2027 20:08:17.328            29.062                Anadyr2           908.188
       482   04 Jun 2027 20:09:57.905   04 Jun 2027 20:13:52.720           234.815                Norilsk          7337.969
