uniorb/output/strategy_1/Drop/Drop_KinoSat_111803.txt

KinoSat_111803
-------------------------
    Access    *     Start Time (UTCG)     *     Stop Time (UTCG)  *   Duration (s)        *       Station  *  Data (Mbytes)
         1   01 Jun 2027 03:26:57.135   01 Jun 2027 03:30:25.765           208.630                Norilsk          6519.688
         2   01 Jun 2027 03:30:28.821   01 Jun 2027 03:30:32.299             3.478                Norilsk           108.688
         3   01 Jun 2027 03:30:34.774   01 Jun 2027 03:30:36.608             1.834                Novosib            57.312
         4   01 Jun 2027 03:30:45.359   01 Jun 2027 03:33:16.715           151.356                Irkutsk          4729.875
         5   01 Jun 2027 03:33:50.972   01 Jun 2027 03:35:28.146            97.174                Novosib          3036.688
         6   01 Jun 2027 03:35:55.241   01 Jun 2027 03:36:15.261            20.020                Novosib           625.625
         7   01 Jun 2027 03:37:32.954   01 Jun 2027 03:39:44.460           131.506                  Delhi          4109.563
         8   01 Jun 2027 05:04:26.894   01 Jun 2027 05:04:43.594            16.700                Novosib           521.875
         9   01 Jun 2027 05:04:58.899   01 Jun 2027 05:05:19.188            20.289              Murmansk2           634.031
        10   01 Jun 2027 05:05:19.188   01 Jun 2027 05:06:53.263            94.075              Murmansk1          2939.844
        11   01 Jun 2027 05:06:56.192   01 Jun 2027 05:07:20.972            24.780              Murmansk1           774.375
        12   01 Jun 2027 05:07:37.112   01 Jun 2027 05:08:31.653            54.541                Novosib          1704.406
        13   01 Jun 2027 05:08:51.497   01 Jun 2027 05:10:15.030            83.533              Murmansk2          2610.406
        14   01 Jun 2027 05:10:43.715   01 Jun 2027 05:13:56.376           192.661                 Moscow          6020.656
        15   01 Jun 2027 05:25:37.985   01 Jun 2027 05:31:58.136           380.151               CapeTown         11879.719
        16   01 Jun 2027 06:29:23.636   01 Jun 2027 06:29:37.673            14.037                Anadyr2           438.656
        17   01 Jun 2027 06:30:08.554   01 Jun 2027 06:33:23.210           194.656               Magadan2          6083.000
        18   01 Jun 2027 06:40:50.456   01 Jun 2027 06:44:45.557           235.101              Murmansk2          7346.906
        19   01 Jun 2027 06:45:10.952   01 Jun 2027 06:45:55.331            44.379              Murmansk2          1386.844
        20   01 Jun 2027 06:45:55.331   01 Jun 2027 06:46:54.789            59.458              Murmansk1          1858.062
        21   01 Jun 2027 07:02:08.773   01 Jun 2027 07:02:56.277            47.504               CapeTown          1484.500
        22   01 Jun 2027 07:04:13.878   01 Jun 2027 07:06:09.182           115.304               CapeTown          3603.250
        23   01 Jun 2027 08:04:55.360   01 Jun 2027 08:06:55.769           120.409                Anadyr1          3762.781
        24   01 Jun 2027 08:07:20.660   01 Jun 2027 08:09:05.572           104.912               Magadan1          3278.500
        25   01 Jun 2027 08:09:15.236   01 Jun 2027 08:10:45.291            90.055                Anadyr1          2814.219
        26   01 Jun 2027 09:39:59.763   01 Jun 2027 09:43:27.640           207.877                Anadyr1          6496.156
        27   01 Jun 2027 09:43:35.876   01 Jun 2027 09:43:55.723            19.847               Magadan2           620.219
        28   01 Jun 2027 09:43:55.723   01 Jun 2027 09:46:20.433           144.710               Magadan1          4522.188
        29   01 Jun 2027 11:14:52.412   01 Jun 2027 11:17:45.204           172.792               Magadan2          5399.750
        30   01 Jun 2027 11:17:58.175   01 Jun 2027 11:21:18.093           199.918               Magadan1          6247.438
        31   01 Jun 2027 14:26:25.254   01 Jun 2027 14:30:16.701           231.447                Irkutsk          7232.719
        32   01 Jun 2027 14:31:14.804   01 Jun 2027 14:31:27.861            13.057                Irkutsk           408.031
        33   01 Jun 2027 15:56:58.643   01 Jun 2027 16:00:04.784           186.141                  Delhi          5816.906
        34   01 Jun 2027 16:05:02.229   01 Jun 2027 16:08:32.291           210.062                Novosib          6564.437
        35   01 Jun 2027 16:12:15.948   01 Jun 2027 16:12:22.125             6.177                Norilsk           193.031
        36   01 Jun 2027 19:19:22.943   01 Jun 2027 19:20:01.185            38.242              Murmansk1          1195.063
        37   01 Jun 2027 19:20:49.393   01 Jun 2027 19:24:39.759           230.366              Murmansk2          7198.937
        38   01 Jun 2027 19:25:59.715   01 Jun 2027 19:27:53.414           113.699              Murmansk1          3553.094
        39   01 Jun 2027 20:27:58.663   01 Jun 2027 20:31:48.442           229.779               CapeTown          7180.594
        40   01 Jun 2027 20:32:29.806   01 Jun 2027 20:32:38.387             8.581               CapeTown           268.156
        41   01 Jun 2027 21:11:25.597   01 Jun 2027 21:11:38.560            12.963               Magadan2           405.094
        42   01 Jun 2027 21:13:04.392   01 Jun 2027 21:13:35.134            30.742               Magadan2           960.688
        43   01 Jun 2027 22:42:10.250   01 Jun 2027 22:45:54.447           224.197                Anadyr1          7006.156
        44   01 Jun 2027 22:45:54.952   01 Jun 2027 22:48:41.731           166.779               Magadan1          5211.844
        45   01 Jun 2027 22:48:49.307   01 Jun 2027 22:49:43.781            54.474                Norilsk          1702.312
        46   01 Jun 2027 22:50:31.378   01 Jun 2027 22:50:45.043            13.665                Irkutsk           427.031
        47   01 Jun 2027 22:51:51.815   01 Jun 2027 22:52:20.291            28.476                Irkutsk           889.875
        48   01 Jun 2027 22:54:40.940   01 Jun 2027 22:55:15.603            34.663                Irkutsk          1083.219
        49   01 Jun 2027 23:36:21.952   01 Jun 2027 23:38:29.839           127.887            RioGallegos          3996.469
        50   01 Jun 2027 23:41:27.947   01 Jun 2027 23:41:38.374            10.427            RioGallegos           325.844
        51   01 Jun 2027 23:47:16.494   01 Jun 2027 23:47:54.540            38.046            RioGallegos          1188.937
        52   02 Jun 2027 00:17:40.970   02 Jun 2027 00:19:18.987            98.017                Anadyr1          3063.031
        53   02 Jun 2027 00:19:59.336   02 Jun 2027 00:21:45.478           106.142                Norilsk          3316.937
        54   02 Jun 2027 00:21:53.142   02 Jun 2027 00:22:29.944            36.802               Magadan2          1150.063
        55   02 Jun 2027 00:23:30.650   02 Jun 2027 00:23:56.061            25.411               Magadan2           794.094
        56   02 Jun 2027 00:24:03.184   02 Jun 2027 00:25:58.450           115.266                Irkutsk          3602.063
        57   02 Jun 2027 00:30:01.750   02 Jun 2027 00:30:35.400            33.650                Novosib          1051.562
        58   02 Jun 2027 00:37:44.652   02 Jun 2027 00:40:50.799           186.147                Sumatra          5817.094
        59   02 Jun 2027 01:16:48.840   02 Jun 2027 01:17:30.232            41.392            RioGallegos          1293.500
        60   02 Jun 2027 01:52:11.980   02 Jun 2027 01:52:49.456            37.476                Anadyr2          1171.125
        61   02 Jun 2027 01:52:49.456   02 Jun 2027 01:53:44.235            54.779                Anadyr1          1711.844
        62   02 Jun 2027 01:55:59.013   02 Jun 2027 01:57:17.502            78.489                Norilsk          2452.781
        63   02 Jun 2027 01:57:29.169   02 Jun 2027 01:57:33.936             4.767                Norilsk           148.969
        64   02 Jun 2027 01:59:43.591   02 Jun 2027 01:59:46.779             3.188                Norilsk            99.625
        65   02 Jun 2027 01:59:52.912   02 Jun 2027 02:02:44.102           171.190                Novosib          5349.688
        66   02 Jun 2027 02:07:24.739   02 Jun 2027 02:08:30.645            65.906                  Delhi          2059.563
        67   02 Jun 2027 02:10:57.023   02 Jun 2027 02:10:57.508             0.485                  Delhi            15.156
        68   02 Jun 2027 02:14:17.313   02 Jun 2027 02:14:46.612            29.299                  Delhi           915.594
        69   02 Jun 2027 02:17:22.506   02 Jun 2027 02:20:53.010           210.504                Sumatra          6578.250
        70   02 Jun 2027 02:52:10.407   02 Jun 2027 02:52:53.254            42.847            RioGallegos          1338.969
        71   02 Jun 2027 02:57:18.015   02 Jun 2027 02:57:45.393            27.378            RioGallegos           855.563
        72   02 Jun 2027 03:38:51.492   02 Jun 2027 03:39:07.362            15.870              Murmansk1           495.937
        73   02 Jun 2027 03:39:13.344   02 Jun 2027 03:42:11.358           178.014                Novosib          5562.937
        74   02 Jun 2027 03:42:17.358   02 Jun 2027 03:44:28.270           130.912                Irkutsk          4091.000
        75   02 Jun 2027 05:16:49.659   02 Jun 2027 05:18:40.770           111.111              Murmansk2          3472.219
        76   02 Jun 2027 05:18:50.341   02 Jun 2027 05:19:09.843            19.502                Norilsk           609.438
        77   02 Jun 2027 05:19:17.212   02 Jun 2027 05:22:23.075           185.863              Murmansk2          5808.219
        78   02 Jun 2027 05:22:48.941   02 Jun 2027 05:25:29.147           160.206                 Moscow          5006.437
        79   02 Jun 2027 05:37:25.682   02 Jun 2027 05:39:40.665           134.983               CapeTown          4218.219
        80   02 Jun 2027 05:40:33.804   02 Jun 2027 05:40:54.306            20.502               CapeTown           640.687
        81   02 Jun 2027 06:40:59.572   02 Jun 2027 06:41:18.214            18.642               Magadan2           582.562
        82   02 Jun 2027 06:41:46.344   02 Jun 2027 06:42:41.554            55.210                Anadyr1          1725.312
        83   02 Jun 2027 06:42:41.554   02 Jun 2027 06:44:51.434           129.880                Anadyr2          4058.750
        84   02 Jun 2027 06:44:58.803   02 Jun 2027 06:45:08.066             9.263                Norilsk           289.469
        85   02 Jun 2027 06:45:09.281   02 Jun 2027 06:45:14.863             5.582               Magadan2           174.438
        86   02 Jun 2027 06:46:04.325   02 Jun 2027 06:46:28.870            24.545              Murmansk1           767.031
        87   02 Jun 2027 06:52:21.568   02 Jun 2027 06:53:26.279            64.711                Norilsk          2022.219
        88   02 Jun 2027 06:53:36.733   02 Jun 2027 06:53:59.470            22.737              Murmansk2           710.531
        89   02 Jun 2027 06:54:22.776   02 Jun 2027 06:55:08.995            46.219                 Moscow          1444.344
        90   02 Jun 2027 06:55:25.438   02 Jun 2027 06:55:33.828             8.390                 Moscow           262.187
        91   02 Jun 2027 06:55:59.677   02 Jun 2027 06:56:33.841            34.164                 Moscow          1067.625
        92   02 Jun 2027 06:58:56.462   02 Jun 2027 06:59:00.115             3.653                 Moscow           114.156
        93   02 Jun 2027 07:14:44.158   02 Jun 2027 07:15:02.818            18.660               CapeTown           583.125
        94   02 Jun 2027 07:17:50.535   02 Jun 2027 07:18:07.841            17.306               CapeTown           540.813
        95   02 Jun 2027 08:16:54.815   02 Jun 2027 08:20:07.928           193.113                Anadyr2          6034.781
        96   02 Jun 2027 08:20:28.624   02 Jun 2027 08:21:16.985            48.361               Magadan1          1511.281
        97   02 Jun 2027 08:21:30.238   02 Jun 2027 08:22:45.624            75.386                Anadyr1          2355.813
        98   02 Jun 2027 09:50:28.504   02 Jun 2027 09:57:58.321           449.817                Anadyr1         14056.781
        99   02 Jun 2027 11:26:16.246   02 Jun 2027 11:29:31.657           195.411               Magadan1          6106.594
       100   02 Jun 2027 11:29:49.684   02 Jun 2027 11:32:58.956           189.272               Magadan1          5914.750
       101   02 Jun 2027 13:52:52.217   02 Jun 2027 13:53:06.299            14.082            RioGallegos           440.062
       102   02 Jun 2027 16:20:51.044   02 Jun 2027 16:21:06.007            14.963                Norilsk           467.594
       103   02 Jun 2027 16:23:50.225   02 Jun 2027 16:25:14.199            83.974                Norilsk          2624.187
       104   02 Jun 2027 18:12:49.143   02 Jun 2027 18:13:06.756            17.613                Anadyr2           550.406
       105   02 Jun 2027 19:01:48.445   02 Jun 2027 19:03:45.350           116.905               CapeTown          3653.281
       106   02 Jun 2027 19:04:28.964   02 Jun 2027 19:04:52.505            23.541               CapeTown           735.656
       107   02 Jun 2027 19:08:05.961   02 Jun 2027 19:10:20.514           134.553               CapeTown          4204.781
       108   02 Jun 2027 19:31:58.982   02 Jun 2027 19:32:56.889            57.907              Murmansk1          1809.594
       109   02 Jun 2027 19:34:28.976   02 Jun 2027 19:37:29.782           180.806              Murmansk2          5650.188
       110   02 Jun 2027 19:37:45.969   02 Jun 2027 19:40:26.199           160.230              Murmansk2          5007.187
       111   02 Jun 2027 20:41:24.930   02 Jun 2027 20:44:08.574           163.644               CapeTown          5113.875
       112   02 Jun 2027 21:19:22.924   02 Jun 2027 21:19:59.460            36.536                Anadyr2          1141.750
       113   02 Jun 2027 21:20:39.445   02 Jun 2027 21:21:32.261            52.816               Magadan2          1650.500
       114   02 Jun 2027 21:21:32.261   02 Jun 2027 21:23:03.859            91.598               Magadan1          2862.438
       115   02 Jun 2027 21:23:07.239   02 Jun 2027 21:23:14.852             7.613               Magadan1           237.906
       116   02 Jun 2027 21:23:33.262   02 Jun 2027 21:24:33.109            59.847               Magadan1          1870.219
       117   02 Jun 2027 22:54:10.623   02 Jun 2027 22:59:33.018           322.395                Anadyr1         10074.844
       118   02 Jun 2027 22:59:33.018   02 Jun 2027 22:59:48.224            15.206                Anadyr2           475.187
       119   02 Jun 2027 22:59:56.968   02 Jun 2027 23:00:21.155            24.187                Anadyr1           755.844
       120   02 Jun 2027 23:00:21.294   02 Jun 2027 23:01:25.537            64.243               Magadan1          2007.594
       121   02 Jun 2027 23:01:25.537   02 Jun 2027 23:01:34.623             9.086               Magadan2           283.938
       122   02 Jun 2027 23:01:48.268   02 Jun 2027 23:02:52.387            64.119                Irkutsk          2003.719
       123   02 Jun 2027 23:04:05.697   02 Jun 2027 23:04:40.160            34.463                Irkutsk          1076.969
       124   02 Jun 2027 23:04:58.651   02 Jun 2027 23:05:32.774            34.123               Magadan1          1066.344
       125   02 Jun 2027 23:07:09.890   02 Jun 2027 23:07:57.954            48.064                Irkutsk          1502.000
       126   02 Jun 2027 23:17:57.751   02 Jun 2027 23:19:17.530            79.779                Sumatra          2493.094
       127   02 Jun 2027 23:21:49.812   02 Jun 2027 23:22:22.898            33.086                Sumatra          1033.937
       128   02 Jun 2027 23:51:46.978   02 Jun 2027 23:51:52.347             5.369            RioGallegos           167.781
       129   02 Jun 2027 23:53:18.000   02 Jun 2027 23:54:14.290            56.290            RioGallegos          1759.063
       130   02 Jun 2027 23:56:27.795   02 Jun 2027 23:57:26.112            58.317            RioGallegos          1822.406
       131   03 Jun 2027 00:29:36.087   03 Jun 2027 00:31:01.584            85.497                Anadyr1          2671.781
       132   03 Jun 2027 00:32:00.977   03 Jun 2027 00:33:47.729           106.752                Norilsk          3336.000
       133   03 Jun 2027 00:34:03.955   03 Jun 2027 00:34:19.828            15.873               Magadan2           496.031
       134   03 Jun 2027 00:34:35.781   03 Jun 2027 00:35:50.330            74.549               Magadan2          2329.656
       135   03 Jun 2027 00:36:00.690   03 Jun 2027 00:37:11.313            70.623                Irkutsk          2206.969
       136   03 Jun 2027 00:41:01.584   03 Jun 2027 00:41:14.741            13.157                Novosib           411.156
       137   03 Jun 2027 00:42:33.311   03 Jun 2027 00:43:03.325            30.014                Novosib           937.937
       138   03 Jun 2027 00:43:13.655   03 Jun 2027 00:43:22.968             9.313                Novosib           291.031
       139   03 Jun 2027 00:44:33.046   03 Jun 2027 00:45:48.312            75.266                Novosib          2352.062
       140   03 Jun 2027 00:52:06.501   03 Jun 2027 00:52:24.150            17.649                Sumatra           551.531
       141   03 Jun 2027 00:53:50.774   03 Jun 2027 00:55:35.295           104.521                Sumatra          3266.281
       142   03 Jun 2027 01:29:40.234   03 Jun 2027 01:30:06.852            26.618            RioGallegos           831.813
       143   03 Jun 2027 01:32:55.917   03 Jun 2027 01:33:36.299            40.382            RioGallegos          1261.938
       144   03 Jun 2027 01:35:20.322   03 Jun 2027 01:35:57.895            37.573            RioGallegos          1174.156
       145   03 Jun 2027 02:04:49.817   03 Jun 2027 02:05:02.089            12.272                Anadyr1           383.500
       146   03 Jun 2027 02:05:45.556   03 Jun 2027 02:06:20.345            34.789                Anadyr1          1087.156
       147   03 Jun 2027 02:08:01.400   03 Jun 2027 02:09:04.172            62.772                Norilsk          1961.625
       148   03 Jun 2027 02:09:18.772   03 Jun 2027 02:09:29.291            10.519                Norilsk           328.719
       149   03 Jun 2027 02:10:22.991   03 Jun 2027 02:10:38.935            15.944               Magadan2           498.250
       150   03 Jun 2027 02:11:09.113   03 Jun 2027 02:11:22.423            13.310                Norilsk           415.937
       151   03 Jun 2027 02:11:25.224   03 Jun 2027 02:12:05.208            39.984              Murmansk1          1249.500
       152   03 Jun 2027 02:12:16.783   03 Jun 2027 02:13:05.196            48.413                Novosib          1512.906
       153   03 Jun 2027 02:13:22.218   03 Jun 2027 02:13:30.739             8.521                Irkutsk           266.281
       154   03 Jun 2027 02:14:27.660   03 Jun 2027 02:14:56.277            28.617                Novosib           894.281
       155   03 Jun 2027 02:15:27.246   03 Jun 2027 02:15:59.572            32.326                Irkutsk          1010.188
       156   03 Jun 2027 02:20:40.782   03 Jun 2027 02:22:06.631            85.849                Irkutsk          2682.781
       157   03 Jun 2027 02:28:48.132   03 Jun 2027 02:29:34.829            46.697                  Delhi          1459.281
       158   03 Jun 2027 03:00:46.070   03 Jun 2027 03:01:58.146            72.076            RioGallegos          2252.375
       159   03 Jun 2027 03:02:49.482   03 Jun 2027 03:03:14.081            24.599            RioGallegos           768.719
       160   03 Jun 2027 03:03:21.472   03 Jun 2027 03:05:15.759           114.287            RioGallegos          3571.469
       161   03 Jun 2027 03:50:48.585   03 Jun 2027 03:51:06.933            18.348                Norilsk           573.375
       162   03 Jun 2027 03:51:08.429   03 Jun 2027 03:52:43.111            94.682                Irkutsk          2958.813
       163   03 Jun 2027 03:52:54.194   03 Jun 2027 03:52:59.261             5.067                Norilsk           158.344
       164   03 Jun 2027 03:53:13.253   03 Jun 2027 03:53:33.117            19.864                Novosib           620.750
       165   03 Jun 2027 03:53:34.288   03 Jun 2027 03:56:45.863           191.575                Norilsk          5986.719
       166   03 Jun 2027 03:57:17.718   03 Jun 2027 03:57:40.994            23.276                Novosib           727.375
       167   03 Jun 2027 03:58:59.528   03 Jun 2027 03:59:44.078            44.550                Novosib          1392.187
       168   03 Jun 2027 03:59:58.723   03 Jun 2027 04:01:07.650            68.927                  Delhi          2153.969
       169   03 Jun 2027 05:29:06.666   03 Jun 2027 05:29:23.317            16.651              Murmansk1           520.344
       170   03 Jun 2027 05:29:43.628   03 Jun 2027 05:34:12.704           269.076              Murmansk1          8408.625
       171   03 Jun 2027 05:35:52.285   03 Jun 2027 05:36:04.102            11.817                 Moscow           369.281
       172   03 Jun 2027 06:53:30.005   03 Jun 2027 06:53:53.927            23.922               Magadan2           747.562
       173   03 Jun 2027 06:53:57.260   03 Jun 2027 06:55:03.162            65.902                Anadyr1          2059.437
       174   03 Jun 2027 06:56:50.022   03 Jun 2027 06:57:08.754            18.732               Magadan2           585.375
       175   03 Jun 2027 06:57:39.231   03 Jun 2027 06:58:26.845            47.614               Magadan2          1487.938
       176   03 Jun 2027 08:27:04.009   03 Jun 2027 08:27:45.752            41.743                Anadyr2          1304.469
       177   03 Jun 2027 08:28:44.850   03 Jun 2027 08:31:00.179           135.329               Magadan1          4229.031
       178   03 Jun 2027 08:31:00.179   03 Jun 2027 08:31:13.922            13.743               Magadan2           429.469
       179   03 Jun 2027 08:31:38.412   03 Jun 2027 08:34:45.475           187.063                Anadyr1          5845.719
       180   03 Jun 2027 08:38:08.642   03 Jun 2027 08:39:25.969            77.327                 Moscow          2416.469
       181   03 Jun 2027 09:58:22.019   03 Jun 2027 09:58:55.376            33.357               Magadan2          1042.406
       182   03 Jun 2027 10:01:39.335   03 Jun 2027 10:03:41.989           122.654               Magadan2          3832.937
       183   03 Jun 2027 10:04:00.399   03 Jun 2027 10:09:43.975           343.576                Anadyr1         10736.750
       184   03 Jun 2027 10:45:26.052   03 Jun 2027 10:45:33.230             7.178            RioGallegos           224.312
       185   03 Jun 2027 10:53:40.365   03 Jun 2027 10:53:49.734             9.369            RioGallegos           292.781
       186   03 Jun 2027 11:23:10.507   03 Jun 2027 11:24:39.867            89.360                Sumatra          2792.500
       187   03 Jun 2027 11:39:06.794   03 Jun 2027 11:44:29.785           322.991               Magadan1         10093.469
       188   03 Jun 2027 11:44:57.029   03 Jun 2027 11:45:58.081            61.052              Murmansk1          1907.875
       189   03 Jun 2027 11:46:14.690   03 Jun 2027 11:46:43.586            28.896              Murmansk1           903.000
       190   03 Jun 2027 11:47:16.290   03 Jun 2027 11:47:22.128             5.838                Norilsk           182.438
       191   03 Jun 2027 11:48:11.709   03 Jun 2027 11:48:54.628            42.919              Murmansk1          1341.219
       192   03 Jun 2027 12:21:12.375   03 Jun 2027 12:21:56.889            44.514            RioGallegos          1391.062
       193   03 Jun 2027 12:24:01.663   03 Jun 2027 12:24:35.586            33.923            RioGallegos          1060.094
       194   03 Jun 2027 12:55:46.002   03 Jun 2027 12:57:34.383           108.381                Sumatra          3386.906
       195   03 Jun 2027 13:02:12.704   03 Jun 2027 13:04:36.795           144.091                Sumatra          4502.844
       196   03 Jun 2027 13:10:14.132   03 Jun 2027 13:10:24.108             9.976                Irkutsk           311.750
       197   03 Jun 2027 13:12:02.697   03 Jun 2027 13:13:01.552            58.855                Novosib          1839.219
       198   03 Jun 2027 13:14:23.055   03 Jun 2027 13:15:09.293            46.238                Irkutsk          1444.938
       199   03 Jun 2027 13:20:08.353   03 Jun 2027 13:20:42.256            33.903                Irkutsk          1059.469
       200   03 Jun 2027 13:26:49.470   03 Jun 2027 13:27:07.626            18.156                Norilsk           567.375
       201   03 Jun 2027 14:02:11.625   03 Jun 2027 14:05:56.197           224.572            RioGallegos          7017.875
       202   03 Jun 2027 14:48:09.358   03 Jun 2027 14:48:37.803            28.445                Novosib           888.906
       203   03 Jun 2027 14:48:52.812   03 Jun 2027 14:50:00.022            67.210                  Delhi          2100.312
       204   03 Jun 2027 14:51:49.870   03 Jun 2027 14:53:14.837            84.967                Novosib          2655.219
       205   03 Jun 2027 14:55:09.347   03 Jun 2027 14:55:21.530            12.183                Norilsk           380.719
       206   03 Jun 2027 14:57:20.796   03 Jun 2027 14:58:00.322            39.526                Norilsk          1235.188
       207   03 Jun 2027 14:58:30.373   03 Jun 2027 14:59:01.624            31.251                Novosib           976.594
       208   03 Jun 2027 16:24:20.709   03 Jun 2027 16:27:06.219           165.510                 Moscow          5172.187
       209   03 Jun 2027 16:27:49.399   03 Jun 2027 16:28:43.198            53.799              Murmansk1          1681.219
       210   03 Jun 2027 16:32:18.574   03 Jun 2027 16:38:46.109           387.535                Norilsk         12110.469
       211   03 Jun 2027 18:02:03.024   03 Jun 2027 18:02:57.599            54.575                 Moscow          1705.469
       212   03 Jun 2027 18:05:03.805   03 Jun 2027 18:05:55.984            52.179              Murmansk2          1630.594
       213   03 Jun 2027 18:06:26.447   03 Jun 2027 18:07:20.593            54.146                 Moscow          1692.062
       214   03 Jun 2027 18:08:43.669   03 Jun 2027 18:08:55.596            11.927              Murmansk2           372.719
       215   03 Jun 2027 18:09:16.540   03 Jun 2027 18:10:02.391            45.851              Murmansk1          1432.844
       216   03 Jun 2027 18:14:38.418   03 Jun 2027 18:14:54.095            15.677              Murmansk1           489.906
       217   03 Jun 2027 18:25:20.862   03 Jun 2027 18:25:43.257            22.395                Anadyr2           699.844
       218   03 Jun 2027 18:27:00.163   03 Jun 2027 18:27:03.879             3.716                Anadyr1           116.125
       219   03 Jun 2027 18:27:11.453   03 Jun 2027 18:27:26.569            15.116                Anadyr1           472.375
       220   03 Jun 2027 19:13:55.676   03 Jun 2027 19:15:40.399           104.723               CapeTown          3272.594
       221   03 Jun 2027 19:23:21.401   03 Jun 2027 19:23:37.831            16.430               CapeTown           513.437
       222   03 Jun 2027 19:44:38.534   03 Jun 2027 19:46:05.584            87.050              Murmansk1          2720.312
       223   03 Jun 2027 19:46:21.636   03 Jun 2027 19:50:16.600           234.964              Murmansk2          7342.625
       224   03 Jun 2027 20:00:33.845   03 Jun 2027 20:00:52.859            19.014               Magadan2           594.187
       225   03 Jun 2027 20:04:34.708   03 Jun 2027 20:04:40.900             6.192               Magadan1           193.500
       226   03 Jun 2027 20:05:18.481   03 Jun 2027 20:05:23.073             4.592                Anadyr2           143.500
       227   03 Jun 2027 20:05:46.251   03 Jun 2027 20:06:10.927            24.676               Magadan2           771.125
       228   03 Jun 2027 21:30:20.050   03 Jun 2027 21:31:59.914            99.864                Anadyr2          3120.750
       229   03 Jun 2027 21:32:08.256   03 Jun 2027 21:34:59.080           170.824                Anadyr1          5338.250
       230   03 Jun 2027 21:35:17.901   03 Jun 2027 21:38:05.399           167.498               Magadan2          5234.313
       231   03 Jun 2027 21:39:03.728   03 Jun 2027 21:39:38.313            34.585               Magadan1          1080.781
       232   03 Jun 2027 22:26:51.990   03 Jun 2027 22:29:09.383           137.393            RioGallegos          4293.531
       233   03 Jun 2027 22:31:23.695   03 Jun 2027 22:31:36.713            13.018            RioGallegos           406.812
       234   03 Jun 2027 23:06:10.599   03 Jun 2027 23:09:21.587           190.988                Anadyr2          5968.375
       235   03 Jun 2027 23:09:25.480   03 Jun 2027 23:09:46.915            21.435                Norilsk           669.844
       236   03 Jun 2027 23:10:00.835   03 Jun 2027 23:11:00.869            60.034               Magadan2          1876.062
       237   03 Jun 2027 23:11:10.773   03 Jun 2027 23:11:36.041            25.268               Magadan2           789.625
       238   03 Jun 2027 23:13:01.794   03 Jun 2027 23:13:11.320             9.526               Magadan2           297.688
       239   03 Jun 2027 23:13:20.985   03 Jun 2027 23:13:52.424            31.439                Irkutsk           982.469
       240   03 Jun 2027 23:14:56.350   03 Jun 2027 23:15:27.194            30.844                Irkutsk           963.875
       241   03 Jun 2027 23:15:49.721   03 Jun 2027 23:16:27.652            37.931                Irkutsk          1185.344
       242   03 Jun 2027 23:28:34.733   03 Jun 2027 23:30:29.338           114.605                Sumatra          3581.406
       243   03 Jun 2027 23:33:36.202   03 Jun 2027 23:34:15.987            39.785                Sumatra          1243.281
       244   04 Jun 2027 00:08:17.061   04 Jun 2027 00:08:31.950            14.889            RioGallegos           465.281
       245   04 Jun 2027 00:09:43.556   04 Jun 2027 00:09:50.214             6.658            RioGallegos           208.063
       246   04 Jun 2027 00:10:53.095   04 Jun 2027 00:11:21.097            28.002            RioGallegos           875.062
       247   04 Jun 2027 00:41:30.139   04 Jun 2027 00:42:56.520            86.381                Anadyr1          2699.406
       248   04 Jun 2027 00:43:32.948   04 Jun 2027 00:44:10.767            37.819                Anadyr2          1181.844
       249   04 Jun 2027 00:44:26.607   04 Jun 2027 00:44:44.050            17.443                Norilsk           545.094
       250   04 Jun 2027 00:44:59.091   04 Jun 2027 00:46:41.487           102.396               Magadan1          3199.875
       251   04 Jun 2027 00:47:59.452   04 Jun 2027 00:49:09.698            70.246                Irkutsk          2195.187
       252   04 Jun 2027 00:49:19.651   04 Jun 2027 00:50:10.250            50.599                Irkutsk          1581.219
       253   04 Jun 2027 00:51:41.075   04 Jun 2027 00:52:20.436            39.361                Novosib          1230.031
       254   04 Jun 2027 00:56:30.058   04 Jun 2027 00:57:33.501            63.443                Irkutsk          1982.594
       255   04 Jun 2027 01:01:16.164   04 Jun 2027 01:03:23.066           126.902                  Delhi          3965.687
       256   04 Jun 2027 01:41:03.589   04 Jun 2027 01:41:31.011            27.422            RioGallegos           856.937
       257   04 Jun 2027 01:44:53.273   04 Jun 2027 01:44:54.632             1.359            RioGallegos            42.469
       258   04 Jun 2027 01:45:06.232   04 Jun 2027 01:45:41.421            35.189            RioGallegos          1099.656
       259   04 Jun 2027 02:15:41.407   04 Jun 2027 02:16:47.123            65.716                Anadyr1          2053.625
       260   04 Jun 2027 02:20:03.744   04 Jun 2027 02:21:03.571            59.827                Norilsk          1869.594
       261   04 Jun 2027 02:21:07.954   04 Jun 2027 02:21:16.321             8.367                Norilsk           261.469
       262   04 Jun 2027 02:22:37.837   04 Jun 2027 02:23:02.861            25.024                Norilsk           782.000
       263   04 Jun 2027 02:23:03.080   04 Jun 2027 02:23:29.514            26.434              Murmansk1           826.062
       264   04 Jun 2027 02:23:36.571   04 Jun 2027 02:23:56.052            19.481              Murmansk2           608.781
       265   04 Jun 2027 02:24:04.505   04 Jun 2027 02:25:12.936            68.431                Irkutsk          2138.469
       266   04 Jun 2027 02:27:05.132   04 Jun 2027 02:27:45.362            40.230                Novosib          1257.187
       267   04 Jun 2027 02:33:14.219   04 Jun 2027 02:33:43.834            29.615                Irkutsk           925.469
       268   04 Jun 2027 02:38:44.443   04 Jun 2027 02:39:49.609            65.166                  Delhi          2036.438
       269   04 Jun 2027 03:13:02.121   04 Jun 2027 03:13:29.837            27.716            RioGallegos           866.125
       270   04 Jun 2027 03:14:27.132   04 Jun 2027 03:14:41.567            14.435            RioGallegos           451.094
       271   04 Jun 2027 03:15:32.441   04 Jun 2027 03:17:48.223           135.782            RioGallegos          4243.187
       272   04 Jun 2027 03:20:08.529   04 Jun 2027 03:20:27.767            19.238            RioGallegos           601.188
       273   04 Jun 2027 04:02:58.949   04 Jun 2027 04:04:21.924            82.975                Irkutsk          2592.969
       274   04 Jun 2027 04:05:02.645   04 Jun 2027 04:06:07.315            64.670                Norilsk          2020.937
       275   04 Jun 2027 04:06:17.658   04 Jun 2027 04:08:22.780           125.122                Novosib          3910.062
       276   04 Jun 2027 04:08:33.811   04 Jun 2027 04:08:41.717             7.906                Norilsk           247.063
       277   04 Jun 2027 04:08:45.222   04 Jun 2027 04:11:48.104           182.882                  Delhi          5715.063
       278   04 Jun 2027 05:42:09.996   04 Jun 2027 05:43:31.912            81.916                Novosib          2559.875
       279   04 Jun 2027 05:43:45.481   04 Jun 2027 05:46:51.533           186.052              Murmansk2          5814.125
       280   04 Jun 2027 06:01:16.433   04 Jun 2027 06:03:56.911           160.478               CapeTown          5014.938
       281   04 Jun 2027 07:05:36.361   04 Jun 2027 07:05:49.842            13.481               Magadan1           421.281
       282   04 Jun 2027 07:06:05.366   04 Jun 2027 07:09:21.443           196.077               Magadan1          6127.406
       283   04 Jun 2027 07:09:29.471   04 Jun 2027 07:10:02.688            33.217                Anadyr2          1038.031
       284   04 Jun 2027 07:10:17.289   04 Jun 2027 07:10:31.934            14.645                Anadyr2           457.656
       285   04 Jun 2027 08:40:38.787   04 Jun 2027 08:42:58.491           139.704                Anadyr1          4365.750
       286   04 Jun 2027 08:43:14.140   04 Jun 2027 08:44:29.632            75.492               Magadan2          2359.125
       287   04 Jun 2027 08:44:29.632   04 Jun 2027 08:45:20.385            50.753               Magadan1          1586.031
       288   04 Jun 2027 10:13:22.736   04 Jun 2027 10:14:42.110            79.374               Magadan1          2480.438
       289   04 Jun 2027 10:15:31.568   04 Jun 2027 10:18:32.994           181.426               Magadan2          5669.562
       290   04 Jun 2027 10:19:22.044   04 Jun 2027 10:21:21.758           119.714                Anadyr2          3741.063
       291   04 Jun 2027 10:21:36.226   04 Jun 2027 10:21:50.450            14.224                Norilsk           444.500
       292   04 Jun 2027 10:21:59.905   04 Jun 2027 10:23:09.344            69.439                Norilsk          2169.969
       293   04 Jun 2027 10:57:15.024   04 Jun 2027 10:58:00.124            45.100            RioGallegos          1409.375
       294   04 Jun 2027 11:34:05.912   04 Jun 2027 11:36:04.650           118.738                Sumatra          3710.563
       295   04 Jun 2027 11:51:22.017   04 Jun 2027 11:51:56.015            33.998                Novosib          1062.438
       296   04 Jun 2027 11:52:09.075   04 Jun 2027 11:53:18.773            69.698                Norilsk          2178.063
       297   04 Jun 2027 11:53:22.017   04 Jun 2027 11:55:33.729           131.712               Magadan1          4116.000
       298   04 Jun 2027 11:56:08.764   04 Jun 2027 11:57:22.197            73.433                Irkutsk          2294.781
       299   04 Jun 2027 11:57:25.774   04 Jun 2027 11:57:53.318            27.544                Norilsk           860.750
       300   04 Jun 2027 11:58:13.729   04 Jun 2027 11:59:22.599            68.870                Novosib          2152.188
       301   04 Jun 2027 12:01:40.265   04 Jun 2027 12:02:09.530            29.265              Murmansk2           914.531
       302   04 Jun 2027 12:03:06.884   04 Jun 2027 12:03:13.255             6.371                Norilsk           199.094
       303   04 Jun 2027 12:03:18.809   04 Jun 2027 12:03:55.542            36.733              Murmansk1          1147.906
       304   04 Jun 2027 12:04:45.750   04 Jun 2027 12:05:00.725            14.975              Murmansk1           467.969
       305   04 Jun 2027 12:05:15.059   04 Jun 2027 12:05:36.446            21.387              Murmansk2           668.344
       306   04 Jun 2027 12:37:58.923   04 Jun 2027 12:38:50.525            51.602            RioGallegos          1612.563
       307   04 Jun 2027 12:41:50.098   04 Jun 2027 12:42:39.605            49.507            RioGallegos          1547.094
       308   04 Jun 2027 12:43:19.586   04 Jun 2027 12:44:18.477            58.891            RioGallegos          1840.344
       309   04 Jun 2027 13:13:30.927   04 Jun 2027 13:16:01.508           150.581                Sumatra          4705.656
       310   04 Jun 2027 13:19:20.694   04 Jun 2027 13:20:12.388            51.694                Sumatra          1615.437
       311   04 Jun 2027 13:27:30.290   04 Jun 2027 13:27:49.951            19.661                Irkutsk           614.406
       312   04 Jun 2027 13:30:08.346   04 Jun 2027 13:32:38.343           149.997                Irkutsk          4687.406
       313   04 Jun 2027 14:52:30.153   04 Jun 2027 14:53:13.282            43.129                  Delhi          1347.781
       314   04 Jun 2027 14:54:49.706   04 Jun 2027 14:56:59.273           129.567                  Delhi          4048.969
       315   04 Jun 2027 14:59:53.299   04 Jun 2027 15:00:50.066            56.767                  Delhi          1773.969
       316   04 Jun 2027 15:00:59.074   04 Jun 2027 15:01:42.146            43.072                Novosib          1346.000
       317   04 Jun 2027 15:04:34.302   04 Jun 2027 15:04:59.516            25.214                Norilsk           787.938
       318   04 Jun 2027 15:05:38.975   04 Jun 2027 15:06:00.425            21.450                Novosib           670.312
       319   04 Jun 2027 15:07:06.769   04 Jun 2027 15:07:23.971            17.202                Norilsk           537.563
       320   04 Jun 2027 15:07:33.046   04 Jun 2027 15:10:45.690           192.644                Novosib          6020.125
       321   04 Jun 2027 16:36:23.975   04 Jun 2027 16:37:30.421            66.446                 Moscow          2076.437
       322   04 Jun 2027 16:41:11.115   04 Jun 2027 16:42:04.481            53.366              Murmansk1          1667.688
       323   04 Jun 2027 16:45:08.112   04 Jun 2027 16:49:34.776           266.664                Norilsk          8333.250
       324   04 Jun 2027 18:01:02.011   04 Jun 2027 18:01:20.729            18.718               CapeTown           584.937
       325   04 Jun 2027 18:14:37.283   04 Jun 2027 18:16:21.920           104.637                 Moscow          3269.906
       326   04 Jun 2027 18:17:24.287   04 Jun 2027 18:18:44.700            80.413              Murmansk1          2512.906
       327   04 Jun 2027 18:20:57.842   04 Jun 2027 18:22:06.905            69.063              Murmansk2          2158.219
       328   04 Jun 2027 18:35:50.609   04 Jun 2027 18:36:01.021            10.412                Anadyr2           325.375
       329   04 Jun 2027 18:36:30.939   04 Jun 2027 18:37:11.379            40.440                Anadyr1          1263.750
       330   04 Jun 2027 19:26:05.997   04 Jun 2027 19:27:38.549            92.552               CapeTown          2892.250
       331   04 Jun 2027 19:31:14.826   04 Jun 2027 19:31:37.640            22.814               CapeTown           712.938
       332   04 Jun 2027 19:34:37.215   04 Jun 2027 19:35:31.267            54.052               CapeTown          1689.125
       333   04 Jun 2027 19:57:22.189   04 Jun 2027 20:03:55.861           393.672              Murmansk2         12302.250
       334   04 Jun 2027 21:42:21.767   04 Jun 2027 21:45:47.311           205.544                Anadyr1          6423.250
       335   04 Jun 2027 21:45:50.182   04 Jun 2027 21:46:20.169            29.987                Anadyr1           937.094
       336   04 Jun 2027 21:46:25.046   04 Jun 2027 21:48:10.346           105.300               Magadan2          3290.625
       337   04 Jun 2027 21:48:56.392   04 Jun 2027 21:49:29.914            33.522               Magadan1          1047.562
       338   04 Jun 2027 21:49:46.593   04 Jun 2027 21:49:48.378             1.785               Magadan2            55.781
       339   04 Jun 2027 21:49:51.953   04 Jun 2027 21:50:26.409            34.456               Magadan1          1076.750
       340   04 Jun 2027 21:55:19.065   04 Jun 2027 21:56:01.514            42.449               Magadan2          1326.531
       341   04 Jun 2027 22:38:03.682   04 Jun 2027 22:39:32.337            88.655            RioGallegos          2770.469
       342   04 Jun 2027 22:40:09.904   04 Jun 2027 22:40:23.291            13.387            RioGallegos           418.344
       343   04 Jun 2027 22:40:33.443   04 Jun 2027 22:40:51.124            17.681            RioGallegos           552.531
       344   04 Jun 2027 22:43:27.779   04 Jun 2027 22:44:07.043            39.264            RioGallegos          1227.000
       345   04 Jun 2027 23:18:10.115   04 Jun 2027 23:18:29.442            19.327                Anadyr1           603.969
       346   04 Jun 2027 23:18:29.442   04 Jun 2027 23:18:59.204            29.762                Anadyr2           930.063
       347   04 Jun 2027 23:19:12.746   04 Jun 2027 23:19:23.145            10.399                Anadyr2           324.969
       348   04 Jun 2027 23:19:23.145   04 Jun 2027 23:19:33.855            10.710                Anadyr1           334.687
       349   04 Jun 2027 23:19:51.322   04 Jun 2027 23:20:05.575            14.253                Anadyr2           445.406
       350   04 Jun 2027 23:20:15.502   04 Jun 2027 23:21:15.533            60.031                Norilsk          1875.969
       351   04 Jun 2027 23:21:33.132   04 Jun 2027 23:22:10.112            36.980               Magadan1          1155.625
       352   04 Jun 2027 23:22:42.793   04 Jun 2027 23:22:52.491             9.698               Magadan2           303.062
       353   04 Jun 2027 23:23:05.355   04 Jun 2027 23:23:16.131            10.776                Norilsk           336.750
       354   04 Jun 2027 23:23:24.052   04 Jun 2027 23:24:15.068            51.016               Magadan1          1594.250
       355   04 Jun 2027 23:25:01.836   04 Jun 2027 23:25:50.195            48.359                Irkutsk          1511.219
       356   04 Jun 2027 23:27:29.758   04 Jun 2027 23:27:30.609             0.851                Irkutsk            26.594
       357   04 Jun 2027 23:28:47.268   04 Jun 2027 23:29:30.213            42.945                Irkutsk          1342.031
       358   04 Jun 2027 23:34:17.270   04 Jun 2027 23:34:24.663             7.393                Irkutsk           231.031
       359   04 Jun 2027 23:41:34.851   04 Jun 2027 23:42:21.253            46.402                Sumatra          1450.063
       360   04 Jun 2027 23:42:42.995   04 Jun 2027 23:43:41.541            58.546                Sumatra          1829.562
       361   04 Jun 2027 23:48:32.359   04 Jun 2027 23:48:44.584            12.225                Sumatra           382.031
       362   05 Jun 2027 00:15:19.520   05 Jun 2027 00:15:49.405            29.885            RioGallegos           933.906
       363   05 Jun 2027 00:18:48.656   05 Jun 2027 00:19:07.809            19.153            RioGallegos           598.531
       364   05 Jun 2027 00:20:20.564   05 Jun 2027 00:20:34.060            13.496            RioGallegos           421.750
       365   05 Jun 2027 00:21:40.965   05 Jun 2027 00:22:51.589            70.624            RioGallegos          2207.000
       366   05 Jun 2027 00:53:23.034   05 Jun 2027 00:53:40.866            17.832                Anadyr2           557.250
       367   05 Jun 2027 00:54:24.793   05 Jun 2027 00:54:53.160            28.367                Anadyr1           886.469
       368   05 Jun 2027 00:55:16.330   05 Jun 2027 00:55:53.898            37.568                Anadyr2          1174.000
       369   05 Jun 2027 00:56:43.960   05 Jun 2027 00:58:21.620            97.660               Magadan1          3051.875
       370   05 Jun 2027 00:59:59.299   05 Jun 2027 01:02:04.171           124.872                Irkutsk          3902.250
       371   05 Jun 2027 01:02:50.559   05 Jun 2027 01:03:09.217            18.658                Novosib           583.063
       372   05 Jun 2027 01:04:49.361   05 Jun 2027 01:05:22.515            33.154                Novosib          1036.063
       373   05 Jun 2027 01:10:49.416   05 Jun 2027 01:11:04.805            15.389                Novosib           480.906
       374   05 Jun 2027 01:11:17.224   05 Jun 2027 01:12:06.070            48.846                  Delhi          1526.437
       375   05 Jun 2027 01:14:00.502   05 Jun 2027 01:15:49.310           108.808                Sumatra          3400.250
       376   05 Jun 2027 01:53:44.452   05 Jun 2027 01:53:47.139             2.687            RioGallegos            83.969
       377   05 Jun 2027 01:56:46.909   05 Jun 2027 01:57:29.251            42.342            RioGallegos          1323.188
       378   05 Jun 2027 02:28:49.404   05 Jun 2027 02:29:27.408            38.004                Anadyr2          1187.625
       379   05 Jun 2027 02:29:47.969   05 Jun 2027 02:30:04.755            16.786                Anadyr2           524.563
       380   05 Jun 2027 02:32:06.017   05 Jun 2027 02:33:51.948           105.931                Norilsk          3310.344
       381   05 Jun 2027 02:34:50.440   05 Jun 2027 02:35:42.208            51.768              Murmansk1          1617.750
       382   05 Jun 2027 02:35:42.208   05 Jun 2027 02:35:50.775             8.567              Murmansk2           267.719
       383   05 Jun 2027 02:35:53.083   05 Jun 2027 02:36:15.794            22.711                Novosib           709.719
       384   05 Jun 2027 02:36:32.468   05 Jun 2027 02:36:48.672            16.204                Irkutsk           506.375
       385   05 Jun 2027 02:37:21.537   05 Jun 2027 02:37:51.115            29.578                Novosib           924.312
       386   05 Jun 2027 02:38:06.133   05 Jun 2027 02:38:13.358             7.225                Irkutsk           225.781
       387   05 Jun 2027 02:40:53.344   05 Jun 2027 02:41:02.165             8.821                Irkutsk           275.656
       388   05 Jun 2027 02:42:03.555   05 Jun 2027 02:43:25.468            81.913                Irkutsk          2559.781
       389   05 Jun 2027 03:25:22.412   05 Jun 2027 03:26:36.826            74.414            RioGallegos          2325.437
       390   05 Jun 2027 03:27:08.233   05 Jun 2027 03:28:26.852            78.619            RioGallegos          2456.844
       391   05 Jun 2027 03:29:37.335   05 Jun 2027 03:30:38.355            61.020            RioGallegos          1906.875
       392   05 Jun 2027 04:13:49.291   05 Jun 2027 04:15:01.203            71.912                Irkutsk          2247.250
       393   05 Jun 2027 04:16:03.885   05 Jun 2027 04:17:36.554            92.669                Irkutsk          2895.906
       394   05 Jun 2027 04:18:21.872   05 Jun 2027 04:19:09.068            47.196                Norilsk          1474.875
       395   05 Jun 2027 04:19:17.100   05 Jun 2027 04:19:29.970            12.870              Murmansk1           402.187
       396   05 Jun 2027 04:19:43.336   05 Jun 2027 04:21:41.199           117.863                Novosib          3683.219
       397   05 Jun 2027 04:21:49.261   05 Jun 2027 04:23:16.775            87.514                Novosib          2734.812
       398   05 Jun 2027 04:24:05.669   05 Jun 2027 04:24:46.130            40.461                 Moscow          1264.406
       399   05 Jun 2027 04:25:28.940   05 Jun 2027 04:25:49.349            20.409                  Delhi           637.781
       400   05 Jun 2027 04:26:09.437   05 Jun 2027 04:26:23.894            14.457                  Delhi           451.781
       401   05 Jun 2027 05:53:34.216   05 Jun 2027 05:54:48.355            74.139                Novosib          2316.844
       402   05 Jun 2027 05:55:39.190   05 Jun 2027 05:59:00.027           200.837              Murmansk1          6276.156
       403   05 Jun 2027 05:59:00.549   05 Jun 2027 06:00:49.616           109.067                 Moscow          3408.344
       404   05 Jun 2027 07:17:29.546   05 Jun 2027 07:20:17.441           167.895               Magadan2          5246.719
       405   05 Jun 2027 07:20:17.441   05 Jun 2027 07:20:36.543            19.102               Magadan1           596.937
       406   05 Jun 2027 07:20:54.135   05 Jun 2027 07:22:58.293           124.158                Anadyr1          3879.937
       407   05 Jun 2027 07:54:29.983   05 Jun 2027 07:56:37.899           127.916               CapeTown          3997.375
       408   05 Jun 2027 08:52:39.298   05 Jun 2027 08:52:58.552            19.254                Anadyr2           601.687
       409   05 Jun 2027 08:53:23.015   05 Jun 2027 08:53:45.416            22.401               Magadan2           700.031
       410   05 Jun 2027 08:54:00.945   05 Jun 2027 08:54:07.050             6.105               Magadan2           190.781
       411   05 Jun 2027 08:54:43.868   05 Jun 2027 08:56:29.294           105.426               Magadan2          3294.563
       412   05 Jun 2027 09:37:27.325   05 Jun 2027 09:37:55.906            28.581            RioGallegos           893.156
       413   05 Jun 2027 10:23:06.815   05 Jun 2027 10:23:19.835            13.020               Magadan1           406.875
       414   05 Jun 2027 10:24:40.126   05 Jun 2027 10:24:58.517            18.391               Magadan2           574.719
       415   05 Jun 2027 10:24:58.517   05 Jun 2027 10:26:42.597           104.080               Magadan1          3252.500
       416   05 Jun 2027 10:28:01.124   05 Jun 2027 10:28:21.579            20.455                Irkutsk           639.219
       417   05 Jun 2027 10:28:38.901   05 Jun 2027 10:29:20.709            41.808                Norilsk          1306.500
       418   05 Jun 2027 10:29:21.000   05 Jun 2027 10:29:46.760            25.760                Irkutsk           805.000
       419   05 Jun 2027 10:29:50.692   05 Jun 2027 10:29:52.988             2.296                Norilsk            71.750
       420   05 Jun 2027 10:30:04.324   05 Jun 2027 10:30:14.715            10.391                Novosib           324.719
       421   05 Jun 2027 10:30:31.732   05 Jun 2027 10:31:25.985            54.253               Magadan1          1695.406
       422   05 Jun 2027 10:31:34.309   05 Jun 2027 10:31:49.759            15.450                Irkutsk           482.812
       423   05 Jun 2027 10:31:56.141   05 Jun 2027 10:32:39.769            43.628                Anadyr2          1363.375
       424   05 Jun 2027 10:32:48.839   05 Jun 2027 10:33:55.470            66.631                Irkutsk          2082.219
       425   05 Jun 2027 10:34:00.518   05 Jun 2027 10:34:10.602            10.084                Norilsk           315.125
       426   05 Jun 2027 10:34:20.966   05 Jun 2027 10:34:24.998             4.032              Murmansk2           126.000
       427   05 Jun 2027 10:34:31.761   05 Jun 2027 10:34:34.336             2.575              Murmansk2            80.469
       428   05 Jun 2027 10:34:48.529   05 Jun 2027 10:35:25.731            37.202              Murmansk2          1162.563
       429   05 Jun 2027 11:09:07.235   05 Jun 2027 11:10:12.774            65.539            RioGallegos          2048.094
       430   05 Jun 2027 11:45:21.860   05 Jun 2027 11:45:37.795            15.935                Sumatra           497.969
       431   05 Jun 2027 11:46:57.687   05 Jun 2027 11:48:05.195            67.508                Sumatra          2109.625
       432   05 Jun 2027 12:03:14.591   05 Jun 2027 12:04:28.424            73.833                Irkutsk          2307.281
       433   05 Jun 2027 12:10:38.880   05 Jun 2027 12:10:46.226             7.346              Murmansk1           229.562
       434   05 Jun 2027 12:11:38.475   05 Jun 2027 12:11:58.720            20.245              Murmansk1           632.656
       435   05 Jun 2027 12:13:20.645   05 Jun 2027 12:13:50.799            30.154              Murmansk2           942.313
       436   05 Jun 2027 12:16:44.720   05 Jun 2027 12:16:49.439             4.719              Murmansk1           147.469
       437   05 Jun 2027 12:17:02.314   05 Jun 2027 12:17:32.959            30.645              Murmansk2           957.656
       438   05 Jun 2027 12:47:53.924   05 Jun 2027 12:49:59.889           125.965            RioGallegos          3936.406
       439   05 Jun 2027 13:25:20.536   05 Jun 2027 13:25:35.152            14.616                Sumatra           456.750
       440   05 Jun 2027 13:26:49.436   05 Jun 2027 13:28:38.719           109.283                Sumatra          3415.094
       441   05 Jun 2027 13:35:29.156   05 Jun 2027 13:36:03.392            34.236                Irkutsk          1069.875
       442   05 Jun 2027 13:38:21.875   05 Jun 2027 13:39:12.784            50.909                Irkutsk          1590.906
       443   05 Jun 2027 13:42:03.509   05 Jun 2027 13:45:15.514           192.005                Irkutsk          6000.156
       444   05 Jun 2027 15:04:55.906   05 Jun 2027 15:06:35.781            99.875                  Delhi          3121.094
       445   05 Jun 2027 15:10:08.324   05 Jun 2027 15:10:25.729            17.405                  Delhi           543.906
       446   05 Jun 2027 15:13:14.806   05 Jun 2027 15:15:15.920           121.114                Novosib          3784.812
       447   05 Jun 2027 15:17:37.706   05 Jun 2027 15:17:55.546            17.840                Norilsk           557.500
       448   05 Jun 2027 15:21:23.098   05 Jun 2027 15:21:59.513            36.415                Norilsk          1137.969
       449   05 Jun 2027 15:25:53.526   05 Jun 2027 15:27:12.830            79.304                Norilsk          2478.250
       450   05 Jun 2027 16:48:30.293   05 Jun 2027 16:51:41.773           191.480                 Moscow          5983.750
       451   05 Jun 2027 16:58:04.901   05 Jun 2027 16:59:21.821            76.920                Norilsk          2403.750
       452   05 Jun 2027 17:01:47.761   05 Jun 2027 17:02:20.780            33.019                Norilsk          1031.844
       453   05 Jun 2027 17:08:25.505   05 Jun 2027 17:08:46.208            20.703                Anadyr1           646.969
       454   05 Jun 2027 18:02:12.335   05 Jun 2027 18:02:40.105            27.770               CapeTown           867.812
       455   05 Jun 2027 18:03:44.205   05 Jun 2027 18:04:15.944            31.739               CapeTown           991.844
       456   05 Jun 2027 18:08:19.850   05 Jun 2027 18:08:54.468            34.618               CapeTown          1081.812
       457   05 Jun 2027 18:27:18.075   05 Jun 2027 18:32:00.575           282.500                 Moscow          8828.125
       458   05 Jun 2027 18:50:49.099   05 Jun 2027 18:50:53.602             4.503                Anadyr2           140.719
       459   05 Jun 2027 18:51:15.390   05 Jun 2027 18:51:43.797            28.407                Anadyr2           887.719
       460   05 Jun 2027 18:53:37.263   05 Jun 2027 18:53:39.435             2.172                Anadyr1            67.875
       461   05 Jun 2027 19:38:19.842   05 Jun 2027 19:40:09.027           109.185               CapeTown          3412.031
       462   05 Jun 2027 19:42:52.914   05 Jun 2027 19:42:56.873             3.959               CapeTown           123.719
       463   05 Jun 2027 19:46:26.419   05 Jun 2027 19:48:08.046           101.627               CapeTown          3175.844
       464   05 Jun 2027 20:10:10.970   05 Jun 2027 20:14:39.091           268.121              Murmansk1          8378.781
       465   05 Jun 2027 20:15:28.903   05 Jun 2027 20:16:08.479            39.576              Murmansk2          1236.750
       466   05 Jun 2027 21:54:23.363   05 Jun 2027 21:58:10.353           226.990                Anadyr2          7093.437
       467   05 Jun 2027 21:58:26.597   05 Jun 2027 22:01:51.101           204.504               Magadan1          6390.750
       468   05 Jun 2027 22:02:58.896   05 Jun 2027 22:03:46.659            47.763               Magadan1          1492.594
       469   05 Jun 2027 22:49:33.955   05 Jun 2027 22:50:55.175            81.220            RioGallegos          2538.125
       470   05 Jun 2027 22:51:03.903   05 Jun 2027 22:51:35.216            31.313            RioGallegos           978.531
       471   05 Jun 2027 22:54:18.720   05 Jun 2027 22:54:42.472            23.752            RioGallegos           742.250
       472   05 Jun 2027 22:55:32.732   05 Jun 2027 22:56:00.393            27.661            RioGallegos           864.406
       473   05 Jun 2027 23:30:09.086   05 Jun 2027 23:31:46.163            97.077                Anadyr1          3033.656
       474   05 Jun 2027 23:32:14.417   05 Jun 2027 23:33:50.365            95.948                Norilsk          2998.375
       475   05 Jun 2027 23:34:12.056   05 Jun 2027 23:34:12.760             0.704               Magadan1            22.000
       476   05 Jun 2027 23:34:46.322   05 Jun 2027 23:35:18.157            31.835               Magadan1           994.844
       477   05 Jun 2027 23:36:47.831   05 Jun 2027 23:37:49.157            61.326                Irkutsk          1916.438
       478   05 Jun 2027 23:38:54.560   05 Jun 2027 23:40:11.506            76.946                Irkutsk          2404.562
       479   05 Jun 2027 23:51:04.789   05 Jun 2027 23:51:53.427            48.638                Sumatra          1519.937
       480   05 Jun 2027 23:52:07.925   05 Jun 2027 23:53:58.112           110.187                Sumatra          3443.344
       481   06 Jun 2027 00:31:22.457   06 Jun 2027 00:31:41.070            18.613            RioGallegos           581.656
       482   06 Jun 2027 00:33:50.232   06 Jun 2027 00:34:34.143            43.911            RioGallegos          1372.219
