uniorb/output/strategy_1/Drop/Drop_KinoSat_111509.txt

KinoSat_111509
-------------------------
    Access    *     Start Time (UTCG)     *     Stop Time (UTCG)  *   Duration (s)        *       Station  *  Data (Mbytes)
         1   01 Jun 2027 04:19:51.911   01 Jun 2027 04:21:20.732            88.821                Novosib          2775.656
         2   01 Jun 2027 04:21:32.252   01 Jun 2027 04:21:42.107             9.855                Novosib           307.969
         3   01 Jun 2027 04:21:43.728   01 Jun 2027 04:23:09.819            86.091              Murmansk2          2690.344
         4   01 Jun 2027 04:23:29.032   01 Jun 2027 04:24:25.965            56.933              Murmansk2          1779.156
         5   01 Jun 2027 04:24:38.411   01 Jun 2027 04:27:56.639           198.228                 Moscow          6194.625
         6   01 Jun 2027 04:45:51.495   01 Jun 2027 04:46:52.043            60.548               CapeTown          1892.125
         7   01 Jun 2027 05:42:45.793   01 Jun 2027 05:43:02.277            16.484                Anadyr1           515.125
         8   01 Jun 2027 05:43:15.714   01 Jun 2027 05:44:51.892            96.178                Anadyr1          3005.563
         9   01 Jun 2027 05:45:46.569   01 Jun 2027 05:46:09.922            23.353               Magadan1           729.781
        10   01 Jun 2027 05:46:30.351   01 Jun 2027 05:46:35.698             5.347                Anadyr2           167.094
        11   01 Jun 2027 05:47:27.202   01 Jun 2027 05:47:47.502            20.300                Anadyr2           634.375
        12   01 Jun 2027 07:20:09.308   01 Jun 2027 07:23:04.474           175.166               Magadan2          5473.938
        13   01 Jun 2027 07:23:04.474   01 Jun 2027 07:23:17.047            12.573               Magadan1           392.906
        14   01 Jun 2027 08:53:14.107   01 Jun 2027 08:53:54.050            39.943               Magadan1          1248.219
        15   01 Jun 2027 08:53:59.050   01 Jun 2027 08:57:09.574           190.524               Magadan1          5953.875
        16   01 Jun 2027 08:57:24.745   01 Jun 2027 08:59:09.069           104.324               Magadan1          3260.125
        17   01 Jun 2027 08:59:09.069   01 Jun 2027 08:59:58.120            49.051               Magadan2          1532.844
        18   01 Jun 2027 10:30:05.679   01 Jun 2027 10:32:40.611           154.932                Irkutsk          4841.625
        19   01 Jun 2027 10:32:53.153   01 Jun 2027 10:33:18.807            25.654               Magadan2           801.687
        20   01 Jun 2027 10:33:18.807   01 Jun 2027 10:33:56.325            37.518               Magadan1          1172.438
        21   01 Jun 2027 10:34:13.476   01 Jun 2027 10:34:23.946            10.470              Murmansk2           327.187
        22   01 Jun 2027 10:34:26.300   01 Jun 2027 10:34:41.210            14.910              Murmansk2           465.938
        23   01 Jun 2027 10:34:47.256   01 Jun 2027 10:35:00.128            12.872                Irkutsk           402.250
        24   01 Jun 2027 10:35:02.576   01 Jun 2027 10:36:04.965            62.389                Norilsk          1949.656
        25   01 Jun 2027 10:36:15.230   01 Jun 2027 10:37:16.681            61.451              Murmansk2          1920.344
        26   01 Jun 2027 11:10:58.652   01 Jun 2027 11:12:34.801            96.149            RioGallegos          3004.656
        27   01 Jun 2027 11:13:35.721   01 Jun 2027 11:14:08.260            32.539            RioGallegos          1016.844
        28   01 Jun 2027 11:46:51.454   01 Jun 2027 11:48:33.075           101.621                Sumatra          3175.656
        29   01 Jun 2027 12:05:17.914   01 Jun 2027 12:05:24.142             6.228                Irkutsk           194.625
        30   01 Jun 2027 12:06:51.475   01 Jun 2027 12:07:15.820            24.345                Irkutsk           760.781
        31   01 Jun 2027 12:08:18.056   01 Jun 2027 12:09:02.187            44.131                Irkutsk          1379.094
        32   01 Jun 2027 12:53:39.339   01 Jun 2027 12:55:34.672           115.333            RioGallegos          3604.156
        33   01 Jun 2027 13:38:13.535   01 Jun 2027 13:38:39.683            26.148                  Delhi           817.125
        34   01 Jun 2027 13:44:24.998   01 Jun 2027 13:45:22.630            57.632                Novosib          1801.000
        35   01 Jun 2027 13:46:15.040   01 Jun 2027 13:47:36.752            81.712                Novosib          2553.500
        36   01 Jun 2027 15:18:45.314   01 Jun 2027 15:19:23.005            37.691                 Moscow          1177.844
        37   01 Jun 2027 15:19:55.555   01 Jun 2027 15:21:03.735            68.180                 Moscow          2130.625
        38   01 Jun 2027 15:22:16.199   01 Jun 2027 15:27:00.450           284.251                Norilsk          8882.844
        39   01 Jun 2027 16:35:44.239   01 Jun 2027 16:37:38.353           114.114               CapeTown          3566.063
        40   01 Jun 2027 16:58:49.755   01 Jun 2027 16:59:42.722            52.967                 Moscow          1655.219
        41   01 Jun 2027 17:02:40.390   01 Jun 2027 17:03:05.853            25.463              Murmansk2           795.719
        42   01 Jun 2027 17:04:40.420   01 Jun 2027 17:04:46.816             6.396              Murmansk2           199.875
        43   01 Jun 2027 17:05:23.589   01 Jun 2027 17:05:45.301            21.712              Murmansk1           678.500
        44   01 Jun 2027 17:09:53.535   01 Jun 2027 17:10:40.547            47.012                Anadyr1          1469.125
        45   01 Jun 2027 17:12:24.964   01 Jun 2027 17:12:35.041            10.077                Anadyr2           314.906
        46   01 Jun 2027 17:13:25.803   01 Jun 2027 17:14:01.816            36.013                Anadyr2          1125.406
        47   01 Jun 2027 17:15:20.686   01 Jun 2027 17:16:05.554            44.868                Anadyr1          1402.125
        48   01 Jun 2027 18:13:22.593   01 Jun 2027 18:13:57.752            35.159               CapeTown          1098.719
        49   01 Jun 2027 18:14:36.609   01 Jun 2027 18:15:09.741            33.132               CapeTown          1035.375
        50   01 Jun 2027 18:34:34.013   01 Jun 2027 18:39:58.527           324.514              Murmansk1         10141.062
        51   01 Jun 2027 18:54:59.694   01 Jun 2027 18:55:56.387            56.693               Magadan2          1771.656
        52   01 Jun 2027 20:20:01.869   01 Jun 2027 20:21:39.996            98.127                Anadyr1          3066.469
        53   01 Jun 2027 20:22:06.377   01 Jun 2027 20:23:46.050            99.673                Anadyr2          3114.781
        54   01 Jun 2027 20:24:08.070   01 Jun 2027 20:25:25.482            77.412                Anadyr1          2419.125
        55   01 Jun 2027 20:25:42.397   01 Jun 2027 20:27:09.105            86.708               Magadan2          2709.625
        56   01 Jun 2027 20:29:17.794   01 Jun 2027 20:29:52.656            34.862               Magadan2          1089.437
        57   01 Jun 2027 20:30:44.442   01 Jun 2027 20:30:45.835             1.393               Magadan1            43.531
        58   01 Jun 2027 20:30:56.419   01 Jun 2027 20:31:16.983            20.564               Magadan1           642.625
        59   01 Jun 2027 21:16:17.290   01 Jun 2027 21:18:34.921           137.631            RioGallegos          4300.969
        60   01 Jun 2027 21:21:34.052   01 Jun 2027 21:21:44.827            10.775            RioGallegos           336.719
        61   01 Jun 2027 21:55:51.405   01 Jun 2027 21:57:21.092            89.687                Anadyr2          2802.719
        62   01 Jun 2027 21:57:26.954   01 Jun 2027 21:57:39.092            12.138                Anadyr2           379.312
        63   01 Jun 2027 21:57:59.627   01 Jun 2027 21:58:01.741             2.114                Anadyr2            66.062
        64   01 Jun 2027 21:58:15.420   01 Jun 2027 21:59:02.777            47.357               Magadan1          1479.906
        65   01 Jun 2027 21:59:02.777   01 Jun 2027 21:59:42.327            39.550               Magadan2          1235.937
        66   01 Jun 2027 22:00:08.086   01 Jun 2027 22:00:25.316            17.230                Norilsk           538.437
        67   01 Jun 2027 22:00:39.279   01 Jun 2027 22:00:51.558            12.279                Norilsk           383.719
        68   01 Jun 2027 22:01:37.107   01 Jun 2027 22:02:17.075            39.968               Magadan2          1249.000
        69   01 Jun 2027 22:05:35.902   01 Jun 2027 22:05:51.300            15.398                Irkutsk           481.187
        70   01 Jun 2027 22:06:52.012   01 Jun 2027 22:08:33.933           101.921                Irkutsk          3185.031
        71   01 Jun 2027 22:20:23.586   01 Jun 2027 22:21:18.474            54.888                Sumatra          1715.250
        72   01 Jun 2027 22:23:57.155   01 Jun 2027 22:26:00.130           122.975                Sumatra          3842.969
        73   01 Jun 2027 23:31:08.630   01 Jun 2027 23:31:26.587            17.957                Anadyr2           561.156
        74   01 Jun 2027 23:33:16.463   01 Jun 2027 23:33:39.332            22.869                Anadyr1           714.656
        75   01 Jun 2027 23:33:57.605   01 Jun 2027 23:34:09.543            11.938                Anadyr2           373.062
        76   01 Jun 2027 23:34:16.450   01 Jun 2027 23:35:31.316            74.866                Norilsk          2339.562
        77   01 Jun 2027 23:36:00.000   01 Jun 2027 23:36:40.170            40.171               Magadan2          1255.344
        78   01 Jun 2027 23:37:32.510   01 Jun 2027 23:37:40.298             7.788               Magadan2           243.375
        79   01 Jun 2027 23:38:21.914   01 Jun 2027 23:39:44.654            82.740                Novosib          2585.625
        80   01 Jun 2027 23:43:16.544   01 Jun 2027 23:44:27.983            71.439                Novosib          2232.469
        81   01 Jun 2027 23:49:22.477   01 Jun 2027 23:49:45.452            22.975                  Delhi           717.969
        82   01 Jun 2027 23:50:07.172   01 Jun 2027 23:50:29.993            22.821                  Delhi           713.156
        83   01 Jun 2027 23:52:57.759   01 Jun 2027 23:53:19.449            21.690                  Delhi           677.813
        84   02 Jun 2027 00:31:15.956   02 Jun 2027 00:31:32.508            16.552            RioGallegos           517.250
        85   02 Jun 2027 00:31:38.252   02 Jun 2027 00:32:29.554            51.302            RioGallegos          1603.187
        86   02 Jun 2027 00:36:54.869   02 Jun 2027 00:37:20.018            25.149            RioGallegos           785.906
        87   02 Jun 2027 01:05:16.864   02 Jun 2027 01:05:46.363            29.499                Anadyr1           921.844
        88   02 Jun 2027 01:05:46.363   02 Jun 2027 01:06:27.760            41.397                Anadyr2          1293.656
        89   02 Jun 2027 01:07:29.788   02 Jun 2027 01:07:49.168            19.380                Anadyr2           605.625
        90   02 Jun 2027 01:09:46.004   02 Jun 2027 01:11:28.844           102.840                Norilsk          3213.750
        91   02 Jun 2027 01:11:49.608   02 Jun 2027 01:12:15.782            26.174               Magadan2           817.937
        92   02 Jun 2027 01:12:42.149   02 Jun 2027 01:14:16.999            94.850              Murmansk1          2964.062
        93   02 Jun 2027 01:16:56.398   02 Jun 2027 01:17:32.816            36.418              Murmansk2          1138.062
        94   02 Jun 2027 01:20:30.035   02 Jun 2027 01:20:46.010            15.975                Irkutsk           499.219
        95   02 Jun 2027 01:22:38.809   02 Jun 2027 01:23:23.023            44.214                Irkutsk          1381.687
        96   02 Jun 2027 01:28:25.997   02 Jun 2027 01:28:49.170            23.173                  Delhi           724.156
        97   02 Jun 2027 01:33:23.153   02 Jun 2027 01:33:40.256            17.103                  Delhi           534.469
        98   02 Jun 2027 02:02:47.915   02 Jun 2027 02:04:24.485            96.570            RioGallegos          3017.813
        99   02 Jun 2027 02:05:13.636   02 Jun 2027 02:05:20.147             6.511            RioGallegos           203.469
       100   02 Jun 2027 02:05:42.832   02 Jun 2027 02:07:33.551           110.719            RioGallegos          3459.969
       101   02 Jun 2027 02:44:39.970   02 Jun 2027 02:45:27.605            47.635               Magadan2          1488.594
       102   02 Jun 2027 02:45:40.376   02 Jun 2027 02:46:06.670            26.294               Magadan2           821.687
       103   02 Jun 2027 02:46:55.867   02 Jun 2027 02:47:19.582            23.715                Norilsk           741.094
       104   02 Jun 2027 02:47:56.016   02 Jun 2027 02:48:46.258            50.242              Murmansk2          1570.063
       105   02 Jun 2027 02:49:23.143   02 Jun 2027 02:49:36.339            13.196              Murmansk1           412.375
       106   02 Jun 2027 02:49:39.848   02 Jun 2027 02:49:51.089            11.241                Novosib           351.281
       107   02 Jun 2027 02:50:42.374   02 Jun 2027 02:50:49.885             7.511                Novosib           234.719
       108   02 Jun 2027 02:51:07.276   02 Jun 2027 02:51:58.049            50.773                Irkutsk          1586.656
       109   02 Jun 2027 02:54:02.578   02 Jun 2027 02:54:24.873            22.295                Irkutsk           696.719
       110   02 Jun 2027 02:54:40.409   02 Jun 2027 02:55:29.128            48.719                Irkutsk          1522.469
       111   02 Jun 2027 04:31:55.583   02 Jun 2027 04:32:53.502            57.919                 Moscow          1809.969
       112   02 Jun 2027 04:33:17.648   02 Jun 2027 04:36:16.407           178.759              Murmansk2          5586.219
       113   02 Jun 2027 05:54:30.331   02 Jun 2027 05:56:16.010           105.679               Magadan2          3302.469
       114   02 Jun 2027 05:56:37.957   02 Jun 2027 05:57:01.671            23.714               Magadan2           741.062
       115   02 Jun 2027 07:32:30.395   02 Jun 2027 07:36:09.456           219.061               Magadan2          6845.656
       116   02 Jun 2027 09:04:39.087   02 Jun 2027 09:06:14.203            95.116               Magadan2          2972.375
       117   02 Jun 2027 09:06:14.203   02 Jun 2027 09:07:13.150            58.947               Magadan1          1842.094
       118   02 Jun 2027 09:07:58.124   02 Jun 2027 09:10:50.986           172.862                Anadyr2          5401.937
       119   02 Jun 2027 09:11:20.815   02 Jun 2027 09:11:54.872            34.057               Magadan1          1064.281
       120   02 Jun 2027 09:11:54.963   02 Jun 2027 09:12:33.474            38.511                Novosib          1203.469
       121   02 Jun 2027 09:13:12.404   02 Jun 2027 09:14:59.924           107.520              Murmansk2          3360.000
       122   02 Jun 2027 09:46:53.588   02 Jun 2027 09:48:37.816           104.228            RioGallegos          3257.125
       123   02 Jun 2027 10:25:08.566   02 Jun 2027 10:25:57.711            49.145                Sumatra          1535.781
       124   02 Jun 2027 10:43:14.845   02 Jun 2027 10:45:25.169           130.324                Norilsk          4072.625
       125   02 Jun 2027 10:45:25.384   02 Jun 2027 10:47:43.345           137.961                Novosib          4311.281
       126   02 Jun 2027 10:47:47.254   02 Jun 2027 10:47:58.341            11.087                Irkutsk           346.469
       127   02 Jun 2027 10:51:53.205   02 Jun 2027 10:51:56.263             3.058              Murmansk2            95.562
       128   02 Jun 2027 10:51:56.263   02 Jun 2027 10:52:07.131            10.868              Murmansk1           339.625
       129   02 Jun 2027 10:52:24.197   02 Jun 2027 10:53:01.534            37.337              Murmansk1          1166.781
       130   02 Jun 2027 11:23:16.493   02 Jun 2027 11:23:32.277            15.784            RioGallegos           493.250
       131   02 Jun 2027 11:24:07.855   02 Jun 2027 11:24:40.433            32.578            RioGallegos          1018.062
       132   02 Jun 2027 11:25:38.377   02 Jun 2027 11:26:50.864            72.487            RioGallegos          2265.219
       133   02 Jun 2027 11:27:56.377   02 Jun 2027 11:27:57.492             1.115            RioGallegos            34.844
       134   02 Jun 2027 11:57:39.086   02 Jun 2027 11:59:44.399           125.313                Sumatra          3916.031
       135   02 Jun 2027 12:12:30.419   02 Jun 2027 12:13:14.555            44.136                Irkutsk          1379.250
       136   02 Jun 2027 12:13:38.415   02 Jun 2027 12:13:59.114            20.699                Novosib           646.844
       137   02 Jun 2027 12:14:30.666   02 Jun 2027 12:14:55.968            25.302                Novosib           790.688
       138   02 Jun 2027 12:16:18.111   02 Jun 2027 12:17:51.422            93.311                Norilsk          2915.969
       139   02 Jun 2027 12:19:18.206   02 Jun 2027 12:19:22.494             4.288                Norilsk           134.000
       140   02 Jun 2027 12:20:51.762   02 Jun 2027 12:21:01.324             9.562              Murmansk2           298.812
       141   02 Jun 2027 12:21:19.585   02 Jun 2027 12:22:02.553            42.968              Murmansk1          1342.750
       142   02 Jun 2027 13:42:18.527   02 Jun 2027 13:43:10.790            52.263                  Delhi          1633.219
       143   02 Jun 2027 13:44:27.067   02 Jun 2027 13:46:58.153           151.086                  Delhi          4721.438
       144   02 Jun 2027 13:50:31.204   02 Jun 2027 13:53:44.558           193.354                Novosib          6042.312
       145   02 Jun 2027 14:01:08.600   02 Jun 2027 14:01:41.767            33.167                Norilsk          1036.469
       146   02 Jun 2027 14:03:08.501   02 Jun 2027 14:04:17.775            69.274                Norilsk          2164.813
       147   02 Jun 2027 15:27:07.066   02 Jun 2027 15:27:33.226            26.160                 Moscow           817.500
       148   02 Jun 2027 15:28:07.066   02 Jun 2027 15:28:18.411            11.345                 Moscow           354.531
       149   02 Jun 2027 15:29:05.767   02 Jun 2027 15:30:09.514            63.747                 Moscow          1992.094
       150   02 Jun 2027 15:32:09.650   02 Jun 2027 15:32:27.729            18.079              Murmansk2           564.969
       151   02 Jun 2027 15:32:52.954   02 Jun 2027 15:33:01.639             8.685              Murmansk2           271.406
       152   02 Jun 2027 15:34:33.994   02 Jun 2027 15:34:36.689             2.695              Murmansk2            84.219
       153   02 Jun 2027 15:34:56.884   02 Jun 2027 15:36:36.283            99.399              Murmansk1          3106.219
       154   02 Jun 2027 15:36:50.666   02 Jun 2027 15:39:44.072           173.406                Norilsk          5418.938
       155   02 Jun 2027 17:04:30.760   02 Jun 2027 17:04:51.225            20.465                 Moscow           639.531
       156   02 Jun 2027 17:05:24.209   02 Jun 2027 17:06:03.772            39.563                 Moscow          1236.344
       157   02 Jun 2027 17:08:13.894   02 Jun 2027 17:08:50.919            37.025              Murmansk2          1157.031
       158   02 Jun 2027 17:09:19.710   02 Jun 2027 17:09:31.238            11.528                 Moscow           360.250
       159   02 Jun 2027 17:10:55.787   02 Jun 2027 17:12:33.614            97.827              Murmansk1          3057.094
       160   02 Jun 2027 17:21:38.129   02 Jun 2027 17:22:41.379            63.250                Anadyr2          1976.563
       161   02 Jun 2027 17:25:21.606   02 Jun 2027 17:25:49.655            28.049                Anadyr1           876.531
       162   02 Jun 2027 18:20:49.475   02 Jun 2027 18:21:28.502            39.027               CapeTown          1219.594
       163   02 Jun 2027 18:26:46.465   02 Jun 2027 18:27:11.903            25.438               CapeTown           794.937
       164   02 Jun 2027 18:47:19.113   02 Jun 2027 18:52:04.924           285.811              Murmansk1          8931.594
       165   02 Jun 2027 18:52:15.869   02 Jun 2027 18:52:38.198            22.329              Murmansk2           697.781
       166   02 Jun 2027 19:01:33.824   02 Jun 2027 19:02:27.727            53.903               Magadan2          1684.469
       167   02 Jun 2027 19:05:21.297   02 Jun 2027 19:05:28.116             6.819               Magadan2           213.094
       168   02 Jun 2027 19:07:08.456   02 Jun 2027 19:07:36.015            27.559               Magadan1           861.219
       169   02 Jun 2027 20:32:03.394   02 Jun 2027 20:34:53.507           170.113                Anadyr2          5316.031
       170   02 Jun 2027 20:34:57.039   02 Jun 2027 20:37:26.437           149.398               Magadan1          4668.688
       171   02 Jun 2027 20:38:17.777   02 Jun 2027 20:38:36.095            18.318               Magadan2           572.437
       172   02 Jun 2027 20:38:58.454   02 Jun 2027 20:39:08.724            10.270               Magadan1           320.937
       173   02 Jun 2027 20:39:35.084   02 Jun 2027 20:40:03.729            28.645               Magadan2           895.156
       174   02 Jun 2027 20:43:01.588   02 Jun 2027 20:43:41.681            40.093               Magadan2          1252.906
       175   02 Jun 2027 21:27:36.010   02 Jun 2027 21:28:58.006            81.996            RioGallegos          2562.375
       176   02 Jun 2027 21:29:41.411   02 Jun 2027 21:30:09.385            27.974            RioGallegos           874.188
       177   02 Jun 2027 21:30:20.805   02 Jun 2027 21:30:26.473             5.668            RioGallegos           177.125
       178   02 Jun 2027 21:32:49.645   02 Jun 2027 21:33:02.610            12.965            RioGallegos           405.156
       179   02 Jun 2027 21:33:25.905   02 Jun 2027 21:33:43.486            17.581            RioGallegos           549.406
       180   02 Jun 2027 22:07:50.610   02 Jun 2027 22:10:07.262           136.652                Anadyr2          4270.375
       181   02 Jun 2027 22:10:13.735   02 Jun 2027 22:10:51.974            38.239                Norilsk          1194.969
       182   02 Jun 2027 22:11:11.879   02 Jun 2027 22:11:31.638            19.759                Norilsk           617.469
       183   02 Jun 2027 22:12:28.090   02 Jun 2027 22:13:02.845            34.755                Norilsk          1086.094
       184   02 Jun 2027 22:13:24.867   02 Jun 2027 22:13:45.740            20.873                Norilsk           652.281
       185   02 Jun 2027 22:16:50.739   02 Jun 2027 22:17:25.879            35.140                Irkutsk          1098.125
       186   02 Jun 2027 22:20:27.058   02 Jun 2027 22:21:01.714            34.656                Irkutsk          1083.000
       187   02 Jun 2027 22:23:44.140   02 Jun 2027 22:23:58.724            14.584                Irkutsk           455.750
       188   02 Jun 2027 22:30:20.761   02 Jun 2027 22:31:47.876            87.115                Sumatra          2722.344
       189   02 Jun 2027 22:38:11.995   02 Jun 2027 22:38:17.633             5.638                Sumatra           176.187
       190   02 Jun 2027 23:43:01.036   02 Jun 2027 23:43:58.041            57.005                Anadyr2          1781.406
       191   02 Jun 2027 23:45:17.373   02 Jun 2027 23:45:35.872            18.499                Anadyr1           578.094
       192   02 Jun 2027 23:45:47.370   02 Jun 2027 23:47:33.361           105.991                Norilsk          3312.219
       193   02 Jun 2027 23:47:49.510   02 Jun 2027 23:47:51.616             2.106                Norilsk            65.813
       194   02 Jun 2027 23:47:53.941   02 Jun 2027 23:48:09.120            15.179               Magadan1           474.344
       195   02 Jun 2027 23:49:08.575   02 Jun 2027 23:49:29.962            21.387               Magadan1           668.344
       196   02 Jun 2027 23:49:40.858   02 Jun 2027 23:51:44.635           123.777                Irkutsk          3868.031
       197   02 Jun 2027 23:53:21.354   02 Jun 2027 23:53:26.216             4.862                Novosib           151.938
       198   02 Jun 2027 23:57:09.638   02 Jun 2027 23:57:14.245             4.607                Novosib           143.969
       199   02 Jun 2027 23:58:30.131   02 Jun 2027 23:59:35.975            65.844                Novosib          2057.625
       200   02 Jun 2027 23:59:39.582   03 Jun 2027 00:01:40.364           120.782                  Delhi          3774.437
       201   03 Jun 2027 01:16:59.739   03 Jun 2027 01:18:08.674            68.935                Anadyr2          2154.219
       202   03 Jun 2027 01:18:08.674   03 Jun 2027 01:18:40.417            31.743                Anadyr1           991.969
       203   03 Jun 2027 01:19:15.150   03 Jun 2027 01:19:20.692             5.542                Anadyr2           173.187
       204   03 Jun 2027 01:19:20.692   03 Jun 2027 01:19:25.264             4.572                Anadyr1           142.875
       205   03 Jun 2027 01:21:48.092   03 Jun 2027 01:23:50.562           122.470                Norilsk          3827.187
       206   03 Jun 2027 01:24:30.705   03 Jun 2027 01:26:15.457           104.752              Murmansk2          3273.500
       207   03 Jun 2027 01:27:31.092   03 Jun 2027 01:27:41.916            10.824                Irkutsk           338.250
       208   03 Jun 2027 01:29:06.035   03 Jun 2027 01:29:50.007            43.972                Novosib          1374.125
       209   03 Jun 2027 01:36:00.093   03 Jun 2027 01:36:07.251             7.158                  Delhi           223.687
       210   03 Jun 2027 01:36:27.477   03 Jun 2027 01:36:50.000            22.523                  Delhi           703.844
       211   03 Jun 2027 01:41:40.373   03 Jun 2027 01:41:55.087            14.714                  Delhi           459.813
       212   03 Jun 2027 01:44:49.823   03 Jun 2027 01:45:39.459            49.636                  Delhi          1551.125
       213   03 Jun 2027 02:15:09.462   03 Jun 2027 02:16:47.001            97.539            RioGallegos          3048.094
       214   03 Jun 2027 02:19:10.971   03 Jun 2027 02:19:43.899            32.928            RioGallegos          1029.000
       215   03 Jun 2027 02:50:16.448   03 Jun 2027 02:50:18.436             1.988                Anadyr2            62.125
       216   03 Jun 2027 02:51:03.681   03 Jun 2027 02:51:23.219            19.538                Anadyr1           610.563
       217   03 Jun 2027 02:52:55.239   03 Jun 2027 02:53:39.480            44.241                Anadyr1          1382.531
       218   03 Jun 2027 02:56:12.236   03 Jun 2027 02:56:59.135            46.899               Magadan1          1465.594
       219   03 Jun 2027 02:57:42.318   03 Jun 2027 02:57:47.862             5.544                Norilsk           173.250
       220   03 Jun 2027 02:59:56.775   03 Jun 2027 03:00:14.780            18.005              Murmansk2           562.656
       221   03 Jun 2027 03:04:12.312   03 Jun 2027 03:04:48.165            35.853                Norilsk          1120.406
       222   03 Jun 2027 03:05:02.666   03 Jun 2027 03:06:31.326            88.660                Norilsk          2770.625
       223   03 Jun 2027 03:06:39.441   03 Jun 2027 03:07:20.175            40.734              Murmansk1          1272.938
       224   03 Jun 2027 03:07:24.013   03 Jun 2027 03:07:34.279            10.266                Norilsk           320.812
       225   03 Jun 2027 03:07:50.633   03 Jun 2027 03:09:38.588           107.955                 Moscow          3373.594
       226   03 Jun 2027 03:09:39.149   03 Jun 2027 03:09:52.295            13.146                Novosib           410.813
       227   03 Jun 2027 03:10:04.922   03 Jun 2027 03:10:32.151            27.229              Murmansk1           850.906
       228   03 Jun 2027 03:11:36.428   03 Jun 2027 03:12:51.975            75.547                  Delhi          2360.844
       229   03 Jun 2027 04:25:02.708   03 Jun 2027 04:25:31.142            28.434                Anadyr2           888.562
       230   03 Jun 2027 04:43:02.511   03 Jun 2027 04:43:17.732            15.221                Novosib           475.656
       231   03 Jun 2027 04:43:25.265   03 Jun 2027 04:43:44.014            18.749              Murmansk1           585.906
       232   03 Jun 2027 04:43:44.014   03 Jun 2027 04:45:25.423           101.409              Murmansk2          3169.031
       233   03 Jun 2027 04:45:25.423   03 Jun 2027 04:45:29.755             4.332              Murmansk1           135.375
       234   03 Jun 2027 04:45:45.717   03 Jun 2027 04:48:43.448           177.731              Murmansk1          5554.094
       235   03 Jun 2027 04:48:50.105   03 Jun 2027 04:49:07.513            17.408                 Moscow           544.000
       236   03 Jun 2027 05:03:02.619   03 Jun 2027 05:05:24.798           142.179               CapeTown          4443.094
       237   03 Jun 2027 06:06:06.988   03 Jun 2027 06:08:55.362           168.374                Anadyr2          5261.687
       238   03 Jun 2027 07:43:46.013   03 Jun 2027 07:45:04.669            78.656                Irkutsk          2458.000
       239   03 Jun 2027 07:45:50.628   03 Jun 2027 07:46:52.290            61.662                Anadyr1          1926.938
       240   03 Jun 2027 09:17:46.222   03 Jun 2027 09:19:21.005            94.783               Magadan2          2961.969
       241   03 Jun 2027 09:20:13.655   03 Jun 2027 09:21:47.921            94.266                Anadyr2          2945.813
       242   03 Jun 2027 09:21:54.640   03 Jun 2027 09:23:44.495           109.855                Irkutsk          3432.969
       243   03 Jun 2027 09:23:55.406   03 Jun 2027 09:24:45.456            50.050                Novosib          1564.063
       244   03 Jun 2027 10:34:52.711   03 Jun 2027 10:35:09.540            16.829                Sumatra           525.906
       245   03 Jun 2027 10:54:18.829   03 Jun 2027 10:55:27.622            68.793                Novosib          2149.781
       246   03 Jun 2027 10:55:37.197   03 Jun 2027 10:56:12.233            35.036                Novosib          1094.875
       247   03 Jun 2027 10:56:14.433   03 Jun 2027 10:56:42.822            28.389                Irkutsk           887.156
       248   03 Jun 2027 10:57:01.947   03 Jun 2027 10:57:05.614             3.667              Murmansk2           114.594
       249   03 Jun 2027 10:57:27.274   03 Jun 2027 10:58:42.897            75.623                Novosib          2363.219
       250   03 Jun 2027 10:58:44.463   03 Jun 2027 10:59:10.509            26.046              Murmansk1           813.938
       251   03 Jun 2027 10:59:15.718   03 Jun 2027 10:59:26.189            10.471                Irkutsk           327.219
       252   03 Jun 2027 10:59:26.278   03 Jun 2027 11:01:14.261           107.983                Novosib          3374.469
       253   03 Jun 2027 11:35:38.884   03 Jun 2027 11:35:52.694            13.810            RioGallegos           431.562
       254   03 Jun 2027 11:38:44.001   03 Jun 2027 11:39:56.489            72.488            RioGallegos          2265.250
       255   03 Jun 2027 12:09:55.388   03 Jun 2027 12:10:38.647            43.259                Sumatra          1351.844
       256   03 Jun 2027 12:13:22.287   03 Jun 2027 12:14:43.242            80.955                Sumatra          2529.844
       257   03 Jun 2027 12:24:37.598   03 Jun 2027 12:25:35.734            58.136                Novosib          1816.750
       258   03 Jun 2027 12:26:31.587   03 Jun 2027 12:27:36.693            65.106                Novosib          2034.562
       259   03 Jun 2027 12:28:44.800   03 Jun 2027 12:30:08.619            83.819                Irkutsk          2619.344
       260   03 Jun 2027 13:54:46.655   03 Jun 2027 14:00:00.226           313.571                  Delhi          9799.094
       261   03 Jun 2027 14:03:08.559   03 Jun 2027 14:03:24.899            16.340                Novosib           510.625
       262   03 Jun 2027 14:03:54.231   03 Jun 2027 14:04:34.522            40.291                Novosib          1259.094
       263   03 Jun 2027 14:05:41.899   03 Jun 2027 14:06:05.115            23.216                Novosib           725.500
       264   03 Jun 2027 14:06:51.490   03 Jun 2027 14:07:18.563            27.073                Norilsk           846.031
       265   03 Jun 2027 14:07:45.723   03 Jun 2027 14:08:47.098            61.375                Novosib          1917.969
       266   03 Jun 2027 15:38:14.135   03 Jun 2027 15:40:14.260           120.125                 Moscow          3753.906
       267   03 Jun 2027 15:41:45.575   03 Jun 2027 15:42:49.001            63.426              Murmansk2          1982.063
       268   03 Jun 2027 15:42:49.809   03 Jun 2027 15:43:37.096            47.287              Murmansk1          1477.719
       269   03 Jun 2027 15:46:58.673   03 Jun 2027 15:48:33.678            95.005              Murmansk2          2968.906
       270   03 Jun 2027 15:49:32.530   03 Jun 2027 15:50:51.773            79.243                Norilsk          2476.344
       271   03 Jun 2027 15:51:43.306   03 Jun 2027 15:51:57.228            13.922                Norilsk           435.063
       272   03 Jun 2027 16:51:51.249   03 Jun 2027 16:52:42.617            51.368               CapeTown          1605.250
       273   03 Jun 2027 17:01:02.086   03 Jun 2027 17:01:20.172            18.086               CapeTown           565.188
       274   03 Jun 2027 17:17:13.785   03 Jun 2027 17:19:09.451           115.666                 Moscow          3614.562
       275   03 Jun 2027 17:19:36.026   03 Jun 2027 17:20:12.936            36.910              Murmansk1          1153.438
       276   03 Jun 2027 17:21:20.249   03 Jun 2027 17:22:04.143            43.894                 Moscow          1371.688
       277   03 Jun 2027 17:28:44.755   03 Jun 2027 17:29:22.681            37.926              Murmansk2          1185.188
       278   03 Jun 2027 17:32:22.084   03 Jun 2027 17:32:37.167            15.083                Anadyr1           471.344
       279   03 Jun 2027 17:33:36.636   03 Jun 2027 17:33:55.154            18.518                Anadyr1           578.688
       280   03 Jun 2027 17:36:59.219   03 Jun 2027 17:37:10.674            11.455                Anadyr1           357.969
       281   03 Jun 2027 17:38:10.554   03 Jun 2027 17:38:13.079             2.525                Anadyr1            78.906
       282   03 Jun 2027 17:39:16.409   03 Jun 2027 17:39:44.147            27.738                Anadyr1           866.812
       283   03 Jun 2027 18:28:05.588   03 Jun 2027 18:29:20.762            75.174               CapeTown          2349.188
       284   03 Jun 2027 18:32:07.129   03 Jun 2027 18:32:40.967            33.838               CapeTown          1057.438
       285   03 Jun 2027 19:00:09.908   03 Jun 2027 19:04:35.341           265.433              Murmansk2          8294.781
       286   03 Jun 2027 19:10:54.330   03 Jun 2027 19:11:58.822            64.492               Magadan1          2015.375
       287   03 Jun 2027 19:12:16.006   03 Jun 2027 19:13:35.361            79.355               Magadan1          2479.844
       288   03 Jun 2027 20:44:04.786   03 Jun 2027 20:46:09.987           125.201                Anadyr2          3912.531
       289   03 Jun 2027 20:46:21.189   03 Jun 2027 20:49:34.762           193.573               Magadan2          6049.156
       290   03 Jun 2027 20:50:15.365   03 Jun 2027 20:50:21.866             6.501               Magadan1           203.156
       291   03 Jun 2027 20:50:57.614   03 Jun 2027 20:51:01.606             3.992               Magadan1           124.750
       292   03 Jun 2027 20:51:13.896   03 Jun 2027 20:51:33.109            19.213               Magadan1           600.406
       293   03 Jun 2027 20:53:23.418   03 Jun 2027 20:54:06.199            42.781               Magadan1          1336.906
       294   03 Jun 2027 21:39:09.248   03 Jun 2027 21:41:20.559           131.311            RioGallegos          4103.469
       295   03 Jun 2027 21:41:44.954   03 Jun 2027 21:41:51.086             6.132            RioGallegos           191.625
       296   03 Jun 2027 21:45:37.110   03 Jun 2027 21:45:47.993            10.883            RioGallegos           340.094
       297   03 Jun 2027 21:47:47.564   03 Jun 2027 21:47:50.471             2.907            RioGallegos            90.844
       298   03 Jun 2027 22:19:49.250   03 Jun 2027 22:20:06.915            17.665                Anadyr2           552.031
       299   03 Jun 2027 22:21:23.605   03 Jun 2027 22:23:24.136           120.531                Anadyr1          3766.594
       300   03 Jun 2027 22:23:32.095   03 Jun 2027 22:25:38.042           125.947                Norilsk          3935.844
       301   03 Jun 2027 22:26:15.270   03 Jun 2027 22:26:22.034             6.764               Magadan2           211.375
       302   03 Jun 2027 22:26:26.278   03 Jun 2027 22:27:29.438            63.160                Irkutsk          1973.750
       303   03 Jun 2027 22:28:46.133   03 Jun 2027 22:29:48.535            62.402                Irkutsk          1950.063
       304   03 Jun 2027 22:40:37.216   03 Jun 2027 22:41:45.328            68.112                Sumatra          2128.500
       305   03 Jun 2027 22:46:02.968   03 Jun 2027 22:46:31.422            28.454                Sumatra           889.187
       306   03 Jun 2027 23:25:41.886   03 Jun 2027 23:25:44.389             2.503            RioGallegos            78.219
       307   03 Jun 2027 23:54:52.204   03 Jun 2027 23:57:13.425           141.221                Anadyr2          4413.156
       308   03 Jun 2027 23:57:49.452   03 Jun 2027 23:59:35.346           105.894                Norilsk          3309.187
       309   03 Jun 2027 23:59:37.501   04 Jun 2027 00:00:08.787            31.286               Magadan1           977.687
       310   04 Jun 2027 00:01:41.784   04 Jun 2027 00:03:54.830           133.046                Irkutsk          4157.687
       311   04 Jun 2027 00:10:36.758   04 Jun 2027 00:11:22.019            45.261                  Delhi          1414.406
       312   04 Jun 2027 00:14:39.169   04 Jun 2027 00:15:04.812            25.643                  Delhi           801.344
       313   04 Jun 2027 00:17:32.808   04 Jun 2027 00:17:43.920            11.112                  Delhi           347.250
       314   04 Jun 2027 00:19:03.518   04 Jun 2027 00:19:33.522            30.004                  Delhi           937.625
       315   04 Jun 2027 00:26:23.150   04 Jun 2027 00:27:11.846            48.696                Sumatra          1521.750
       316   04 Jun 2027 00:56:54.716   04 Jun 2027 00:57:25.060            30.344            RioGallegos           948.250
       317   04 Jun 2027 01:28:41.856   04 Jun 2027 01:30:46.657           124.801                Anadyr1          3900.031
       318   04 Jun 2027 01:34:19.120   04 Jun 2027 01:36:10.984           111.864               Magadan2          3495.750
       319   04 Jun 2027 01:36:23.317   04 Jun 2027 01:38:15.827           112.510              Murmansk2          3515.938
       320   04 Jun 2027 01:38:18.525   04 Jun 2027 01:40:31.300           132.775                Novosib          4149.219
       321   04 Jun 2027 02:27:39.978   04 Jun 2027 02:30:29.558           169.580            RioGallegos          5299.375
       322   04 Jun 2027 02:32:00.268   04 Jun 2027 02:32:04.320             4.052            RioGallegos           126.625
       323   04 Jun 2027 03:17:19.908   04 Jun 2027 03:17:32.614            12.706              Murmansk1           397.063
       324   04 Jun 2027 03:17:33.519   04 Jun 2027 03:18:21.020            47.501                Novosib          1484.406
       325   04 Jun 2027 03:18:27.381   04 Jun 2027 03:21:27.264           179.883                Novosib          5621.344
       326   04 Jun 2027 03:21:36.353   04 Jun 2027 03:22:27.580            51.227                Novosib          1600.844
       327   04 Jun 2027 03:22:50.810   04 Jun 2027 03:22:54.919             4.109              Murmansk2           128.406
       328   04 Jun 2027 03:23:14.096   04 Jun 2027 03:23:53.094            38.998                Novosib          1218.687
       329   04 Jun 2027 03:40:35.773   04 Jun 2027 03:40:47.575            11.802               CapeTown           368.812
       330   04 Jun 2027 04:55:45.869   04 Jun 2027 04:58:32.796           166.927              Murmansk1          5216.469
       331   04 Jun 2027 04:59:34.950   04 Jun 2027 04:59:59.418            24.468              Murmansk2           764.625
       332   04 Jun 2027 06:18:27.033   04 Jun 2027 06:21:24.723           177.690               Magadan1          5552.813
       333   04 Jun 2027 07:56:05.413   04 Jun 2027 07:56:09.961             4.548                Norilsk           142.125
       334   04 Jun 2027 07:56:10.189   04 Jun 2027 07:58:53.316           163.127                Anadyr1          5097.719
       335   04 Jun 2027 08:37:52.925   04 Jun 2027 08:38:33.903            40.978            RioGallegos          1280.563
       336   04 Jun 2027 09:29:31.850   04 Jun 2027 09:30:24.081            52.231                Novosib          1632.219
       337   04 Jun 2027 09:30:35.134   04 Jun 2027 09:30:40.467             5.333               Magadan1           166.656
       338   04 Jun 2027 09:31:31.642   04 Jun 2027 09:32:15.236            43.594               Magadan2          1362.312
       339   04 Jun 2027 09:32:36.793   04 Jun 2027 09:33:01.158            24.365               Magadan1           761.406
       340   04 Jun 2027 09:33:07.248   04 Jun 2027 09:33:08.699             1.451                Norilsk            45.344
       341   04 Jun 2027 09:33:12.157   04 Jun 2027 09:33:26.671            14.514                Irkutsk           453.562
       342   04 Jun 2027 09:33:28.499   04 Jun 2027 09:33:45.502            17.003                Irkutsk           531.344
       343   04 Jun 2027 09:33:51.520   04 Jun 2027 09:33:58.170             6.650                Irkutsk           207.812
       344   04 Jun 2027 09:34:22.407   04 Jun 2027 09:34:53.237            30.830                Norilsk           963.437
       345   04 Jun 2027 09:35:14.226   04 Jun 2027 09:35:19.023             4.797                Norilsk           149.906
       346   04 Jun 2027 09:35:20.585   04 Jun 2027 09:35:28.841             8.256              Murmansk2           258.000
       347   04 Jun 2027 09:35:35.110   04 Jun 2027 09:35:40.535             5.425              Murmansk2           169.531
       348   04 Jun 2027 09:35:43.374   04 Jun 2027 09:36:06.613            23.239                Norilsk           726.219
       349   04 Jun 2027 09:36:28.090   04 Jun 2027 09:36:58.537            30.447              Murmansk1           951.469
       350   04 Jun 2027 10:10:43.076   04 Jun 2027 10:11:49.104            66.028            RioGallegos          2063.375
       351   04 Jun 2027 10:46:24.079   04 Jun 2027 10:47:31.960            67.881                Sumatra          2121.281
       352   04 Jun 2027 11:06:04.605   04 Jun 2027 11:06:08.122             3.517                Irkutsk           109.906
       353   04 Jun 2027 11:06:11.656   04 Jun 2027 11:07:08.827            57.171                Novosib          1786.594
       354   04 Jun 2027 11:07:18.568   04 Jun 2027 11:07:22.704             4.136                Norilsk           129.250
       355   04 Jun 2027 11:07:31.236   04 Jun 2027 11:07:56.758            25.522                Irkutsk           797.562
       356   04 Jun 2027 11:08:03.438   04 Jun 2027 11:08:44.523            41.085                Norilsk          1283.906
       357   04 Jun 2027 11:08:47.284   04 Jun 2027 11:09:00.872            13.588                Novosib           424.625
       358   04 Jun 2027 11:09:04.824   04 Jun 2027 11:09:25.556            20.732              Murmansk1           647.875
       359   04 Jun 2027 11:09:26.552   04 Jun 2027 11:09:36.878            10.326                Novosib           322.688
       360   04 Jun 2027 11:09:51.698   04 Jun 2027 11:09:54.199             2.501                Norilsk            78.156
       361   04 Jun 2027 11:10:02.946   04 Jun 2027 11:10:06.228             3.282              Murmansk2           102.562
       362   04 Jun 2027 11:10:09.613   04 Jun 2027 11:10:29.557            19.944                Norilsk           623.250
       363   04 Jun 2027 11:10:44.838   04 Jun 2027 11:10:50.389             5.551                Novosib           173.469
       364   04 Jun 2027 11:10:54.902   04 Jun 2027 11:11:36.394            41.492                Irkutsk          1296.625
       365   04 Jun 2027 11:11:45.393   04 Jun 2027 11:12:59.002            73.609                Norilsk          2300.281
       366   04 Jun 2027 11:48:06.399   04 Jun 2027 11:48:55.512            49.113            RioGallegos          1534.781
       367   04 Jun 2027 12:22:19.439   04 Jun 2027 12:23:36.767            77.328                Sumatra          2416.500
       368   04 Jun 2027 12:36:45.428   04 Jun 2027 12:38:07.565            82.137                Novosib          2566.781
       369   04 Jun 2027 12:39:52.268   04 Jun 2027 12:40:31.497            39.229                Novosib          1225.906
       370   04 Jun 2027 12:40:42.547   04 Jun 2027 12:42:12.602            90.055                Norilsk          2814.219
       371   04 Jun 2027 12:44:02.680   04 Jun 2027 12:44:54.333            51.653              Murmansk1          1614.156
       372   04 Jun 2027 14:07:24.688   04 Jun 2027 14:09:56.432           151.744                  Delhi          4742.000
       373   04 Jun 2027 14:15:15.458   04 Jun 2027 14:15:24.663             9.205                 Moscow           287.656
       374   04 Jun 2027 14:15:53.309   04 Jun 2027 14:16:42.423            49.114                Novosib          1534.813
       375   04 Jun 2027 14:17:34.661   04 Jun 2027 14:19:49.743           135.082                Novosib          4221.313
       376   04 Jun 2027 14:20:31.088   04 Jun 2027 14:21:26.091            55.003                Norilsk          1718.844
       377   04 Jun 2027 15:50:24.512   04 Jun 2027 15:52:12.933           108.421                 Moscow          3388.156
       378   04 Jun 2027 15:53:18.087   04 Jun 2027 15:54:20.897            62.810                 Moscow          1962.812
       379   04 Jun 2027 15:54:38.798   04 Jun 2027 15:54:42.976             4.178                 Moscow           130.562
       380   04 Jun 2027 15:54:52.303   04 Jun 2027 15:57:08.841           136.538              Murmansk2          4266.812
       381   04 Jun 2027 16:01:31.761   04 Jun 2027 16:03:19.406           107.645                Norilsk          3363.906
       382   04 Jun 2027 16:09:30.094   04 Jun 2027 16:10:40.481            70.387                Anadyr2          2199.594
       383   04 Jun 2027 17:03:44.770   04 Jun 2027 17:04:37.214            52.444               CapeTown          1638.875
       384   04 Jun 2027 17:30:06.178   04 Jun 2027 17:31:04.226            58.048                 Moscow          1814.000
       385   04 Jun 2027 17:32:01.771   04 Jun 2027 17:33:12.866            71.095              Murmansk2          2221.719
       386   04 Jun 2027 17:34:10.527   04 Jun 2027 17:34:36.308            25.781              Murmansk1           805.656
       387   04 Jun 2027 17:34:59.640   04 Jun 2027 17:36:33.167            93.527              Murmansk1          2922.719
       388   04 Jun 2027 17:44:29.152   04 Jun 2027 17:44:56.721            27.569                Anadyr2           861.531
       389   04 Jun 2027 17:45:35.919   04 Jun 2027 17:46:01.511            25.592                Anadyr2           799.750
       390   04 Jun 2027 17:51:11.657   04 Jun 2027 17:51:15.783             4.126                Anadyr1           128.938
       391   04 Jun 2027 17:51:44.991   04 Jun 2027 17:52:08.699            23.708                Anadyr1           740.875
       392   04 Jun 2027 18:40:24.928   04 Jun 2027 18:41:43.942            79.014               CapeTown          2469.188
       393   04 Jun 2027 18:43:00.587   04 Jun 2027 18:43:18.405            17.818               CapeTown           556.813
       394   04 Jun 2027 18:49:38.695   04 Jun 2027 18:50:18.899            40.204               CapeTown          1256.375
       395   04 Jun 2027 19:13:09.290   04 Jun 2027 19:17:27.412           258.122              Murmansk1          8066.313
       396   04 Jun 2027 19:22:48.350   04 Jun 2027 19:23:48.144            59.794               Magadan1          1868.562
       397   04 Jun 2027 19:25:04.735   04 Jun 2027 19:25:34.482            29.747               Magadan2           929.594
       398   04 Jun 2027 19:31:18.023   04 Jun 2027 19:31:25.331             7.308               Magadan2           228.375
       399   04 Jun 2027 20:56:06.011   04 Jun 2027 20:58:11.764           125.753                Anadyr2          3929.781
       400   04 Jun 2027 20:58:22.225   04 Jun 2027 21:02:24.574           242.349               Magadan1          7573.406
       401   04 Jun 2027 21:02:24.574   04 Jun 2027 21:02:44.874            20.300               Magadan2           634.375
       402   04 Jun 2027 21:02:50.942   04 Jun 2027 21:02:52.288             1.346               Magadan2            42.063
       403   04 Jun 2027 21:03:03.501   04 Jun 2027 21:03:14.498            10.997               Magadan2           343.656
       404   04 Jun 2027 21:03:44.080   04 Jun 2027 21:04:22.460            38.380               Magadan2          1199.375
       405   04 Jun 2027 21:50:50.259   04 Jun 2027 21:53:23.919           153.660            RioGallegos          4801.875
       406   04 Jun 2027 21:53:49.341   04 Jun 2027 21:54:04.137            14.796            RioGallegos           462.375
       407   04 Jun 2027 21:55:31.646   04 Jun 2027 21:55:37.694             6.048            RioGallegos           189.000
       408   04 Jun 2027 22:31:47.266   04 Jun 2027 22:32:08.746            21.480                Anadyr1           671.250
       409   04 Jun 2027 22:33:30.502   04 Jun 2027 22:33:38.823             8.321                Anadyr1           260.031
       410   04 Jun 2027 22:33:56.288   04 Jun 2027 22:35:24.920            88.632                Norilsk          2769.750
       411   04 Jun 2027 22:35:31.721   04 Jun 2027 22:35:36.912             5.191                Norilsk           162.219
       412   04 Jun 2027 22:35:38.027   04 Jun 2027 22:36:13.901            35.874               Magadan1          1121.063
       413   04 Jun 2027 22:36:21.337   04 Jun 2027 22:36:43.282            21.945               Magadan2           685.781
       414   04 Jun 2027 22:36:47.423   04 Jun 2027 22:37:43.629            56.206                Norilsk          1756.437
       415   04 Jun 2027 22:39:29.551   04 Jun 2027 22:40:24.446            54.895                Irkutsk          1715.469
       416   04 Jun 2027 22:41:22.191   04 Jun 2027 22:41:28.314             6.123                Irkutsk           191.344
       417   04 Jun 2027 22:42:26.652   04 Jun 2027 22:42:46.264            19.612                Irkutsk           612.875
       418   04 Jun 2027 22:44:10.573   04 Jun 2027 22:44:25.773            15.200                Irkutsk           475.000
       419   04 Jun 2027 22:46:33.584   04 Jun 2027 22:46:57.670            24.086                Irkutsk           752.688
       420   04 Jun 2027 22:52:13.031   04 Jun 2027 22:53:40.234            87.203                Sumatra          2725.094
       421   04 Jun 2027 22:56:02.672   04 Jun 2027 22:57:08.834            66.162                Sumatra          2067.562
       422   05 Jun 2027 00:06:42.078   05 Jun 2027 00:07:23.827            41.749                Anadyr1          1304.656
       423   05 Jun 2027 00:07:23.827   05 Jun 2027 00:07:57.954            34.127                Anadyr2          1066.469
       424   05 Jun 2027 00:09:13.358   05 Jun 2027 00:09:25.537            12.179                Anadyr1           380.594
       425   05 Jun 2027 00:09:51.617   05 Jun 2027 00:10:02.676            11.059                Norilsk           345.594
       426   05 Jun 2027 00:10:31.057   05 Jun 2027 00:12:09.197            98.140               Magadan2          3066.875
       427   05 Jun 2027 00:13:43.567   05 Jun 2027 00:14:53.417            69.850                Irkutsk          2182.813
       428   05 Jun 2027 00:15:51.303   05 Jun 2027 00:16:43.999            52.696                Novosib          1646.750
       429   05 Jun 2027 00:17:24.147   05 Jun 2027 00:17:31.543             7.396                Irkutsk           231.125
       430   05 Jun 2027 00:18:42.537   05 Jun 2027 00:18:50.999             8.462                Novosib           264.438
       431   05 Jun 2027 00:19:49.480   05 Jun 2027 00:20:09.996            20.516                Novosib           641.125
       432   05 Jun 2027 00:21:04.391   05 Jun 2027 00:21:30.954            26.563                Novosib           830.094
       433   05 Jun 2027 00:22:06.966   05 Jun 2027 00:25:07.402           180.436                  Delhi          5638.625
       434   05 Jun 2027 01:10:05.286   05 Jun 2027 01:10:10.135             4.849            RioGallegos           151.531
       435   05 Jun 2027 01:10:37.729   05 Jun 2027 01:11:29.502            51.773            RioGallegos          1617.906
       436   05 Jun 2027 01:40:23.412   05 Jun 2027 01:40:56.118            32.706                Anadyr1          1022.062
       437   05 Jun 2027 01:41:50.246   05 Jun 2027 01:42:43.226            52.980                Anadyr2          1655.625
       438   05 Jun 2027 01:45:51.925   05 Jun 2027 01:47:30.636            98.711                Norilsk          3084.719
       439   05 Jun 2027 01:47:53.215   05 Jun 2027 01:48:04.640            11.425               Magadan1           357.031
       440   05 Jun 2027 01:48:18.471   05 Jun 2027 01:49:46.116            87.645              Murmansk2          2738.906
       441   05 Jun 2027 01:50:11.507   05 Jun 2027 01:50:37.840            26.333                Novosib           822.906
       442   05 Jun 2027 01:51:14.745   05 Jun 2027 01:51:34.603            19.858                Novosib           620.562
       443   05 Jun 2027 01:52:32.012   05 Jun 2027 01:52:58.673            26.661                Irkutsk           833.156
       444   05 Jun 2027 01:56:37.372   05 Jun 2027 01:56:59.513            22.141                 Moscow           691.906
       445   05 Jun 2027 01:57:43.882   05 Jun 2027 01:59:07.884            84.002                  Delhi          2625.062
       446   05 Jun 2027 02:40:39.355   05 Jun 2027 02:42:31.583           112.228            RioGallegos          3507.125
       447   05 Jun 2027 03:30:24.029   05 Jun 2027 03:31:02.384            38.355                 Moscow          1198.594
       448   05 Jun 2027 03:31:07.537   05 Jun 2027 03:31:32.926            25.389              Murmansk2           793.406
       449   05 Jun 2027 03:31:46.542   05 Jun 2027 03:32:34.646            48.104                Norilsk          1503.250
       450   05 Jun 2027 03:32:51.088   05 Jun 2027 03:34:49.035           117.947                Novosib          3685.844
       451   05 Jun 2027 03:34:55.434   05 Jun 2027 03:35:46.126            50.692              Murmansk2          1584.125
       452   05 Jun 2027 03:36:58.420   05 Jun 2027 03:38:31.516            93.096                 Moscow          2909.250
       453   05 Jun 2027 03:52:08.094   05 Jun 2027 03:53:15.440            67.346               CapeTown          2104.563
       454   05 Jun 2027 03:53:48.533   05 Jun 2027 03:55:07.938            79.405               CapeTown          2481.406
       455   05 Jun 2027 05:07:47.866   05 Jun 2027 05:08:22.576            34.710              Murmansk2          1084.688
       456   05 Jun 2027 05:08:29.941   05 Jun 2027 05:09:00.863            30.922                 Moscow           966.313
       457   05 Jun 2027 05:09:10.080   05 Jun 2027 05:09:33.643            23.563              Murmansk1           736.344
       458   05 Jun 2027 05:09:33.643   05 Jun 2027 05:09:36.403             2.760              Murmansk2            86.250
       459   05 Jun 2027 05:09:38.647   05 Jun 2027 05:10:51.806            73.159                 Moscow          2286.219
       460   05 Jun 2027 05:38:00.762   05 Jun 2027 05:38:43.458            42.696               CapeTown          1334.250
       461   05 Jun 2027 06:31:40.301   05 Jun 2027 06:36:42.178           301.877                Anadyr2          9433.656
       462   05 Jun 2027 06:37:06.754   05 Jun 2027 06:38:03.974            57.220                Norilsk          1788.125
       463   05 Jun 2027 06:39:32.876   05 Jun 2027 06:39:58.851            25.975                 Moscow           811.719
       464   05 Jun 2027 08:07:04.667   05 Jun 2027 08:08:26.013            81.346                Anadyr2          2542.063
       465   05 Jun 2027 08:08:35.931   05 Jun 2027 08:09:14.162            38.231               Magadan1          1194.719
       466   05 Jun 2027 08:09:14.162   05 Jun 2027 08:10:02.724            48.562               Magadan2          1517.562
       467   05 Jun 2027 08:48:31.794   05 Jun 2027 08:49:36.392            64.598            RioGallegos          2018.688
       468   05 Jun 2027 09:41:22.835   05 Jun 2027 09:42:41.583            78.748               Magadan2          2460.875
       469   05 Jun 2027 09:42:47.569   05 Jun 2027 09:43:22.758            35.189                Novosib          1099.656
       470   05 Jun 2027 09:43:24.628   05 Jun 2027 09:45:03.212            98.584               Magadan1          3080.750
       471   05 Jun 2027 09:45:10.002   05 Jun 2027 09:45:40.424            30.422                Norilsk           950.687
       472   05 Jun 2027 09:45:47.930   05 Jun 2027 09:46:03.587            15.657                Norilsk           489.281
       473   05 Jun 2027 09:46:13.259   05 Jun 2027 09:47:01.312            48.053                Novosib          1501.656
       474   05 Jun 2027 09:47:08.033   05 Jun 2027 09:47:48.770            40.737              Murmansk1          1273.031
       475   05 Jun 2027 09:47:54.031   05 Jun 2027 09:48:41.225            47.194                Novosib          1474.813
       476   05 Jun 2027 09:48:53.281   05 Jun 2027 09:49:22.265            28.984              Murmansk2           905.750
       477   05 Jun 2027 10:22:42.711   05 Jun 2027 10:23:46.825            64.114            RioGallegos          2003.562
       478   05 Jun 2027 10:58:03.863   05 Jun 2027 10:58:38.112            34.249                Sumatra          1070.281
       479   05 Jun 2027 11:04:24.381   05 Jun 2027 11:04:31.306             6.925                Sumatra           216.406
       480   05 Jun 2027 11:14:21.263   05 Jun 2027 11:14:38.005            16.742                  Delhi           523.188
       481   05 Jun 2027 11:15:17.433   05 Jun 2027 11:15:31.178            13.745                  Delhi           429.531
       482   05 Jun 2027 11:17:46.309   05 Jun 2027 11:18:14.481            28.172                Norilsk           880.375
