uniorb/output/strategy_1/Drop/Drop_KinoSat_110706.txt

KinoSat_110706
-------------------------
    Access    *     Start Time (UTCG)     *     Stop Time (UTCG)  *   Duration (s)        *       Station  *  Data (Mbytes)
         1   01 Jun 2027 03:29:14.981   01 Jun 2027 03:29:48.046            33.065                Anadyr2          1033.281
         2   01 Jun 2027 03:30:18.438   01 Jun 2027 03:31:20.347            61.909                Anadyr2          1934.656
         3   01 Jun 2027 03:31:37.272   01 Jun 2027 03:33:15.128            97.856               Magadan2          3058.000
         4   01 Jun 2027 03:33:43.057   01 Jun 2027 03:36:31.282           168.225               Magadan2          5257.031
         5   01 Jun 2027 03:36:31.453   01 Jun 2027 03:36:44.515            13.062                Anadyr2           408.188
         6   01 Jun 2027 05:04:42.515   01 Jun 2027 05:05:42.725            60.210               Magadan2          1881.563
         7   01 Jun 2027 05:05:51.139   01 Jun 2027 05:06:30.088            38.949               Magadan1          1217.156
         8   01 Jun 2027 05:06:30.088   01 Jun 2027 05:09:30.696           180.608               Magadan2          5644.000
         9   01 Jun 2027 05:09:30.696   01 Jun 2027 05:09:42.649            11.953               Magadan1           373.531
        10   01 Jun 2027 05:09:50.519   01 Jun 2027 05:11:41.962           111.443               Magadan1          3482.594
        11   01 Jun 2027 05:11:52.678   01 Jun 2027 05:12:04.905            12.227               Magadan1           382.094
        12   01 Jun 2027 05:12:04.905   01 Jun 2027 05:12:18.025            13.120               Magadan2           410.000
        13   01 Jun 2027 05:47:34.040   01 Jun 2027 05:50:01.869           147.829            RioGallegos          4619.656
        14   01 Jun 2027 05:50:46.434   01 Jun 2027 05:50:55.418             8.984            RioGallegos           280.750
        15   01 Jun 2027 06:26:11.163   01 Jun 2027 06:27:18.657            67.494                Sumatra          2109.187
        16   01 Jun 2027 06:42:21.336   01 Jun 2027 06:42:56.064            34.728                Irkutsk          1085.250
        17   01 Jun 2027 06:43:16.036   01 Jun 2027 06:44:40.665            84.629                Novosib          2644.656
        18   01 Jun 2027 06:44:43.313   01 Jun 2027 06:47:32.137           168.824                Irkutsk          5275.750
        19   01 Jun 2027 06:47:33.925   01 Jun 2027 06:48:07.074            33.149                Novosib          1035.906
        20   01 Jun 2027 06:48:35.936   01 Jun 2027 06:48:45.139             9.203              Murmansk1           287.594
        21   01 Jun 2027 07:23:04.852   01 Jun 2027 07:24:10.229            65.377            RioGallegos          2043.031
        22   01 Jun 2027 07:57:44.197   01 Jun 2027 07:58:39.596            55.399                Sumatra          1731.219
        23   01 Jun 2027 08:07:51.432   01 Jun 2027 08:10:00.117           128.685                  Delhi          4021.406
        24   01 Jun 2027 08:19:54.138   01 Jun 2027 08:23:07.206           193.068                Irkutsk          6033.375
        25   01 Jun 2027 08:23:07.982   01 Jun 2027 08:24:12.412            64.430                Novosib          2013.438
        26   01 Jun 2027 08:24:33.005   01 Jun 2027 08:25:15.417            42.412              Murmansk2          1325.375
        27   01 Jun 2027 08:25:29.690   01 Jun 2027 08:26:00.415            30.725                 Moscow           960.156
        28   01 Jun 2027 09:42:04.132   01 Jun 2027 09:43:44.162           100.030                  Delhi          3125.937
        29   01 Jun 2027 09:44:20.379   01 Jun 2027 09:45:02.364            41.985                  Delhi          1312.031
        30   01 Jun 2027 09:46:13.037   01 Jun 2027 09:47:21.103            68.066                  Delhi          2127.063
        31   01 Jun 2027 09:57:34.429   01 Jun 2027 09:59:06.726            92.297                 Moscow          2884.281
        32   01 Jun 2027 09:59:11.580   01 Jun 2027 09:59:37.868            26.288              Murmansk1           821.500
        33   01 Jun 2027 09:59:48.048   01 Jun 2027 10:00:07.867            19.819                Novosib           619.344
        34   01 Jun 2027 10:00:25.863   01 Jun 2027 10:02:07.723           101.860                Norilsk          3183.125
        35   01 Jun 2027 10:02:32.096   01 Jun 2027 10:02:44.167            12.071              Murmansk1           377.219
        36   01 Jun 2027 11:31:21.772   01 Jun 2027 11:32:10.224            48.452              Murmansk1          1514.125
        37   01 Jun 2027 11:32:15.004   01 Jun 2027 11:33:42.250            87.246                 Moscow          2726.438
        38   01 Jun 2027 11:33:54.022   01 Jun 2027 11:37:46.231           232.209                 Moscow          7256.531
        39   01 Jun 2027 12:40:54.123   01 Jun 2027 12:43:39.968           165.845               CapeTown          5182.656
        40   01 Jun 2027 12:44:30.024   01 Jun 2027 12:47:36.372           186.348               CapeTown          5823.375
        41   01 Jun 2027 13:08:07.843   01 Jun 2027 13:08:43.260            35.417              Murmansk1          1106.781
        42   01 Jun 2027 13:20:51.446   01 Jun 2027 13:27:08.040           376.594                Anadyr2         11768.563
        43   01 Jun 2027 13:27:46.608   01 Jun 2027 13:30:24.390           157.782                Anadyr2          4930.687
        44   01 Jun 2027 14:56:24.258   01 Jun 2027 14:56:44.889            20.631                Anadyr2           644.719
        45   01 Jun 2027 14:57:47.106   01 Jun 2027 14:58:21.304            34.198                Anadyr1          1068.687
        46   01 Jun 2027 14:59:44.658   01 Jun 2027 15:00:01.184            16.526                Anadyr1           516.438
        47   01 Jun 2027 15:00:03.529   01 Jun 2027 15:06:17.956           374.427               Magadan1         11700.844
        48   01 Jun 2027 15:06:55.619   01 Jun 2027 15:07:39.950            44.331               Magadan2          1385.344
        49   01 Jun 2027 16:34:40.280   01 Jun 2027 16:36:47.483           127.203               Magadan2          3975.094
        50   01 Jun 2027 16:37:20.714   01 Jun 2027 16:38:11.017            50.303               Magadan1          1571.969
        51   01 Jun 2027 17:30:04.562   01 Jun 2027 17:32:05.226           120.664            RioGallegos          3770.750
        52   01 Jun 2027 18:08:09.280   01 Jun 2027 18:09:33.781            84.501                Anadyr1          2640.656
        53   01 Jun 2027 18:10:00.520   01 Jun 2027 18:10:44.655            44.135                Anadyr2          1379.219
        54   01 Jun 2027 18:10:46.432   01 Jun 2027 18:17:26.560           400.128                Norilsk         12504.000
        55   01 Jun 2027 18:17:33.516   01 Jun 2027 18:23:13.558           340.042                Irkutsk         10626.313
        56   01 Jun 2027 18:31:20.565   01 Jun 2027 18:37:34.370           373.805                Sumatra         11681.406
        57   01 Jun 2027 19:53:04.453   01 Jun 2027 19:56:02.587           178.134                Novosib          5566.688
        58   01 Jun 2027 21:25:24.401   01 Jun 2027 21:29:16.124           231.723              Murmansk1          7241.344
        59   01 Jun 2027 23:00:15.911   01 Jun 2027 23:01:54.940            99.029              Murmansk1          3094.656
        60   01 Jun 2027 23:02:03.944   01 Jun 2027 23:06:10.003           246.059              Murmansk2          7689.344
        61   01 Jun 2027 23:07:01.183   01 Jun 2027 23:11:45.162           283.979                 Moscow          8874.344
        62   01 Jun 2027 23:31:04.654   01 Jun 2027 23:33:01.269           116.615               CapeTown          3644.219
        63   01 Jun 2027 23:34:11.305   01 Jun 2027 23:36:15.134           123.829               CapeTown          3869.656
        64   02 Jun 2027 00:39:41.809   02 Jun 2027 00:41:00.548            78.739                 Moscow          2460.594
        65   02 Jun 2027 01:03:17.117   02 Jun 2027 01:04:01.776            44.659               CapeTown          1395.594
        66   02 Jun 2027 01:07:42.236   02 Jun 2027 01:07:46.161             3.925               CapeTown           122.656
        67   02 Jun 2027 01:10:37.868   02 Jun 2027 01:10:59.124            21.256               CapeTown           664.250
        68   02 Jun 2027 01:11:42.914   02 Jun 2027 01:12:15.721            32.807               CapeTown          1025.219
        69   02 Jun 2027 01:59:59.338   02 Jun 2027 02:00:38.138            38.800                Anadyr1          1212.500
        70   02 Jun 2027 02:01:22.144   02 Jun 2027 02:02:53.003            90.859               Magadan2          2839.344
        71   02 Jun 2027 02:08:35.068   02 Jun 2027 02:09:40.729            65.661               Magadan2          2051.906
        72   02 Jun 2027 02:12:06.495   02 Jun 2027 02:12:07.601             1.106              Murmansk2            34.563
        73   02 Jun 2027 02:12:14.766   02 Jun 2027 02:12:18.679             3.913              Murmansk1           122.281
        74   02 Jun 2027 02:12:21.063   02 Jun 2027 02:13:19.556            58.493              Murmansk1          1827.906
        75   02 Jun 2027 02:14:46.620   02 Jun 2027 02:15:05.569            18.949              Murmansk2           592.156
        76   02 Jun 2027 02:15:27.523   02 Jun 2027 02:15:54.323            26.800                 Moscow           837.500
        77   02 Jun 2027 02:16:57.764   02 Jun 2027 02:17:09.489            11.725                 Moscow           366.406
        78   02 Jun 2027 02:20:42.389   02 Jun 2027 02:20:52.595            10.206              Murmansk1           318.938
        79   02 Jun 2027 02:21:03.412   02 Jun 2027 02:21:23.179            19.767                 Moscow           617.719
        80   02 Jun 2027 02:24:16.216   02 Jun 2027 02:24:41.382            25.166              Murmansk1           786.437
        81   02 Jun 2027 02:26:43.127   02 Jun 2027 02:26:47.035             3.908                 Moscow           122.125
        82   02 Jun 2027 02:41:54.931   02 Jun 2027 02:42:25.944            31.013               CapeTown           969.156
        83   02 Jun 2027 02:44:06.524   02 Jun 2027 02:45:20.257            73.733               CapeTown          2304.156
        84   02 Jun 2027 03:42:02.808   02 Jun 2027 03:43:14.467            71.659               Magadan2          2239.344
        85   02 Jun 2027 03:43:39.571   02 Jun 2027 03:45:43.298           123.727               Magadan2          3866.469
        86   02 Jun 2027 03:46:11.512   02 Jun 2027 03:48:43.586           152.074                Anadyr2          4752.312
        87   02 Jun 2027 05:18:09.867   02 Jun 2027 05:20:10.389           120.522                Anadyr1          3766.313
        88   02 Jun 2027 05:20:10.389   02 Jun 2027 05:20:28.781            18.392                Anadyr2           574.750
        89   02 Jun 2027 05:20:32.938   02 Jun 2027 05:21:24.801            51.863                Anadyr2          1620.719
        90   02 Jun 2027 05:21:45.737   02 Jun 2027 05:22:07.311            21.574               Magadan2           674.188
        91   02 Jun 2027 05:22:15.893   02 Jun 2027 05:23:30.558            74.665                Anadyr2          2333.281
        92   02 Jun 2027 05:23:36.881   02 Jun 2027 05:24:15.374            38.493               Magadan2          1202.906
        93   02 Jun 2027 05:24:31.021   02 Jun 2027 05:24:48.635            17.614              Murmansk1           550.437
        94   02 Jun 2027 05:26:36.331   02 Jun 2027 05:26:57.560            21.229                Norilsk           663.406
        95   02 Jun 2027 05:27:00.238   02 Jun 2027 05:27:17.534            17.296              Murmansk2           540.500
        96   02 Jun 2027 05:27:29.069   02 Jun 2027 05:27:57.871            28.802                Norilsk           900.063
        97   02 Jun 2027 05:59:20.942   02 Jun 2027 06:02:57.582           216.640            RioGallegos          6770.000
        98   02 Jun 2027 06:36:42.932   02 Jun 2027 06:38:51.563           128.631                Sumatra          4019.719
        99   02 Jun 2027 06:43:24.730   02 Jun 2027 06:43:58.237            33.507                Sumatra          1047.094
       100   02 Jun 2027 06:54:43.921   02 Jun 2027 06:56:19.138            95.217                Norilsk          2975.531
       101   02 Jun 2027 06:56:23.697   02 Jun 2027 06:56:47.677            23.980                Novosib           749.375
       102   02 Jun 2027 06:56:51.394   02 Jun 2027 06:57:30.329            38.935               Magadan1          1216.719
       103   02 Jun 2027 06:57:30.329   02 Jun 2027 06:57:42.008            11.679               Magadan2           364.969
       104   02 Jun 2027 06:57:50.095   02 Jun 2027 06:57:57.709             7.614                Norilsk           237.938
       105   02 Jun 2027 06:58:00.265   02 Jun 2027 06:58:05.641             5.376               Magadan2           168.000
       106   02 Jun 2027 06:58:07.774   02 Jun 2027 07:00:15.087           127.313                Irkutsk          3978.531
       107   02 Jun 2027 07:00:22.116   02 Jun 2027 07:00:36.305            14.189                Novosib           443.406
       108   02 Jun 2027 07:00:43.295   02 Jun 2027 07:00:50.848             7.553              Murmansk2           236.031
       109   02 Jun 2027 07:00:50.848   02 Jun 2027 07:01:04.690            13.842              Murmansk1           432.562
       110   02 Jun 2027 07:35:18.654   02 Jun 2027 07:36:12.158            53.504            RioGallegos          1672.000
       111   02 Jun 2027 07:37:09.797   02 Jun 2027 07:37:33.615            23.818            RioGallegos           744.313
       112   02 Jun 2027 07:38:09.947   02 Jun 2027 07:38:15.851             5.904            RioGallegos           184.500
       113   02 Jun 2027 08:09:48.210   02 Jun 2027 08:11:52.194           123.984                Sumatra          3874.500
       114   02 Jun 2027 08:19:17.935   02 Jun 2027 08:20:20.492            62.557                  Delhi          1954.906
       115   02 Jun 2027 08:20:28.862   02 Jun 2027 08:22:21.048           112.186                  Delhi          3505.813
       116   02 Jun 2027 08:31:39.326   02 Jun 2027 08:32:34.640            55.314                Irkutsk          1728.562
       117   02 Jun 2027 08:33:24.837   02 Jun 2027 08:35:24.305           119.468              Murmansk2          3733.375
       118   02 Jun 2027 08:35:32.840   02 Jun 2027 08:36:28.569            55.729              Murmansk1          1741.531
       119   02 Jun 2027 08:36:28.569   02 Jun 2027 08:37:34.313            65.744              Murmansk2          2054.500
       120   02 Jun 2027 08:38:13.381   02 Jun 2027 08:38:40.386            27.005              Murmansk2           843.906
       121   02 Jun 2027 09:17:04.662   02 Jun 2027 09:18:28.916            84.254            RioGallegos          2632.937
       122   02 Jun 2027 09:54:18.028   02 Jun 2027 09:56:55.088           157.060                  Delhi          4908.125
       123   02 Jun 2027 10:08:51.463   02 Jun 2027 10:09:05.976            14.513                Norilsk           453.531
       124   02 Jun 2027 10:09:11.469   02 Jun 2027 10:09:38.460            26.991              Murmansk2           843.469
       125   02 Jun 2027 10:09:48.874   02 Jun 2027 10:13:06.471           197.597                Novosib          6174.906
       126   02 Jun 2027 10:14:19.539   02 Jun 2027 10:14:47.380            27.841              Murmansk2           870.031
       127   02 Jun 2027 10:14:59.343   02 Jun 2027 10:15:10.829            11.486                Norilsk           358.937
       128   02 Jun 2027 11:44:29.304   02 Jun 2027 11:46:28.235           118.931              Murmansk2          3716.594
       129   02 Jun 2027 11:46:41.917   02 Jun 2027 11:48:26.711           104.794                Norilsk          3274.813
       130   02 Jun 2027 11:48:45.166   02 Jun 2027 11:49:12.205            27.039                Norilsk           844.969
       131   02 Jun 2027 11:49:35.929   02 Jun 2027 11:49:43.262             7.333                 Moscow           229.156
       132   02 Jun 2027 11:50:33.458   02 Jun 2027 11:51:25.567            52.109              Murmansk2          1628.406
       133   02 Jun 2027 12:52:34.047   02 Jun 2027 12:56:15.586           221.539               CapeTown          6923.094
       134   02 Jun 2027 12:57:46.963   02 Jun 2027 12:58:54.557            67.594               CapeTown          2112.313
       135   02 Jun 2027 13:19:12.343   02 Jun 2027 13:19:24.865            12.522              Murmansk1           391.313
       136   02 Jun 2027 13:19:32.515   02 Jun 2027 13:21:38.097           125.582              Murmansk2          3924.437
       137   02 Jun 2027 13:32:46.840   02 Jun 2027 13:38:26.251           339.411                Anadyr1         10606.594
       138   02 Jun 2027 13:40:44.966   02 Jun 2027 13:42:18.631            93.665                Anadyr2          2927.031
       139   02 Jun 2027 15:00:04.672   02 Jun 2027 15:00:20.461            15.789              Murmansk2           493.406
       140   02 Jun 2027 15:00:30.585   02 Jun 2027 15:02:01.165            90.580              Murmansk2          2830.625
       141   02 Jun 2027 15:08:24.954   02 Jun 2027 15:10:50.156           145.202                Anadyr1          4537.562
       142   02 Jun 2027 15:11:32.943   02 Jun 2027 15:17:41.313           368.370               Magadan2         11511.563
       143   02 Jun 2027 15:18:56.905   02 Jun 2027 15:20:25.030            88.125               Magadan1          2753.906
       144   02 Jun 2027 16:46:39.425   02 Jun 2027 16:48:57.101           137.676               Magadan2          4302.375
       145   02 Jun 2027 16:50:53.820   02 Jun 2027 16:51:09.929            16.109               Magadan1           503.406
       146   02 Jun 2027 16:53:53.634   02 Jun 2027 16:54:12.303            18.669               Magadan1           583.406
       147   02 Jun 2027 16:54:28.317   02 Jun 2027 16:55:00.016            31.699               Magadan1           990.594
       148   02 Jun 2027 16:56:13.706   02 Jun 2027 16:57:33.887            80.181               Magadan1          2505.656
       149   02 Jun 2027 17:40:35.584   02 Jun 2027 17:43:20.457           164.873            RioGallegos          5152.281
       150   02 Jun 2027 17:44:28.938   02 Jun 2027 17:46:06.787            97.849            RioGallegos          3057.781
       151   02 Jun 2027 18:23:34.190   02 Jun 2027 18:24:58.060            83.870                Norilsk          2620.937
       152   02 Jun 2027 18:26:59.332   02 Jun 2027 18:30:07.620           188.288                Norilsk          5884.000
       153   02 Jun 2027 18:31:58.682   02 Jun 2027 18:32:56.077            57.395                Irkutsk          1793.594
       154   02 Jun 2027 18:34:50.813   02 Jun 2027 18:35:19.433            28.620                Irkutsk           894.375
       155   02 Jun 2027 18:42:12.797   02 Jun 2027 18:46:16.308           243.511                Sumatra          7609.719
       156   02 Jun 2027 18:48:32.680   02 Jun 2027 18:50:27.712           115.032                Sumatra          3594.750
       157   02 Jun 2027 20:02:41.096   02 Jun 2027 20:03:48.151            67.055                Novosib          2095.469
       158   02 Jun 2027 20:05:31.306   02 Jun 2027 20:06:30.436            59.130                Novosib          1847.812
       159   02 Jun 2027 20:07:49.540   02 Jun 2027 20:08:52.773            63.233                Novosib          1976.031
       160   02 Jun 2027 20:12:07.244   02 Jun 2027 20:12:42.615            35.371                Novosib          1105.344
       161   02 Jun 2027 20:12:54.384   02 Jun 2027 20:14:34.928           100.544                  Delhi          3142.000
       162   02 Jun 2027 20:16:06.312   02 Jun 2027 20:17:58.633           112.321                  Delhi          3510.031
       163   02 Jun 2027 21:37:04.106   02 Jun 2027 21:42:18.603           314.497              Murmansk1          9828.031
       164   02 Jun 2027 21:56:39.066   02 Jun 2027 21:56:52.542            13.476                  Delhi           421.125
       165   02 Jun 2027 23:08:03.984   02 Jun 2027 23:08:07.374             3.390                Anadyr1           105.937
       166   02 Jun 2027 23:08:17.508   02 Jun 2027 23:08:28.220            10.712                Anadyr1           334.750
       167   02 Jun 2027 23:08:50.615   02 Jun 2027 23:11:12.842           142.227               Magadan1          4444.594
       168   02 Jun 2027 23:12:15.841   02 Jun 2027 23:13:49.658            93.817              Murmansk2          2931.781
       169   02 Jun 2027 23:13:57.850   02 Jun 2027 23:14:17.790            19.940              Murmansk1           623.125
       170   02 Jun 2027 23:15:42.361   02 Jun 2027 23:17:28.945           106.584              Murmansk1          3330.750
       171   02 Jun 2027 23:17:38.883   02 Jun 2027 23:20:34.121           175.238                 Moscow          5476.187
       172   02 Jun 2027 23:42:08.999   02 Jun 2027 23:44:34.807           145.808               CapeTown          4556.500
       173   02 Jun 2027 23:46:09.983   02 Jun 2027 23:48:08.255           118.272               CapeTown          3696.000
       174   03 Jun 2027 00:48:10.719   03 Jun 2027 00:48:26.608            15.889              Murmansk1           496.531
       175   03 Jun 2027 00:48:26.608   03 Jun 2027 00:48:42.178            15.570              Murmansk2           486.563
       176   03 Jun 2027 00:50:53.084   03 Jun 2027 00:51:00.795             7.711                Novosib           240.969
       177   03 Jun 2027 00:51:12.475   03 Jun 2027 00:51:26.193            13.718              Murmansk2           428.687
       178   03 Jun 2027 00:51:49.414   03 Jun 2027 00:52:29.469            40.055              Murmansk1          1251.719
       179   03 Jun 2027 00:54:41.673   03 Jun 2027 00:55:11.165            29.492                 Moscow           921.625
       180   03 Jun 2027 00:56:14.331   03 Jun 2027 00:56:23.788             9.457              Murmansk2           295.531
       181   03 Jun 2027 00:56:54.380   03 Jun 2027 00:57:46.590            52.210              Murmansk1          1631.563
       182   03 Jun 2027 01:00:04.165   03 Jun 2027 01:00:13.564             9.399                 Moscow           293.719
       183   03 Jun 2027 01:01:37.207   03 Jun 2027 01:02:07.025            29.818                 Moscow           931.812
       184   03 Jun 2027 01:19:19.321   03 Jun 2027 01:20:02.416            43.095               CapeTown          1346.719
       185   03 Jun 2027 01:22:30.145   03 Jun 2027 01:23:50.616            80.471               CapeTown          2514.719
       186   03 Jun 2027 02:12:02.821   03 Jun 2027 02:12:26.332            23.511                Anadyr1           734.719
       187   03 Jun 2027 02:13:04.020   03 Jun 2027 02:13:38.059            34.039               Magadan2          1063.719
       188   03 Jun 2027 02:14:08.578   03 Jun 2027 02:14:55.700            47.122               Magadan1          1472.563
       189   03 Jun 2027 02:17:23.039   03 Jun 2027 02:17:47.224            24.185               Magadan2           755.781
       190   03 Jun 2027 02:18:41.045   03 Jun 2027 02:19:01.978            20.933               Magadan1           654.156
       191   03 Jun 2027 02:20:17.146   03 Jun 2027 02:20:30.355            13.209               Magadan1           412.781
       192   03 Jun 2027 02:20:49.882   03 Jun 2027 02:20:56.288             6.406                Norilsk           200.187
       193   03 Jun 2027 02:22:36.740   03 Jun 2027 02:22:40.229             3.489                Norilsk           109.031
       194   03 Jun 2027 02:23:02.902   03 Jun 2027 02:23:15.900            12.998               Magadan1           406.188
       195   03 Jun 2027 02:23:30.132   03 Jun 2027 02:24:14.604            44.472                Norilsk          1389.750
       196   03 Jun 2027 02:24:31.268   03 Jun 2027 02:25:24.874            53.606              Murmansk1          1675.188
       197   03 Jun 2027 02:28:41.769   03 Jun 2027 02:29:06.892            25.123                 Moscow           785.094
       198   03 Jun 2027 02:30:51.158   03 Jun 2027 02:30:55.102             3.944              Murmansk2           123.250
       199   03 Jun 2027 02:31:02.771   03 Jun 2027 02:31:11.911             9.140              Murmansk1           285.625
       200   03 Jun 2027 02:31:50.467   03 Jun 2027 02:32:03.600            13.133                 Moscow           410.406
       201   03 Jun 2027 02:32:41.496   03 Jun 2027 02:32:53.683            12.187              Murmansk1           380.844
       202   03 Jun 2027 02:33:30.369   03 Jun 2027 02:33:42.693            12.324              Murmansk2           385.125
       203   03 Jun 2027 02:34:15.218   03 Jun 2027 02:34:35.345            20.127                 Moscow           628.969
       204   03 Jun 2027 02:35:44.531   03 Jun 2027 02:36:08.273            23.742              Murmansk1           741.937
       205   03 Jun 2027 02:37:10.724   03 Jun 2027 02:37:33.932            23.208                 Moscow           725.250
       206   03 Jun 2027 02:58:25.920   03 Jun 2027 02:58:45.130            19.210               CapeTown           600.313
       207   03 Jun 2027 03:54:40.312   03 Jun 2027 03:54:59.295            18.983                Anadyr2           593.219
       208   03 Jun 2027 03:55:13.783   03 Jun 2027 03:58:12.762           178.979                Anadyr1          5593.094
       209   03 Jun 2027 03:58:20.902   03 Jun 2027 03:58:54.466            33.564               Magadan1          1048.875
       210   03 Jun 2027 04:00:16.661   03 Jun 2027 04:00:34.208            17.547               Magadan1           548.344
       211   03 Jun 2027 04:39:04.705   03 Jun 2027 04:39:58.175            53.470            RioGallegos          1670.938
       212   03 Jun 2027 05:29:55.453   03 Jun 2027 05:34:43.999           288.546               Magadan2          9017.063
       213   03 Jun 2027 05:35:20.444   03 Jun 2027 05:37:11.960           111.516                Norilsk          3484.875
       214   03 Jun 2027 05:37:26.700   03 Jun 2027 05:38:00.071            33.371              Murmansk2          1042.844
       215   03 Jun 2027 05:43:06.213   03 Jun 2027 05:43:39.435            33.222              Murmansk2          1038.188
       216   03 Jun 2027 05:44:39.426   03 Jun 2027 05:44:49.450            10.024              Murmansk2           313.250
       217   03 Jun 2027 05:45:08.594   03 Jun 2027 05:45:21.458            12.864              Murmansk2           402.000
       218   03 Jun 2027 06:11:11.017   03 Jun 2027 06:12:15.409            64.392            RioGallegos          2012.250
       219   03 Jun 2027 06:13:17.137   03 Jun 2027 06:15:07.066           109.929            RioGallegos          3435.281
       220   03 Jun 2027 06:47:47.833   03 Jun 2027 06:50:32.443           164.610                Sumatra          5144.062
       221   03 Jun 2027 06:52:58.146   03 Jun 2027 06:54:31.966            93.820                Sumatra          2931.875
       222   03 Jun 2027 07:07:50.972   03 Jun 2027 07:08:27.309            36.337                Novosib          1135.531
       223   03 Jun 2027 07:08:27.774   03 Jun 2027 07:09:43.690            75.916                Norilsk          2372.375
       224   03 Jun 2027 07:09:53.016   03 Jun 2027 07:10:56.259            63.243                Norilsk          1976.344
       225   03 Jun 2027 07:10:57.552   03 Jun 2027 07:11:06.357             8.805                Irkutsk           275.156
       226   03 Jun 2027 07:11:19.155   03 Jun 2027 07:15:09.820           230.665                Norilsk          7208.281
       227   03 Jun 2027 07:15:11.800   03 Jun 2027 07:17:40.513           148.713              Murmansk1          4647.281
       228   03 Jun 2027 07:47:41.405   03 Jun 2027 07:48:11.837            30.432            RioGallegos           951.000
       229   03 Jun 2027 08:21:58.061   03 Jun 2027 08:23:32.240            94.179                Sumatra          2943.094
       230   03 Jun 2027 08:25:53.910   03 Jun 2027 08:27:11.455            77.545                Sumatra          2423.281
       231   03 Jun 2027 08:30:52.050   03 Jun 2027 08:32:18.190            86.140                  Delhi          2691.875
       232   03 Jun 2027 08:44:21.883   03 Jun 2027 08:45:36.049            74.166                Novosib          2317.687
       233   03 Jun 2027 08:45:44.448   03 Jun 2027 08:46:52.650            68.202                 Moscow          2131.313
       234   03 Jun 2027 08:46:56.045   03 Jun 2027 08:48:03.377            67.332                Novosib          2104.125
       235   03 Jun 2027 08:48:06.883   03 Jun 2027 08:48:28.347            21.464                Novosib           670.750
       236   03 Jun 2027 08:49:27.859   03 Jun 2027 08:49:57.845            29.986                 Moscow           937.063
       237   03 Jun 2027 10:06:38.562   03 Jun 2027 10:07:22.628            44.066                  Delhi          1377.063
       238   03 Jun 2027 10:08:39.946   03 Jun 2027 10:10:29.428           109.482                  Delhi          3421.312
       239   03 Jun 2027 10:20:31.994   03 Jun 2027 10:22:51.682           139.688                 Moscow          4365.250
       240   03 Jun 2027 10:23:00.545   03 Jun 2027 10:24:42.176           101.631              Murmansk1          3175.969
       241   03 Jun 2027 11:56:52.222   03 Jun 2027 11:57:10.990            18.768              Murmansk2           586.500
       242   03 Jun 2027 11:57:10.990   03 Jun 2027 11:57:16.529             5.539              Murmansk1           173.094
       243   03 Jun 2027 11:57:20.152   03 Jun 2027 11:57:59.247            39.095                 Moscow          1221.719
       244   03 Jun 2027 11:58:02.266   03 Jun 2027 11:58:40.830            38.564                 Moscow          1205.125
       245   03 Jun 2027 11:59:39.074   03 Jun 2027 11:59:55.494            16.420              Murmansk2           513.125
       246   03 Jun 2027 12:00:42.191   03 Jun 2027 12:01:13.708            31.517                Norilsk           984.906
       247   03 Jun 2027 12:02:04.409   03 Jun 2027 12:03:15.128            70.719                 Moscow          2209.969
       248   03 Jun 2027 12:04:40.678   03 Jun 2027 12:05:22.192            41.514              Murmansk1          1297.312
       249   03 Jun 2027 12:11:30.296   03 Jun 2027 12:12:41.148            70.852                Anadyr2          2214.125
       250   03 Jun 2027 13:06:06.891   03 Jun 2027 13:08:05.689           118.798               CapeTown          3712.438
       251   03 Jun 2027 13:11:22.893   03 Jun 2027 13:11:48.021            25.128               CapeTown           785.250
       252   03 Jun 2027 13:12:42.012   03 Jun 2027 13:13:45.496            63.484               CapeTown          1983.875
       253   03 Jun 2027 13:15:34.361   03 Jun 2027 13:16:16.325            41.964               CapeTown          1311.375
       254   03 Jun 2027 13:31:33.312   03 Jun 2027 13:32:04.624            31.312              Murmansk1           978.500
       255   03 Jun 2027 13:32:52.645   03 Jun 2027 13:33:08.011            15.366              Murmansk1           480.187
       256   03 Jun 2027 13:33:25.450   03 Jun 2027 13:34:21.123            55.673              Murmansk1          1739.781
       257   03 Jun 2027 13:37:22.399   03 Jun 2027 13:38:05.421            43.022              Murmansk1          1344.437
       258   03 Jun 2027 13:40:19.729   03 Jun 2027 13:40:44.582            24.853              Murmansk1           776.656
       259   03 Jun 2027 13:41:20.363   03 Jun 2027 13:41:26.224             5.861              Murmansk1           183.156
       260   03 Jun 2027 13:41:36.699   03 Jun 2027 13:41:52.744            16.045              Murmansk2           501.406
       261   03 Jun 2027 13:42:25.929   03 Jun 2027 13:42:26.770             0.841              Murmansk1            26.281
       262   03 Jun 2027 13:44:43.529   03 Jun 2027 13:47:56.021           192.492                Anadyr2          6015.375
       263   03 Jun 2027 13:52:45.538   03 Jun 2027 13:53:13.096            27.558                Anadyr1           861.188
       264   03 Jun 2027 13:53:48.529   03 Jun 2027 13:54:16.140            27.611                Anadyr1           862.844
       265   03 Jun 2027 15:11:43.753   03 Jun 2027 15:12:47.589            63.836              Murmansk2          1994.875
       266   03 Jun 2027 15:14:03.073   03 Jun 2027 15:14:24.682            21.609              Murmansk2           675.281
       267   03 Jun 2027 15:15:59.427   03 Jun 2027 15:16:19.156            19.729              Murmansk2           616.531
       268   03 Jun 2027 15:17:13.358   03 Jun 2027 15:17:51.207            37.849              Murmansk2          1182.781
       269   03 Jun 2027 15:20:25.867   03 Jun 2027 15:22:35.125           129.258                Anadyr2          4039.312
       270   03 Jun 2027 15:23:21.769   03 Jun 2027 15:26:10.210           168.441               Magadan2          5263.781
       271   03 Jun 2027 15:26:10.210   03 Jun 2027 15:27:15.526            65.316               Magadan1          2041.125
       272   03 Jun 2027 15:29:13.296   03 Jun 2027 15:30:58.493           105.197               Magadan1          3287.406
       273   03 Jun 2027 16:57:20.286   03 Jun 2027 16:57:47.447            27.161                Anadyr2           848.781
       274   03 Jun 2027 16:58:39.171   03 Jun 2027 16:59:50.482            71.311               Magadan1          2228.469
       275   03 Jun 2027 17:01:45.038   03 Jun 2027 17:02:16.361            31.323               Magadan2           978.844
       276   03 Jun 2027 17:06:30.276   03 Jun 2027 17:06:45.571            15.295               Magadan1           477.969
       277   03 Jun 2027 17:07:02.711   03 Jun 2027 17:07:20.819            18.108               Magadan1           565.875
       278   03 Jun 2027 17:51:54.673   03 Jun 2027 17:55:06.702           192.029            RioGallegos          6000.906
       279   03 Jun 2027 17:58:25.084   03 Jun 2027 17:59:17.084            52.000            RioGallegos          1625.000
       280   03 Jun 2027 18:34:18.037   03 Jun 2027 18:35:46.582            88.545                Norilsk          2767.031
       281   03 Jun 2027 18:36:19.205   03 Jun 2027 18:38:29.532           130.327                Norilsk          4072.719
       282   03 Jun 2027 18:38:58.116   03 Jun 2027 18:39:50.159            52.043                Irkutsk          1626.344
       283   03 Jun 2027 18:40:58.168   03 Jun 2027 18:42:30.006            91.838                Norilsk          2869.938
       284   03 Jun 2027 18:44:59.170   03 Jun 2027 18:46:23.760            84.590                Irkutsk          2643.438
       285   03 Jun 2027 18:55:40.961   03 Jun 2027 18:57:57.903           136.942                Sumatra          4279.438
       286   03 Jun 2027 18:59:05.968   03 Jun 2027 19:01:02.793           116.825                Sumatra          3650.781
       287   03 Jun 2027 20:14:30.884   03 Jun 2027 20:15:41.526            70.642                Novosib          2207.563
       288   03 Jun 2027 20:16:10.266   03 Jun 2027 20:17:35.454            85.188                Novosib          2662.125
       289   03 Jun 2027 20:23:35.850   03 Jun 2027 20:26:14.358           158.508                  Delhi          4953.375
       290   03 Jun 2027 20:30:02.700   03 Jun 2027 20:31:29.900            87.200                  Delhi          2725.000
       291   03 Jun 2027 21:48:51.923   03 Jun 2027 21:54:56.178           364.255              Murmansk2         11382.969
       292   03 Jun 2027 23:22:18.593   03 Jun 2027 23:23:00.214            41.621               Magadan1          1300.656
       293   03 Jun 2027 23:23:38.796   03 Jun 2027 23:23:49.031            10.235               Magadan1           319.844
       294   03 Jun 2027 23:24:16.226   03 Jun 2027 23:27:43.263           207.037              Murmansk1          6469.906
       295   03 Jun 2027 23:27:55.366   03 Jun 2027 23:29:48.079           112.713                 Moscow          3522.281
       296   03 Jun 2027 23:32:52.427   03 Jun 2027 23:32:58.312             5.885              Murmansk1           183.906
       297   03 Jun 2027 23:37:07.811   03 Jun 2027 23:37:24.852            17.041                 Moscow           532.531
       298   03 Jun 2027 23:53:25.694   03 Jun 2027 23:55:01.023            95.329               CapeTown          2979.031
       299   03 Jun 2027 23:57:22.002   03 Jun 2027 23:58:05.720            43.718               CapeTown          1366.187
       300   03 Jun 2027 23:58:36.679   04 Jun 2027 00:00:04.872            88.193               CapeTown          2756.031
       301   04 Jun 2027 00:59:42.722   04 Jun 2027 00:59:49.550             6.828               Magadan1           213.375
       302   04 Jun 2027 01:00:12.397   04 Jun 2027 01:01:36.793            84.396              Murmansk1          2637.375
       303   04 Jun 2027 01:03:21.387   04 Jun 2027 01:03:38.447            17.060              Murmansk2           533.125
       304   04 Jun 2027 01:03:52.577   04 Jun 2027 01:04:31.003            38.426              Murmansk2          1200.813
       305   04 Jun 2027 01:10:45.180   04 Jun 2027 01:11:13.526            28.346                 Moscow           885.812
       306   04 Jun 2027 01:13:16.831   04 Jun 2027 01:13:20.441             3.610                 Moscow           112.812
       307   04 Jun 2027 01:14:24.572   04 Jun 2027 01:16:04.241            99.669                 Moscow          3114.656
       308   04 Jun 2027 01:39:11.296   04 Jun 2027 01:40:00.582            49.286               CapeTown          1540.187
       309   04 Jun 2027 02:24:08.325   04 Jun 2027 02:24:26.973            18.648                Anadyr1           582.750
       310   04 Jun 2027 02:24:38.452   04 Jun 2027 02:24:44.507             6.055                Anadyr2           189.219
       311   04 Jun 2027 02:24:47.838   04 Jun 2027 02:25:09.090            21.252               Magadan2           664.125
       312   04 Jun 2027 02:25:36.643   04 Jun 2027 02:26:58.359            81.716               Magadan1          2553.625
       313   04 Jun 2027 02:28:42.657   04 Jun 2027 02:28:51.615             8.958               Magadan2           279.937
       314   04 Jun 2027 02:30:32.876   04 Jun 2027 02:30:41.912             9.036               Magadan2           282.375
       315   04 Jun 2027 02:33:04.572   04 Jun 2027 02:33:30.625            26.053               Magadan1           814.156
       316   04 Jun 2027 02:35:05.789   04 Jun 2027 02:35:22.981            17.192                Norilsk           537.250
       317   04 Jun 2027 02:36:08.304   04 Jun 2027 02:37:40.102            91.798              Murmansk2          2868.688
       318   04 Jun 2027 02:39:37.272   04 Jun 2027 02:39:59.437            22.165                 Moscow           692.656
       319   04 Jun 2027 02:41:41.723   04 Jun 2027 02:41:50.967             9.244                 Moscow           288.875
       320   04 Jun 2027 02:43:58.020   04 Jun 2027 02:44:10.720            12.700                 Moscow           396.875
       321   04 Jun 2027 02:45:39.123   04 Jun 2027 02:45:43.414             4.291                 Moscow           134.094
       322   04 Jun 2027 02:46:28.796   04 Jun 2027 02:46:56.015            27.219                 Moscow           850.594
       323   04 Jun 2027 04:06:37.726   04 Jun 2027 04:07:07.200            29.474                Anadyr2           921.062
       324   04 Jun 2027 04:07:22.698   04 Jun 2027 04:09:27.339           124.641               Magadan2          3895.031
       325   04 Jun 2027 04:09:46.109   04 Jun 2027 04:12:35.185           169.076               Magadan2          5283.625
       326   04 Jun 2027 04:12:38.244   04 Jun 2027 04:12:39.596             1.352                Anadyr1            42.250
       327   04 Jun 2027 04:49:43.741   04 Jun 2027 04:50:41.630            57.889            RioGallegos          1809.031
       328   04 Jun 2027 04:54:18.297   04 Jun 2027 04:54:30.041            11.744            RioGallegos           367.000
       329   04 Jun 2027 04:55:03.220   04 Jun 2027 04:55:30.748            27.528            RioGallegos           860.250
       330   04 Jun 2027 05:43:19.702   04 Jun 2027 05:45:07.480           107.778               Magadan1          3368.062
       331   04 Jun 2027 05:45:21.121   04 Jun 2027 05:46:00.153            39.032                Novosib          1219.750
       332   04 Jun 2027 05:46:20.565   04 Jun 2027 05:46:50.923            30.358                Irkutsk           948.687
       333   04 Jun 2027 05:46:55.359   04 Jun 2027 05:47:34.738            39.379              Murmansk1          1230.594
       334   04 Jun 2027 05:47:34.738   04 Jun 2027 05:50:02.260           147.522              Murmansk2          4610.063
       335   04 Jun 2027 05:50:04.331   04 Jun 2027 05:50:39.866            35.535                Norilsk          1110.469
       336   04 Jun 2027 05:50:53.017   04 Jun 2027 05:51:08.660            15.643              Murmansk1           488.844
       337   04 Jun 2027 05:51:18.040   04 Jun 2027 05:52:44.961            86.921                Norilsk          2716.281
       338   04 Jun 2027 05:53:07.333   04 Jun 2027 05:53:26.587            19.254                Norilsk           601.687
       339   04 Jun 2027 06:23:04.251   04 Jun 2027 06:23:27.325            23.074            RioGallegos           721.063
       340   04 Jun 2027 06:25:04.690   04 Jun 2027 06:25:14.888            10.198            RioGallegos           318.688
       341   04 Jun 2027 06:25:35.939   04 Jun 2027 06:26:14.333            38.394            RioGallegos          1199.813
       342   04 Jun 2027 06:28:50.308   04 Jun 2027 06:29:21.977            31.669            RioGallegos           989.656
       343   04 Jun 2027 06:59:08.913   04 Jun 2027 07:02:20.004           191.091                Sumatra          5971.594
       344   04 Jun 2027 07:19:47.848   04 Jun 2027 07:21:01.188            73.340                Irkutsk          2291.875
       345   04 Jun 2027 07:21:11.949   04 Jun 2027 07:24:17.413           185.464                Irkutsk          5795.750
       346   04 Jun 2027 07:24:57.434   04 Jun 2027 07:25:43.358            45.924                Novosib          1435.125
       347   04 Jun 2027 07:59:59.056   04 Jun 2027 08:00:14.847            15.791            RioGallegos           493.469
       348   04 Jun 2027 08:02:14.654   04 Jun 2027 08:02:40.181            25.527            RioGallegos           797.719
       349   04 Jun 2027 08:34:14.402   04 Jun 2027 08:35:19.100            64.698                Sumatra          2021.813
       350   04 Jun 2027 08:38:08.780   04 Jun 2027 08:39:01.650            52.870                Sumatra          1652.188
       351   04 Jun 2027 08:42:32.675   04 Jun 2027 08:44:02.522            89.847                  Delhi          2807.719
       352   04 Jun 2027 08:55:41.930   04 Jun 2027 08:56:01.159            19.229              Murmansk2           600.906
       353   04 Jun 2027 08:56:01.159   04 Jun 2027 08:56:29.733            28.574              Murmansk1           892.938
       354   04 Jun 2027 08:56:57.754   04 Jun 2027 08:57:53.910            56.156                Norilsk          1754.875
       355   04 Jun 2027 08:57:57.329   04 Jun 2027 08:59:04.467            67.138              Murmansk2          2098.063
       356   04 Jun 2027 08:59:09.382   04 Jun 2027 08:59:16.225             6.843                Norilsk           213.844
       357   04 Jun 2027 08:59:16.990   04 Jun 2027 08:59:57.239            40.249                Norilsk          1257.781
       358   04 Jun 2027 09:00:08.631   04 Jun 2027 09:00:59.564            50.933                 Moscow          1591.656
       359   04 Jun 2027 10:19:06.942   04 Jun 2027 10:22:02.591           175.649                  Delhi          5489.031
       360   04 Jun 2027 10:31:43.846   04 Jun 2027 10:31:55.332            11.486                Novosib           358.937
       361   04 Jun 2027 10:31:55.642   04 Jun 2027 10:31:59.230             3.588              Murmansk1           112.125
       362   04 Jun 2027 10:31:59.807   04 Jun 2027 10:32:03.625             3.818              Murmansk2           119.313
       363   04 Jun 2027 10:32:10.528   04 Jun 2027 10:32:22.752            12.224              Murmansk1           382.000
       364   04 Jun 2027 10:33:01.062   04 Jun 2027 10:33:16.656            15.594              Murmansk2           487.312
       365   04 Jun 2027 10:33:16.888   04 Jun 2027 10:34:04.893            48.005                Norilsk          1500.156
       366   04 Jun 2027 10:34:12.162   04 Jun 2027 10:35:01.507            49.345              Murmansk1          1542.031
       367   04 Jun 2027 10:35:11.424   04 Jun 2027 10:36:03.156            51.732                 Moscow          1616.625
       368   04 Jun 2027 10:37:41.951   04 Jun 2027 10:38:28.912            46.961                 Moscow          1467.531
       369   04 Jun 2027 12:02:56.486   04 Jun 2027 12:03:18.252            21.766                 Moscow           680.187
       370   04 Jun 2027 12:03:37.699   04 Jun 2027 12:04:19.907            42.208                 Moscow          1319.000
       371   04 Jun 2027 12:05:37.050   04 Jun 2027 12:06:07.148            30.098                 Moscow           940.562
       372   04 Jun 2027 12:06:18.895   04 Jun 2027 12:06:32.669            13.774              Murmansk1           430.437
       373   04 Jun 2027 12:07:00.996   04 Jun 2027 12:07:10.257             9.261                 Moscow           289.406
       374   04 Jun 2027 12:07:30.207   04 Jun 2027 12:07:44.526            14.319                 Moscow           447.469
       375   04 Jun 2027 12:08:27.907   04 Jun 2027 12:08:41.218            13.311              Murmansk2           415.969
       376   04 Jun 2027 12:09:34.206   04 Jun 2027 12:10:31.260            57.054              Murmansk2          1782.937
       377   04 Jun 2027 12:14:35.923   04 Jun 2027 12:14:39.575             3.652                Norilsk           114.125
       378   04 Jun 2027 12:15:16.368   04 Jun 2027 12:15:39.574            23.206                Norilsk           725.187
       379   04 Jun 2027 12:18:34.314   04 Jun 2027 12:18:40.847             6.533              Murmansk2           204.156
       380   04 Jun 2027 12:22:18.878   04 Jun 2027 12:25:33.501           194.623                Anadyr2          6081.969
       381   04 Jun 2027 12:26:02.157   04 Jun 2027 12:26:34.536            32.379                Anadyr1          1011.844
       382   04 Jun 2027 13:25:38.170   04 Jun 2027 13:27:19.212           101.042               CapeTown          3157.562
       383   04 Jun 2027 13:43:56.573   04 Jun 2027 13:44:18.638            22.065              Murmansk1           689.531
       384   04 Jun 2027 13:45:08.716   04 Jun 2027 13:45:44.607            35.891              Murmansk1          1121.594
       385   04 Jun 2027 13:48:31.019   04 Jun 2027 13:49:21.586            50.567              Murmansk1          1580.219
       386   04 Jun 2027 13:56:41.219   04 Jun 2027 13:59:57.138           195.919                Anadyr1          6122.469
       387   04 Jun 2027 14:00:14.703   04 Jun 2027 14:00:52.077            37.374                Anadyr1          1167.937
       388   04 Jun 2027 14:02:52.830   04 Jun 2027 14:03:15.653            22.823                Anadyr1           713.219
       389   04 Jun 2027 14:03:28.614   04 Jun 2027 14:04:45.828            77.214                Anadyr1          2412.937
       390   04 Jun 2027 15:32:26.957   04 Jun 2027 15:33:49.933            82.976                Anadyr2          2593.000
       391   04 Jun 2027 15:34:44.371   04 Jun 2027 15:35:16.897            32.526                Anadyr1          1016.438
       392   04 Jun 2027 15:35:19.880   04 Jun 2027 15:39:12.211           232.331               Magadan2          7260.344
       393   04 Jun 2027 15:40:53.160   04 Jun 2027 15:41:15.106            21.946               Magadan2           685.813
       394   04 Jun 2027 15:43:04.808   04 Jun 2027 15:44:39.770            94.962               Magadan1          2967.563
       395   04 Jun 2027 17:10:39.428   04 Jun 2027 17:11:18.672            39.244               Magadan2          1226.375
       396   04 Jun 2027 17:12:50.379   04 Jun 2027 17:13:39.411            49.032               Magadan1          1532.250
       397   04 Jun 2027 17:13:52.971   04 Jun 2027 17:14:06.258            13.287               Magadan1           415.219
       398   04 Jun 2027 17:14:18.885   04 Jun 2027 17:14:21.979             3.094               Magadan2            96.688
       399   04 Jun 2027 17:18:02.785   04 Jun 2027 17:18:11.269             8.484               Magadan2           265.125
       400   04 Jun 2027 17:18:59.706   04 Jun 2027 17:19:12.833            13.127               Magadan1           410.219
       401   04 Jun 2027 17:19:22.985   04 Jun 2027 17:20:10.758            47.773               Magadan1          1492.906
       402   04 Jun 2027 18:03:27.891   04 Jun 2027 18:03:59.746            31.855            RioGallegos           995.469
       403   04 Jun 2027 18:04:02.115   04 Jun 2027 18:06:56.352           174.237            RioGallegos          5444.906
       404   04 Jun 2027 18:08:01.854   04 Jun 2027 18:09:03.567            61.713            RioGallegos          1928.531
       405   04 Jun 2027 18:46:16.549   04 Jun 2027 18:49:21.143           184.594                Norilsk          5768.562
       406   04 Jun 2027 18:50:44.901   04 Jun 2027 18:52:18.613            93.712                Irkutsk          2928.500
       407   04 Jun 2027 18:53:42.415   04 Jun 2027 18:54:35.030            52.615                Irkutsk          1644.219
       408   04 Jun 2027 19:00:11.264   04 Jun 2027 19:01:06.700            55.436                Irkutsk          1732.375
       409   04 Jun 2027 19:04:53.688   04 Jun 2027 19:06:04.364            70.676                Sumatra          2208.625
       410   04 Jun 2027 19:07:00.579   04 Jun 2027 19:08:16.048            75.469                Sumatra          2358.406
       411   04 Jun 2027 19:09:31.688   04 Jun 2027 19:11:16.774           105.086                Sumatra          3283.938
       412   04 Jun 2027 20:26:23.174   04 Jun 2027 20:27:32.212            69.038                Novosib          2157.437
       413   04 Jun 2027 20:27:45.704   04 Jun 2027 20:28:18.798            33.094                Novosib          1034.188
       414   04 Jun 2027 20:29:37.233   04 Jun 2027 20:30:23.553            46.320                Novosib          1447.500
       415   04 Jun 2027 20:34:53.770   04 Jun 2027 20:39:52.800           299.030                  Delhi          9344.688
       416   04 Jun 2027 22:00:43.940   04 Jun 2027 22:04:46.053           242.113              Murmansk2          7566.031
       417   04 Jun 2027 22:05:56.739   04 Jun 2027 22:06:33.846            37.107              Murmansk1          1159.594
       418   04 Jun 2027 23:31:53.466   04 Jun 2027 23:32:21.892            28.426               Magadan2           888.313
       419   04 Jun 2027 23:32:57.650   04 Jun 2027 23:33:48.215            50.565               Magadan1          1580.156
       420   04 Jun 2027 23:34:28.234   04 Jun 2027 23:35:15.859            47.625               Magadan1          1488.281
       421   04 Jun 2027 23:36:16.969   04 Jun 2027 23:37:43.896            86.927              Murmansk2          2716.469
       422   04 Jun 2027 23:37:44.328   04 Jun 2027 23:37:53.856             9.528              Murmansk1           297.750
       423   04 Jun 2027 23:38:21.338   04 Jun 2027 23:39:11.372            50.034              Murmansk1          1563.562
       424   04 Jun 2027 23:39:43.932   04 Jun 2027 23:39:54.731            10.799              Murmansk1           337.469
       425   04 Jun 2027 23:40:53.701   04 Jun 2027 23:41:37.313            43.612                 Moscow          1362.875
       426   04 Jun 2027 23:42:13.422   04 Jun 2027 23:42:14.085             0.663                 Moscow            20.719
       427   04 Jun 2027 23:42:52.872   04 Jun 2027 23:43:04.991            12.119              Murmansk2           378.719
       428   04 Jun 2027 23:43:09.805   04 Jun 2027 23:43:52.855            43.050                 Moscow          1345.313
       429   04 Jun 2027 23:44:27.304   04 Jun 2027 23:46:00.321            93.017                 Moscow          2906.781
       430   05 Jun 2027 00:04:51.291   05 Jun 2027 00:05:49.879            58.588               CapeTown          1830.875
       431   05 Jun 2027 00:07:28.700   05 Jun 2027 00:07:59.531            30.831               CapeTown           963.469
       432   05 Jun 2027 00:10:14.399   05 Jun 2027 00:10:46.489            32.090               CapeTown          1002.813
       433   05 Jun 2027 01:12:14.066   05 Jun 2027 01:14:38.692           144.626              Murmansk2          4519.563
       434   05 Jun 2027 01:15:26.418   05 Jun 2027 01:15:39.009            12.591                 Moscow           393.469
       435   05 Jun 2027 01:16:46.601   05 Jun 2027 01:16:50.954             4.353                 Moscow           136.031
       436   05 Jun 2027 01:18:42.693   05 Jun 2027 01:18:57.761            15.068                 Moscow           470.875
       437   05 Jun 2027 01:19:44.103   05 Jun 2027 01:19:48.447             4.344                 Moscow           135.750
       438   05 Jun 2027 01:20:27.145   05 Jun 2027 01:22:03.269            96.124                 Moscow          3003.875
       439   05 Jun 2027 01:44:11.203   05 Jun 2027 01:44:43.792            32.589               CapeTown          1018.406
       440   05 Jun 2027 02:36:15.934   05 Jun 2027 02:37:24.456            68.522                Anadyr1          2141.312
       441   05 Jun 2027 02:37:40.167   05 Jun 2027 02:38:17.926            37.759               Magadan2          1179.969
       442   05 Jun 2027 02:38:21.706   05 Jun 2027 02:39:32.404            70.698               Magadan1          2209.313
       443   05 Jun 2027 02:40:21.826   05 Jun 2027 02:40:44.345            22.519               Magadan2           703.719
       444   05 Jun 2027 02:44:22.605   05 Jun 2027 02:44:32.187             9.582               Magadan1           299.437
       445   05 Jun 2027 02:44:40.121   05 Jun 2027 02:44:53.683            13.562                Norilsk           423.813
       446   05 Jun 2027 02:46:34.525   05 Jun 2027 02:47:05.937            31.412                Norilsk           981.625
       447   05 Jun 2027 02:48:08.870   05 Jun 2027 02:48:46.388            37.518              Murmansk2          1172.437
       448   05 Jun 2027 02:48:46.388   05 Jun 2027 02:49:29.912            43.524              Murmansk1          1360.125
       449   05 Jun 2027 02:51:10.349   05 Jun 2027 02:51:10.878             0.529              Murmansk1            16.531
       450   05 Jun 2027 02:51:15.869   05 Jun 2027 02:51:23.715             7.846              Murmansk2           245.188
       451   05 Jun 2027 02:51:42.966   05 Jun 2027 02:51:57.680            14.714                 Moscow           459.812
       452   05 Jun 2027 02:52:53.585   05 Jun 2027 02:53:41.731            48.146                 Moscow          1504.563
       453   05 Jun 2027 04:18:18.407   05 Jun 2027 04:18:52.926            34.519                Irkutsk          1078.719
       454   05 Jun 2027 04:19:47.733   05 Jun 2027 04:20:12.193            24.460               Magadan1           764.375
       455   05 Jun 2027 04:20:18.894   05 Jun 2027 04:22:14.795           115.901                Anadyr1          3621.906
       456   05 Jun 2027 05:55:41.521   05 Jun 2027 05:56:11.813            30.292                Irkutsk           946.625
       457   05 Jun 2027 05:56:27.328   05 Jun 2027 05:59:43.597           196.269               Magadan2          6133.406
       458   05 Jun 2027 05:59:46.467   05 Jun 2027 05:59:53.778             7.311                Novosib           228.469
       459   05 Jun 2027 06:00:04.663   05 Jun 2027 06:02:24.128           139.465                Norilsk          4358.281
       460   05 Jun 2027 06:35:00.671   05 Jun 2027 06:37:37.390           156.719            RioGallegos          4897.469
       461   05 Jun 2027 06:38:08.209   05 Jun 2027 06:38:16.779             8.570            RioGallegos           267.813
       462   05 Jun 2027 06:39:22.205   05 Jun 2027 06:39:24.277             2.072            RioGallegos            64.750
       463   05 Jun 2027 07:10:40.744   05 Jun 2027 07:14:13.524           212.780                Sumatra          6649.375
       464   05 Jun 2027 07:32:08.036   05 Jun 2027 07:32:28.539            20.503                Irkutsk           640.719
       465   05 Jun 2027 07:32:33.081   05 Jun 2027 07:33:07.920            34.839                Novosib          1088.719
       466   05 Jun 2027 07:33:16.208   05 Jun 2027 07:35:38.098           141.890              Murmansk1          4434.062
       467   05 Jun 2027 07:35:45.979   05 Jun 2027 07:37:05.449            79.470                Norilsk          2483.437
       468   05 Jun 2027 07:37:13.499   05 Jun 2027 07:37:29.197            15.698              Murmansk1           490.562
       469   05 Jun 2027 07:42:30.358   05 Jun 2027 07:42:49.288            18.930              Murmansk2           591.563
       470   05 Jun 2027 08:12:26.670   05 Jun 2027 08:13:14.146            47.476            RioGallegos          1483.625
       471   05 Jun 2027 08:13:41.480   05 Jun 2027 08:14:06.473            24.993            RioGallegos           781.031
       472   05 Jun 2027 08:15:30.225   05 Jun 2027 08:16:03.563            33.338            RioGallegos          1041.812
       473   05 Jun 2027 08:46:38.504   05 Jun 2027 08:47:11.998            33.494                Sumatra          1046.688
       474   05 Jun 2027 08:48:06.288   05 Jun 2027 08:49:16.065            69.777                Sumatra          2180.531
       475   05 Jun 2027 08:54:19.157   05 Jun 2027 08:56:02.580           103.423                  Delhi          3231.969
       476   05 Jun 2027 09:07:40.746   05 Jun 2027 09:08:51.452            70.706                 Moscow          2209.562
       477   05 Jun 2027 09:09:15.280   05 Jun 2027 09:12:07.368           172.088                 Moscow          5377.750
       478   05 Jun 2027 10:31:45.353   05 Jun 2027 10:32:04.469            19.116                  Delhi           597.375
       479   05 Jun 2027 10:33:31.781   05 Jun 2027 10:34:32.276            60.495                  Delhi          1890.469
       480   05 Jun 2027 10:43:54.463   05 Jun 2027 10:43:54.903             0.440              Murmansk1            13.750
       481   05 Jun 2027 10:43:56.554   05 Jun 2027 10:44:03.827             7.273                 Moscow           227.281
       482   05 Jun 2027 10:44:14.571   05 Jun 2027 10:44:42.521            27.950                Novosib           873.438
