uniorb/output/strategy_1/Drop/Drop_KinoSat_110308.txt

KinoSat_110308
-------------------------
    Access    *     Start Time (UTCG)     *     Stop Time (UTCG)  *   Duration (s)        *       Station  *  Data (Mbytes)
         1   01 Jun 2027 03:29:44.832   01 Jun 2027 03:30:05.910            21.078               Magadan2          2634.750
         2   01 Jun 2027 03:30:10.100   01 Jun 2027 03:31:55.966           105.866               Magadan1         13233.250
         3   01 Jun 2027 03:32:10.499   01 Jun 2027 03:32:38.405            27.906               Magadan1          3488.250
         4   01 Jun 2027 03:32:56.215   01 Jun 2027 03:33:43.057            46.842               Magadan1          5855.250
         5   01 Jun 2027 03:33:48.593   01 Jun 2027 03:34:21.621            33.028                Irkutsk          4128.500
         6   01 Jun 2027 03:34:23.562   01 Jun 2027 03:34:41.142            17.580               Magadan1          2197.500
         7   01 Jun 2027 03:34:47.828   01 Jun 2027 03:34:49.839             2.011                Irkutsk           251.375
         8   01 Jun 2027 04:47:19.223   01 Jun 2027 04:49:19.295           120.072                Sumatra         15009.000
         9   01 Jun 2027 05:07:14.068   01 Jun 2027 05:07:49.406            35.338                Norilsk          4417.250
        10   01 Jun 2027 05:07:58.655   01 Jun 2027 05:08:39.986            41.331                Norilsk          5166.375
        11   01 Jun 2027 05:08:51.497   01 Jun 2027 05:09:02.777            11.280              Murmansk1          1410.000
        12   01 Jun 2027 05:09:18.170   01 Jun 2027 05:10:06.426            48.256                Irkutsk          6032.000
        13   01 Jun 2027 05:10:11.540   01 Jun 2027 05:10:57.613            46.073                Irkutsk          5759.125
        14   01 Jun 2027 05:47:02.818   01 Jun 2027 05:47:34.040            31.222            RioGallegos          3902.750
        15   01 Jun 2027 05:50:01.869   01 Jun 2027 05:50:46.434            44.565            RioGallegos          5570.625
        16   01 Jun 2027 06:23:51.487   01 Jun 2027 06:24:19.683            28.196                Sumatra          3524.500
        17   01 Jun 2027 06:29:00.984   01 Jun 2027 06:29:45.465            44.481                  Delhi          5560.125
        18   01 Jun 2027 06:36:11.236   01 Jun 2027 06:36:39.272            28.036                  Delhi          3504.500
        19   01 Jun 2027 06:44:09.549   01 Jun 2027 06:44:32.049            22.500                Norilsk          2812.500
        20   01 Jun 2027 06:44:40.665   01 Jun 2027 06:45:16.003            35.338                Novosib          4417.250
        21   01 Jun 2027 06:45:24.125   01 Jun 2027 06:45:57.175            33.050                Norilsk          4131.250
        22   01 Jun 2027 06:46:03.450   01 Jun 2027 06:46:28.817            25.367                Norilsk          3170.875
        23   01 Jun 2027 06:47:26.271   01 Jun 2027 06:48:13.587            47.316              Murmansk1          5914.500
        24   01 Jun 2027 08:06:19.629   01 Jun 2027 08:06:41.087            21.458                  Delhi          2682.250
        25   01 Jun 2027 08:20:23.483   01 Jun 2027 08:21:28.571            65.088                Novosib          8136.000
        26   01 Jun 2027 08:21:45.354   01 Jun 2027 08:22:35.530            50.176              Murmansk1          6272.000
        27   01 Jun 2027 08:22:46.120   01 Jun 2027 08:23:07.982            21.862                Novosib          2732.750
        28   01 Jun 2027 08:23:10.781   01 Jun 2027 08:23:35.318            24.537              Murmansk2          3067.125
        29   01 Jun 2027 10:08:33.945   01 Jun 2027 10:08:35.431             1.486                Anadyr1           185.750
        30   01 Jun 2027 10:11:04.851   01 Jun 2027 10:14:14.178           189.327                Anadyr1         23665.875
        31   01 Jun 2027 11:43:20.165   01 Jun 2027 11:44:56.927            96.762                Anadyr2         12095.250
        32   01 Jun 2027 11:46:27.669   01 Jun 2027 11:47:59.206            91.537                Anadyr2         11442.125
        33   01 Jun 2027 13:21:48.139   01 Jun 2027 13:25:58.870           250.731               Magadan2         31341.375
        34   01 Jun 2027 13:28:16.591   01 Jun 2027 13:28:50.175            33.584               Magadan1          4198.000
        35   01 Jun 2027 15:49:51.324   01 Jun 2027 15:53:52.325           241.001            RioGallegos         30125.125
        36   01 Jun 2027 15:56:01.789   01 Jun 2027 15:56:13.832            12.043            RioGallegos          1505.375
        37   01 Jun 2027 16:37:16.452   01 Jun 2027 16:40:04.276           167.824                Irkutsk         20978.000
        38   01 Jun 2027 16:41:34.463   01 Jun 2027 16:41:36.806             2.343                Irkutsk           292.875
        39   01 Jun 2027 16:46:21.812   01 Jun 2027 16:46:44.587            22.775                Irkutsk          2846.875
        40   01 Jun 2027 16:51:12.951   01 Jun 2027 16:53:09.528           116.577                Sumatra         14572.125
        41   01 Jun 2027 17:02:26.687   01 Jun 2027 17:03:00.103            33.416                Sumatra          4177.000
        42   01 Jun 2027 18:12:58.389   01 Jun 2027 18:14:48.509           110.120                Novosib         13765.000
        43   01 Jun 2027 18:21:08.044   01 Jun 2027 18:24:52.907           224.863                  Delhi         27084.124
        44   02 Jun 2027 03:45:43.298   02 Jun 2027 03:46:32.481            49.183               Magadan2          6147.875
        45   02 Jun 2027 04:57:03.389   02 Jun 2027 04:58:59.540           116.151                Sumatra         14518.875
        46   02 Jun 2027 05:02:47.169   02 Jun 2027 05:03:26.352            39.183                Sumatra          4897.875
        47   02 Jun 2027 05:11:10.502   02 Jun 2027 05:13:33.061           142.559                  Delhi         17819.875
        48   02 Jun 2027 05:19:06.742   02 Jun 2027 05:21:55.967           169.225                Irkutsk         21153.125
        49   02 Jun 2027 06:33:47.615   02 Jun 2027 06:34:21.075            33.460                Sumatra          4182.500
        50   02 Jun 2027 06:36:02.396   02 Jun 2027 06:36:42.932            40.536                Sumatra          5067.000
        51   02 Jun 2027 06:40:52.199   02 Jun 2027 06:42:21.022            88.823                  Delhi         11102.875
        52   02 Jun 2027 06:56:58.855   02 Jun 2027 06:57:24.698            25.843                Irkutsk          3230.375
        53   02 Jun 2027 06:57:32.638   02 Jun 2027 06:58:56.462            83.824                 Moscow         10478.000
        54   02 Jun 2027 06:59:17.263   02 Jun 2027 06:59:46.744            29.481                Novosib          3685.125
        55   02 Jun 2027 08:19:10.030   02 Jun 2027 08:19:17.935             7.905                  Delhi           988.125
        56   02 Jun 2027 08:32:13.986   02 Jun 2027 08:33:31.406            77.420                Novosib          9677.500
        57   02 Jun 2027 08:33:49.672   02 Jun 2027 08:34:15.707            26.035                 Moscow          3254.375
        58   02 Jun 2027 08:34:27.962   02 Jun 2027 08:34:35.538             7.576                Norilsk           947.000
        59   02 Jun 2027 08:34:37.684   02 Jun 2027 08:35:24.305            46.621              Murmansk1          5827.625
        60   02 Jun 2027 09:42:08.467   02 Jun 2027 09:44:15.775           127.308               CapeTown         15913.500
        61   02 Jun 2027 10:20:15.369   02 Jun 2027 10:22:55.356           159.987                Anadyr2         19998.375
        62   02 Jun 2027 10:22:55.356   02 Jun 2027 10:25:52.529           177.173                Anadyr1         22146.625
        63   02 Jun 2027 13:33:43.236   02 Jun 2027 13:35:12.193            88.957               Magadan1         11119.625
        64   02 Jun 2027 13:35:12.193   02 Jun 2027 13:36:43.988            91.795               Magadan2         11474.375
        65   02 Jun 2027 13:41:35.386   02 Jun 2027 13:43:14.803            99.417               Magadan1         12427.125
        66   02 Jun 2027 16:01:36.531   02 Jun 2027 16:05:47.555           251.024            RioGallegos         31378.000
        67   02 Jun 2027 16:49:08.669   02 Jun 2027 16:51:51.840           163.171                Irkutsk         20396.375
        68   02 Jun 2027 16:52:02.618   02 Jun 2027 16:53:58.573           115.955                Novosib         14494.375
        69   02 Jun 2027 17:02:55.554   02 Jun 2027 17:04:46.765           111.211                Sumatra         13901.375
        70   02 Jun 2027 18:24:53.974   02 Jun 2027 18:26:36.213           102.239                Novosib         12779.875
        71   02 Jun 2027 18:32:45.718   02 Jun 2027 18:35:02.129           136.411                  Delhi         17051.375
        72   02 Jun 2027 18:36:41.567   02 Jun 2027 18:36:48.671             7.104                  Delhi           888.000
        73   02 Jun 2027 20:04:49.474   02 Jun 2027 20:07:42.229           172.755                 Moscow         21594.375
        74   02 Jun 2027 21:48:23.537   02 Jun 2027 21:50:42.745           139.208                 Moscow         17401.000
        75   03 Jun 2027 03:57:48.716   03 Jun 2027 03:57:50.742             2.026               Magadan1           253.250
        76   03 Jun 2027 03:58:01.301   03 Jun 2027 03:58:41.221            39.920                Norilsk          4990.000
        77   03 Jun 2027 04:34:52.075   03 Jun 2027 04:36:20.879            88.804            RioGallegos         11100.500
        78   03 Jun 2027 04:37:13.761   03 Jun 2027 04:37:22.088             8.327            RioGallegos          1040.875
        79   03 Jun 2027 04:38:17.956   03 Jun 2027 04:38:45.036            27.080            RioGallegos          3385.000
        80   03 Jun 2027 05:08:49.328   03 Jun 2027 05:11:35.893           166.565                Sumatra         20820.625
        81   03 Jun 2027 05:13:28.963   03 Jun 2027 05:14:25.696            56.733                Sumatra          7091.625
        82   03 Jun 2027 05:21:57.663   03 Jun 2027 05:22:35.900            38.237                  Delhi          4779.625
        83   03 Jun 2027 05:31:46.826   03 Jun 2027 05:33:25.863            99.037                Novosib         12379.625
        84   03 Jun 2027 05:33:43.702   03 Jun 2027 05:34:12.400            28.698                Novosib          3587.250
        85   03 Jun 2027 06:12:15.409   03 Jun 2027 06:13:17.137            61.728            RioGallegos          7716.000
        86   03 Jun 2027 06:46:34.789   03 Jun 2027 06:47:47.833            73.044                Sumatra          9130.500
        87   03 Jun 2027 06:52:48.724   03 Jun 2027 06:54:29.192           100.468                  Delhi         12558.500
        88   03 Jun 2027 07:09:38.411   03 Jun 2027 07:10:54.000            75.589                Novosib          9448.625
        89   03 Jun 2027 08:32:24.195   03 Jun 2027 08:34:24.076           119.881                  Delhi         14985.125
        90   03 Jun 2027 08:42:18.466   03 Jun 2027 08:42:51.852            33.386                Novosib          4173.250
        91   03 Jun 2027 08:42:58.381   03 Jun 2027 08:43:49.584            51.203              Murmansk2          6400.375
        92   03 Jun 2027 08:43:59.831   03 Jun 2027 08:45:29.912            90.081              Murmansk1         11260.125
        93   03 Jun 2027 08:46:10.140   03 Jun 2027 08:47:26.428            76.288              Murmansk1          9536.000
        94   03 Jun 2027 08:47:53.032   03 Jun 2027 08:49:07.067            74.035                 Moscow          9254.375
        95   03 Jun 2027 09:53:01.975   03 Jun 2027 09:55:59.373           177.398               CapeTown         22174.750
        96   03 Jun 2027 10:00:19.764   03 Jun 2027 10:00:38.962            19.198               CapeTown          2399.750
        97   03 Jun 2027 10:32:02.724   03 Jun 2027 10:32:27.868            25.144                Anadyr2          3143.000
        98   03 Jun 2027 10:33:22.992   03 Jun 2027 10:36:19.697           176.705                Anadyr2         22088.125
        99   03 Jun 2027 12:10:39.668   03 Jun 2027 12:11:30.296            50.628                Anadyr2          6328.500
       100   03 Jun 2027 12:11:43.836   03 Jun 2027 12:15:00.533           196.697               Magadan2         24587.125
       101   03 Jun 2027 13:45:39.641   03 Jun 2027 13:47:36.280           116.639               Magadan1         14579.875
       102   03 Jun 2027 13:51:18.916   03 Jun 2027 13:53:16.677           117.761               Magadan2         14720.125
       103   03 Jun 2027 15:28:39.587   03 Jun 2027 15:30:39.043           119.456                Irkutsk         14932.000
       104   03 Jun 2027 16:14:35.398   03 Jun 2027 16:16:11.609            96.211            RioGallegos         12026.375
       105   03 Jun 2027 16:17:38.561   03 Jun 2027 16:19:07.772            89.211            RioGallegos         11151.375
       106   03 Jun 2027 17:01:02.922   03 Jun 2027 17:03:06.876           123.954                Irkutsk         15494.250
       107   03 Jun 2027 17:03:14.723   03 Jun 2027 17:06:09.379           174.656                Novosib         21832.000
       108   03 Jun 2027 17:17:41.311   03 Jun 2027 17:19:11.920            90.609                Sumatra         11326.125
       109   03 Jun 2027 17:26:26.659   03 Jun 2027 17:27:21.391            54.732                Sumatra          6841.500
       110   03 Jun 2027 18:44:29.624   03 Jun 2027 18:46:36.956           127.332                  Delhi         15916.500
       111   03 Jun 2027 18:52:00.575   03 Jun 2027 18:53:54.885           114.310                  Delhi         14288.750
       112   03 Jun 2027 20:15:46.464   03 Jun 2027 20:17:00.459            73.995                 Moscow          9249.375
       113   03 Jun 2027 21:47:00.731   03 Jun 2027 21:47:30.186            29.455              Murmansk1          3681.875
       114   03 Jun 2027 21:59:53.435   03 Jun 2027 22:00:58.152            64.717                 Moscow          8089.625
       115   03 Jun 2027 22:14:29.594   03 Jun 2027 22:14:49.054            19.460               CapeTown          2432.500
       116   03 Jun 2027 22:14:52.564   03 Jun 2027 22:16:56.909           124.345               CapeTown         15543.125
       117   04 Jun 2027 04:09:27.339   04 Jun 2027 04:09:46.109            18.770               Magadan2          2346.250
       118   04 Jun 2027 04:10:26.022   04 Jun 2027 04:11:13.743            47.721                Novosib          5965.125
       119   04 Jun 2027 04:45:48.917   04 Jun 2027 04:46:39.624            50.707            RioGallegos          6338.375
       120   04 Jun 2027 04:47:32.512   04 Jun 2027 04:48:07.683            35.171            RioGallegos          4396.375
       121   04 Jun 2027 04:49:35.295   04 Jun 2027 04:49:43.741             8.446            RioGallegos          1055.750
       122   04 Jun 2027 05:20:41.374   04 Jun 2027 05:22:34.764           113.390                Sumatra         14173.750
       123   04 Jun 2027 05:23:45.222   04 Jun 2027 05:24:25.159            39.937                Sumatra          4992.125
       124   04 Jun 2027 05:31:35.616   04 Jun 2027 05:34:14.247           158.631                  Delhi         19828.875
       125   04 Jun 2027 05:44:05.846   04 Jun 2027 05:45:21.121            75.275                Novosib          9409.375
       126   04 Jun 2027 05:46:00.153   04 Jun 2027 05:47:38.204            98.051                Novosib         12256.375
       127   04 Jun 2027 06:28:09.495   04 Jun 2027 06:28:13.460             3.965            RioGallegos           495.625
       128   04 Jun 2027 06:29:35.271   04 Jun 2027 06:30:32.546            57.275            RioGallegos          7159.375
       129   04 Jun 2027 07:04:50.551   04 Jun 2027 07:05:14.179            23.628                  Delhi          2953.500
       130   04 Jun 2027 07:08:01.196   04 Jun 2027 07:08:19.737            18.541                  Delhi          2317.625
       131   04 Jun 2027 07:12:09.128   04 Jun 2027 07:12:53.137            44.009                  Delhi          5501.125
       132   04 Jun 2027 07:21:13.238   04 Jun 2027 07:21:29.404            16.166                 Moscow          2020.750
       133   04 Jun 2027 07:21:38.507   04 Jun 2027 07:22:16.582            38.075                Novosib          4759.375
       134   04 Jun 2027 07:22:18.730   04 Jun 2027 07:23:14.003            55.273                Novosib          6909.125
       135   04 Jun 2027 07:23:49.085   04 Jun 2027 07:24:15.387            26.302                Novosib          3287.750
       136   04 Jun 2027 08:52:39.617   04 Jun 2027 08:53:20.456            40.839              Murmansk1          5104.875
       137   04 Jun 2027 08:53:30.597   04 Jun 2027 08:54:18.459            47.862              Murmansk2          5982.750
       138   04 Jun 2027 08:54:38.324   04 Jun 2027 08:55:48.496            70.172                 Moscow          8771.500
       139   04 Jun 2027 08:55:59.550   04 Jun 2027 08:56:19.714            20.164                Novosib          2520.500
       140   04 Jun 2027 08:56:28.551   04 Jun 2027 08:57:15.877            47.326                 Moscow          5915.750
       141   04 Jun 2027 08:57:24.640   04 Jun 2027 08:57:57.329            32.689              Murmansk2          4086.125
       142   04 Jun 2027 08:58:03.108   04 Jun 2027 08:58:50.098            46.990                 Moscow          5873.750
       143   04 Jun 2027 08:59:04.467   04 Jun 2027 09:00:16.162            71.695              Murmansk2          8961.875
       144   04 Jun 2027 10:04:20.836   04 Jun 2027 10:07:47.666           206.830               CapeTown         25853.750
       145   04 Jun 2027 10:45:00.281   04 Jun 2027 10:45:42.464            42.183                Anadyr2          5272.875
       146   04 Jun 2027 10:49:20.964   04 Jun 2027 10:49:30.597             9.633                Anadyr2          1204.125
       147   04 Jun 2027 10:52:36.243   04 Jun 2027 10:52:38.707             2.464                Anadyr1           308.000
       148   04 Jun 2027 12:19:18.823   04 Jun 2027 12:20:02.551            43.728                Anadyr2          5466.000
       149   04 Jun 2027 12:23:07.970   04 Jun 2027 12:26:51.263           223.293               Magadan2         27911.625
       150   04 Jun 2027 13:57:37.105   04 Jun 2027 13:58:52.369            75.264               Magadan1          9408.000
       151   04 Jun 2027 13:59:26.270   04 Jun 2027 14:02:14.470           168.200               Magadan2         21025.000
       152   04 Jun 2027 15:39:18.236   04 Jun 2027 15:42:24.392           186.156                Irkutsk         23269.500
       153   04 Jun 2027 16:25:17.064   04 Jun 2027 16:27:03.677           106.613            RioGallegos         13326.625
       154   04 Jun 2027 16:28:12.082   04 Jun 2027 16:28:13.267             1.185            RioGallegos           148.125
       155   04 Jun 2027 16:34:46.516   04 Jun 2027 16:36:57.009           130.493            RioGallegos         16311.625
       156   04 Jun 2027 17:12:58.835   04 Jun 2027 17:14:38.467            99.632                Irkutsk         12454.000
       157   04 Jun 2027 17:15:33.228   04 Jun 2027 17:18:00.859           147.631                Novosib         18453.875
       158   04 Jun 2027 17:19:10.377   04 Jun 2027 17:22:03.939           173.562                Novosib         21695.250
       159   04 Jun 2027 18:56:18.457   04 Jun 2027 18:58:57.059           158.602                  Delhi         19825.250
       160   04 Jun 2027 20:27:25.907   04 Jun 2027 20:31:26.398           240.491                 Moscow         30061.375
       161   04 Jun 2027 22:10:18.566   04 Jun 2027 22:11:52.862            94.296                 Moscow         11787.000
       162   04 Jun 2027 22:29:42.693   04 Jun 2027 22:31:02.031            79.338               CapeTown          9917.250
       163   05 Jun 2027 04:01:22.282   05 Jun 2027 04:02:25.152            62.870                Sumatra          7858.750
       164   05 Jun 2027 04:03:45.139   05 Jun 2027 04:05:44.040           118.901                Sumatra         14862.625
       165   05 Jun 2027 04:22:46.881   05 Jun 2027 04:24:04.052            77.171                Norilsk          9646.375
       166   05 Jun 2027 04:24:04.906   05 Jun 2027 04:24:23.399            18.493                Novosib          2311.625
       167   05 Jun 2027 04:24:32.043   05 Jun 2027 04:24:52.080            20.037                Norilsk          2504.625
       168   05 Jun 2027 04:26:08.186   05 Jun 2027 04:27:10.154            61.968                Norilsk          7746.000
       169   05 Jun 2027 04:57:58.428   05 Jun 2027 04:58:48.285            49.857            RioGallegos          6232.125
       170   05 Jun 2027 05:01:04.613   05 Jun 2027 05:01:13.598             8.985            RioGallegos          1123.125
       171   05 Jun 2027 05:01:46.345   05 Jun 2027 05:02:41.465            55.120            RioGallegos          6890.000
       172   05 Jun 2027 05:32:39.103   05 Jun 2027 05:35:20.741           161.638                Sumatra         20204.750
       173   05 Jun 2027 05:42:51.195   05 Jun 2027 05:43:06.533            15.338                  Delhi          1917.250
       174   05 Jun 2027 05:44:07.995   05 Jun 2027 05:45:58.654           110.659                  Delhi         13832.375
       175   05 Jun 2027 05:56:11.813   05 Jun 2027 05:58:28.701           136.888                Irkutsk         17111.000
       176   05 Jun 2027 05:58:49.553   05 Jun 2027 05:59:22.644            33.091                Novosib          4136.375
       177   05 Jun 2027 07:16:57.846   05 Jun 2027 07:18:15.224            77.378                  Delhi          9672.250
       178   05 Jun 2027 07:32:53.732   05 Jun 2027 07:33:16.208            22.476              Murmansk1          2809.500
       179   05 Jun 2027 07:33:17.215   05 Jun 2027 07:33:29.948            12.733                 Moscow          1591.625
       180   05 Jun 2027 07:33:37.111   05 Jun 2027 07:34:21.540            44.429              Murmansk2          5553.625
       181   05 Jun 2027 07:34:34.219   05 Jun 2027 07:35:15.789            41.570                Novosib          5196.250
       182   05 Jun 2027 09:04:33.657   05 Jun 2027 09:04:47.598            13.941                 Moscow          1742.625
       183   05 Jun 2027 09:05:02.141   05 Jun 2027 09:06:08.997            66.856              Murmansk2          8357.000
       184   05 Jun 2027 09:06:14.263   05 Jun 2027 09:06:28.694            14.431                 Moscow          1803.875
       185   05 Jun 2027 09:06:33.132   05 Jun 2027 09:06:46.785            13.653              Murmansk1          1706.625
       186   05 Jun 2027 09:07:12.021   05 Jun 2027 09:09:24.781           132.760              Murmansk1         16595.000
       187   05 Jun 2027 09:09:40.009   05 Jun 2027 09:10:55.834            75.825              Murmansk2          9478.125
       188   05 Jun 2027 10:15:52.078   05 Jun 2027 10:19:39.797           227.719               CapeTown         28464.875
       189   05 Jun 2027 10:22:30.497   05 Jun 2027 10:22:52.916            22.419               CapeTown          2802.375
       190   05 Jun 2027 10:55:47.125   05 Jun 2027 10:57:42.170           115.045                Anadyr1         14380.625
       191   05 Jun 2027 10:58:03.644   05 Jun 2027 11:01:46.554           222.910                Anadyr2         27863.750
       192   05 Jun 2027 12:36:01.188   05 Jun 2027 12:38:44.296           163.108               Magadan1         20388.500
       193   05 Jun 2027 14:09:56.657   05 Jun 2027 14:10:39.794            43.137               Magadan1          5392.125
       194   05 Jun 2027 14:16:17.914   05 Jun 2027 14:16:34.703            16.789               Magadan2          2098.625
       195   05 Jun 2027 15:05:34.385   05 Jun 2027 15:06:21.154            46.769            RioGallegos          5846.125
       196   05 Jun 2027 15:50:39.168   05 Jun 2027 15:54:13.389           214.221                Irkutsk         26777.625
       197   05 Jun 2027 15:55:15.966   05 Jun 2027 15:58:01.361           165.395                Irkutsk         20674.375
       198   05 Jun 2027 16:09:58.954   05 Jun 2027 16:12:20.458           141.504                Sumatra         17688.000
       199   05 Jun 2027 17:27:48.034   05 Jun 2027 17:29:54.457           126.423                Novosib         15802.875
       200   05 Jun 2027 17:40:23.104   05 Jun 2027 17:40:56.757            33.653                Sumatra          4206.625
       201   05 Jun 2027 19:05:36.874   05 Jun 2027 19:07:38.667           121.793                Novosib         15224.125
       202   05 Jun 2027 19:08:11.405   05 Jun 2027 19:10:04.500           113.095                  Delhi         14136.875
       203   05 Jun 2027 20:38:54.805   05 Jun 2027 20:39:22.628            27.823              Murmansk2          3477.875
       204   05 Jun 2027 20:41:05.980   05 Jun 2027 20:43:21.360           135.380                 Moscow         16922.500
       205   05 Jun 2027 21:07:25.063   05 Jun 2027 21:07:34.672             9.609               CapeTown          1201.125
       206   05 Jun 2027 22:14:18.312   05 Jun 2027 22:15:12.314            54.002                 Moscow          6750.250
       207   05 Jun 2027 22:38:12.530   05 Jun 2027 22:39:53.159           100.629               CapeTown         12578.625
       208   06 Jun 2027 04:11:46.426   06 Jun 2027 04:14:02.403           135.977                Sumatra         16997.125
       209   06 Jun 2027 04:33:47.352   06 Jun 2027 04:34:44.132            56.780                Novosib          7097.500
       210   06 Jun 2027 04:35:16.715   06 Jun 2027 04:35:32.058            15.343                Norilsk          1917.875
       211   06 Jun 2027 04:35:39.564   06 Jun 2027 04:36:23.925            44.361              Murmansk1          5545.125
       212   06 Jun 2027 05:11:25.476   06 Jun 2027 05:12:47.199            81.723            RioGallegos         10215.375
       213   06 Jun 2027 05:44:42.418   06 Jun 2027 05:46:36.491           114.073                Sumatra         14259.125
       214   06 Jun 2027 06:00:51.245   06 Jun 2027 06:01:22.088            30.843                  Delhi          3855.375
       215   06 Jun 2027 06:07:49.811   06 Jun 2027 06:09:09.234            79.423              Murmansk1          9927.875
       216   06 Jun 2027 06:09:20.004   06 Jun 2027 06:10:33.480            73.476                Novosib          9184.500
       217   06 Jun 2027 06:11:06.776   06 Jun 2027 06:11:38.661            31.885              Murmansk2          3985.625
       218   06 Jun 2027 06:11:55.800   06 Jun 2027 06:12:38.708            42.908                Novosib          5363.500
       219   06 Jun 2027 07:29:10.979   06 Jun 2027 07:29:53.428            42.449                  Delhi          5306.125
       220   06 Jun 2027 07:31:51.216   06 Jun 2027 07:32:10.841            19.625                  Delhi          2453.125
       221   06 Jun 2027 07:33:49.415   06 Jun 2027 07:35:04.909            75.494                  Delhi          9436.750
       222   06 Jun 2027 07:43:58.556   06 Jun 2027 07:44:45.938            47.382                 Moscow          5922.750
       223   06 Jun 2027 07:45:03.009   06 Jun 2027 07:45:45.971            42.962                Norilsk          5370.250
       224   06 Jun 2027 07:45:47.496   06 Jun 2027 07:46:42.217            54.721                Novosib          6840.125
       225   06 Jun 2027 09:17:19.602   06 Jun 2027 09:18:35.930            76.328              Murmansk1          9541.000
       226   06 Jun 2027 09:18:44.774   06 Jun 2027 09:20:14.275            89.501                 Moscow         11187.625
       227   06 Jun 2027 09:20:28.817   06 Jun 2027 09:21:13.822            45.005                 Moscow          5625.625
       228   06 Jun 2027 09:21:30.860   06 Jun 2027 09:21:55.569            24.709                Norilsk          3088.625
       229   06 Jun 2027 09:22:48.164   06 Jun 2027 09:23:11.479            23.315              Murmansk2          2914.375
       230   06 Jun 2027 10:27:31.204   06 Jun 2027 10:31:20.008           228.804               CapeTown         28600.500
       231   06 Jun 2027 11:07:42.333   06 Jun 2027 11:12:14.253           271.920                Anadyr1         33990.000
       232   06 Jun 2027 12:46:29.567   06 Jun 2027 12:47:38.908            69.341               Magadan1          8667.625
       233   06 Jun 2027 12:48:18.711   06 Jun 2027 12:50:39.080           140.369               Magadan2         17546.125
       234   06 Jun 2027 12:52:01.214   06 Jun 2027 12:55:14.874           193.660               Magadan1         24207.500
       235   06 Jun 2027 16:02:13.448   06 Jun 2027 16:06:05.105           231.657                Irkutsk         28957.125
       236   06 Jun 2027 16:17:14.712   06 Jun 2027 16:19:53.812           159.100                Sumatra         19887.500
       237   06 Jun 2027 17:39:52.478   06 Jun 2027 17:41:49.739           117.261                Novosib         14657.625
       238   06 Jun 2027 17:47:49.291   06 Jun 2027 17:49:45.034           115.743                  Delhi         14467.875
       239   06 Jun 2027 17:50:46.218   06 Jun 2027 17:51:27.050            40.832                Sumatra          5104.000
       240   06 Jun 2027 19:20:07.998   06 Jun 2027 19:21:15.748            67.750                  Delhi          8468.750
       241   06 Jun 2027 19:21:31.481   06 Jun 2027 19:22:22.229            50.748                  Delhi          6343.500
       242   06 Jun 2027 20:50:59.717   06 Jun 2027 20:53:36.842           157.125                 Moscow         19640.625
       243   06 Jun 2027 21:17:44.026   06 Jun 2027 21:19:45.236           121.210               CapeTown         15151.250
       244   07 Jun 2027 03:04:59.097   07 Jun 2027 03:05:30.167            31.070               Magadan2          3883.750
       245   07 Jun 2027 03:05:44.885   07 Jun 2027 03:05:50.940             6.055                Anadyr2           756.875
       246   07 Jun 2027 03:05:53.268   07 Jun 2027 03:06:19.160            25.892               Magadan2          3236.500
       247   07 Jun 2027 03:06:20.792   07 Jun 2027 03:06:36.730            15.938               Magadan1          1992.250
       248   07 Jun 2027 03:06:41.802   07 Jun 2027 03:07:25.581            43.779               Magadan1          5472.375
       249   07 Jun 2027 03:07:49.963   07 Jun 2027 03:07:56.580             6.617               Magadan2           827.125
       250   07 Jun 2027 03:07:56.580   07 Jun 2027 03:08:13.710            17.130               Magadan1          2141.250
       251   07 Jun 2027 03:08:27.419   07 Jun 2027 03:09:06.240            38.821                Anadyr2          4852.625
       252   07 Jun 2027 03:09:19.621   07 Jun 2027 03:11:07.192           107.571               Magadan1         13446.375
       253   07 Jun 2027 03:46:07.081   07 Jun 2027 03:46:16.622             9.541            RioGallegos          1192.625
       254   07 Jun 2027 03:50:08.389   07 Jun 2027 03:50:37.073            28.684            RioGallegos          3585.500
       255   07 Jun 2027 04:22:48.613   07 Jun 2027 04:25:46.880           178.267                Sumatra         22283.375
       256   07 Jun 2027 04:42:28.058   07 Jun 2027 04:42:35.881             7.823                Irkutsk           977.875
       257   07 Jun 2027 04:42:47.634   07 Jun 2027 04:43:10.941            23.307               Magadan1          2913.375
       258   07 Jun 2027 04:43:25.181   07 Jun 2027 04:43:38.658            13.477                Novosib          1684.625
       259   07 Jun 2027 04:43:50.515   07 Jun 2027 04:45:14.868            84.353                Irkutsk         10544.125
       260   07 Jun 2027 04:45:32.716   07 Jun 2027 04:45:38.108             5.392              Murmansk2           674.000
       261   07 Jun 2027 04:45:43.560   07 Jun 2027 04:45:59.800            16.240              Murmansk2          2030.000
       262   07 Jun 2027 04:46:12.522   07 Jun 2027 04:46:42.820            30.298                Norilsk          3787.250
       263   07 Jun 2027 04:46:54.614   07 Jun 2027 04:47:12.119            17.505              Murmansk2          2188.125
       264   07 Jun 2027 04:47:18.264   07 Jun 2027 04:47:23.066             4.802                Norilsk           600.250
       265   07 Jun 2027 04:48:26.798   07 Jun 2027 04:48:33.544             6.746                Novosib           843.250
       266   07 Jun 2027 04:48:51.945   07 Jun 2027 04:49:18.705            26.760              Murmansk1          3345.000
       267   07 Jun 2027 05:22:29.129   07 Jun 2027 05:24:24.315           115.186            RioGallegos         14398.250
       268   07 Jun 2027 05:59:23.274   07 Jun 2027 05:59:38.947            15.673                Sumatra          1959.125
       269   07 Jun 2027 06:07:40.695   07 Jun 2027 06:09:44.002           123.307                  Delhi         15413.375
       270   07 Jun 2027 06:19:22.507   07 Jun 2027 06:19:51.900            29.393              Murmansk1          3674.125
       271   07 Jun 2027 06:19:58.030   07 Jun 2027 06:20:17.349            19.319              Murmansk2          2414.875
       272   07 Jun 2027 06:20:33.908   07 Jun 2027 06:21:08.224            34.316              Murmansk2          4289.500
       273   07 Jun 2027 06:21:28.331   07 Jun 2027 06:22:29.171            60.840                Norilsk          7605.000
       274   07 Jun 2027 06:22:30.693   07 Jun 2027 06:23:11.853            41.160              Murmansk1          5145.000
       275   07 Jun 2027 07:41:30.631   07 Jun 2027 07:42:51.328            80.697                  Delhi         10087.125
       276   07 Jun 2027 07:44:22.216   07 Jun 2027 07:45:44.704            82.488                  Delhi         10311.000
       277   07 Jun 2027 07:56:10.713   07 Jun 2027 07:56:48.752            38.039              Murmansk2          4754.875
       278   07 Jun 2027 07:56:53.571   07 Jun 2027 07:57:08.865            15.294                 Moscow          1911.750
       279   07 Jun 2027 07:57:15.009   07 Jun 2027 07:58:01.191            46.182                 Moscow          5772.750
       280   07 Jun 2027 07:58:09.367   07 Jun 2027 07:58:23.828            14.461              Murmansk2          1807.625
       281   07 Jun 2027 07:58:42.418   07 Jun 2027 07:59:15.728            33.310              Murmansk2          4163.750
       282   07 Jun 2027 09:31:49.511   07 Jun 2027 09:33:11.360            81.849                 Moscow         10231.125
       283   07 Jun 2027 10:39:16.016   07 Jun 2027 10:43:33.598           257.582               CapeTown         32197.750
       284   07 Jun 2027 11:19:38.875   07 Jun 2027 11:24:13.751           274.876                Anadyr2         34359.500
       285   07 Jun 2027 12:58:17.973   07 Jun 2027 13:00:18.747           120.774               Magadan1         15096.750
       286   07 Jun 2027 13:00:18.747   07 Jun 2027 13:02:35.239           136.492               Magadan2         17061.500
       287   07 Jun 2027 15:26:53.737   07 Jun 2027 15:30:22.525           208.788            RioGallegos         26098.500
       288   07 Jun 2027 16:16:07.729   07 Jun 2027 16:17:58.966           111.237                Irkutsk         13904.625
       289   07 Jun 2027 16:28:26.690   07 Jun 2027 16:31:41.507           194.817                Sumatra         24352.125
       290   07 Jun 2027 17:49:26.992   07 Jun 2027 17:52:07.516           160.524                Novosib         20065.500
       291   07 Jun 2027 17:58:37.335   07 Jun 2027 18:01:27.700           170.365                  Delhi         21295.625
       292   07 Jun 2027 21:02:51.256   07 Jun 2027 21:05:42.503           171.247                 Moscow         21405.875
       293   07 Jun 2027 21:28:31.967   07 Jun 2027 21:29:31.805            59.838               CapeTown          7479.750
       294   07 Jun 2027 21:30:30.078   07 Jun 2027 21:31:27.756            57.678               CapeTown          7209.750
       295   08 Jun 2027 03:19:27.086   08 Jun 2027 03:21:01.415            94.329               Magadan1         11791.125
       296   08 Jun 2027 03:21:33.600   08 Jun 2027 03:23:02.297            88.697               Magadan1         11087.125
       297   08 Jun 2027 04:34:08.084   08 Jun 2027 04:35:46.909            98.825                Sumatra         12353.125
       298   08 Jun 2027 04:54:42.672   08 Jun 2027 04:57:45.353           182.681                Irkutsk         22835.125
       299   08 Jun 2027 04:58:37.993   08 Jun 2027 04:59:12.379            34.386                Irkutsk          4298.250
       300   08 Jun 2027 05:34:51.012   08 Jun 2027 05:36:04.797            73.785            RioGallegos          9223.125
       301   08 Jun 2027 06:09:07.003   08 Jun 2027 06:09:41.614            34.611                Sumatra          4326.375
       302   08 Jun 2027 06:17:29.754   08 Jun 2027 06:17:34.691             4.937                  Delhi           617.125
       303   08 Jun 2027 06:26:48.933   08 Jun 2027 06:26:52.473             3.540                  Delhi           442.500
       304   08 Jun 2027 06:32:02.578   08 Jun 2027 06:33:09.303            66.725                Novosib          8340.625
       305   08 Jun 2027 06:33:31.521   08 Jun 2027 06:33:53.747            22.226              Murmansk1          2778.250
       306   08 Jun 2027 06:34:01.424   08 Jun 2027 06:35:27.962            86.538                Novosib         10817.250
       307   08 Jun 2027 07:53:57.949   08 Jun 2027 07:55:24.591            86.642                  Delhi         10830.250
       308   08 Jun 2027 08:07:31.830   08 Jun 2027 08:09:04.616            92.786                Norilsk         11598.250
       309   08 Jun 2027 08:09:21.471   08 Jun 2027 08:10:16.497            55.026                 Moscow          6878.250
       310   08 Jun 2027 08:10:35.273   08 Jun 2027 08:11:28.956            53.683              Murmansk2          6710.375
       311   08 Jun 2027 08:11:31.184   08 Jun 2027 08:11:38.772             7.588                 Moscow           948.500
       312   08 Jun 2027 09:43:51.473   08 Jun 2027 09:44:59.485            68.012                 Moscow          8501.500
       313   08 Jun 2027 09:59:16.914   08 Jun 2027 09:59:28.714            11.800                Anadyr1          1475.000
       314   08 Jun 2027 09:59:28.714   08 Jun 2027 10:00:22.279            53.565                Anadyr2          6695.625
       315   08 Jun 2027 10:51:05.275   08 Jun 2027 10:53:28.199           142.924               CapeTown         17865.500
       316   08 Jun 2027 11:31:36.451   08 Jun 2027 11:34:35.288           178.837                Anadyr1         22354.625
       317   08 Jun 2027 11:39:30.531   08 Jun 2027 11:41:02.688            92.157                Anadyr1         11519.625
       318   08 Jun 2027 13:10:09.290   08 Jun 2027 13:15:42.740           333.450               Magadan2         41681.250
       319   08 Jun 2027 15:38:25.698   08 Jun 2027 15:42:13.638           227.940            RioGallegos         28492.500
       320   08 Jun 2027 16:34:35.689   08 Jun 2027 16:35:07.406            31.717                Irkutsk          3964.625
       321   08 Jun 2027 16:40:56.781   08 Jun 2027 16:41:41.184            44.403                Sumatra          5550.375
       322   08 Jun 2027 16:43:35.160   08 Jun 2027 16:46:41.720           186.560                Sumatra         23320.000
       323   08 Jun 2027 18:04:12.550   08 Jun 2027 18:04:14.276             1.726                Novosib           215.750
       324   08 Jun 2027 18:09:53.159   08 Jun 2027 18:13:15.527           202.368                  Delhi         25296.000
       325   08 Jun 2027 18:17:51.121   08 Jun 2027 18:19:02.315            71.194                  Delhi          8899.250
       326   08 Jun 2027 21:13:30.474   08 Jun 2027 21:15:56.828           146.354              Murmansk1         18294.250
       327   08 Jun 2027 21:39:50.151   08 Jun 2027 21:40:42.275            52.124               CapeTown          6515.500
       328   08 Jun 2027 21:41:31.388   08 Jun 2027 21:43:15.577           104.189               CapeTown         13023.625
       329   09 Jun 2027 03:32:32.866   09 Jun 2027 03:32:53.164            20.298               Magadan2          2537.250
       330   09 Jun 2027 03:33:12.188   09 Jun 2027 03:34:38.768            86.580               Magadan1         10822.500
       331   09 Jun 2027 04:47:11.892   09 Jun 2027 04:49:34.110           142.218                Sumatra         17777.250
       332   09 Jun 2027 05:07:51.818   09 Jun 2027 05:09:57.991           126.173                Novosib         15771.625
       333   09 Jun 2027 05:10:26.259   09 Jun 2027 05:11:12.316            46.057                Irkutsk          5757.125
       334   09 Jun 2027 05:11:21.718   09 Jun 2027 05:11:26.439             4.721                Norilsk           590.125
       335   09 Jun 2027 05:11:33.131   09 Jun 2027 05:11:46.196            13.065                Norilsk          1633.125
       336   09 Jun 2027 05:13:26.648   09 Jun 2027 05:13:36.707            10.059              Murmansk1          1257.375
       337   09 Jun 2027 05:15:02.270   09 Jun 2027 05:15:07.369             5.099                Norilsk           637.375
       338   09 Jun 2027 05:47:17.946   09 Jun 2027 05:47:48.545            30.599            RioGallegos          3824.875
       339   09 Jun 2027 05:51:01.715   09 Jun 2027 05:51:09.360             7.645            RioGallegos           955.625
       340   09 Jun 2027 06:21:30.044   09 Jun 2027 06:23:04.408            94.364                Sumatra         11795.500
       341   09 Jun 2027 06:29:15.535   09 Jun 2027 06:30:01.086            45.551                  Delhi          5693.875
       342   09 Jun 2027 06:44:08.905   09 Jun 2027 06:44:38.478            29.573                Irkutsk          3696.625
       343   09 Jun 2027 06:44:56.874   09 Jun 2027 06:45:13.232            16.358                 Moscow          2044.750
       344   09 Jun 2027 06:45:17.064   09 Jun 2027 06:46:01.369            44.305                Irkutsk          5538.125
       345   09 Jun 2027 06:46:10.210   09 Jun 2027 06:47:09.379            59.169              Murmansk1          7396.125
       346   09 Jun 2027 08:06:34.944   09 Jun 2027 08:08:05.597            90.653                  Delhi         11331.625
       347   09 Jun 2027 08:19:20.929   09 Jun 2027 08:19:38.502            17.573              Murmansk1          2196.625
       348   09 Jun 2027 08:19:40.264   09 Jun 2027 08:20:06.256            25.992                 Moscow          3249.000
       349   09 Jun 2027 08:20:12.369   09 Jun 2027 08:20:22.113             9.744              Murmansk2          1218.000
       350   09 Jun 2027 08:20:38.130   09 Jun 2027 08:21:31.018            52.888                Novosib          6611.000
       351   09 Jun 2027 08:21:32.643   09 Jun 2027 08:22:37.135            64.492                 Moscow          8061.500
       352   09 Jun 2027 08:23:01.489   09 Jun 2027 08:23:22.415            20.926                Novosib          2615.750
       353   09 Jun 2027 08:23:26.633   09 Jun 2027 08:23:44.563            17.930                Norilsk          2241.250
       354   09 Jun 2027 08:23:49.820   09 Jun 2027 08:23:54.858             5.038              Murmansk2           629.750
       355   09 Jun 2027 08:25:43.996   09 Jun 2027 08:26:15.172            31.176                 Moscow          3897.000
       356   09 Jun 2027 10:08:48.307   09 Jun 2027 10:14:29.776           341.469                Anadyr2         42683.625
       357   09 Jun 2027 11:43:34.851   09 Jun 2027 11:44:39.284            64.433                Anadyr1          8054.125
       358   09 Jun 2027 11:45:11.973   09 Jun 2027 11:46:42.785            90.812                Anadyr2         11351.500
       359   09 Jun 2027 13:22:02.761   09 Jun 2027 13:27:27.854           325.093               Magadan2         40636.625
       360   09 Jun 2027 15:50:05.787   09 Jun 2027 15:54:07.045           241.258            RioGallegos         30157.250
       361   09 Jun 2027 16:37:31.025   09 Jun 2027 16:38:43.208            72.183                Irkutsk          9022.875
       362   09 Jun 2027 16:40:19.311   09 Jun 2027 16:41:49.783            90.472                Irkutsk         11309.000
       363   09 Jun 2027 16:53:24.567   09 Jun 2027 16:55:34.443           129.876                Sumatra         16234.500
       364   09 Jun 2027 18:13:13.020   09 Jun 2027 18:15:03.562           110.542                Novosib         13817.750
       365   09 Jun 2027 18:22:31.517   09 Jun 2027 18:25:07.627           156.110                  Delhi         19513.750
       366   09 Jun 2027 18:28:03.075   09 Jun 2027 18:28:32.306            29.231                  Delhi          3653.875
       367   09 Jun 2027 18:29:56.702   09 Jun 2027 18:30:38.605            41.903                  Delhi          5237.875
       368   09 Jun 2027 19:53:55.814   09 Jun 2027 19:55:35.925           100.111                 Moscow         12513.875
       369   09 Jun 2027 21:29:44.957   09 Jun 2027 21:31:13.307            88.350                 Moscow         11043.750
       370   09 Jun 2027 21:53:00.966   09 Jun 2027 21:53:28.092            27.126               CapeTown          3390.750
       371   09 Jun 2027 21:55:08.450   09 Jun 2027 21:56:52.093           103.643               CapeTown         12955.375
       372   10 Jun 2027 03:44:35.128   10 Jun 2027 03:44:52.863            17.735               Magadan1          2216.875
       373   10 Jun 2027 03:45:04.931   10 Jun 2027 03:45:28.351            23.420               Magadan2          2927.500
       374   10 Jun 2027 03:45:59.993   10 Jun 2027 03:46:47.058            47.065               Magadan1          5883.125
       375   10 Jun 2027 04:24:02.147   10 Jun 2027 04:24:45.615            43.468            RioGallegos          5433.500
       376   10 Jun 2027 04:25:20.885   10 Jun 2027 04:25:41.418            20.533            RioGallegos          2566.625
       377   10 Jun 2027 04:34:24.047   10 Jun 2027 04:34:48.414            24.367            RioGallegos          3045.875
       378   10 Jun 2027 04:57:17.850   10 Jun 2027 04:59:14.035           116.185                Sumatra         14523.125
       379   10 Jun 2027 05:11:22.701   10 Jun 2027 05:12:10.813            48.112                  Delhi          6014.000
       380   10 Jun 2027 05:14:50.333   10 Jun 2027 05:14:55.947             5.614                  Delhi           701.750
       381   10 Jun 2027 05:18:59.997   10 Jun 2027 05:20:40.964           100.967                Irkutsk         12620.875
       382   10 Jun 2027 05:20:51.273   10 Jun 2027 05:22:10.596            79.323                Irkutsk          9915.375
       383   10 Jun 2027 05:23:13.811   10 Jun 2027 05:23:42.575            28.764                Novosib          3595.500
       384   10 Jun 2027 06:00:14.508   10 Jun 2027 06:00:27.259            12.751            RioGallegos          1593.875
       385   10 Jun 2027 06:34:02.880   10 Jun 2027 06:36:17.108           134.228                Sumatra         16778.500
       386   10 Jun 2027 06:41:06.822   10 Jun 2027 06:42:36.867            90.045                  Delhi         11255.625
       387   10 Jun 2027 06:57:24.705   10 Jun 2027 06:57:53.900            29.195                Novosib          3649.375
       388   10 Jun 2027 06:58:06.380   10 Jun 2027 06:58:59.971            53.591              Murmansk2          6698.875
       389   10 Jun 2027 08:19:25.591   10 Jun 2027 08:20:35.101            69.510                  Delhi          8688.750
       390   10 Jun 2027 08:30:50.983   10 Jun 2027 08:32:22.153            91.170                Novosib         11396.250
       391   10 Jun 2027 08:32:37.730   10 Jun 2027 08:33:11.574            33.844                Novosib          4230.500
       392   10 Jun 2027 08:33:16.746   10 Jun 2027 08:33:31.743            14.997                Norilsk          1874.625
       393   10 Jun 2027 08:33:39.734   10 Jun 2027 08:34:03.861            24.127              Murmansk2          3015.875
       394   10 Jun 2027 08:34:03.861   10 Jun 2027 08:34:18.027            14.166              Murmansk1          1770.750
       395   10 Jun 2027 08:34:25.860   10 Jun 2027 08:34:57.851            31.991                Novosib          3998.875
       396   10 Jun 2027 08:35:11.440   10 Jun 2027 08:36:08.731            57.291                 Moscow          7161.375
       397   10 Jun 2027 09:42:21.871   10 Jun 2027 09:44:30.264           128.393               CapeTown         16049.125
       398   10 Jun 2027 10:23:11.982   10 Jun 2027 10:26:06.801           174.819                Anadyr2         21852.375
       399   10 Jun 2027 11:16:40.483   10 Jun 2027 11:17:03.419            22.936               CapeTown          2867.000
       400   10 Jun 2027 11:55:33.911   10 Jun 2027 11:56:29.467            55.556                Anadyr1          6944.500
       401   10 Jun 2027 11:57:33.822   10 Jun 2027 11:57:52.736            18.914                Anadyr1          2364.250
       402   10 Jun 2027 11:58:48.186   10 Jun 2027 12:00:39.111           110.925                Anadyr1         13865.625
       403   10 Jun 2027 12:01:25.463   10 Jun 2027 12:02:16.240            50.777                Anadyr2          6347.125
       404   10 Jun 2027 12:05:02.427   10 Jun 2027 12:05:05.212             2.785                Anadyr1           348.125
       405   10 Jun 2027 13:33:57.880   10 Jun 2027 13:35:49.099           111.219               Magadan1         13902.375
       406   10 Jun 2027 13:36:59.069   10 Jun 2027 13:38:29.617            90.548               Magadan2         11318.500
       407   10 Jun 2027 13:41:50.787   10 Jun 2027 13:43:17.015            86.228               Magadan1         10778.500
       408   10 Jun 2027 16:01:51.052   10 Jun 2027 16:04:22.885           151.833            RioGallegos         18979.125
       409   10 Jun 2027 16:04:49.411   10 Jun 2027 16:07:48.273           178.862            RioGallegos         22357.750
       410   10 Jun 2027 16:49:23.278   10 Jun 2027 16:51:10.997           107.719                Irkutsk         13464.875
       411   10 Jun 2027 17:03:10.063   10 Jun 2027 17:05:43.807           153.744                Sumatra         19218.000
       412   10 Jun 2027 17:13:51.726   10 Jun 2027 17:15:28.697            96.971                Sumatra         12121.375
       413   10 Jun 2027 18:33:00.150   10 Jun 2027 18:36:57.308           237.158                  Delhi         29644.750
       414   10 Jun 2027 20:04:59.702   10 Jun 2027 20:07:56.864           177.162                 Moscow         22145.250
       415   10 Jun 2027 22:03:00.294   10 Jun 2027 22:05:15.201           134.907               CapeTown         16863.375
       416   11 Jun 2027 03:56:25.358   11 Jun 2027 03:56:37.208            11.850               Magadan1          1481.250
       417   11 Jun 2027 03:56:42.675   11 Jun 2027 03:57:29.299            46.624               Magadan2          5828.000
       418   11 Jun 2027 03:58:01.127   11 Jun 2027 03:58:35.430            34.303               Magadan2          4287.875
       419   11 Jun 2027 03:59:03.369   11 Jun 2027 03:59:14.927            11.558                Irkutsk          1444.750
       420   11 Jun 2027 04:03:59.683   11 Jun 2027 04:04:19.273            19.590                Norilsk          2448.750
       421   11 Jun 2027 04:35:04.039   11 Jun 2027 04:35:53.385            49.346            RioGallegos          6168.250
       422   11 Jun 2027 04:36:35.639   11 Jun 2027 04:37:13.959            38.320            RioGallegos          4790.000
       423   11 Jun 2027 04:38:32.134   11 Jun 2027 04:38:59.613            27.479            RioGallegos          3434.875
       424   11 Jun 2027 05:09:03.882   11 Jun 2027 05:10:05.433            61.551                Sumatra          7693.875
       425   11 Jun 2027 05:10:46.016   11 Jun 2027 05:11:50.777            64.761                Sumatra          8095.125
       426   11 Jun 2027 05:22:07.039   11 Jun 2027 05:22:50.303            43.264                  Delhi          5408.000
       427   11 Jun 2027 05:24:31.749   11 Jun 2027 05:26:45.292           133.543                  Delhi         16692.875
       428   11 Jun 2027 05:32:14.016   11 Jun 2027 05:32:34.537            20.521              Murmansk1          2565.125
       429   11 Jun 2027 05:32:52.541   11 Jun 2027 05:33:53.266            60.725                Novosib          7590.625
       430   11 Jun 2027 05:33:59.287   11 Jun 2027 05:34:22.140            22.853                 Moscow          2856.625
       431   11 Jun 2027 05:34:27.204   11 Jun 2027 05:35:29.033            61.829              Murmansk1          7728.625
       432   11 Jun 2027 06:12:30.742   11 Jun 2027 06:13:31.734            60.992            RioGallegos          7624.000
       433   11 Jun 2027 06:46:50.321   11 Jun 2027 06:47:18.456            28.135                Sumatra          3516.875
       434   11 Jun 2027 06:53:03.424   11 Jun 2027 06:55:20.550           137.126                  Delhi         17140.750
       435   11 Jun 2027 07:09:34.616   11 Jun 2027 07:09:44.652            10.036              Murmansk2          1254.500
       436   11 Jun 2027 07:09:47.833   11 Jun 2027 07:10:00.362            12.529              Murmansk1          1566.125
       437   11 Jun 2027 07:10:07.779   11 Jun 2027 07:10:26.318            18.539                Norilsk          2317.375
       438   11 Jun 2027 07:10:30.012   11 Jun 2027 07:10:40.746            10.734                Novosib          1341.750
       439   11 Jun 2027 07:10:51.291   11 Jun 2027 07:11:16.566            25.275              Murmansk1          3159.375
       440   11 Jun 2027 07:11:20.212   11 Jun 2027 07:11:22.903             2.691                 Moscow           336.375
       441   11 Jun 2027 07:11:43.534   11 Jun 2027 07:12:34.040            50.506                Novosib          6313.250
       442   11 Jun 2027 08:32:40.248   11 Jun 2027 08:34:38.663           118.415                  Delhi         14801.875
       443   11 Jun 2027 08:40:51.898   11 Jun 2027 08:41:06.887            14.989                 Moscow          1873.625
       444   11 Jun 2027 08:41:09.065   11 Jun 2027 08:41:39.825            30.760                Novosib          3845.000
       445   11 Jun 2027 08:41:52.296   11 Jun 2027 08:42:44.015            51.719              Murmansk1          6464.875
       446   11 Jun 2027 08:42:48.196   11 Jun 2027 08:43:05.077            16.881                 Moscow          2110.125
       447   11 Jun 2027 08:43:14.256   11 Jun 2027 08:43:29.048            14.792                Novosib          1849.000
       448   11 Jun 2027 08:43:40.624   11 Jun 2027 08:45:08.576            87.952                Norilsk         10994.000
       449   11 Jun 2027 08:45:25.315   11 Jun 2027 08:45:59.093            33.778                 Moscow          4222.250
       450   11 Jun 2027 08:45:59.731   11 Jun 2027 08:47:07.304            67.573                 Moscow          8446.625
       451   11 Jun 2027 08:47:28.507   11 Jun 2027 08:48:40.261            71.754              Murmansk2          8969.250
       452   11 Jun 2027 09:53:15.969   11 Jun 2027 09:56:13.956           177.987               CapeTown         22248.375
       453   11 Jun 2027 10:34:57.767   11 Jun 2027 10:36:34.457            96.690                Anadyr2         12086.250
       454   11 Jun 2027 12:07:33.509   11 Jun 2027 12:08:22.330            48.821                Anadyr1          6102.625
       455   11 Jun 2027 12:09:52.894   11 Jun 2027 12:10:51.567            58.673                Anadyr1          7334.125
       456   11 Jun 2027 12:10:55.000   11 Jun 2027 12:12:15.520            80.520                Anadyr2         10065.000
       457   11 Jun 2027 12:14:34.504   11 Jun 2027 12:15:03.384            28.880               Magadan1          3610.000
       458   11 Jun 2027 13:45:54.303   11 Jun 2027 13:47:24.049            89.746               Magadan2         11218.250
       459   11 Jun 2027 13:47:51.308   11 Jun 2027 13:49:02.437            71.129               Magadan1          8891.125
       460   11 Jun 2027 13:53:31.679   11 Jun 2027 13:54:49.505            77.826               Magadan1          9728.250
       461   11 Jun 2027 15:28:52.056   11 Jun 2027 15:31:15.211           143.155                Irkutsk         17894.375
       462   11 Jun 2027 16:13:39.982   11 Jun 2027 16:16:26.636           166.654            RioGallegos         20831.750
       463   11 Jun 2027 16:17:53.903   11 Jun 2027 16:19:22.136            88.233            RioGallegos         11029.125
       464   11 Jun 2027 17:01:17.559   11 Jun 2027 17:03:21.089           123.530                Irkutsk         15441.250
       465   11 Jun 2027 17:03:30.138   11 Jun 2027 17:06:24.025           173.887                Novosib         21735.875
       466   11 Jun 2027 17:17:56.152   11 Jun 2027 17:19:25.217            89.065                Sumatra         11133.125
       467   11 Jun 2027 18:43:43.336   11 Jun 2027 18:45:00.422            77.086                Novosib          9635.750
       468   11 Jun 2027 18:46:51.999   11 Jun 2027 18:49:02.707           130.708                  Delhi         16338.500
       469   11 Jun 2027 18:50:07.250   11 Jun 2027 18:50:47.140            39.890                  Delhi          4986.250
       470   11 Jun 2027 20:16:00.817   11 Jun 2027 20:17:15.806            74.989                 Moscow          9373.625
       471   11 Jun 2027 20:19:47.878   11 Jun 2027 20:20:50.177            62.299                 Moscow          7787.375
       472   11 Jun 2027 21:51:13.268   11 Jun 2027 21:53:25.868           132.600                 Moscow         16575.000
       473   11 Jun 2027 22:17:25.818   11 Jun 2027 22:18:58.626            92.808               CapeTown         11601.000
       474   12 Jun 2027 04:09:32.723   12 Jun 2027 04:10:19.569            46.846               Magadan2          5855.750
       475   12 Jun 2027 04:10:30.280   12 Jun 2027 04:10:46.794            16.514                Irkutsk          2064.250
       476   12 Jun 2027 04:11:01.774   12 Jun 2027 04:12:04.532            62.758              Murmansk2          7844.750
       477   12 Jun 2027 04:12:40.468   12 Jun 2027 04:12:49.991             9.523              Murmansk1          1190.375
       478   12 Jun 2027 04:12:58.954   12 Jun 2027 04:13:23.918            24.964                Norilsk          3120.500
       479   12 Jun 2027 04:14:52.532   12 Jun 2027 04:15:27.325            34.793                Norilsk          4349.125
       480   12 Jun 2027 04:47:46.496   12 Jun 2027 04:48:22.366            35.870            RioGallegos          4483.750
       481   12 Jun 2027 04:49:50.202   12 Jun 2027 04:50:56.247            66.045            RioGallegos          8255.625
       482   12 Jun 2027 05:20:56.011   12 Jun 2027 05:22:07.278            71.267                Sumatra          8908.375
