uniorb/output/strategy_1/Drop/Drop_KinoSat_110805.txt

KinoSat_110805
-------------------------
    Access    *     Start Time (UTCG)     *     Stop Time (UTCG)  *   Duration (s)        *       Station  *  Data (Mbytes)
         1   01 Jun 2027 03:35:49.668   01 Jun 2027 03:36:31.453            41.785                Anadyr2          1305.781
         2   01 Jun 2027 03:36:31.453   01 Jun 2027 03:36:34.744             3.291                Anadyr1           102.844
         3   01 Jun 2027 03:36:44.515   01 Jun 2027 03:38:03.974            79.459                Anadyr1          2483.094
         4   01 Jun 2027 03:38:03.974   01 Jun 2027 03:38:36.549            32.575                Anadyr2          1017.969
         5   01 Jun 2027 03:38:49.485   01 Jun 2027 03:39:21.527            32.042               Magadan1          1001.313
         6   01 Jun 2027 03:39:33.572   01 Jun 2027 03:39:51.131            17.559                Anadyr1           548.719
         7   01 Jun 2027 03:39:56.256   01 Jun 2027 03:40:48.867            52.611               Magadan2          1644.094
         8   01 Jun 2027 03:41:13.471   01 Jun 2027 03:41:28.664            15.193               Magadan1           474.781
         9   01 Jun 2027 03:41:43.973   01 Jun 2027 03:41:48.622             4.649                Anadyr1           145.281
        10   01 Jun 2027 05:13:20.536   01 Jun 2027 05:14:31.723            71.187                Irkutsk          2224.594
        11   01 Jun 2027 05:14:52.724   01 Jun 2027 05:16:03.803            71.079               Magadan1          2221.219
        12   01 Jun 2027 05:16:03.803   01 Jun 2027 05:16:19.398            15.595               Magadan2           487.344
        13   01 Jun 2027 05:16:30.320   01 Jun 2027 05:17:38.990            68.670                Anadyr1          2145.938
        14   01 Jun 2027 06:47:32.137   01 Jun 2027 06:48:12.711            40.574                Irkutsk          1267.938
        15   01 Jun 2027 06:48:14.768   01 Jun 2027 06:48:23.818             9.050                Novosib           282.813
        16   01 Jun 2027 06:48:26.148   01 Jun 2027 06:48:35.213             9.065               Magadan1           283.281
        17   01 Jun 2027 06:48:35.213   01 Jun 2027 06:48:58.403            23.190               Magadan2           724.688
        18   01 Jun 2027 06:49:12.117   01 Jun 2027 06:49:36.121            24.004               Magadan2           750.125
        19   01 Jun 2027 06:49:38.368   01 Jun 2027 06:51:38.676           120.308               Magadan2          3759.625
        20   01 Jun 2027 06:51:38.676   01 Jun 2027 06:52:19.681            41.005               Magadan1          1281.406
        21   01 Jun 2027 06:52:31.023   01 Jun 2027 06:53:32.272            61.249                Irkutsk          1914.031
        22   01 Jun 2027 06:53:37.933   01 Jun 2027 06:53:52.999            15.066                Novosib           470.812
        23   01 Jun 2027 06:57:42.069   01 Jun 2027 06:58:09.929            27.860              Murmansk1           870.625
        24   01 Jun 2027 07:28:15.144   01 Jun 2027 07:30:02.259           107.115            RioGallegos          3347.344
        25   01 Jun 2027 08:03:22.131   01 Jun 2027 08:04:39.339            77.208                Sumatra          2412.750
        26   01 Jun 2027 08:06:07.677   01 Jun 2027 08:07:06.725            59.048                Sumatra          1845.250
        27   01 Jun 2027 08:15:09.606   01 Jun 2027 08:16:32.996            83.390                  Delhi          2605.938
        28   01 Jun 2027 08:25:26.834   01 Jun 2027 08:26:51.315            84.481                Novosib          2640.031
        29   01 Jun 2027 08:26:54.683   01 Jun 2027 08:29:57.779           183.096                Novosib          5721.750
        30   01 Jun 2027 08:30:04.991   01 Jun 2027 08:30:57.359            52.368              Murmansk1          1636.500
        31   01 Jun 2027 08:30:57.359   01 Jun 2027 08:31:16.875            19.516              Murmansk2           609.875
        32   01 Jun 2027 09:06:45.796   01 Jun 2027 09:06:57.685            11.889            RioGallegos           371.531
        33   01 Jun 2027 09:07:31.419   01 Jun 2027 09:07:31.790             0.371            RioGallegos            11.594
        34   01 Jun 2027 09:41:04.718   01 Jun 2027 09:42:55.088           110.370                Sumatra          3449.063
        35   01 Jun 2027 09:47:21.103   01 Jun 2027 09:50:05.084           163.981                  Delhi          5124.406
        36   01 Jun 2027 10:02:56.612   01 Jun 2027 10:03:26.665            30.053                Irkutsk           939.156
        37   01 Jun 2027 10:03:40.515   01 Jun 2027 10:04:46.920            66.405                 Moscow          2075.156
        38   01 Jun 2027 10:04:49.256   01 Jun 2027 10:08:04.838           195.582                Norilsk          6111.938
        39   01 Jun 2027 10:08:36.658   01 Jun 2027 10:09:02.245            25.587              Murmansk1           799.594
        40   01 Jun 2027 11:26:52.481   01 Jun 2027 11:29:48.650           176.169                  Delhi          5505.281
        41   01 Jun 2027 11:36:25.971   01 Jun 2027 11:36:37.116            11.145              Murmansk2           348.281
        42   01 Jun 2027 11:36:40.669   01 Jun 2027 11:37:54.748            74.079                Novosib          2314.969
        43   01 Jun 2027 11:38:07.188   01 Jun 2027 11:41:25.167           197.979                 Moscow          6186.844
        44   01 Jun 2027 11:41:52.061   01 Jun 2027 11:46:23.470           271.409              Murmansk1          8481.531
        45   01 Jun 2027 11:46:23.470   01 Jun 2027 11:46:33.759            10.289              Murmansk2           321.531
        46   01 Jun 2027 11:47:44.049   01 Jun 2027 11:47:56.793            12.744              Murmansk2           398.250
        47   01 Jun 2027 12:47:36.372   01 Jun 2027 12:50:12.123           155.751               CapeTown          4867.219
        48   01 Jun 2027 12:53:23.030   01 Jun 2027 12:55:08.505           105.475               CapeTown          3296.094
        49   01 Jun 2027 13:08:23.500   01 Jun 2027 13:09:12.012            48.512                 Moscow          1516.000
        50   01 Jun 2027 13:09:25.992   01 Jun 2027 13:11:21.351           115.359                 Moscow          3604.969
        51   01 Jun 2027 13:11:47.258   01 Jun 2027 13:13:06.633            79.375              Murmansk2          2480.469
        52   01 Jun 2027 13:13:22.321   01 Jun 2027 13:14:03.383            41.062              Murmansk1          1283.188
        53   01 Jun 2027 13:14:30.005   01 Jun 2027 13:14:30.937             0.932              Murmansk2            29.125
        54   01 Jun 2027 13:14:41.875   01 Jun 2027 13:15:56.602            74.727              Murmansk1          2335.219
        55   01 Jun 2027 13:26:35.360   01 Jun 2027 13:30:22.183           226.823                Anadyr1          7088.219
        56   01 Jun 2027 13:30:24.390   01 Jun 2027 13:33:29.037           184.647                Anadyr2          5770.219
        57   01 Jun 2027 15:01:51.102   01 Jun 2027 15:03:28.584            97.482                Anadyr2          3046.312
        58   01 Jun 2027 15:04:09.538   01 Jun 2027 15:04:26.058            16.520                Anadyr2           516.250
        59   01 Jun 2027 15:04:38.409   01 Jun 2027 15:05:05.210            26.801                Anadyr2           837.531
        60   01 Jun 2027 15:06:17.956   01 Jun 2027 15:09:41.233           203.277               Magadan1          6352.406
        61   01 Jun 2027 15:09:41.233   01 Jun 2027 15:10:50.430            69.197               Magadan2          2162.406
        62   01 Jun 2027 16:37:43.205   01 Jun 2027 16:40:16.252           153.047                Anadyr2          4782.719
        63   01 Jun 2027 16:41:10.787   01 Jun 2027 16:44:14.073           183.286               Magadan1          5727.688
        64   01 Jun 2027 16:46:34.608   01 Jun 2027 16:47:06.356            31.748               Magadan1           992.125
        65   01 Jun 2027 16:51:19.986   01 Jun 2027 16:51:46.934            26.948               Magadan1           842.125
        66   01 Jun 2027 18:13:36.814   01 Jun 2027 18:15:10.452            93.638                Anadyr2          2926.187
        67   01 Jun 2027 18:15:20.989   01 Jun 2027 18:17:00.882            99.893                Anadyr1          3121.656
        68   01 Jun 2027 18:17:25.888   01 Jun 2027 18:19:14.058           108.170               Magadan2          3380.313
        69   01 Jun 2027 18:19:14.058   01 Jun 2027 18:19:17.472             3.414               Magadan1           106.688
        70   01 Jun 2027 18:19:36.067   01 Jun 2027 18:21:06.009            89.942                Norilsk          2810.687
        71   01 Jun 2027 18:23:18.543   01 Jun 2027 18:25:21.945           123.402                Irkutsk          3856.312
        72   01 Jun 2027 19:07:58.102   01 Jun 2027 19:09:06.443            68.341            RioGallegos          2135.656
        73   01 Jun 2027 19:09:30.425   01 Jun 2027 19:10:41.826            71.401            RioGallegos          2231.281
        74   01 Jun 2027 19:51:58.314   01 Jun 2027 19:53:17.585            79.271               Magadan1          2477.219
        75   01 Jun 2027 19:53:17.585   01 Jun 2027 19:53:44.323            26.738               Magadan2           835.562
        76   01 Jun 2027 19:54:48.574   01 Jun 2027 19:55:18.791            30.217                Norilsk           944.281
        77   01 Jun 2027 19:55:35.429   01 Jun 2027 19:55:40.094             4.665                Irkutsk           145.781
        78   01 Jun 2027 19:55:57.744   01 Jun 2027 19:56:46.691            48.947                Irkutsk          1529.594
        79   01 Jun 2027 19:57:11.962   01 Jun 2027 20:03:04.959           352.997                Novosib         11031.156
        80   01 Jun 2027 20:10:29.021   01 Jun 2027 20:11:29.139            60.118                Sumatra          1878.688
        81   01 Jun 2027 20:12:13.244   01 Jun 2027 20:12:57.153            43.909                Sumatra          1372.156
        82   01 Jun 2027 20:19:42.909   01 Jun 2027 20:20:59.017            76.108                Sumatra          2378.375
        83   01 Jun 2027 21:31:23.287   01 Jun 2027 21:31:48.802            25.515                Novosib           797.344
        84   01 Jun 2027 21:33:26.442   01 Jun 2027 21:33:29.648             3.206                Novosib           100.188
        85   01 Jun 2027 21:35:06.241   01 Jun 2027 21:35:45.692            39.451                Novosib          1232.844
        86   01 Jun 2027 21:39:02.512   01 Jun 2027 21:42:47.659           225.147                  Delhi          7035.844
        87   01 Jun 2027 23:03:21.536   01 Jun 2027 23:04:55.484            93.948               Magadan1          2935.875
        88   01 Jun 2027 23:05:21.423   01 Jun 2027 23:05:27.907             6.484               Magadan1           202.625
        89   01 Jun 2027 23:05:45.474   01 Jun 2027 23:10:34.549           289.075              Murmansk1          9033.594
        90   01 Jun 2027 23:11:45.162   01 Jun 2027 23:14:49.857           184.695                 Moscow          5771.719
        91   01 Jun 2027 23:17:33.178   01 Jun 2027 23:17:57.906            24.728                 Moscow           772.750
        92   02 Jun 2027 00:35:37.192   02 Jun 2027 00:36:25.189            47.997               Magadan1          1499.906
        93   02 Jun 2027 00:37:52.948   02 Jun 2027 00:38:05.648            12.700               Magadan2           396.875
        94   02 Jun 2027 00:38:11.577   02 Jun 2027 00:39:20.984            69.407               Magadan1          2168.969
        95   02 Jun 2027 00:41:32.969   02 Jun 2027 00:43:05.714            92.745              Murmansk1          2898.281
        96   02 Jun 2027 00:43:38.040   02 Jun 2027 00:43:59.482            21.442              Murmansk2           670.062
        97   02 Jun 2027 00:44:05.899   02 Jun 2027 00:44:24.015            18.116              Murmansk2           566.125
        98   02 Jun 2027 00:44:52.364   02 Jun 2027 00:45:38.415            46.051                 Moscow          1439.094
        99   02 Jun 2027 00:46:55.985   02 Jun 2027 00:47:32.824            36.839                 Moscow          1151.219
       100   02 Jun 2027 00:48:08.681   02 Jun 2027 00:48:58.105            49.424                 Moscow          1544.500
       101   02 Jun 2027 00:54:24.663   02 Jun 2027 00:56:17.642           112.979                 Moscow          3530.594
       102   02 Jun 2027 01:16:50.530   02 Jun 2027 01:17:33.181            42.651               CapeTown          1332.844
       103   02 Jun 2027 02:05:25.775   02 Jun 2027 02:05:52.082            26.307                Anadyr2           822.094
       104   02 Jun 2027 02:06:47.629   02 Jun 2027 02:07:13.010            25.381                Anadyr2           793.156
       105   02 Jun 2027 02:07:35.188   02 Jun 2027 02:08:35.068            59.880               Magadan1          1871.250
       106   02 Jun 2027 02:09:40.729   02 Jun 2027 02:10:07.238            26.509               Magadan1           828.406
       107   02 Jun 2027 02:12:37.034   02 Jun 2027 02:12:55.766            18.732               Magadan1           585.375
       108   02 Jun 2027 02:14:28.248   02 Jun 2027 02:14:36.309             8.061                Norilsk           251.906
       109   02 Jun 2027 02:16:07.985   02 Jun 2027 02:16:12.774             4.789                Norilsk           149.656
       110   02 Jun 2027 02:16:15.362   02 Jun 2027 02:16:42.107            26.745               Magadan2           835.781
       111   02 Jun 2027 02:17:31.094   02 Jun 2027 02:18:25.059            53.965              Murmansk1          1686.406
       112   02 Jun 2027 02:18:25.059   02 Jun 2027 02:18:51.124            26.065              Murmansk2           814.531
       113   02 Jun 2027 02:20:08.115   02 Jun 2027 02:20:42.389            34.274              Murmansk2          1071.062
       114   02 Jun 2027 02:21:50.200   02 Jun 2027 02:22:10.400            20.200                 Moscow           631.250
       115   02 Jun 2027 02:24:41.467   02 Jun 2027 02:25:05.697            24.230                 Moscow           757.188
       116   02 Jun 2027 02:26:47.035   02 Jun 2027 02:27:03.850            16.815                 Moscow           525.469
       117   02 Jun 2027 02:29:36.798   02 Jun 2027 02:29:50.814            14.016                 Moscow           438.000
       118   02 Jun 2027 02:31:05.507   02 Jun 2027 02:31:49.399            43.892                 Moscow          1371.625
       119   02 Jun 2027 02:49:20.463   02 Jun 2027 02:49:48.619            28.156               CapeTown           879.875
       120   02 Jun 2027 02:51:53.884   02 Jun 2027 02:52:17.529            23.645               CapeTown           738.906
       121   02 Jun 2027 02:55:38.739   02 Jun 2027 02:55:45.300             6.561               CapeTown           205.031
       122   02 Jun 2027 02:56:15.581   02 Jun 2027 02:56:26.034            10.453               CapeTown           326.656
       123   02 Jun 2027 03:46:23.140   02 Jun 2027 03:49:38.376           195.236               Magadan1          6101.125
       124   02 Jun 2027 03:49:48.844   02 Jun 2027 03:49:57.862             9.018               Magadan1           281.813
       125   02 Jun 2027 03:50:04.952   02 Jun 2027 03:50:21.382            16.430                Anadyr2           513.437
       126   02 Jun 2027 03:50:21.382   02 Jun 2027 03:51:49.571            88.189                Anadyr1          2755.906
       127   02 Jun 2027 03:51:52.441   02 Jun 2027 03:52:49.389            56.948               Magadan1          1779.625
       128   02 Jun 2027 03:52:49.389   02 Jun 2027 03:53:50.552            61.163               Magadan2          1911.344
       129   02 Jun 2027 05:23:44.647   02 Jun 2027 05:24:15.374            30.727               Magadan1           960.219
       130   02 Jun 2027 05:24:39.574   02 Jun 2027 05:26:13.252            93.678                Irkutsk          2927.437
       131   02 Jun 2027 05:26:18.295   02 Jun 2027 05:28:15.768           117.473                Anadyr1          3671.031
       132   02 Jun 2027 05:28:15.768   02 Jun 2027 05:29:30.568            74.800                Anadyr2          2337.500
       133   02 Jun 2027 06:59:46.744   02 Jun 2027 07:00:22.116            35.372                Novosib          1105.375
       134   02 Jun 2027 07:00:32.835   02 Jun 2027 07:01:03.650            30.815                Norilsk           962.969
       135   02 Jun 2027 07:01:11.508   02 Jun 2027 07:04:14.914           183.406               Magadan2          5731.438
       136   02 Jun 2027 07:04:30.717   02 Jun 2027 07:05:36.320            65.603                Irkutsk          2050.094
       137   02 Jun 2027 07:05:39.336   02 Jun 2027 07:06:10.334            30.998              Murmansk1           968.687
       138   02 Jun 2027 07:06:36.447   02 Jun 2027 07:06:42.581             6.134              Murmansk2           191.687
       139   02 Jun 2027 07:06:42.581   02 Jun 2027 07:07:03.473            20.892              Murmansk1           652.875
       140   02 Jun 2027 07:09:33.801   02 Jun 2027 07:09:57.496            23.695              Murmansk2           740.469
       141   02 Jun 2027 07:10:25.534   02 Jun 2027 07:10:29.723             4.189              Murmansk2           130.906
       142   02 Jun 2027 07:40:20.938   02 Jun 2027 07:41:53.896            92.958            RioGallegos          2904.938
       143   02 Jun 2027 07:45:07.143   02 Jun 2027 07:45:21.331            14.188            RioGallegos           443.375
       144   02 Jun 2027 08:15:13.942   02 Jun 2027 08:17:54.947           161.005                Sumatra          5031.406
       145   02 Jun 2027 08:26:10.170   02 Jun 2027 08:26:47.328            37.158                  Delhi          1161.187
       146   02 Jun 2027 08:27:19.811   02 Jun 2027 08:28:31.246            71.435                  Delhi          2232.344
       147   02 Jun 2027 08:37:28.755   02 Jun 2027 08:40:37.273           188.518                Irkutsk          5891.187
       148   02 Jun 2027 08:40:57.474   02 Jun 2027 08:41:10.224            12.750                Norilsk           398.437
       149   02 Jun 2027 08:41:10.834   02 Jun 2027 08:42:50.108            99.274                 Moscow          3102.313
       150   02 Jun 2027 08:42:58.219   02 Jun 2027 08:43:27.862            29.643              Murmansk2           926.344
       151   02 Jun 2027 08:43:47.118   02 Jun 2027 08:44:03.130            16.012              Murmansk1           500.375
       152   02 Jun 2027 09:20:45.376   02 Jun 2027 09:21:51.957            66.581            RioGallegos          2080.656
       153   02 Jun 2027 09:54:18.653   02 Jun 2027 09:54:40.971            22.318                Sumatra           697.438
       154   02 Jun 2027 09:55:31.598   02 Jun 2027 09:57:26.924           115.326                Sumatra          3603.938
       155   02 Jun 2027 09:59:22.718   02 Jun 2027 10:00:04.354            41.636                  Delhi          1301.125
       156   02 Jun 2027 10:15:08.935   02 Jun 2027 10:16:27.122            78.187                 Moscow          2443.344
       157   02 Jun 2027 10:16:28.268   02 Jun 2027 10:17:30.651            62.383              Murmansk2          1949.469
       158   02 Jun 2027 10:17:48.455   02 Jun 2027 10:18:32.043            43.588                Novosib          1362.125
       159   02 Jun 2027 11:47:59.121   02 Jun 2027 11:49:35.929            96.808                 Moscow          3025.250
       160   02 Jun 2027 11:49:43.262   02 Jun 2027 11:52:30.386           167.124                 Moscow          5222.625
       161   02 Jun 2027 11:52:31.976   02 Jun 2027 11:52:55.979            24.003                 Moscow           750.094
       162   02 Jun 2027 11:53:00.087   02 Jun 2027 11:54:15.882            75.795                Norilsk          2368.594
       163   02 Jun 2027 11:54:45.170   02 Jun 2027 11:55:26.037            40.867                 Moscow          1277.094
       164   02 Jun 2027 12:58:54.557   02 Jun 2027 13:01:56.550           181.993               CapeTown          5687.281
       165   02 Jun 2027 13:24:01.627   02 Jun 2027 13:26:30.337           148.710              Murmansk2          4647.188
       166   02 Jun 2027 13:31:55.342   02 Jun 2027 13:32:01.769             6.427              Murmansk1           200.844
       167   02 Jun 2027 13:32:22.438   02 Jun 2027 13:32:40.784            18.346              Murmansk1           573.313
       168   02 Jun 2027 13:33:42.070   02 Jun 2027 13:34:57.020            74.950              Murmansk1          2342.188
       169   02 Jun 2027 13:35:39.574   02 Jun 2027 13:36:05.319            25.745              Murmansk1           804.531
       170   02 Jun 2027 13:36:05.319   02 Jun 2027 13:36:07.245             1.926              Murmansk2            60.187
       171   02 Jun 2027 13:38:26.251   02 Jun 2027 13:42:00.883           214.632                Anadyr1          6707.250
       172   02 Jun 2027 13:43:21.168   02 Jun 2027 13:45:30.292           129.124                Anadyr2          4035.125
       173   02 Jun 2027 13:46:27.033   02 Jun 2027 13:47:09.507            42.474                Anadyr1          1327.313
       174   02 Jun 2027 15:04:19.751   02 Jun 2027 15:05:20.411            60.660              Murmansk2          1895.625
       175   02 Jun 2027 15:07:33.011   02 Jun 2027 15:07:50.670            17.659              Murmansk1           551.844
       176   02 Jun 2027 15:08:10.086   02 Jun 2027 15:08:52.112            42.026              Murmansk1          1313.313
       177   02 Jun 2027 15:09:40.297   02 Jun 2027 15:09:56.038            15.741              Murmansk2           491.906
       178   02 Jun 2027 15:10:21.083   02 Jun 2027 15:11:52.697            91.614              Murmansk1          2862.937
       179   02 Jun 2027 15:13:51.132   02 Jun 2027 15:15:03.050            71.918                Anadyr2          2247.438
       180   02 Jun 2027 15:17:41.313   02 Jun 2027 15:21:14.059           212.746               Magadan2          6648.312
       181   02 Jun 2027 15:21:14.059   02 Jun 2027 15:24:03.125           169.066               Magadan1          5283.312
       182   02 Jun 2027 16:49:44.582   02 Jun 2027 16:50:24.104            39.522                Anadyr1          1235.063
       183   02 Jun 2027 16:50:54.305   02 Jun 2027 16:51:03.535             9.230                Anadyr2           288.437
       184   02 Jun 2027 16:51:12.582   02 Jun 2027 16:51:17.854             5.272                Anadyr2           164.750
       185   02 Jun 2027 16:51:50.291   02 Jun 2027 16:52:37.311            47.020                Anadyr2          1469.375
       186   02 Jun 2027 16:53:05.232   02 Jun 2027 16:54:28.317            83.085               Magadan2          2596.406
       187   02 Jun 2027 16:55:00.016   02 Jun 2027 16:55:18.836            18.820               Magadan1           588.125
       188   02 Jun 2027 16:56:13.706   02 Jun 2027 16:56:49.332            35.626               Magadan2          1113.313
       189   02 Jun 2027 16:58:16.021   02 Jun 2027 16:58:31.575            15.554               Magadan1           486.062
       190   02 Jun 2027 16:59:16.346   02 Jun 2027 16:59:50.352            34.006               Magadan1          1062.688
       191   02 Jun 2027 16:59:50.352   02 Jun 2027 16:59:53.492             3.140               Magadan2            98.125
       192   02 Jun 2027 17:00:10.987   02 Jun 2027 17:00:29.206            18.219               Magadan2           569.344
       193   02 Jun 2027 17:00:51.571   02 Jun 2027 17:01:07.829            16.258                Anadyr1           508.062
       194   02 Jun 2027 17:01:43.735   02 Jun 2027 17:02:32.216            48.481                Anadyr1          1515.031
       195   02 Jun 2027 17:03:11.240   02 Jun 2027 17:03:38.452            27.212               Magadan1           850.375
       196   02 Jun 2027 17:03:48.984   02 Jun 2027 17:03:57.771             8.787               Magadan2           274.594
       197   02 Jun 2027 18:25:36.986   02 Jun 2027 18:29:32.299           235.313                Anadyr1          7353.531
       198   02 Jun 2027 18:30:07.620   02 Jun 2027 18:33:53.512           225.892                Norilsk          7059.125
       199   02 Jun 2027 18:34:20.241   02 Jun 2027 18:34:50.813            30.572                Irkutsk           955.375
       200   02 Jun 2027 18:35:19.433   02 Jun 2027 18:36:35.797            76.364                Irkutsk          2386.375
       201   02 Jun 2027 18:39:15.269   02 Jun 2027 18:39:21.316             6.047                Irkutsk           188.969
       202   02 Jun 2027 19:23:35.576   02 Jun 2027 19:25:42.870           127.294            RioGallegos          3977.938
       203   02 Jun 2027 19:29:19.068   02 Jun 2027 19:29:38.536            19.468            RioGallegos           608.375
       204   02 Jun 2027 19:31:13.164   02 Jun 2027 19:31:28.471            15.307            RioGallegos           478.344
       205   02 Jun 2027 20:04:46.155   02 Jun 2027 20:04:57.076            10.921                Norilsk           341.281
       206   02 Jun 2027 20:05:06.148   02 Jun 2027 20:06:20.579            74.431                Norilsk          2325.969
       207   02 Jun 2027 20:07:31.307   02 Jun 2027 20:09:31.442           120.135                Irkutsk          3754.219
       208   02 Jun 2027 20:10:14.973   02 Jun 2027 20:12:07.244           112.271                Novosib          3508.469
       209   02 Jun 2027 20:12:42.615   02 Jun 2027 20:13:17.603            34.988                Novosib          1093.375
       210   02 Jun 2027 20:13:42.693   02 Jun 2027 20:15:09.425            86.732                Novosib          2710.375
       211   02 Jun 2027 20:29:33.548   02 Jun 2027 20:30:46.307            72.759                Sumatra          2273.719
       212   02 Jun 2027 21:41:03.184   02 Jun 2027 21:41:28.015            24.831               Magadan2           775.969
       213   02 Jun 2027 21:41:44.002   02 Jun 2027 21:41:45.143             1.141                Norilsk            35.656
       214   02 Jun 2027 21:42:26.754   02 Jun 2027 21:42:29.189             2.435                Norilsk            76.094
       215   02 Jun 2027 21:42:45.931   02 Jun 2027 21:42:55.096             9.165               Magadan2           286.406
       216   02 Jun 2027 21:43:17.456   02 Jun 2027 21:43:31.528            14.072                Norilsk           439.750
       217   02 Jun 2027 21:43:40.719   02 Jun 2027 21:44:52.641            71.922                Norilsk          2247.562
       218   02 Jun 2027 21:46:09.055   02 Jun 2027 21:46:14.711             5.656                Novosib           176.750
       219   02 Jun 2027 21:46:38.882   02 Jun 2027 21:48:23.365           104.483                Novosib          3265.094
       220   02 Jun 2027 21:50:51.178   02 Jun 2027 21:51:42.371            51.193                  Delhi          1599.781
       221   02 Jun 2027 21:52:24.546   02 Jun 2027 21:53:28.715            64.169                  Delhi          2005.281
       222   02 Jun 2027 21:55:30.762   02 Jun 2027 21:56:39.066            68.304                  Delhi          2134.500
       223   02 Jun 2027 21:59:21.571   02 Jun 2027 22:00:19.645            58.074                  Delhi          1814.812
       224   02 Jun 2027 23:13:41.060   02 Jun 2027 23:14:13.885            32.825                Anadyr1          1025.781
       225   02 Jun 2027 23:15:06.117   02 Jun 2027 23:16:52.887           106.770               Magadan2          3336.563
       226   02 Jun 2027 23:17:43.989   02 Jun 2027 23:19:40.234           116.245              Murmansk1          3632.656
       227   02 Jun 2027 23:20:30.640   02 Jun 2027 23:20:56.686            26.046              Murmansk2           813.937
       228   02 Jun 2027 23:21:50.122   02 Jun 2027 23:23:00.451            70.329              Murmansk2          2197.781
       229   02 Jun 2027 23:23:00.451   02 Jun 2027 23:23:27.868            27.417              Murmansk1           856.781
       230   02 Jun 2027 23:23:47.562   02 Jun 2027 23:26:39.090           171.528                 Moscow          5360.250
       231   02 Jun 2027 23:50:06.196   02 Jun 2027 23:51:08.158            61.962               CapeTown          1936.312
       232   02 Jun 2027 23:52:44.883   02 Jun 2027 23:54:41.522           116.639               CapeTown          3644.969
       233   03 Jun 2027 00:50:49.537   03 Jun 2027 00:51:11.561            22.024               Magadan1           688.250
       234   03 Jun 2027 00:53:33.399   03 Jun 2027 00:53:50.956            17.557               Magadan1           548.656
       235   03 Jun 2027 00:55:01.293   03 Jun 2027 00:56:02.456            61.163              Murmansk2          1911.344
       236   03 Jun 2027 00:56:02.456   03 Jun 2027 00:56:14.331            11.875              Murmansk1           371.094
       237   03 Jun 2027 00:57:46.590   03 Jun 2027 00:57:51.200             4.610              Murmansk1           144.063
       238   03 Jun 2027 00:58:00.089   03 Jun 2027 00:58:39.102            39.013                Novosib          1219.156
       239   03 Jun 2027 00:59:46.436   03 Jun 2027 01:00:14.831            28.395              Murmansk1           887.344
       240   03 Jun 2027 01:01:21.301   03 Jun 2027 01:02:05.236            43.935              Murmansk2          1372.969
       241   03 Jun 2027 01:05:33.761   03 Jun 2027 01:05:46.987            13.226              Murmansk1           413.313
       242   03 Jun 2027 01:06:02.737   03 Jun 2027 01:06:25.218            22.481                 Moscow           702.531
       243   03 Jun 2027 01:09:18.918   03 Jun 2027 01:09:36.117            17.199                 Moscow           537.469
       244   03 Jun 2027 01:25:53.049   03 Jun 2027 01:26:10.482            17.433               CapeTown           544.781
       245   03 Jun 2027 01:28:04.048   03 Jun 2027 01:28:56.966            52.918               CapeTown          1653.688
       246   03 Jun 2027 01:30:20.443   03 Jun 2027 01:31:18.591            58.148               CapeTown          1817.125
       247   03 Jun 2027 02:18:33.670   03 Jun 2027 02:18:47.974            14.304                Anadyr2           447.000
       248   03 Jun 2027 02:19:13.078   03 Jun 2027 02:20:17.146            64.068               Magadan2          2002.125
       249   03 Jun 2027 02:21:36.347   03 Jun 2027 02:21:42.708             6.361               Magadan1           198.781
       250   03 Jun 2027 02:22:49.344   03 Jun 2027 02:23:02.902            13.558               Magadan2           423.688
       251   03 Jun 2027 02:23:15.900   03 Jun 2027 02:23:33.478            17.578               Magadan1           549.313
       252   03 Jun 2027 02:24:02.042   03 Jun 2027 02:24:32.355            30.313               Magadan1           947.281
       253   03 Jun 2027 02:25:54.377   03 Jun 2027 02:26:12.041            17.664               Magadan2           552.000
       254   03 Jun 2027 02:26:47.703   03 Jun 2027 02:27:04.525            16.822                Norilsk           525.688
       255   03 Jun 2027 02:28:10.397   03 Jun 2027 02:28:23.329            12.932                Norilsk           404.125
       256   03 Jun 2027 02:28:32.189   03 Jun 2027 02:28:59.316            27.127                Norilsk           847.719
       257   03 Jun 2027 02:29:55.540   03 Jun 2027 02:30:51.158            55.618              Murmansk2          1738.062
       258   03 Jun 2027 02:34:40.305   03 Jun 2027 02:35:06.738            26.433                 Moscow           826.031
       259   03 Jun 2027 02:36:21.830   03 Jun 2027 02:36:30.852             9.022                Norilsk           281.938
       260   03 Jun 2027 02:36:43.157   03 Jun 2027 02:36:55.730            12.573              Murmansk2           392.906
       261   03 Jun 2027 02:38:16.808   03 Jun 2027 02:38:35.003            18.195                 Moscow           568.594
       262   03 Jun 2027 02:39:39.431   03 Jun 2027 02:39:46.353             6.922              Murmansk2           216.313
       263   03 Jun 2027 02:39:47.103   03 Jun 2027 02:41:20.060            92.957                 Moscow          2904.906
       264   03 Jun 2027 03:06:40.977   03 Jun 2027 03:06:50.611             9.634               CapeTown           301.063
       265   03 Jun 2027 03:07:54.690   03 Jun 2027 03:08:00.110             5.420               CapeTown           169.375
       266   03 Jun 2027 03:58:12.762   03 Jun 2027 03:59:08.094            55.332                Anadyr2          1729.125
       267   03 Jun 2027 03:59:32.793   03 Jun 2027 04:00:16.661            43.868               Magadan1          1370.875
       268   03 Jun 2027 04:00:32.644   03 Jun 2027 04:06:12.046           339.402                Anadyr1         10606.313
       269   03 Jun 2027 04:48:55.435   03 Jun 2027 04:50:14.157            78.722            RioGallegos          2460.062
       270   03 Jun 2027 05:34:43.999   03 Jun 2027 05:36:11.643            87.644               Magadan1          2738.875
       271   03 Jun 2027 05:36:22.116   03 Jun 2027 05:37:54.421            92.305                Anadyr1          2884.531
       272   03 Jun 2027 05:38:02.138   03 Jun 2027 05:40:33.094           150.956                Anadyr1          4717.375
       273   03 Jun 2027 05:40:33.094   03 Jun 2027 05:41:18.826            45.732                Anadyr2          1429.125
       274   03 Jun 2027 05:41:25.704   03 Jun 2027 05:41:45.804            20.100               Magadan1           628.125
       275   03 Jun 2027 06:17:30.192   03 Jun 2027 06:18:16.706            46.514            RioGallegos          1453.563
       276   03 Jun 2027 06:24:48.159   03 Jun 2027 06:24:51.038             2.879            RioGallegos            89.969
       277   03 Jun 2027 06:26:58.366   03 Jun 2027 06:27:17.706            19.340            RioGallegos           604.375
       278   03 Jun 2027 06:56:00.661   03 Jun 2027 06:56:50.302            49.641                Sumatra          1551.281
       279   03 Jun 2027 06:57:41.873   03 Jun 2027 06:59:50.063           128.190                Sumatra          4005.938
       280   03 Jun 2027 07:12:28.414   03 Jun 2027 07:13:02.567            34.153               Magadan2          1067.281
       281   03 Jun 2027 07:13:10.214   03 Jun 2027 07:13:39.103            28.889                Novosib           902.781
       282   03 Jun 2027 07:13:39.617   03 Jun 2027 07:16:16.291           156.674               Magadan1          4896.062
       283   03 Jun 2027 07:16:42.742   03 Jun 2027 07:19:05.612           142.870              Murmansk2          4464.687
       284   03 Jun 2027 07:20:29.169   03 Jun 2027 07:20:31.801             2.632              Murmansk2            82.250
       285   03 Jun 2027 07:21:03.470   03 Jun 2027 07:21:24.607            21.137              Murmansk2           660.531
       286   03 Jun 2027 07:21:51.680   03 Jun 2027 07:22:38.964            47.284                Norilsk          1477.625
       287   03 Jun 2027 07:52:30.310   03 Jun 2027 07:53:18.353            48.043            RioGallegos          1501.344
       288   03 Jun 2027 07:59:25.421   03 Jun 2027 07:59:51.163            25.742            RioGallegos           804.438
       289   03 Jun 2027 08:27:11.455   03 Jun 2027 08:27:31.310            19.855                Sumatra           620.469
       290   03 Jun 2027 08:27:45.253   03 Jun 2027 08:28:16.711            31.458                Sumatra           983.062
       291   03 Jun 2027 08:32:55.751   03 Jun 2027 08:34:05.954            70.203                Sumatra          2193.844
       292   03 Jun 2027 08:37:25.240   03 Jun 2027 08:38:18.124            52.884                  Delhi          1652.625
       293   03 Jun 2027 08:41:22.234   03 Jun 2027 08:41:48.361            26.127                  Delhi           816.469
       294   03 Jun 2027 08:49:27.620   03 Jun 2027 08:50:42.470            74.850                Irkutsk          2339.063
       295   03 Jun 2027 08:50:50.785   03 Jun 2027 08:53:18.576           147.791                Irkutsk          4618.469
       296   03 Jun 2027 08:53:20.529   03 Jun 2027 08:54:56.737            96.208                 Moscow          3006.500
       297   03 Jun 2027 08:55:09.676   03 Jun 2027 08:55:34.305            24.629              Murmansk1           769.656
       298   03 Jun 2027 09:32:37.361   03 Jun 2027 09:33:02.432            25.071            RioGallegos           783.469
       299   03 Jun 2027 09:35:47.091   03 Jun 2027 09:36:05.958            18.867            RioGallegos           589.594
       300   03 Jun 2027 10:11:29.794   03 Jun 2027 10:12:59.400            89.606                  Delhi          2800.187
       301   03 Jun 2027 10:15:53.142   03 Jun 2027 10:16:35.036            41.894                  Delhi          1309.188
       302   03 Jun 2027 10:26:06.828   03 Jun 2027 10:27:01.418            54.590              Murmansk1          1705.938
       303   03 Jun 2027 10:27:05.466   03 Jun 2027 10:27:39.375            33.909              Murmansk2          1059.656
       304   03 Jun 2027 10:27:44.877   03 Jun 2027 10:28:08.412            23.535                Novosib           735.469
       305   03 Jun 2027 10:28:11.967   03 Jun 2027 10:29:22.828            70.861              Murmansk2          2214.406
       306   03 Jun 2027 11:59:05.962   03 Jun 2027 11:59:25.159            19.197                 Moscow           599.906
       307   03 Jun 2027 11:59:39.074   03 Jun 2027 12:00:49.780            70.706              Murmansk1          2209.562
       308   03 Jun 2027 12:01:17.123   03 Jun 2027 12:01:28.311            11.188                 Moscow           349.625
       309   03 Jun 2027 12:01:55.981   03 Jun 2027 12:02:04.409             8.428                 Moscow           263.375
       310   03 Jun 2027 12:02:34.936   03 Jun 2027 12:02:51.947            17.011              Murmansk2           531.594
       311   03 Jun 2027 12:03:16.745   03 Jun 2027 12:03:42.050            25.305              Murmansk2           790.781
       312   03 Jun 2027 12:04:06.977   03 Jun 2027 12:04:40.678            33.701              Murmansk1          1053.156
       313   03 Jun 2027 12:05:00.853   03 Jun 2027 12:05:22.667            21.814                 Moscow           681.687
       314   03 Jun 2027 12:05:58.262   03 Jun 2027 12:06:02.406             4.144              Murmansk1           129.500
       315   03 Jun 2027 12:06:05.008   03 Jun 2027 12:06:17.679            12.671              Murmansk2           395.969
       316   03 Jun 2027 12:06:20.538   03 Jun 2027 12:07:01.814            41.276                Norilsk          1289.875
       317   03 Jun 2027 12:07:41.896   03 Jun 2027 12:08:22.200            40.304                Norilsk          1259.500
       318   03 Jun 2027 12:08:24.100   03 Jun 2027 12:09:04.679            40.579              Murmansk1          1268.094
       319   03 Jun 2027 12:10:24.592   03 Jun 2027 12:10:39.781            15.189              Murmansk1           474.656
       320   03 Jun 2027 12:11:53.888   03 Jun 2027 12:12:10.696            16.808              Murmansk2           525.250
       321   03 Jun 2027 13:10:25.418   03 Jun 2027 13:11:22.893            57.475               CapeTown          1796.094
       322   03 Jun 2027 13:13:45.496   03 Jun 2027 13:15:34.361           108.865               CapeTown          3402.031
       323   03 Jun 2027 13:16:16.325   03 Jun 2027 13:17:10.667            54.342               CapeTown          1698.187
       324   03 Jun 2027 13:36:18.000   03 Jun 2027 13:37:07.598            49.598              Murmansk1          1549.938
       325   03 Jun 2027 13:38:33.010   03 Jun 2027 13:38:45.622            12.612              Murmansk1           394.125
       326   03 Jun 2027 13:39:31.259   03 Jun 2027 13:40:03.264            32.005              Murmansk2          1000.156
       327   03 Jun 2027 13:40:44.582   03 Jun 2027 13:41:20.363            35.781              Murmansk1          1118.156
       328   03 Jun 2027 13:41:52.744   03 Jun 2027 13:42:25.929            33.185              Murmansk2          1037.031
       329   03 Jun 2027 13:44:37.209   03 Jun 2027 13:45:36.842            59.633              Murmansk1          1863.531
       330   03 Jun 2027 13:50:19.632   03 Jun 2027 13:52:45.538           145.906                Anadyr2          4559.562
       331   03 Jun 2027 13:55:24.600   03 Jun 2027 13:56:05.584            40.984                Anadyr2          1280.750
       332   03 Jun 2027 15:15:38.112   03 Jun 2027 15:17:13.358            95.246              Murmansk1          2976.438
       333   03 Jun 2027 15:18:36.195   03 Jun 2027 15:19:32.802            56.607              Murmansk2          1768.969
       334   03 Jun 2027 15:25:51.521   03 Jun 2027 15:26:27.355            35.834                Anadyr1          1119.813
       335   03 Jun 2027 15:26:55.265   03 Jun 2027 15:27:31.013            35.748                Anadyr2          1117.125
       336   03 Jun 2027 15:28:03.999   03 Jun 2027 15:28:19.952            15.953                Anadyr1           498.531
       337   03 Jun 2027 15:28:39.104   03 Jun 2027 15:28:48.752             9.648                Anadyr1           301.500
       338   03 Jun 2027 15:29:07.835   03 Jun 2027 15:29:44.302            36.467                Anadyr1          1139.594
       339   03 Jun 2027 15:30:58.493   03 Jun 2027 15:32:57.889           119.396               Magadan1          3731.125
       340   03 Jun 2027 15:32:57.889   03 Jun 2027 15:35:46.634           168.745               Magadan2          5273.281
       341   03 Jun 2027 17:01:45.944   03 Jun 2027 17:02:08.618            22.674                Anadyr2           708.563
       342   03 Jun 2027 17:02:55.736   03 Jun 2027 17:03:17.344            21.608                Anadyr2           675.250
       343   03 Jun 2027 17:03:40.798   03 Jun 2027 17:03:57.180            16.382                Anadyr1           511.938
       344   03 Jun 2027 17:04:07.834   03 Jun 2027 17:05:30.722            82.888               Magadan2          2590.250
       345   03 Jun 2027 17:06:45.571   03 Jun 2027 17:07:02.711            17.140               Magadan1           535.625
       346   03 Jun 2027 17:07:11.364   03 Jun 2027 17:07:20.819             9.455               Magadan2           295.469
       347   03 Jun 2027 17:08:30.981   03 Jun 2027 17:10:26.259           115.278               Magadan1          3602.438
       348   03 Jun 2027 18:37:36.798   03 Jun 2027 18:39:12.816            96.018                Anadyr2          3000.562
       349   03 Jun 2027 18:39:22.548   03 Jun 2027 18:41:03.935           101.387                Anadyr1          3168.344
       350   03 Jun 2027 18:41:08.575   03 Jun 2027 18:42:34.356            85.781               Magadan1          2680.656
       351   03 Jun 2027 18:42:45.178   03 Jun 2027 18:43:51.300            66.122                Norilsk          2066.312
       352   03 Jun 2027 18:44:24.425   03 Jun 2027 18:45:29.748            65.323                Norilsk          2041.344
       353   03 Jun 2027 18:46:23.760   03 Jun 2027 18:48:21.796           118.036                Irkutsk          3688.625
       354   03 Jun 2027 18:48:46.191   03 Jun 2027 18:49:17.915            31.724                Irkutsk           991.375
       355   03 Jun 2027 18:49:51.127   03 Jun 2027 18:51:16.587            85.460                Irkutsk          2670.625
       356   03 Jun 2027 19:01:02.793   03 Jun 2027 19:02:34.058            91.265                Sumatra          2852.031
       357   03 Jun 2027 19:04:01.031   03 Jun 2027 19:05:52.001           110.970                Sumatra          3467.813
       358   03 Jun 2027 20:20:48.760   03 Jun 2027 20:22:18.101            89.341                Novosib          2791.906
       359   03 Jun 2027 20:25:08.829   03 Jun 2027 20:25:51.876            43.047                Novosib          1345.219
       360   03 Jun 2027 20:27:11.362   03 Jun 2027 20:27:58.564            47.202                Novosib          1475.063
       361   03 Jun 2027 20:36:59.391   03 Jun 2027 20:37:55.233            55.842                Sumatra          1745.062
       362   03 Jun 2027 20:42:19.917   03 Jun 2027 20:42:29.270             9.353                Sumatra           292.281
       363   03 Jun 2027 21:52:04.731   03 Jun 2027 21:52:59.232            54.501               Magadan1          1703.156
       364   03 Jun 2027 21:54:56.178   03 Jun 2027 21:58:31.906           215.728              Murmansk2          6741.500
       365   03 Jun 2027 22:02:43.988   03 Jun 2027 22:04:09.215            85.227                  Delhi          2663.344
       366   03 Jun 2027 22:06:50.360   03 Jun 2027 22:07:23.404            33.044                  Delhi          1032.625
       367   03 Jun 2027 22:12:15.408   03 Jun 2027 22:12:48.885            33.477                  Delhi          1046.156
       368   03 Jun 2027 22:15:18.028   03 Jun 2027 22:15:23.803             5.775                  Delhi           180.469
       369   03 Jun 2027 23:26:46.370   03 Jun 2027 23:27:26.354            39.984               Magadan2          1249.500
       370   03 Jun 2027 23:28:09.168   03 Jun 2027 23:28:51.756            42.588               Magadan1          1330.875
       371   03 Jun 2027 23:28:56.065   03 Jun 2027 23:29:01.711             5.646                Norilsk           176.438
       372   03 Jun 2027 23:29:43.268   03 Jun 2027 23:31:32.797           109.529              Murmansk2          3422.781
       373   03 Jun 2027 23:32:03.601   03 Jun 2027 23:33:09.339            65.738                Novosib          2054.312
       374   03 Jun 2027 23:33:43.757   03 Jun 2027 23:37:07.811           204.054                 Moscow          6376.687
       375   03 Jun 2027 23:39:06.827   03 Jun 2027 23:39:27.702            20.875                 Moscow           652.344
       376   03 Jun 2027 23:42:06.342   03 Jun 2027 23:43:27.495            81.153                 Moscow          2536.031
       377   04 Jun 2027 00:00:42.998   04 Jun 2027 00:02:32.136           109.138               CapeTown          3410.562
       378   04 Jun 2027 00:58:34.018   04 Jun 2027 00:59:22.634            48.616               Magadan2          1519.250
       379   04 Jun 2027 01:05:36.135   04 Jun 2027 01:06:56.654            80.519              Murmansk2          2516.219
       380   04 Jun 2027 01:07:51.856   04 Jun 2027 01:08:05.223            13.367              Murmansk2           417.719
       381   04 Jun 2027 01:08:50.680   04 Jun 2027 01:10:38.746           108.066                 Moscow          3377.063
       382   04 Jun 2027 01:32:45.067   04 Jun 2027 01:33:32.641            47.574               CapeTown          1486.688
       383   04 Jun 2027 01:41:16.110   04 Jun 2027 01:41:24.496             8.386               CapeTown           262.062
       384   04 Jun 2027 02:29:26.341   04 Jun 2027 02:30:40.605            74.264                Anadyr1          2320.750
       385   04 Jun 2027 02:30:45.316   04 Jun 2027 02:31:00.808            15.492                Anadyr2           484.125
       386   04 Jun 2027 02:31:09.700   04 Jun 2027 02:31:14.235             4.535                Anadyr2           141.719
       387   04 Jun 2027 02:31:19.659   04 Jun 2027 02:32:36.483            76.824               Magadan1          2400.750
       388   04 Jun 2027 02:32:36.483   04 Jun 2027 02:33:04.572            28.089               Magadan2           877.781
       389   04 Jun 2027 02:34:29.391   04 Jun 2027 02:35:14.963            45.572               Magadan1          1424.125
       390   04 Jun 2027 02:41:33.710   04 Jun 2027 02:41:53.857            20.147              Murmansk2           629.594
       391   04 Jun 2027 02:42:07.195   04 Jun 2027 02:43:04.525            57.330              Murmansk1          1791.562
       392   04 Jun 2027 02:44:40.177   04 Jun 2027 02:44:53.529            13.352              Murmansk1           417.250
       393   04 Jun 2027 02:44:54.246   04 Jun 2027 02:45:39.123            44.877                 Moscow          1402.406
       394   04 Jun 2027 02:47:12.633   04 Jun 2027 02:47:21.689             9.056                 Moscow           283.000
       395   04 Jun 2027 02:51:14.155   04 Jun 2027 02:52:08.742            54.587                 Moscow          1705.844
       396   04 Jun 2027 03:11:30.524   04 Jun 2027 03:12:10.445            39.921               CapeTown          1247.531
       397   04 Jun 2027 04:11:58.706   04 Jun 2027 04:12:38.244            39.538                Anadyr1          1235.562
       398   04 Jun 2027 04:12:39.154   04 Jun 2027 04:13:32.484            53.330               Magadan2          1666.563
       399   04 Jun 2027 04:13:53.596   04 Jun 2027 04:15:30.089            96.493               Magadan2          3015.406
       400   04 Jun 2027 04:15:30.089   04 Jun 2027 04:15:36.536             6.447               Magadan1           201.469
       401   04 Jun 2027 04:15:55.443   04 Jun 2027 04:16:15.427            19.984                Anadyr2           624.500
       402   04 Jun 2027 04:16:15.427   04 Jun 2027 04:17:00.167            44.740                Anadyr1          1398.125
       403   04 Jun 2027 04:57:28.502   04 Jun 2027 04:58:28.528            60.026            RioGallegos          1875.813
       404   04 Jun 2027 05:47:14.913   04 Jun 2027 05:49:39.966           145.053               Magadan1          4532.906
       405   04 Jun 2027 05:49:47.136   04 Jun 2027 05:51:15.143            88.007               Magadan1          2750.219
       406   04 Jun 2027 05:51:32.976   04 Jun 2027 05:53:43.335           130.359               Magadan1          4073.719
       407   04 Jun 2027 06:31:33.481   04 Jun 2027 06:32:01.083            27.602            RioGallegos           862.562
       408   04 Jun 2027 07:06:21.763   04 Jun 2027 07:08:20.232           118.469                Sumatra          3702.156
       409   04 Jun 2027 07:24:15.387   04 Jun 2027 07:24:57.434            42.047                Novosib          1313.969
       410   04 Jun 2027 07:25:31.933   04 Jun 2027 07:29:42.139           250.206                Irkutsk          7818.937
       411   04 Jun 2027 07:32:03.032   04 Jun 2027 07:32:18.664            15.632              Murmansk2           488.500
       412   04 Jun 2027 08:04:43.470   04 Jun 2027 08:05:25.062            41.592            RioGallegos          1299.750
       413   04 Jun 2027 08:07:57.898   04 Jun 2027 08:08:11.316            13.418            RioGallegos           419.312
       414   04 Jun 2027 08:39:14.556   04 Jun 2027 08:40:23.682            69.126                Sumatra          2160.188
       415   04 Jun 2027 08:48:50.326   04 Jun 2027 08:49:34.645            44.319                  Delhi          1384.969
       416   04 Jun 2027 08:51:14.189   04 Jun 2027 08:51:55.956            41.767                  Delhi          1305.219
       417   04 Jun 2027 08:54:20.955   04 Jun 2027 08:54:44.437            23.482                  Delhi           733.813
       418   04 Jun 2027 08:59:56.320   04 Jun 2027 09:00:23.621            27.301                Novosib           853.156
       419   04 Jun 2027 09:01:01.297   04 Jun 2027 09:01:12.370            11.073                Norilsk           346.031
       420   04 Jun 2027 09:01:16.414   04 Jun 2027 09:01:39.483            23.069              Murmansk2           720.906
       421   04 Jun 2027 09:01:44.903   04 Jun 2027 09:02:15.847            30.944              Murmansk1           967.000
       422   04 Jun 2027 09:02:28.093   04 Jun 2027 09:02:44.506            16.413                Irkutsk           512.906
       423   04 Jun 2027 09:03:00.191   04 Jun 2027 09:03:45.275            45.084              Murmansk1          1408.875
       424   04 Jun 2027 09:03:47.221   04 Jun 2027 09:04:04.954            17.733                 Moscow           554.156
       425   04 Jun 2027 09:04:10.082   04 Jun 2027 09:04:48.730            38.648              Murmansk2          1207.750
       426   04 Jun 2027 09:04:52.856   04 Jun 2027 09:05:14.030            21.174                Norilsk           661.688
       427   04 Jun 2027 09:05:17.245   04 Jun 2027 09:05:25.476             8.231                 Moscow           257.219
       428   04 Jun 2027 09:05:31.790   04 Jun 2027 09:06:23.858            52.068                 Moscow          1627.125
       429   04 Jun 2027 09:46:09.365   04 Jun 2027 09:46:53.623            44.258            RioGallegos          1383.063
       430   04 Jun 2027 09:47:45.945   04 Jun 2027 09:48:06.777            20.832            RioGallegos           651.000
       431   04 Jun 2027 10:23:42.689   04 Jun 2027 10:25:08.376            85.687                  Delhi          2677.719
       432   04 Jun 2027 10:36:34.711   04 Jun 2027 10:37:41.951            67.240                 Moscow          2101.250
       433   04 Jun 2027 10:37:54.080   04 Jun 2027 10:38:18.340            24.260              Murmansk1           758.125
       434   04 Jun 2027 10:38:42.010   04 Jun 2027 10:38:59.500            17.490              Murmansk2           546.563
       435   04 Jun 2027 10:39:04.099   04 Jun 2027 10:39:54.440            50.341                Norilsk          1573.156
       436   04 Jun 2027 10:40:10.354   04 Jun 2027 10:40:18.891             8.537                 Moscow           266.781
       437   04 Jun 2027 10:40:22.466   04 Jun 2027 10:40:33.915            11.449                Norilsk           357.781
       438   04 Jun 2027 10:40:35.595   04 Jun 2027 10:40:48.447            12.852              Murmansk2           401.625
       439   04 Jun 2027 10:41:09.728   04 Jun 2027 10:41:10.795             1.067                Norilsk            33.344
       440   04 Jun 2027 10:41:31.096   04 Jun 2027 10:41:34.902             3.806              Murmansk1           118.937
       441   04 Jun 2027 10:41:58.557   04 Jun 2027 10:42:00.519             1.962              Murmansk2            61.312
       442   04 Jun 2027 10:42:26.107   04 Jun 2027 10:42:32.120             6.013              Murmansk1           187.906
       443   04 Jun 2027 10:43:38.255   04 Jun 2027 10:43:47.499             9.244              Murmansk1           288.875
       444   04 Jun 2027 10:46:11.183   04 Jun 2027 10:46:18.749             7.566              Murmansk1           236.438
       445   04 Jun 2027 10:47:44.844   04 Jun 2027 10:48:17.816            32.972              Murmansk1          1030.375
       446   04 Jun 2027 12:07:48.535   04 Jun 2027 12:09:47.128           118.593                 Moscow          3706.031
       447   04 Jun 2027 12:10:10.395   04 Jun 2027 12:11:07.299            56.904                 Moscow          1778.250
       448   04 Jun 2027 12:11:17.932   04 Jun 2027 12:12:04.866            46.934              Murmansk2          1466.688
       449   04 Jun 2027 12:13:31.339   04 Jun 2027 12:14:19.295            47.956              Murmansk1          1498.625
       450   04 Jun 2027 12:18:48.536   04 Jun 2027 12:19:04.056            15.520              Murmansk1           485.000
       451   04 Jun 2027 12:20:24.373   04 Jun 2027 12:21:13.880            49.507                Norilsk          1547.094
       452   04 Jun 2027 13:22:04.289   04 Jun 2027 13:24:50.944           166.655               CapeTown          5207.969
       453   04 Jun 2027 13:27:19.212   04 Jun 2027 13:28:28.551            69.339               CapeTown          2166.844
       454   04 Jun 2027 13:48:36.445   04 Jun 2027 13:49:04.852            28.407              Murmansk2           887.719
       455   04 Jun 2027 13:49:21.586   04 Jun 2027 13:50:34.284            72.698              Murmansk1          2271.813
       456   04 Jun 2027 13:57:45.564   04 Jun 2027 13:58:06.785            21.221              Murmansk1           663.156
       457   04 Jun 2027 14:02:14.805   04 Jun 2027 14:04:37.664           142.859                Anadyr2          4464.344
       458   04 Jun 2027 14:04:45.828   04 Jun 2027 14:06:34.984           109.156                Anadyr1          3411.125
       459   04 Jun 2027 14:09:44.871   04 Jun 2027 14:10:26.664            41.793                Anadyr2          1306.031
       460   04 Jun 2027 15:28:18.409   04 Jun 2027 15:29:07.401            48.992              Murmansk2          1531.000
       461   04 Jun 2027 15:30:13.403   04 Jun 2027 15:30:38.901            25.498              Murmansk2           796.813
       462   04 Jun 2027 15:32:11.145   04 Jun 2027 15:33:02.391            51.246              Murmansk2          1601.437
       463   04 Jun 2027 15:37:52.193   04 Jun 2027 15:39:29.684            97.491                Anadyr1          3046.594
       464   04 Jun 2027 15:40:52.068   04 Jun 2027 15:41:03.715            11.647                Anadyr2           363.969
       465   04 Jun 2027 15:41:09.053   04 Jun 2027 15:41:12.927             3.874                Anadyr2           121.062
       466   04 Jun 2027 15:41:15.106   04 Jun 2027 15:45:36.383           261.277               Magadan2          8164.906
       467   04 Jun 2027 15:46:11.369   04 Jun 2027 15:47:15.013            63.644               Magadan2          1988.875
       468   04 Jun 2027 17:15:38.058   04 Jun 2027 17:15:42.023             3.965                Anadyr1           123.906
       469   04 Jun 2027 17:16:06.892   04 Jun 2027 17:16:40.953            34.061               Magadan2          1064.406
       470   04 Jun 2027 17:16:40.953   04 Jun 2027 17:17:56.540            75.587               Magadan1          2362.094
       471   04 Jun 2027 17:23:31.934   04 Jun 2027 17:23:51.925            19.991               Magadan1           624.719
       472   04 Jun 2027 17:24:01.417   04 Jun 2027 17:25:41.104            99.687               Magadan2          3115.219
       473   04 Jun 2027 18:10:11.978   04 Jun 2027 18:12:46.660           154.682            RioGallegos          4833.813
       474   04 Jun 2027 18:51:48.446   04 Jun 2027 18:53:18.169            89.723                Norilsk          2803.844
       475   04 Jun 2027 18:53:40.007   04 Jun 2027 18:54:20.181            40.174               Magadan1          1255.438
       476   04 Jun 2027 18:54:31.894   04 Jun 2027 18:55:19.659            47.765                Norilsk          1492.656
       477   04 Jun 2027 18:56:46.630   04 Jun 2027 19:00:11.264           204.634                Irkutsk          6394.812
       478   04 Jun 2027 19:01:20.332   04 Jun 2027 19:01:59.773            39.441                Irkutsk          1232.531
       479   04 Jun 2027 19:03:18.712   04 Jun 2027 19:03:26.677             7.965                Irkutsk           248.906
       480   04 Jun 2027 19:11:49.480   04 Jun 2027 19:14:08.528           139.048                Sumatra          4345.250
       481   04 Jun 2027 19:16:02.270   04 Jun 2027 19:17:47.224           104.954                Sumatra          3279.813
       482   04 Jun 2027 20:32:10.381   04 Jun 2027 20:32:52.279            41.898                Novosib          1309.312
