uniorb/output/strategy_1/Drop/Drop_KinoSat_111810.txt

KinoSat_111810
-------------------------
    Access    *     Start Time (UTCG)     *     Stop Time (UTCG)  *   Duration (s)        *       Station  *  Data (Mbytes)
         1   01 Jun 2027 03:57:17.941   01 Jun 2027 04:00:20.508           182.567                Irkutsk          5705.219
         2   01 Jun 2027 04:00:30.734   01 Jun 2027 04:01:46.449            75.715                Novosib          2366.094
         3   01 Jun 2027 04:02:30.890   01 Jun 2027 04:04:38.050           127.160                  Delhi          3973.750
         4   01 Jun 2027 04:06:11.237   01 Jun 2027 04:07:41.517            90.280                  Delhi          2821.250
         5   01 Jun 2027 05:34:34.471   01 Jun 2027 05:35:00.801            26.330                Norilsk           822.812
         6   01 Jun 2027 05:35:07.545   01 Jun 2027 05:35:38.367            30.822              Murmansk2           963.188
         7   01 Jun 2027 05:35:57.083   01 Jun 2027 05:36:08.742            11.659                Norilsk           364.344
         8   01 Jun 2027 05:36:26.877   01 Jun 2027 05:39:28.094           181.217              Murmansk2          5663.031
         9   01 Jun 2027 05:39:35.402   01 Jun 2027 05:42:31.989           176.587                 Moscow          5518.344
        10   01 Jun 2027 05:53:59.923   01 Jun 2027 05:56:54.600           174.677               CapeTown          5458.656
        11   01 Jun 2027 06:02:48.009   01 Jun 2027 06:03:33.597            45.588               CapeTown          1424.625
        12   01 Jun 2027 06:06:10.251   01 Jun 2027 06:06:47.397            37.146               CapeTown          1160.813
        13   01 Jun 2027 06:58:22.224   01 Jun 2027 07:02:57.300           275.076               Magadan1          8596.125
        14   01 Jun 2027 07:03:01.790   01 Jun 2027 07:03:38.348            36.558                Anadyr1          1142.437
        15   01 Jun 2027 07:04:11.886   01 Jun 2027 07:04:19.346             7.460              Murmansk2           233.125
        16   01 Jun 2027 07:11:33.943   01 Jun 2027 07:11:43.686             9.743                 Moscow           304.469
        17   01 Jun 2027 07:11:50.883   01 Jun 2027 07:12:33.829            42.946                 Moscow          1342.062
        18   01 Jun 2027 08:34:08.038   01 Jun 2027 08:34:56.043            48.005               Magadan2          1500.156
        19   01 Jun 2027 08:35:22.525   01 Jun 2027 08:37:12.476           109.951               Magadan2          3435.969
        20   01 Jun 2027 08:37:12.476   01 Jun 2027 08:37:43.015            30.539               Magadan1           954.344
        21   01 Jun 2027 08:37:47.320   01 Jun 2027 08:39:28.050           100.730                Anadyr2          3147.813
        22   01 Jun 2027 10:07:24.172   01 Jun 2027 10:07:55.267            31.095               Magadan1           971.719
        23   01 Jun 2027 10:08:19.964   01 Jun 2027 10:08:56.126            36.162               Magadan1          1130.063
        24   01 Jun 2027 10:08:56.126   01 Jun 2027 10:13:51.714           295.588               Magadan2          9237.125
        25   01 Jun 2027 10:14:14.178   01 Jun 2027 10:14:19.654             5.476                Anadyr1           171.125
        26   01 Jun 2027 10:14:42.944   01 Jun 2027 10:15:02.140            19.196                Norilsk           599.875
        27   01 Jun 2027 10:50:04.299   01 Jun 2027 10:50:54.434            50.135            RioGallegos          1566.719
        28   01 Jun 2027 11:27:25.644   01 Jun 2027 11:29:17.576           111.932                Sumatra          3497.875
        29   01 Jun 2027 11:44:19.651   01 Jun 2027 11:46:01.903           102.252               Magadan1          3195.375
        30   01 Jun 2027 11:46:01.903   01 Jun 2027 11:48:56.811           174.908               Magadan2          5465.875
        31   01 Jun 2027 11:49:40.557   01 Jun 2027 11:50:10.816            30.259                Irkutsk           945.594
        32   01 Jun 2027 11:52:08.116   01 Jun 2027 11:52:21.694            13.578                Norilsk           424.312
        33   01 Jun 2027 12:26:00.898   01 Jun 2027 12:27:21.167            80.269            RioGallegos          2508.406
        34   01 Jun 2027 12:29:09.910   01 Jun 2027 12:30:36.690            86.780            RioGallegos          2711.875
        35   01 Jun 2027 13:00:31.122   01 Jun 2027 13:01:47.246            76.124                Sumatra          2378.875
        36   01 Jun 2027 13:03:34.074   01 Jun 2027 13:04:51.485            77.411                Sumatra          2419.094
        37   01 Jun 2027 13:15:05.973   01 Jun 2027 13:16:58.716           112.743                Irkutsk          3523.219
        38   01 Jun 2027 13:19:05.786   01 Jun 2027 13:20:06.561            60.775                Irkutsk          1899.219
        39   01 Jun 2027 13:20:18.747   01 Jun 2027 13:20:42.462            23.715                Norilsk           741.094
        40   01 Jun 2027 13:22:53.238   01 Jun 2027 13:24:54.765           121.527                Irkutsk          3797.719
        41   01 Jun 2027 13:25:35.770   01 Jun 2027 13:25:49.541            13.771                Irkutsk           430.344
        42   01 Jun 2027 14:07:37.992   01 Jun 2027 14:11:00.763           202.771            RioGallegos          6336.594
        43   01 Jun 2027 14:53:02.751   01 Jun 2027 14:53:43.161            40.410                Novosib          1262.812
        44   01 Jun 2027 14:54:50.934   01 Jun 2027 14:55:45.280            54.346                  Delhi          1698.312
        45   01 Jun 2027 14:56:32.327   01 Jun 2027 14:57:44.478            72.151                Novosib          2254.719
        46   01 Jun 2027 15:00:18.239   01 Jun 2027 15:03:18.275           180.036                Novosib          5626.125
        47   01 Jun 2027 16:29:04.351   01 Jun 2027 16:30:14.733            70.382                 Moscow          2199.437
        48   01 Jun 2027 16:30:59.017   01 Jun 2027 16:33:04.279           125.262                 Moscow          3914.438
        49   01 Jun 2027 16:36:53.014   01 Jun 2027 16:37:11.737            18.723                 Moscow           585.094
        50   01 Jun 2027 16:37:19.255   01 Jun 2027 16:41:50.822           271.567                Norilsk          8486.469
        51   01 Jun 2027 17:43:15.669   01 Jun 2027 17:44:15.690            60.021               CapeTown          1875.656
        52   01 Jun 2027 17:47:35.529   01 Jun 2027 17:48:00.797            25.268               CapeTown           789.625
        53   01 Jun 2027 17:49:16.470   01 Jun 2027 17:49:39.538            23.068               CapeTown           720.875
        54   01 Jun 2027 17:50:08.962   01 Jun 2027 17:50:42.077            33.115               CapeTown          1034.844
        55   01 Jun 2027 17:52:38.398   01 Jun 2027 17:53:22.542            44.144               CapeTown          1379.500
        56   01 Jun 2027 18:06:57.965   01 Jun 2027 18:08:08.523            70.558                 Moscow          2204.938
        57   01 Jun 2027 18:09:54.000   01 Jun 2027 18:11:10.435            76.435              Murmansk1          2388.594
        58   01 Jun 2027 18:11:56.154   01 Jun 2027 18:12:22.290            26.136                 Moscow           816.750
        59   01 Jun 2027 18:13:26.112   01 Jun 2027 18:14:22.462            56.350              Murmansk2          1760.937
        60   01 Jun 2027 18:17:00.630   01 Jun 2027 18:17:14.836            14.206                 Moscow           443.938
        61   01 Jun 2027 18:19:21.267   01 Jun 2027 18:19:39.379            18.112              Murmansk1           566.000
        62   01 Jun 2027 18:20:18.483   01 Jun 2027 18:20:24.315             5.832              Murmansk2           182.250
        63   01 Jun 2027 18:20:26.829   01 Jun 2027 18:21:01.688            34.859              Murmansk2          1089.344
        64   01 Jun 2027 18:28:39.223   01 Jun 2027 18:28:44.152             4.929                Anadyr1           154.031
        65   01 Jun 2027 18:29:57.224   01 Jun 2027 18:30:00.858             3.634                Anadyr2           113.563
        66   01 Jun 2027 18:31:19.708   01 Jun 2027 18:31:45.053            25.345                Anadyr2           792.031
        67   01 Jun 2027 18:31:46.879   01 Jun 2027 18:32:24.498            37.619                Anadyr2          1175.594
        68   01 Jun 2027 18:33:07.412   01 Jun 2027 18:33:40.485            33.073                Anadyr1          1033.531
        69   01 Jun 2027 19:23:00.151   01 Jun 2027 19:23:29.237            29.086               CapeTown           908.938
        70   01 Jun 2027 19:24:16.423   01 Jun 2027 19:26:31.067           134.644               CapeTown          4207.625
        71   01 Jun 2027 19:49:37.156   01 Jun 2027 19:51:22.247           105.091              Murmansk2          3284.094
        72   01 Jun 2027 19:51:51.138   01 Jun 2027 19:54:17.289           146.151              Murmansk1          4567.219
        73   01 Jun 2027 19:55:13.171   01 Jun 2027 19:55:20.816             7.645              Murmansk2           238.906
        74   01 Jun 2027 19:56:38.670   01 Jun 2027 19:57:03.611            24.941              Murmansk1           779.406
        75   01 Jun 2027 20:09:23.248   01 Jun 2027 20:09:55.976            32.728               Magadan2          1022.750
        76   01 Jun 2027 21:35:03.477   01 Jun 2027 21:36:43.021            99.544                Anadyr1          3110.750
        77   01 Jun 2027 21:36:51.587   01 Jun 2027 21:41:28.826           277.239                Anadyr2          8663.719
        78   01 Jun 2027 21:41:45.037   01 Jun 2027 21:42:49.517            64.480               Magadan1          2015.000
        79   01 Jun 2027 21:42:53.926   01 Jun 2027 21:43:08.743            14.817               Magadan2           463.031
        80   01 Jun 2027 21:44:23.534   01 Jun 2027 21:44:33.519             9.985               Magadan1           312.031
        81   01 Jun 2027 21:44:33.519   01 Jun 2027 21:45:34.253            60.734               Magadan2          1897.938
        82   01 Jun 2027 21:47:33.878   01 Jun 2027 21:48:12.122            38.244               Magadan2          1195.125
        83   01 Jun 2027 22:31:13.114   01 Jun 2027 22:32:46.300            93.186            RioGallegos          2912.063
        84   01 Jun 2027 22:34:22.712   01 Jun 2027 22:34:47.155            24.443            RioGallegos           763.844
        85   01 Jun 2027 22:36:07.936   01 Jun 2027 22:36:53.387            45.451            RioGallegos          1420.344
        86   01 Jun 2027 23:10:53.249   01 Jun 2027 23:11:51.299            58.050                Anadyr2          1814.063
        87   01 Jun 2027 23:12:07.454   01 Jun 2027 23:12:26.744            19.290                Anadyr2           602.812
        88   01 Jun 2027 23:12:44.598   01 Jun 2027 23:12:47.849             3.251                Anadyr1           101.594
        89   01 Jun 2027 23:12:59.497   01 Jun 2027 23:14:05.130            65.633                Norilsk          2051.031
        90   01 Jun 2027 23:14:27.815   01 Jun 2027 23:15:01.195            33.380               Magadan2          1043.125
        91   01 Jun 2027 23:15:11.962   01 Jun 2027 23:15:40.814            28.852               Magadan1           901.625
        92   01 Jun 2027 23:16:18.645   01 Jun 2027 23:16:19.144             0.499                Norilsk            15.594
        93   01 Jun 2027 23:16:28.842   01 Jun 2027 23:16:57.326            28.484               Magadan2           890.125
        94   01 Jun 2027 23:17:49.124   01 Jun 2027 23:18:19.257            30.133                Norilsk           941.656
        95   01 Jun 2027 23:18:43.192   01 Jun 2027 23:18:47.384             4.192               Magadan2           131.000
        96   01 Jun 2027 23:19:08.751   01 Jun 2027 23:19:35.923            27.172               Magadan2           849.125
        97   01 Jun 2027 23:19:58.731   01 Jun 2027 23:20:11.313            12.582               Magadan2           393.187
        98   01 Jun 2027 23:21:06.652   01 Jun 2027 23:21:21.923            15.271                Irkutsk           477.219
        99   01 Jun 2027 23:22:02.308   01 Jun 2027 23:22:13.056            10.748                Irkutsk           335.875
       100   01 Jun 2027 23:24:32.843   01 Jun 2027 23:25:27.006            54.163                Irkutsk          1692.594
       101   01 Jun 2027 23:32:55.334   01 Jun 2027 23:34:53.843           118.509                Sumatra          3703.406
       102   01 Jun 2027 23:38:54.868   01 Jun 2027 23:40:51.721           116.853                Sumatra          3651.656
       103   02 Jun 2027 00:46:10.393   02 Jun 2027 00:46:33.414            23.021                Anadyr1           719.406
       104   02 Jun 2027 00:47:03.214   02 Jun 2027 00:47:38.589            35.375                Anadyr1          1105.469
       105   02 Jun 2027 00:48:25.964   02 Jun 2027 00:48:47.132            21.168                Anadyr2           661.500
       106   02 Jun 2027 00:49:05.640   02 Jun 2027 00:50:32.609            86.969                Norilsk          2717.781
       107   02 Jun 2027 00:50:57.174   02 Jun 2027 00:52:36.322            99.148               Magadan1          3098.375
       108   02 Jun 2027 00:53:53.865   02 Jun 2027 00:54:50.369            56.504                Irkutsk          1765.750
       109   02 Jun 2027 00:57:26.029   02 Jun 2027 00:57:50.885            24.856                Novosib           776.750
       110   02 Jun 2027 00:59:13.467   02 Jun 2027 01:00:02.411            48.944                Novosib          1529.500
       111   02 Jun 2027 01:03:49.985   02 Jun 2027 01:04:15.231            25.246                  Delhi           788.938
       112   02 Jun 2027 01:08:23.394   02 Jun 2027 01:08:33.962            10.568                  Delhi           330.250
       113   02 Jun 2027 01:11:08.240   02 Jun 2027 01:12:13.495            65.255                Sumatra          2039.219
       114   02 Jun 2027 01:15:23.132   02 Jun 2027 01:16:20.034            56.902                Sumatra          1778.188
       115   02 Jun 2027 01:18:04.499   02 Jun 2027 01:18:56.814            52.315                Sumatra          1634.844
       116   02 Jun 2027 01:49:27.358   02 Jun 2027 01:49:59.819            32.461            RioGallegos          1014.406
       117   02 Jun 2027 01:51:15.120   02 Jun 2027 01:51:53.661            38.541            RioGallegos          1204.406
       118   02 Jun 2027 02:22:19.658   02 Jun 2027 02:22:30.872            11.214                Anadyr1           350.438
       119   02 Jun 2027 02:22:30.872   02 Jun 2027 02:22:51.920            21.048                Anadyr2           657.750
       120   02 Jun 2027 02:24:47.375   02 Jun 2027 02:25:46.937            59.562                Norilsk          1861.313
       121   02 Jun 2027 02:25:47.181   02 Jun 2027 02:25:58.498            11.317                Norilsk           353.656
       122   02 Jun 2027 02:26:07.416   02 Jun 2027 02:26:33.002            25.586                Norilsk           799.563
       123   02 Jun 2027 02:27:40.333   02 Jun 2027 02:28:21.206            40.873              Murmansk2          1277.281
       124   02 Jun 2027 02:28:35.247   02 Jun 2027 02:28:53.883            18.636                Novosib           582.375
       125   02 Jun 2027 02:29:24.417   02 Jun 2027 02:30:13.246            48.829                Irkutsk          1525.906
       126   02 Jun 2027 02:32:50.549   02 Jun 2027 02:33:04.357            13.808                Novosib           431.500
       127   02 Jun 2027 02:36:00.969   02 Jun 2027 02:36:29.730            28.761                Irkutsk           898.781
       128   02 Jun 2027 02:37:10.637   02 Jun 2027 02:37:35.811            25.174                Irkutsk           786.687
       129   02 Jun 2027 02:39:38.449   02 Jun 2027 02:39:51.357            12.908                Irkutsk           403.375
       130   02 Jun 2027 02:41:11.254   02 Jun 2027 02:41:48.780            37.526                  Delhi          1172.687
       131   02 Jun 2027 02:47:50.509   02 Jun 2027 02:48:22.164            31.655                  Delhi           989.219
       132   02 Jun 2027 03:17:51.917   02 Jun 2027 03:18:52.235            60.318            RioGallegos          1884.937
       133   02 Jun 2027 03:20:06.479   02 Jun 2027 03:22:48.894           162.415            RioGallegos          5075.469
       134   02 Jun 2027 04:07:14.452   02 Jun 2027 04:08:58.011           103.559                Irkutsk          3236.219
       135   02 Jun 2027 04:10:30.183   02 Jun 2027 04:10:47.764            17.581              Murmansk1           549.406
       136   02 Jun 2027 04:10:58.216   02 Jun 2027 04:11:24.161            25.945                Irkutsk           810.781
       137   02 Jun 2027 04:11:31.229   02 Jun 2027 04:13:22.639           111.410                Norilsk          3481.563
       138   02 Jun 2027 04:13:31.152   02 Jun 2027 04:13:33.714             2.562              Murmansk1            80.062
       139   02 Jun 2027 04:13:44.241   02 Jun 2027 04:16:25.324           161.083                  Delhi          5033.844
       140   02 Jun 2027 05:46:56.375   02 Jun 2027 05:47:58.852            62.477                Novosib          1952.406
       141   02 Jun 2027 05:48:28.882   02 Jun 2027 05:51:37.698           188.816              Murmansk2          5900.500
       142   02 Jun 2027 05:51:42.082   02 Jun 2027 05:51:46.997             4.915                 Moscow           153.594
       143   02 Jun 2027 05:52:13.848   02 Jun 2027 05:53:35.469            81.621                 Moscow          2550.656
       144   02 Jun 2027 06:05:59.709   02 Jun 2027 06:08:31.761           152.052               CapeTown          4751.625
       145   02 Jun 2027 07:10:06.055   02 Jun 2027 07:10:59.125            53.070                Anadyr1          1658.437
       146   02 Jun 2027 07:11:04.328   02 Jun 2027 07:11:13.688             9.360               Magadan1           292.500
       147   02 Jun 2027 07:12:18.637   02 Jun 2027 07:14:58.383           159.746                Anadyr1          4992.062
       148   02 Jun 2027 07:14:58.383   02 Jun 2027 07:15:22.972            24.589                Anadyr2           768.406
       149   02 Jun 2027 08:47:08.890   02 Jun 2027 08:50:17.534           188.644               Magadan2          5895.125
       150   02 Jun 2027 08:50:19.077   02 Jun 2027 08:51:27.051            67.974                Anadyr2          2124.188
       151   02 Jun 2027 10:19:24.982   02 Jun 2027 10:20:26.920            61.938               Magadan2          1935.563
       152   02 Jun 2027 10:20:46.237   02 Jun 2027 10:25:45.480           299.243               Magadan2          9351.344
       153   02 Jun 2027 10:26:02.670   02 Jun 2027 10:26:56.550            53.880               Magadan2          1683.750
       154   02 Jun 2027 11:57:11.335   02 Jun 2027 11:58:05.812            54.477                Irkutsk          1702.406
       155   02 Jun 2027 11:58:50.540   02 Jun 2027 11:59:06.193            15.653               Magadan1           489.156
       156   02 Jun 2027 11:59:34.469   02 Jun 2027 11:59:50.703            16.234                Norilsk           507.313
       157   02 Jun 2027 12:00:00.101   02 Jun 2027 12:05:12.991           312.890                Norilsk          9777.812
       158   02 Jun 2027 12:05:39.733   02 Jun 2027 12:05:50.229            10.496              Murmansk2           328.000
       159   02 Jun 2027 12:05:50.229   02 Jun 2027 12:06:21.750            31.521              Murmansk1           985.031
       160   02 Jun 2027 12:06:41.629   02 Jun 2027 12:06:58.294            16.665              Murmansk2           520.781
       161   02 Jun 2027 12:07:19.351   02 Jun 2027 12:07:59.082            39.731              Murmansk2          1241.594
       162   02 Jun 2027 12:08:15.008   02 Jun 2027 12:10:46.099           151.091              Murmansk2          4721.594
       163   02 Jun 2027 12:44:07.238   02 Jun 2027 12:46:32.188           144.950            RioGallegos          4529.688
       164   02 Jun 2027 12:48:11.113   02 Jun 2027 12:48:29.000            17.887            RioGallegos           558.969
       165   02 Jun 2027 12:49:03.375   02 Jun 2027 12:50:09.991            66.616            RioGallegos          2081.750
       166   02 Jun 2027 13:18:14.524   02 Jun 2027 13:24:49.535           395.011                Sumatra         12344.094
       167   02 Jun 2027 13:31:29.464   02 Jun 2027 13:33:14.767           105.303                  Delhi          3290.719
       168   02 Jun 2027 13:34:47.692   02 Jun 2027 13:38:18.746           211.054                Irkutsk          6595.438
       169   02 Jun 2027 13:43:32.820   02 Jun 2027 13:43:56.186            23.366                Norilsk           730.187
       170   02 Jun 2027 13:45:41.250   02 Jun 2027 13:45:52.898            11.648              Murmansk2           364.000
       171   02 Jun 2027 15:04:07.205   02 Jun 2027 15:08:49.953           282.748                  Delhi          8835.875
       172   02 Jun 2027 15:12:01.246   02 Jun 2027 15:15:42.044           220.798                Novosib          6899.938
       173   02 Jun 2027 16:47:54.658   02 Jun 2027 16:48:45.455            50.797              Murmansk1          1587.406
       174   02 Jun 2027 16:48:59.982   02 Jun 2027 16:50:48.679           108.697                 Moscow          3396.781
       175   02 Jun 2027 16:51:15.999   02 Jun 2027 16:55:16.797           240.798                Norilsk          7524.937
       176   02 Jun 2027 16:56:46.865   02 Jun 2027 16:57:30.629            43.764              Murmansk1          1367.625
       177   02 Jun 2027 18:02:02.454   02 Jun 2027 18:02:10.970             8.516               CapeTown           266.125
       178   02 Jun 2027 18:02:21.868   02 Jun 2027 18:04:27.872           126.004               CapeTown          3937.625
       179   02 Jun 2027 18:05:22.472   02 Jun 2027 18:06:19.311            56.839               CapeTown          1776.219
       180   02 Jun 2027 18:23:05.375   02 Jun 2027 18:23:26.177            20.802              Murmansk1           650.063
       181   02 Jun 2027 18:23:52.991   02 Jun 2027 18:25:23.800            90.809              Murmansk1          2837.781
       182   02 Jun 2027 18:25:39.962   02 Jun 2027 18:29:02.924           202.962                 Moscow          6342.562
       183   02 Jun 2027 18:44:45.533   02 Jun 2027 18:45:24.397            38.864                Anadyr1          1214.500
       184   02 Jun 2027 18:45:35.902   02 Jun 2027 18:45:38.238             2.336                Anadyr1            73.000
       185   02 Jun 2027 19:33:46.875   02 Jun 2027 19:35:22.360            95.485               CapeTown          2983.906
       186   02 Jun 2027 19:37:35.265   02 Jun 2027 19:38:42.374            67.109               CapeTown          2097.156
       187   02 Jun 2027 19:40:35.676   02 Jun 2027 19:41:56.848            81.172               CapeTown          2536.625
       188   02 Jun 2027 20:02:22.576   02 Jun 2027 20:08:26.103           363.527              Murmansk2         11360.219
       189   02 Jun 2027 20:08:39.866   02 Jun 2027 20:08:57.064            17.198              Murmansk1           537.438
       190   02 Jun 2027 21:47:05.153   02 Jun 2027 21:48:53.517           108.364                Anadyr2          3386.375
       191   02 Jun 2027 21:49:21.881   02 Jun 2027 21:50:37.720            75.839               Magadan1          2369.969
       192   02 Jun 2027 21:51:05.260   02 Jun 2027 21:51:19.087            13.827               Magadan2           432.094
       193   02 Jun 2027 21:51:28.433   02 Jun 2027 21:51:43.158            14.725                Anadyr1           460.156
       194   02 Jun 2027 21:52:28.678   02 Jun 2027 21:52:54.768            26.090               Magadan1           815.313
       195   02 Jun 2027 21:53:28.187   02 Jun 2027 21:53:42.506            14.319               Magadan2           447.469
       196   02 Jun 2027 21:54:17.976   02 Jun 2027 21:54:36.342            18.366                Anadyr1           573.938
       197   02 Jun 2027 21:54:52.213   02 Jun 2027 21:55:08.726            16.513               Magadan2           516.031
       198   02 Jun 2027 21:55:08.726   02 Jun 2027 21:55:10.600             1.874               Magadan1            58.562
       199   02 Jun 2027 21:55:26.301   02 Jun 2027 21:56:01.792            35.491               Magadan1          1109.094
       200   02 Jun 2027 21:57:16.411   02 Jun 2027 21:57:31.506            15.095               Magadan1           471.719
       201   02 Jun 2027 21:58:35.172   02 Jun 2027 21:59:13.609            38.437               Magadan2          1201.156
       202   02 Jun 2027 22:00:10.740   02 Jun 2027 22:00:41.300            30.560               Magadan1           955.000
       203   02 Jun 2027 22:43:45.312   02 Jun 2027 22:44:16.643            31.331            RioGallegos           979.094
       204   02 Jun 2027 22:45:28.409   02 Jun 2027 22:46:21.156            52.747            RioGallegos          1648.344
       205   02 Jun 2027 22:48:47.192   02 Jun 2027 22:49:27.383            40.191            RioGallegos          1255.969
       206   02 Jun 2027 23:22:52.573   02 Jun 2027 23:26:06.799           194.226                Anadyr1          6069.563
       207   02 Jun 2027 23:26:26.418   02 Jun 2027 23:26:58.295            31.877               Magadan2           996.156
       208   02 Jun 2027 23:27:05.331   02 Jun 2027 23:27:14.703             9.372               Magadan1           292.875
       209   02 Jun 2027 23:27:33.300   02 Jun 2027 23:27:58.668            25.368               Magadan2           792.750
       210   02 Jun 2027 23:29:15.124   02 Jun 2027 23:29:50.171            35.047               Magadan1          1095.219
       211   02 Jun 2027 23:30:21.737   02 Jun 2027 23:30:32.366            10.629                Norilsk           332.156
       212   02 Jun 2027 23:31:22.088   02 Jun 2027 23:31:40.296            18.208               Magadan1           569.000
       213   02 Jun 2027 23:31:52.886   02 Jun 2027 23:32:28.225            35.339               Magadan2          1104.344
       214   02 Jun 2027 23:34:13.676   02 Jun 2027 23:34:30.266            16.590                Irkutsk           518.438
       215   02 Jun 2027 23:35:09.546   02 Jun 2027 23:35:57.635            48.089                Irkutsk          1502.781
       216   02 Jun 2027 23:38:02.206   02 Jun 2027 23:38:23.464            21.258                Irkutsk           664.312
       217   02 Jun 2027 23:47:24.793   02 Jun 2027 23:47:59.369            34.576                Sumatra          1080.500
       218   02 Jun 2027 23:49:08.795   02 Jun 2027 23:50:10.404            61.609                Sumatra          1925.281
       219   02 Jun 2027 23:53:18.070   02 Jun 2027 23:53:33.614            15.544                Sumatra           485.750
       220   03 Jun 2027 00:24:21.878   03 Jun 2027 00:24:40.001            18.123            RioGallegos           566.344
       221   03 Jun 2027 00:25:10.710   03 Jun 2027 00:25:16.679             5.969            RioGallegos           186.531
       222   03 Jun 2027 00:26:02.963   03 Jun 2027 00:26:24.407            21.444            RioGallegos           670.125
       223   03 Jun 2027 00:28:12.414   03 Jun 2027 00:29:03.663            51.249            RioGallegos          1601.531
       224   03 Jun 2027 00:58:02.833   03 Jun 2027 00:58:12.875            10.042                Anadyr2           313.813
       225   03 Jun 2027 00:58:17.826   03 Jun 2027 00:58:36.626            18.800                Anadyr2           587.500
       226   03 Jun 2027 00:59:12.238   03 Jun 2027 00:59:35.928            23.690                Anadyr2           740.312
       227   03 Jun 2027 01:00:23.549   03 Jun 2027 01:00:45.138            21.589                Anadyr1           674.656
       228   03 Jun 2027 01:00:45.138   03 Jun 2027 01:00:52.097             6.959                Anadyr2           217.469
       229   03 Jun 2027 01:00:54.029   03 Jun 2027 01:02:14.265            80.236                Norilsk          2507.375
       230   03 Jun 2027 01:03:10.255   03 Jun 2027 01:03:44.345            34.090               Magadan2          1065.313
       231   03 Jun 2027 01:04:36.645   03 Jun 2027 01:04:38.257             1.612                Norilsk            50.375
       232   03 Jun 2027 01:04:42.266   03 Jun 2027 01:05:10.690            28.424                Irkutsk           888.250
       233   03 Jun 2027 01:05:24.732   03 Jun 2027 01:06:31.234            66.502               Magadan2          2078.187
       234   03 Jun 2027 01:09:57.417   03 Jun 2027 01:10:30.726            33.309                Irkutsk          1040.906
       235   03 Jun 2027 01:11:58.925   03 Jun 2027 01:13:31.672            92.747                Irkutsk          2898.344
       236   03 Jun 2027 01:20:28.413   03 Jun 2027 01:21:19.730            51.317                Sumatra          1603.656
       237   03 Jun 2027 01:24:16.993   03 Jun 2027 01:25:43.111            86.118                Sumatra          2691.188
       238   03 Jun 2027 01:30:17.763   03 Jun 2027 01:30:40.530            22.767                Sumatra           711.469
       239   03 Jun 2027 01:57:48.257   03 Jun 2027 01:58:05.330            17.073            RioGallegos           533.531
       240   03 Jun 2027 01:58:31.512   03 Jun 2027 02:00:01.984            90.472            RioGallegos          2827.250
       241   03 Jun 2027 02:35:51.860   03 Jun 2027 02:35:54.751             2.891                Anadyr1            90.344
       242   03 Jun 2027 02:36:49.612   03 Jun 2027 02:37:46.835            57.223                Norilsk          1788.219
       243   03 Jun 2027 02:38:04.196   03 Jun 2027 02:38:08.711             4.515                Norilsk           141.094
       244   03 Jun 2027 02:39:08.114   03 Jun 2027 02:39:11.423             3.309                Norilsk           103.406
       245   03 Jun 2027 02:39:29.768   03 Jun 2027 02:39:46.353            16.585              Murmansk1           518.281
       246   03 Jun 2027 02:39:46.353   03 Jun 2027 02:40:21.805            35.452              Murmansk2          1107.875
       247   03 Jun 2027 02:41:57.294   03 Jun 2027 02:42:17.692            20.398                Irkutsk           637.437
       248   03 Jun 2027 02:42:41.635   03 Jun 2027 02:43:44.766            63.131                Irkutsk          1972.844
       249   03 Jun 2027 02:48:46.382   03 Jun 2027 02:48:53.044             6.662                Irkutsk           208.187
       250   03 Jun 2027 02:48:55.337   03 Jun 2027 02:49:11.456            16.119                Irkutsk           503.719
       251   03 Jun 2027 02:49:54.682   03 Jun 2027 02:50:50.760            56.078                Irkutsk          1752.437
       252   03 Jun 2027 02:56:49.509   03 Jun 2027 02:57:27.253            37.744                  Delhi          1179.500
       253   03 Jun 2027 03:30:14.472   03 Jun 2027 03:31:19.394            64.922            RioGallegos          2028.813
       254   03 Jun 2027 03:31:40.916   03 Jun 2027 03:33:01.060            80.144            RioGallegos          2504.500
       255   03 Jun 2027 03:34:08.360   03 Jun 2027 03:35:27.097            78.737            RioGallegos          2460.531
       256   03 Jun 2027 04:18:47.551   03 Jun 2027 04:19:10.628            23.077                Irkutsk           721.156
       257   03 Jun 2027 04:20:41.201   03 Jun 2027 04:22:19.876            98.675                Irkutsk          3083.594
       258   03 Jun 2027 04:22:25.821   03 Jun 2027 04:27:51.826           326.005                Novosib         10187.656
       259   03 Jun 2027 04:30:19.849   03 Jun 2027 04:31:03.835            43.986                  Delhi          1374.562
       260   03 Jun 2027 05:59:31.600   03 Jun 2027 06:00:31.235            59.635              Murmansk2          1863.594
       261   03 Jun 2027 06:00:58.839   03 Jun 2027 06:01:49.189            50.350                 Moscow          1573.437
       262   03 Jun 2027 06:01:52.075   03 Jun 2027 06:03:45.528           113.453              Murmansk2          3545.406
       263   03 Jun 2027 06:05:52.661   03 Jun 2027 06:06:11.362            18.701                 Moscow           584.406
       264   03 Jun 2027 06:06:44.531   03 Jun 2027 06:07:00.923            16.392                 Moscow           512.250
       265   03 Jun 2027 06:18:04.616   03 Jun 2027 06:20:14.790           130.174               CapeTown          4067.937
       266   03 Jun 2027 06:21:08.517   03 Jun 2027 06:22:23.142            74.625               CapeTown          2332.031
       267   03 Jun 2027 06:24:42.777   03 Jun 2027 06:26:59.229           136.452               CapeTown          4264.125
       268   03 Jun 2027 07:22:33.786   03 Jun 2027 07:22:54.592            20.806                Anadyr2           650.188
       269   03 Jun 2027 07:23:03.029   03 Jun 2027 07:23:48.321            45.292               Magadan2          1415.375
       270   03 Jun 2027 07:23:48.321   03 Jun 2027 07:23:56.855             8.534               Magadan1           266.687
       271   03 Jun 2027 07:23:57.909   03 Jun 2027 07:26:53.583           175.674                Anadyr1          5489.812
       272   03 Jun 2027 08:57:29.712   03 Jun 2027 08:58:37.657            67.945                Anadyr2          2123.281
       273   03 Jun 2027 08:59:27.396   03 Jun 2027 09:01:11.931           104.535               Magadan2          3266.719
       274   03 Jun 2027 09:02:40.733   03 Jun 2027 09:03:25.248            44.515                Anadyr1          1391.094
       275   03 Jun 2027 10:32:50.752   03 Jun 2027 10:38:52.070           361.318               Magadan2         11291.187
       276   03 Jun 2027 13:50:04.729   03 Jun 2027 13:50:06.756             2.027                Irkutsk            63.344
       277   03 Jun 2027 15:09:50.579   03 Jun 2027 15:14:53.764           303.185                  Delhi          9474.531
       278   03 Jun 2027 15:18:12.590   03 Jun 2027 15:20:29.080           136.490                Novosib          4265.312
       279   03 Jun 2027 15:22:27.792   03 Jun 2027 15:22:59.474            31.682                Novosib           990.063
       280   03 Jun 2027 16:53:16.245   03 Jun 2027 16:54:08.602            52.357                 Moscow          1636.156
       281   03 Jun 2027 16:55:01.213   03 Jun 2027 16:56:24.612            83.399                 Moscow          2606.219
       282   03 Jun 2027 17:01:44.073   03 Jun 2027 17:02:22.792            38.719              Murmansk2          1209.969
       283   03 Jun 2027 17:03:11.869   03 Jun 2027 17:04:23.530            71.661                Norilsk          2239.406
       284   03 Jun 2027 17:06:31.686   03 Jun 2027 17:07:00.309            28.623                Norilsk           894.469
       285   03 Jun 2027 17:13:41.720   03 Jun 2027 17:14:31.417            49.697                Anadyr2          1553.031
       286   03 Jun 2027 18:06:51.924   03 Jun 2027 18:07:07.573            15.649               CapeTown           489.031
       287   03 Jun 2027 18:08:27.672   03 Jun 2027 18:08:35.194             7.522               CapeTown           235.063
       288   03 Jun 2027 18:09:29.345   03 Jun 2027 18:10:06.132            36.787               CapeTown          1149.594
       289   03 Jun 2027 18:13:47.264   03 Jun 2027 18:13:55.519             8.255               CapeTown           257.969
       290   03 Jun 2027 18:17:17.383   03 Jun 2027 18:17:41.928            24.545               CapeTown           767.031
       291   03 Jun 2027 18:32:18.193   03 Jun 2027 18:36:56.089           277.896                 Moscow          8684.250
       292   03 Jun 2027 18:39:39.531   03 Jun 2027 18:39:43.335             3.804              Murmansk1           118.875
       293   03 Jun 2027 18:43:53.644   03 Jun 2027 18:44:54.632            60.988              Murmansk2          1905.875
       294   03 Jun 2027 19:43:08.861   03 Jun 2027 19:44:23.303            74.442               CapeTown          2326.313
       295   03 Jun 2027 19:47:05.026   03 Jun 2027 19:47:35.077            30.051               CapeTown           939.094
       296   03 Jun 2027 19:51:37.444   03 Jun 2027 19:52:58.536            81.092               CapeTown          2534.125
       297   03 Jun 2027 20:15:13.719   03 Jun 2027 20:20:46.904           333.185              Murmansk1         10412.031
       298   03 Jun 2027 21:59:06.694   03 Jun 2027 22:02:53.557           226.863                Anadyr1          7089.469
       299   03 Jun 2027 22:03:03.560   03 Jun 2027 22:04:36.900            93.340               Magadan1          2916.875
       300   03 Jun 2027 22:04:57.754   03 Jun 2027 22:05:38.007            40.253               Magadan2          1257.906
       301   03 Jun 2027 22:05:51.637   03 Jun 2027 22:06:03.507            11.870               Magadan2           370.938
       302   03 Jun 2027 22:06:28.512   03 Jun 2027 22:07:12.033            43.521               Magadan1          1360.031
       303   03 Jun 2027 22:54:08.134   03 Jun 2027 22:57:16.399           188.265            RioGallegos          5883.281
       304   03 Jun 2027 23:34:51.325   03 Jun 2027 23:35:56.953            65.628                Anadyr1          2050.875
       305   03 Jun 2027 23:36:09.916   03 Jun 2027 23:36:16.026             6.110                Anadyr2           190.937
       306   03 Jun 2027 23:36:43.004   03 Jun 2027 23:38:07.824            84.820                Anadyr2          2650.625
       307   03 Jun 2027 23:38:10.008   03 Jun 2027 23:40:38.083           148.075               Magadan1          4627.344
       308   03 Jun 2027 23:41:26.320   03 Jun 2027 23:42:32.067            65.747                Irkutsk          2054.594
       309   03 Jun 2027 23:50:28.892   03 Jun 2027 23:50:53.002            24.110                Irkutsk           753.437
       310   03 Jun 2027 23:55:36.461   03 Jun 2027 23:56:49.117            72.656                Sumatra          2270.500
       311   04 Jun 2027 00:00:58.453   04 Jun 2027 00:01:21.636            23.183                Sumatra           724.469
       312   04 Jun 2027 00:28:50.061   04 Jun 2027 00:29:53.698            63.637            RioGallegos          1988.656
       313   04 Jun 2027 00:35:53.943   04 Jun 2027 00:36:21.520            27.577            RioGallegos           861.781
       314   04 Jun 2027 01:09:54.020   04 Jun 2027 01:10:37.788            43.768                Anadyr1          1367.750
       315   04 Jun 2027 01:10:37.788   04 Jun 2027 01:11:23.498            45.710                Anadyr2          1428.437
       316   04 Jun 2027 01:11:35.063   04 Jun 2027 01:11:59.882            24.819                Anadyr1           775.594
       317   04 Jun 2027 01:12:50.765   04 Jun 2027 01:14:37.970           107.205                Norilsk          3350.156
       318   04 Jun 2027 01:15:18.199   04 Jun 2027 01:15:28.015             9.816               Magadan2           306.750
       319   04 Jun 2027 01:16:43.438   04 Jun 2027 01:18:41.377           117.939                Irkutsk          3685.594
       320   04 Jun 2027 01:19:27.827   04 Jun 2027 01:20:13.615            45.788                Novosib          1430.875
       321   04 Jun 2027 01:22:16.283   04 Jun 2027 01:22:49.121            32.838                Novosib          1026.187
       322   04 Jun 2027 01:28:54.718   04 Jun 2027 01:28:57.976             3.258                  Delhi           101.813
       323   04 Jun 2027 01:31:09.930   04 Jun 2027 01:32:23.016            73.086                Sumatra          2283.937
       324   04 Jun 2027 01:41:57.021   04 Jun 2027 01:42:16.679            19.658                Sumatra           614.312
       325   04 Jun 2027 02:04:59.947   04 Jun 2027 02:05:47.772            47.825            RioGallegos          1494.531
       326   04 Jun 2027 02:06:24.340   04 Jun 2027 02:06:34.335             9.995            RioGallegos           312.344
       327   04 Jun 2027 02:09:54.470   04 Jun 2027 02:10:14.718            20.248            RioGallegos           632.750
       328   04 Jun 2027 02:45:31.511   04 Jun 2027 02:46:32.909            61.398                Anadyr1          1918.688
       329   04 Jun 2027 02:48:51.739   04 Jun 2027 02:50:33.345           101.606                Norilsk          3175.188
       330   04 Jun 2027 02:51:22.979   04 Jun 2027 02:51:49.623            26.644              Murmansk1           832.625
       331   04 Jun 2027 02:52:11.429   04 Jun 2027 02:52:40.373            28.944              Murmansk1           904.500
       332   04 Jun 2027 02:53:04.274   04 Jun 2027 02:56:10.172           185.898                Irkutsk          5809.313
       333   04 Jun 2027 03:01:49.473   04 Jun 2027 03:03:05.108            75.635                  Delhi          2363.594
       334   04 Jun 2027 03:42:46.976   04 Jun 2027 03:43:11.545            24.569            RioGallegos           767.781
       335   04 Jun 2027 04:32:43.923   04 Jun 2027 04:33:04.151            20.228              Murmansk1           632.125
       336   04 Jun 2027 04:33:04.151   04 Jun 2027 04:33:09.876             5.725              Murmansk2           178.906
       337   04 Jun 2027 04:33:09.876   04 Jun 2027 04:33:45.931            36.055              Murmansk1          1126.719
       338   04 Jun 2027 04:34:18.668   04 Jun 2027 04:37:10.385           171.717                Norilsk          5366.156
       339   04 Jun 2027 04:37:21.260   04 Jun 2027 04:39:31.761           130.501                 Moscow          4078.156
       340   04 Jun 2027 04:41:01.680   04 Jun 2027 04:41:32.620            30.940                 Moscow           966.875
       341   04 Jun 2027 06:11:04.868   04 Jun 2027 06:12:40.826            95.958                 Moscow          2998.687
       342   04 Jun 2027 06:12:49.142   04 Jun 2027 06:14:20.079            90.937              Murmansk2          2841.781
       343   04 Jun 2027 06:14:50.758   04 Jun 2027 06:16:11.256            80.498                 Moscow          2515.562
       344   04 Jun 2027 06:30:14.880   04 Jun 2027 06:32:03.230           108.350               CapeTown          3385.938
       345   04 Jun 2027 07:35:05.018   04 Jun 2027 07:37:37.242           152.224                Anadyr2          4757.000
       346   04 Jun 2027 07:37:37.242   04 Jun 2027 07:38:11.265            34.023                Anadyr1          1063.219
       347   04 Jun 2027 07:38:46.913   04 Jun 2027 07:39:43.053            56.140                Anadyr1          1754.375
       348   04 Jun 2027 07:42:28.860   04 Jun 2027 07:43:12.506            43.646                 Moscow          1363.938
       349   04 Jun 2027 09:09:24.559   04 Jun 2027 09:10:13.041            48.482                Anadyr1          1515.062
       350   04 Jun 2027 09:10:22.258   04 Jun 2027 09:11:40.620            78.362                Anadyr1          2448.812
       351   04 Jun 2027 09:11:53.264   04 Jun 2027 09:12:28.294            35.030                Irkutsk          1094.688
       352   04 Jun 2027 09:12:44.152   04 Jun 2027 09:15:12.600           148.448                Anadyr2          4639.000
       353   04 Jun 2027 10:44:40.619   04 Jun 2027 10:50:30.847           350.228               Magadan2         10944.625
       354   04 Jun 2027 10:50:58.544   04 Jun 2027 10:51:56.127            57.583                Norilsk          1799.469
       355   04 Jun 2027 11:25:44.582   04 Jun 2027 11:26:54.579            69.997            RioGallegos          2187.406
       356   04 Jun 2027 12:01:23.695   04 Jun 2027 12:02:36.276            72.581                Sumatra          2268.156
       357   04 Jun 2027 12:14:11.433   04 Jun 2027 12:16:13.825           122.392                Irkutsk          3824.750
       358   04 Jun 2027 12:19:02.781   04 Jun 2027 12:19:59.220            56.439                Norilsk          1763.719
       359   04 Jun 2027 12:24:12.329   04 Jun 2027 12:25:03.464            51.135              Murmansk2          1597.969
       360   04 Jun 2027 13:03:10.063   04 Jun 2027 13:04:11.899            61.836            RioGallegos          1932.375
       361   04 Jun 2027 13:06:42.093   04 Jun 2027 13:08:13.117            91.024            RioGallegos          2844.500
       362   04 Jun 2027 13:37:23.515   04 Jun 2027 13:38:50.259            86.744                Sumatra          2710.750
       363   04 Jun 2027 13:41:00.498   04 Jun 2027 13:42:33.434            92.936                Sumatra          2904.250
       364   04 Jun 2027 13:52:47.715   04 Jun 2027 13:55:00.867           133.152                Irkutsk          4161.000
       365   04 Jun 2027 15:22:29.661   04 Jun 2027 15:27:17.195           287.534                  Delhi          8985.437
       366   04 Jun 2027 15:30:58.042   04 Jun 2027 15:34:32.111           214.069                Novosib          6689.656
       367   04 Jun 2027 17:05:26.979   04 Jun 2027 17:06:59.099            92.120                 Moscow          2878.750
       368   04 Jun 2027 17:09:23.509   04 Jun 2027 17:09:38.858            15.349                 Moscow           479.656
       369   04 Jun 2027 17:10:24.914   04 Jun 2027 17:11:31.591            66.677              Murmansk2          2083.656
       370   04 Jun 2027 17:16:35.689   04 Jun 2027 17:18:22.621           106.932                Norilsk          3341.625
       371   04 Jun 2027 18:18:45.876   04 Jun 2027 18:20:16.639            90.763               CapeTown          2836.344
       372   04 Jun 2027 18:45:11.453   04 Jun 2027 18:49:04.866           233.413                 Moscow          7294.156
       373   04 Jun 2027 18:52:21.462   04 Jun 2027 18:52:25.596             4.134              Murmansk1           129.187
       374   04 Jun 2027 18:55:16.036   04 Jun 2027 18:56:28.679            72.643              Murmansk2          2270.094
       375   04 Jun 2027 19:55:28.905   04 Jun 2027 19:56:28.164            59.259               CapeTown          1851.844
       376   04 Jun 2027 19:58:14.107   04 Jun 2027 19:59:30.370            76.263               CapeTown          2383.219
       377   04 Jun 2027 20:04:29.978   04 Jun 2027 20:05:20.203            50.225               CapeTown          1569.531
       378   04 Jun 2027 20:28:13.515   04 Jun 2027 20:32:25.162           251.647              Murmansk2          7863.969
       379   04 Jun 2027 20:37:50.974   04 Jun 2027 20:37:55.019             4.045               Magadan2           126.406
       380   04 Jun 2027 20:38:13.031   04 Jun 2027 20:38:53.775            40.744               Magadan2          1273.250
       381   04 Jun 2027 22:11:08.064   04 Jun 2027 22:14:54.274           226.210                Anadyr2          7069.063
       382   04 Jun 2027 22:15:02.033   04 Jun 2027 22:16:48.435           106.402                Norilsk          3325.062
       383   04 Jun 2027 22:17:04.591   04 Jun 2027 22:19:09.084           124.493               Magadan2          3890.406
       384   04 Jun 2027 22:20:25.814   04 Jun 2027 22:20:29.421             3.607               Magadan2           112.719
       385   04 Jun 2027 22:23:50.564   04 Jun 2027 22:24:00.942            10.378               Magadan1           324.312
       386   04 Jun 2027 22:24:46.804   04 Jun 2027 22:24:47.108             0.304               Magadan2             9.500
       387   04 Jun 2027 23:05:49.852   04 Jun 2027 23:09:07.488           197.636            RioGallegos          6176.125
       388   04 Jun 2027 23:11:18.934   04 Jun 2027 23:12:11.221            52.287            RioGallegos          1633.969
       389   04 Jun 2027 23:46:49.442   04 Jun 2027 23:47:48.862            59.420                Anadyr1          1856.875
       390   04 Jun 2027 23:47:51.090   04 Jun 2027 23:48:00.050             8.960                Anadyr2           280.000
       391   04 Jun 2027 23:48:57.053   04 Jun 2027 23:50:35.889            98.836                Norilsk          3088.625
       392   04 Jun 2027 23:51:10.550   04 Jun 2027 23:51:51.045            40.495               Magadan2          1265.469
       393   04 Jun 2027 23:52:06.468   04 Jun 2027 23:52:38.027            31.559               Magadan2           986.219
       394   04 Jun 2027 23:53:17.040   04 Jun 2027 23:53:50.111            33.071                Irkutsk          1033.469
       395   04 Jun 2027 23:54:32.446   04 Jun 2027 23:55:12.115            39.669                Irkutsk          1239.656
       396   04 Jun 2027 23:56:45.158   04 Jun 2027 23:57:20.083            34.925                Novosib          1091.406
       397   05 Jun 2027 00:07:12.995   05 Jun 2027 00:07:44.925            31.930                Sumatra           997.812
       398   05 Jun 2027 00:08:44.982   05 Jun 2027 00:09:16.330            31.348                Sumatra           979.625
       399   05 Jun 2027 00:11:04.216   05 Jun 2027 00:12:21.866            77.650                Sumatra          2426.563
       400   05 Jun 2027 00:44:06.464   05 Jun 2027 00:44:38.816            32.352            RioGallegos          1011.000
       401   05 Jun 2027 00:50:36.177   05 Jun 2027 00:50:40.787             4.610            RioGallegos           144.063
       402   05 Jun 2027 00:51:17.893   05 Jun 2027 00:51:39.709            21.816            RioGallegos           681.750
       403   05 Jun 2027 01:21:43.888   05 Jun 2027 01:23:20.689            96.801                Anadyr1          3025.031
       404   05 Jun 2027 01:24:00.310   05 Jun 2027 01:24:21.810            21.500                Anadyr1           671.875
       405   05 Jun 2027 01:24:53.107   05 Jun 2027 01:26:40.240           107.133                Norilsk          3347.906
       406   05 Jun 2027 01:27:08.293   05 Jun 2027 01:27:17.059             8.766               Magadan1           273.938
       407   05 Jun 2027 01:28:45.470   05 Jun 2027 01:30:39.170           113.700                Irkutsk          3553.125
       408   05 Jun 2027 01:32:01.975   05 Jun 2027 01:32:24.844            22.869                Irkutsk           714.656
       409   05 Jun 2027 01:33:33.883   05 Jun 2027 01:33:38.646             4.763                Irkutsk           148.844
       410   05 Jun 2027 01:35:53.909   05 Jun 2027 01:36:17.309            23.400                Novosib           731.250
       411   05 Jun 2027 01:37:06.190   05 Jun 2027 01:37:42.224            36.034                  Delhi          1126.062
       412   05 Jun 2027 01:41:54.718   05 Jun 2027 01:42:38.010            43.292                  Delhi          1352.875
       413   05 Jun 2027 01:43:39.672   05 Jun 2027 01:44:23.353            43.681                Sumatra          1365.031
       414   05 Jun 2027 01:46:28.257   05 Jun 2027 01:47:32.349            64.092                Sumatra          2002.875
       415   05 Jun 2027 02:21:15.011   05 Jun 2027 02:21:26.271            11.260            RioGallegos           351.875
       416   05 Jun 2027 02:22:22.778   05 Jun 2027 02:22:42.616            19.838            RioGallegos           619.937
       417   05 Jun 2027 02:23:45.914   05 Jun 2027 02:24:31.211            45.297            RioGallegos          1415.531
       418   05 Jun 2027 02:55:24.434   05 Jun 2027 02:55:55.294            30.860                Anadyr1           964.375
       419   05 Jun 2027 03:05:00.694   05 Jun 2027 03:05:20.199            19.505               Magadan1           609.531
       420   05 Jun 2027 03:05:55.117   05 Jun 2027 03:09:14.282           199.165                Irkutsk          6223.906
       421   05 Jun 2027 03:09:33.427   05 Jun 2027 03:10:27.888            54.461                Irkutsk          1701.906
       422   05 Jun 2027 03:10:33.714   05 Jun 2027 03:10:50.298            16.584                Novosib           518.250
       423   05 Jun 2027 03:10:58.109   05 Jun 2027 03:11:56.490            58.381                 Moscow          1824.406
       424   05 Jun 2027 03:12:08.680   05 Jun 2027 03:16:27.463           258.783                  Delhi          8086.969
       425   05 Jun 2027 04:45:25.798   05 Jun 2027 04:45:45.851            20.053              Murmansk1           626.656
       426   05 Jun 2027 04:45:54.760   05 Jun 2027 04:46:17.830            23.070                Norilsk           720.937
       427   05 Jun 2027 04:46:36.183   05 Jun 2027 04:49:23.522           167.339              Murmansk2          5229.344
       428   05 Jun 2027 04:49:23.522   05 Jun 2027 04:49:37.325            13.803              Murmansk1           431.344
       429   05 Jun 2027 04:49:49.767   05 Jun 2027 04:50:48.604            58.837                 Moscow          1838.656
       430   05 Jun 2027 04:51:03.302   05 Jun 2027 04:51:04.242             0.940                Novosib            29.375
       431   05 Jun 2027 04:51:35.711   05 Jun 2027 04:51:59.580            23.869                 Moscow           745.906
       432   05 Jun 2027 04:54:18.574   05 Jun 2027 04:54:34.057            15.483                 Moscow           483.844
       433   05 Jun 2027 05:07:08.000   05 Jun 2027 05:07:57.278            49.278               CapeTown          1539.937
       434   05 Jun 2027 06:22:54.951   05 Jun 2027 06:23:15.202            20.251                Norilsk           632.844
       435   05 Jun 2027 06:23:18.843   05 Jun 2027 06:23:24.268             5.425                Norilsk           169.531
       436   05 Jun 2027 06:23:55.002   05 Jun 2027 06:27:56.106           241.104              Murmansk1          7534.500
       437   05 Jun 2027 06:28:12.292   05 Jun 2027 06:29:36.395            84.103                 Moscow          2628.219
       438   05 Jun 2027 06:42:30.946   05 Jun 2027 06:43:56.819            85.873               CapeTown          2683.531
       439   05 Jun 2027 06:45:02.458   05 Jun 2027 06:47:06.244           123.786               CapeTown          3868.313
       440   05 Jun 2027 07:47:13.852   05 Jun 2027 07:48:53.583            99.731                Anadyr1          3116.594
       441   05 Jun 2027 07:48:53.583   05 Jun 2027 07:49:36.753            43.170                Anadyr2          1349.063
       442   05 Jun 2027 07:50:14.162   05 Jun 2027 07:51:44.239            90.077                Anadyr2          2814.906
       443   05 Jun 2027 09:21:14.201   05 Jun 2027 09:21:34.596            20.395                Norilsk           637.344
       444   05 Jun 2027 09:21:36.796   05 Jun 2027 09:22:38.919            62.123                Irkutsk          1941.344
       445   05 Jun 2027 09:22:39.850   05 Jun 2027 09:27:18.331           278.481                Anadyr2          8702.531
       446   05 Jun 2027 10:56:26.734   05 Jun 2027 10:59:03.110           156.376               Magadan2          4886.750
       447   05 Jun 2027 10:59:07.401   05 Jun 2027 11:02:37.540           210.139               Magadan1          6566.844
       448   05 Jun 2027 11:02:58.302   05 Jun 2027 11:02:59.558             1.256              Murmansk2            39.250
       449   05 Jun 2027 11:03:11.595   05 Jun 2027 11:03:36.060            24.465              Murmansk2           764.531
       450   05 Jun 2027 11:05:11.175   05 Jun 2027 11:05:19.299             8.124              Murmansk2           253.875
       451   05 Jun 2027 11:37:44.550   05 Jun 2027 11:38:52.271            67.721            RioGallegos          2116.281
       452   05 Jun 2027 12:13:04.160   05 Jun 2027 12:14:01.051            56.891                Sumatra          1777.844
       453   05 Jun 2027 12:15:26.669   05 Jun 2027 12:16:21.241            54.572                Sumatra          1705.375
       454   05 Jun 2027 12:26:18.582   05 Jun 2027 12:28:07.231           108.649                Irkutsk          3395.281
       455   05 Jun 2027 12:31:04.878   05 Jun 2027 12:32:18.539            73.661                Norilsk          2301.906
       456   05 Jun 2027 12:35:37.998   05 Jun 2027 12:35:52.740            14.742              Murmansk2           460.687
       457   05 Jun 2027 12:35:59.543   05 Jun 2027 12:36:12.701            13.158                Norilsk           411.187
       458   05 Jun 2027 12:43:26.039   05 Jun 2027 12:43:57.416            31.377              Murmansk1           980.531
       459   05 Jun 2027 13:15:44.162   05 Jun 2027 13:17:51.938           127.776            RioGallegos          3993.000
       460   05 Jun 2027 13:49:58.932   05 Jun 2027 13:51:47.146           108.214                Sumatra          3381.687
       461   05 Jun 2027 13:53:31.251   05 Jun 2027 13:54:52.917            81.666                Sumatra          2552.062
       462   05 Jun 2027 14:05:37.488   05 Jun 2027 14:06:58.807            81.319                Irkutsk          2541.219
       463   05 Jun 2027 14:09:45.465   05 Jun 2027 14:10:06.531            21.066                Irkutsk           658.312
       464   05 Jun 2027 15:35:23.361   05 Jun 2027 15:39:49.164           265.803                  Delhi          8306.344
       465   05 Jun 2027 15:40:52.699   05 Jun 2027 15:43:18.165           145.466                  Delhi          4545.812
       466   05 Jun 2027 15:43:53.866   05 Jun 2027 15:47:47.780           233.914                Novosib          7309.812
       467   05 Jun 2027 17:21:08.332   05 Jun 2027 17:22:00.202            51.870              Murmansk1          1620.938
       468   05 Jun 2027 17:24:01.180   05 Jun 2027 17:24:37.655            36.475              Murmansk2          1139.844
       469   05 Jun 2027 17:36:12.317   05 Jun 2027 17:37:00.237            47.920                Anadyr1          1497.500
       470   05 Jun 2027 17:37:42.500   05 Jun 2027 17:38:19.583            37.083                Anadyr1          1158.844
       471   05 Jun 2027 17:41:56.831   05 Jun 2027 17:42:30.396            33.565                Anadyr2          1048.906
       472   05 Jun 2027 18:30:43.016   05 Jun 2027 18:31:30.162            47.146               CapeTown          1473.313
       473   05 Jun 2027 18:34:27.925   05 Jun 2027 18:34:31.793             3.868               CapeTown           120.875
       474   05 Jun 2027 18:36:39.846   05 Jun 2027 18:37:37.670            57.824               CapeTown          1807.000
       475   05 Jun 2027 18:58:19.873   05 Jun 2027 19:02:21.250           241.377                 Moscow          7543.031
       476   05 Jun 2027 19:04:15.302   05 Jun 2027 19:05:24.393            69.091              Murmansk2          2159.094
       477   05 Jun 2027 19:16:35.532   05 Jun 2027 19:17:07.867            32.335               Magadan1          1010.469
       478   05 Jun 2027 20:07:55.376   05 Jun 2027 20:08:35.922            40.546               CapeTown          1267.063
       479   05 Jun 2027 20:11:20.562   05 Jun 2027 20:13:02.102           101.540               CapeTown          3173.125
       480   05 Jun 2027 20:41:32.579   05 Jun 2027 20:43:56.245           143.666              Murmansk1          4489.562
       481   05 Jun 2027 20:49:44.908   05 Jun 2027 20:50:42.060            57.152               Magadan1          1786.000
       482   05 Jun 2027 20:51:21.542   05 Jun 2027 20:52:11.259            49.717               Magadan1          1553.656
