uniorb/output/strategy_1/Drop/Drop_KinoSat_110102.txt

KinoSat_110102
-------------------------
    Access    *     Start Time (UTCG)     *     Stop Time (UTCG)  *   Duration (s)        *       Station  *  Data (Mbytes)
         1   01 Jun 2027 03:00:34.495   01 Jun 2027 03:02:13.812            99.317                Irkutsk         12414.625
         2   01 Jun 2027 03:02:26.641   01 Jun 2027 03:03:11.353            44.712               Magadan1          5589.000
         3   01 Jun 2027 03:03:28.455   01 Jun 2027 03:03:34.709             6.254               Magadan2           781.750
         4   01 Jun 2027 03:03:53.053   01 Jun 2027 03:04:28.110            35.057              Murmansk2          4382.125
         5   01 Jun 2027 03:04:44.506   01 Jun 2027 03:05:06.727            22.221                Novosib          2777.625
         6   01 Jun 2027 03:05:27.290   01 Jun 2027 03:05:39.879            12.589                Norilsk          1573.625
         7   01 Jun 2027 03:05:47.471   01 Jun 2027 03:05:49.161             1.690                Irkutsk           211.250
         8   01 Jun 2027 03:05:50.583   01 Jun 2027 03:06:16.329            25.746              Murmansk1          3218.250
         9   01 Jun 2027 03:07:30.067   01 Jun 2027 03:07:51.998            21.931                Norilsk          2741.375
        10   01 Jun 2027 03:09:48.043   01 Jun 2027 03:10:18.679            30.636                Norilsk          3829.500
        11   01 Jun 2027 03:41:12.322   01 Jun 2027 03:41:12.632             0.310            RioGallegos            38.750
        12   01 Jun 2027 03:43:52.948   01 Jun 2027 03:45:23.211            90.263            RioGallegos         11282.875
        13   01 Jun 2027 04:15:48.148   01 Jun 2027 04:18:11.355           143.207                Sumatra         15530.750
        14   01 Jun 2027 04:38:05.490   01 Jun 2027 04:38:33.429            27.939              Murmansk1          3492.375
        15   01 Jun 2027 04:38:40.415   01 Jun 2027 04:38:51.801            11.386              Murmansk1          1423.250
        16   01 Jun 2027 04:38:55.919   01 Jun 2027 04:38:58.142             2.223                Norilsk           277.875
        17   01 Jun 2027 04:39:13.276   01 Jun 2027 04:40:05.731            52.455                 Moscow          6556.875
        18   01 Jun 2027 04:40:18.169   01 Jun 2027 04:40:21.701             3.532                Norilsk           441.500
        19   01 Jun 2027 04:40:27.388   01 Jun 2027 04:42:23.149           115.761                Novosib         14470.125
        20   01 Jun 2027 06:00:11.412   01 Jun 2027 06:02:35.064           143.652                  Delhi         17956.500
        21   01 Jun 2027 06:06:10.948   01 Jun 2027 06:07:49.251            98.303                  Delhi         12287.875
        22   01 Jun 2027 06:16:23.576   01 Jun 2027 06:17:26.981            63.405                Novosib          7925.625
        23   01 Jun 2027 06:17:52.109   01 Jun 2027 06:18:23.186            31.077                Novosib          3884.625
        24   01 Jun 2027 06:19:28.685   01 Jun 2027 06:19:43.926            15.241              Murmansk1          1905.125
        25   01 Jun 2027 07:51:46.616   01 Jun 2027 07:52:35.665            49.049              Murmansk2          6131.125
        26   01 Jun 2027 07:52:38.067   01 Jun 2027 07:52:55.619            17.552                 Moscow          2194.000
        27   01 Jun 2027 07:53:13.320   01 Jun 2027 07:54:21.257            67.937              Murmansk2          8492.125
        28   01 Jun 2027 07:54:26.907   01 Jun 2027 07:54:52.385            25.478                 Moscow          3184.750
        29   01 Jun 2027 08:58:49.548   01 Jun 2027 09:05:36.025           406.477               CapeTown         50809.625
        30   01 Jun 2027 12:54:48.202   01 Jun 2027 12:55:29.002            40.800               Magadan2          5100.000
        31   01 Jun 2027 14:38:10.435   01 Jun 2027 14:38:57.403            46.968               Magadan2          5871.000
        32   01 Jun 2027 15:20:16.747   01 Jun 2027 15:22:10.675           113.928            RioGallegos         14241.000
        33   01 Jun 2027 15:26:10.867   01 Jun 2027 15:28:39.209           148.342            RioGallegos         18542.750
        34   01 Jun 2027 16:11:05.105   01 Jun 2027 16:13:02.891           117.786                Irkutsk         14723.250
        35   01 Jun 2027 16:21:50.443   01 Jun 2027 16:23:46.091           115.648                Sumatra         14456.000
        36   01 Jun 2027 16:29:30.692   01 Jun 2027 16:31:31.610           120.918                Sumatra         15114.750
        37   01 Jun 2027 17:48:49.240   01 Jun 2027 17:51:14.081           144.841                Novosib         18105.125
        38   01 Jun 2027 17:51:17.558   01 Jun 2027 17:54:03.514           165.956                  Delhi         20744.500
        39   01 Jun 2027 20:57:26.564   01 Jun 2027 20:58:50.943            84.379                 Moscow          7807.750
        40   02 Jun 2027 03:17:43.680   02 Jun 2027 03:18:35.959            52.279                Novosib          6534.875
        41   02 Jun 2027 03:18:36.884   02 Jun 2027 03:18:57.120            20.236                Norilsk          2529.500
        42   02 Jun 2027 03:53:27.530   02 Jun 2027 03:56:01.749           154.219            RioGallegos         19277.375
        43   02 Jun 2027 04:27:54.179   02 Jun 2027 04:30:52.032           177.853                Sumatra         22231.625
        44   02 Jun 2027 04:50:53.585   02 Jun 2027 04:51:40.336            46.751              Murmansk2          5843.875
        45   02 Jun 2027 04:51:48.774   02 Jun 2027 04:52:10.937            22.163                Norilsk          2770.375
        46   02 Jun 2027 04:52:13.969   02 Jun 2027 04:52:33.521            19.552                Irkutsk          2444.000
        47   02 Jun 2027 04:52:41.813   02 Jun 2027 04:52:57.945            16.132                Novosib          2016.500
        48   02 Jun 2027 04:53:09.618   02 Jun 2027 04:53:55.596            45.978              Murmansk2          5747.250
        49   02 Jun 2027 04:54:20.858   02 Jun 2027 04:54:22.812             1.954                Norilsk           244.250
        50   02 Jun 2027 04:54:27.956   02 Jun 2027 04:54:58.454            30.498                Novosib          3812.250
        51   02 Jun 2027 04:55:03.217   02 Jun 2027 04:55:24.852            21.635                Norilsk          2704.375
        52   02 Jun 2027 06:12:27.535   02 Jun 2027 06:16:45.357           257.822                  Delhi         32227.750
        53   02 Jun 2027 06:27:27.618   02 Jun 2027 06:27:49.864            22.246                Norilsk          2780.750
        54   02 Jun 2027 06:28:07.203   02 Jun 2027 06:28:25.456            18.253                Novosib          2281.625
        55   02 Jun 2027 06:28:29.128   02 Jun 2027 06:30:35.425           126.297                Novosib         15787.125
        56   02 Jun 2027 08:04:18.649   02 Jun 2027 08:06:04.261           105.612                 Moscow         13201.500
        57   02 Jun 2027 08:08:02.598   02 Jun 2027 08:08:50.632            48.034                 Moscow          6004.250
        58   02 Jun 2027 09:10:31.585   02 Jun 2027 09:16:41.614           370.029               CapeTown         46253.625
        59   02 Jun 2027 13:04:42.452   02 Jun 2027 13:10:52.147           369.695               Magadan1         46211.875
        60   02 Jun 2027 15:00:24.924   02 Jun 2027 15:02:37.098           132.174                Sumatra         16521.750
        61   02 Jun 2027 15:32:13.132   02 Jun 2027 15:33:37.661            84.529            RioGallegos         10566.125
        62   02 Jun 2027 16:33:59.410   02 Jun 2027 16:35:43.971           104.561                Sumatra         13070.125
        63   02 Jun 2027 16:36:47.550   02 Jun 2027 16:38:38.705           111.155                Sumatra         13894.375
        64   02 Jun 2027 17:59:12.338   02 Jun 2027 18:00:00.360            48.022                Novosib          6002.750
        65   02 Jun 2027 18:03:15.813   02 Jun 2027 18:05:10.914           115.101                  Delhi         14387.625
        66   02 Jun 2027 18:06:28.178   02 Jun 2027 18:10:41.670           253.492                  Delhi         31686.500
        67   02 Jun 2027 21:41:10.635   02 Jun 2027 21:42:24.984            74.349               CapeTown          9293.625
        68   03 Jun 2027 03:05:51.546   03 Jun 2027 03:09:26.482           214.936                Sumatra         26867.000
        69   03 Jun 2027 03:14:09.950   03 Jun 2027 03:14:42.016            32.066                Sumatra          4008.250
        70   03 Jun 2027 04:44:10.237   03 Jun 2027 04:44:36.496            26.259                Sumatra          3282.375
        71   03 Jun 2027 04:47:43.744   03 Jun 2027 04:48:04.894            21.150                Sumatra          2643.750
        72   03 Jun 2027 05:02:56.644   03 Jun 2027 05:03:42.170            45.526                Novosib          5690.750
        73   03 Jun 2027 05:03:43.594   03 Jun 2027 05:04:52.331            68.737                Irkutsk          8592.125
        74   03 Jun 2027 05:05:07.606   03 Jun 2027 05:05:33.032            25.426                Irkutsk          3178.250
        75   03 Jun 2027 06:24:50.649   03 Jun 2027 06:27:03.493           132.844                  Delhi         16605.500
        76   03 Jun 2027 06:39:12.345   03 Jun 2027 06:40:12.434            60.089                 Moscow          7511.125
        77   03 Jun 2027 06:40:41.797   03 Jun 2027 06:42:15.131            93.334              Murmansk1         11666.750
        78   03 Jun 2027 06:44:34.325   03 Jun 2027 06:44:45.862            11.537                 Moscow          1442.125
        79   03 Jun 2027 09:22:18.654   03 Jun 2027 09:24:35.956           137.302               CapeTown         17162.750
        80   03 Jun 2027 09:27:34.628   03 Jun 2027 09:28:05.790            31.162               CapeTown          3895.250
        81   03 Jun 2027 11:38:29.457   03 Jun 2027 11:38:37.127             7.670                Anadyr1           958.750
        82   03 Jun 2027 13:16:42.435   03 Jun 2027 13:20:02.921           200.486               Magadan2         25060.750
        83   03 Jun 2027 15:11:17.352   03 Jun 2027 15:17:05.664           348.312                Sumatra         43539.000
        84   03 Jun 2027 15:18:27.534   03 Jun 2027 15:19:39.675            72.141                Sumatra          9017.625
        85   03 Jun 2027 16:37:44.033   03 Jun 2027 16:38:29.325            45.292                Novosib          5661.500
        86   03 Jun 2027 16:46:14.748   03 Jun 2027 16:46:38.258            23.510                Sumatra          2938.750
        87   03 Jun 2027 16:55:56.049   03 Jun 2027 16:57:52.749           116.700                Sumatra         14587.500
        88   03 Jun 2027 18:07:56.733   03 Jun 2027 18:08:16.969            20.236                Novosib          2529.500
        89   03 Jun 2027 18:15:17.376   03 Jun 2027 18:16:35.482            78.106                  Delhi          9763.250
        90   03 Jun 2027 18:18:27.879   03 Jun 2027 18:20:12.030           104.151                  Delhi         13018.875
        91   03 Jun 2027 19:49:11.535   03 Jun 2027 19:50:18.596            67.061                 Moscow          8382.625
        92   03 Jun 2027 19:51:16.422   03 Jun 2027 19:52:56.804           100.382                 Moscow         12547.750
        93   03 Jun 2027 21:31:04.547   03 Jun 2027 21:33:36.063           151.516                 Moscow         18939.500
        94   03 Jun 2027 21:51:37.315   03 Jun 2027 21:53:17.147            99.832               CapeTown         12479.000
        95   04 Jun 2027 03:17:01.361   04 Jun 2027 03:17:22.773            21.412                Sumatra          2676.500
        96   04 Jun 2027 03:18:04.008   04 Jun 2027 03:24:36.235           392.227                Sumatra         49028.375
        97   04 Jun 2027 05:06:49.120   04 Jun 2027 05:08:30.103           100.983                  Delhi         12622.875
        98   04 Jun 2027 05:16:09.168   04 Jun 2027 05:17:19.152            69.984                Irkutsk          8748.000
        99   04 Jun 2027 05:21:36.596   04 Jun 2027 05:21:57.105            20.509                Norilsk          2563.625
       100   04 Jun 2027 06:37:22.233   04 Jun 2027 06:40:58.528           216.295                  Delhi         27036.875
       101   04 Jun 2027 06:52:18.162   04 Jun 2027 06:53:15.509            57.347                 Moscow          7168.375
       102   04 Jun 2027 06:53:43.034   04 Jun 2027 06:54:34.456            51.422                Norilsk          6427.750
       103   04 Jun 2027 06:54:36.306   04 Jun 2027 06:55:26.057            49.751              Murmansk1          6218.875
       104   04 Jun 2027 09:34:09.768   04 Jun 2027 09:36:54.409           164.641               CapeTown         20580.125
       105   04 Jun 2027 10:14:43.738   04 Jun 2027 10:14:51.639             7.901                Anadyr1           987.625
       106   04 Jun 2027 10:24:13.130   04 Jun 2027 10:24:55.639            42.509                Anadyr1          5313.625
       107   04 Jun 2027 11:50:30.644   04 Jun 2027 11:50:35.933             5.289                Anadyr1           661.125
       108   04 Jun 2027 11:52:26.911   04 Jun 2027 11:53:47.712            80.801                Anadyr2         10100.125
       109   04 Jun 2027 11:55:33.729   04 Jun 2027 11:56:28.296            54.567               Magadan1          6820.875
       110   04 Jun 2027 12:02:38.515   04 Jun 2027 12:03:50.149            71.634               Magadan2          8954.250
       111   04 Jun 2027 13:28:42.902   04 Jun 2027 13:29:01.414            18.512               Magadan2          2314.000
       112   04 Jun 2027 13:30:17.994   04 Jun 2027 13:31:04.899            46.905               Magadan1          5863.125
       113   04 Jun 2027 13:31:58.433   04 Jun 2027 13:33:31.600            93.167               Magadan2         11645.875
       114   04 Jun 2027 15:10:15.877   04 Jun 2027 15:13:17.731           181.854                Irkutsk         22731.750
       115   04 Jun 2027 15:24:19.316   04 Jun 2027 15:29:52.944           333.628                Sumatra         41703.500
       116   04 Jun 2027 16:49:42.547   04 Jun 2027 16:51:44.803           122.256                Novosib         15282.000
       117   04 Jun 2027 16:52:45.540   04 Jun 2027 17:01:35.580           530.040                  Delhi         66255.000
       118   04 Jun 2027 20:03:02.169   04 Jun 2027 20:03:02.998             0.829                 Moscow           103.625
       119   04 Jun 2027 21:41:29.858   04 Jun 2027 21:43:06.872            97.014                 Moscow         12126.750
       120   04 Jun 2027 22:00:26.240   04 Jun 2027 22:02:08.190           101.950               CapeTown         12743.750
       121   05 Jun 2027 03:28:36.260   05 Jun 2027 03:30:32.162           115.902                Sumatra         14487.750
       122   05 Jun 2027 03:33:03.733   05 Jun 2027 03:35:19.305           135.572                Sumatra         16946.500
       123   05 Jun 2027 05:04:52.476   05 Jun 2027 05:06:00.263            67.787                Sumatra          8473.375
       124   05 Jun 2027 05:11:41.176   05 Jun 2027 05:13:36.363           115.187                Sumatra         14398.375
       125   05 Jun 2027 05:28:44.900   05 Jun 2027 05:30:45.589           120.689                Novosib         15086.125
       126   05 Jun 2027 06:50:05.000   05 Jun 2027 06:51:16.455            71.455                  Delhi          8931.875
       127   05 Jun 2027 07:03:42.326   05 Jun 2027 07:04:30.203            47.877                Novosib          5984.625
       128   05 Jun 2027 07:04:46.284   05 Jun 2027 07:05:56.453            70.169              Murmansk1          8771.125
       129   05 Jun 2027 07:06:13.818   05 Jun 2027 07:07:11.220            57.402                Norilsk          7175.250
       130   05 Jun 2027 08:14:35.019   05 Jun 2027 08:17:25.498           170.479               CapeTown         21309.875
       131   05 Jun 2027 09:46:04.307   05 Jun 2027 09:48:40.233           155.926               CapeTown         19490.750
       132   05 Jun 2027 12:02:31.936   05 Jun 2027 12:03:26.742            54.806                Anadyr1          6850.750
       133   05 Jun 2027 12:05:08.440   05 Jun 2027 12:07:22.542           134.102               Magadan1         16762.750
       134   05 Jun 2027 12:14:04.170   05 Jun 2027 12:16:17.106           132.936               Magadan2         16617.000
       135   05 Jun 2027 13:40:43.790   05 Jun 2027 13:42:34.814           111.024               Magadan2         13878.000
       136   05 Jun 2027 13:48:28.825   05 Jun 2027 13:49:28.870            60.045               Magadan1          7505.625
       137   05 Jun 2027 15:24:54.822   05 Jun 2027 15:26:02.578            67.756                Irkutsk          8469.500
       138   05 Jun 2027 15:30:17.970   05 Jun 2027 15:32:00.551           102.581                Irkutsk         12822.625
       139   05 Jun 2027 15:34:26.658   05 Jun 2027 15:36:42.875           136.217                Sumatra         17027.125
       140   05 Jun 2027 15:39:39.281   05 Jun 2027 15:40:51.854            72.573                Sumatra          9071.625
       141   05 Jun 2027 16:58:47.482   05 Jun 2027 17:01:29.905           162.423                Novosib         20302.875
       142   05 Jun 2027 17:04:19.229   05 Jun 2027 17:05:14.184            54.955                  Delhi          6869.375
       143   05 Jun 2027 17:06:11.372   05 Jun 2027 17:11:14.289           302.917                  Delhi         37864.625
       144   05 Jun 2027 18:44:43.923   05 Jun 2027 18:46:03.816            79.893                  Delhi          9986.625
       145   05 Jun 2027 20:09:46.708   05 Jun 2027 20:11:13.268            86.560                 Moscow         10820.000
       146   05 Jun 2027 20:18:21.884   05 Jun 2027 20:19:18.947            57.063                 Moscow          7132.875
       147   05 Jun 2027 21:56:06.296   05 Jun 2027 21:56:19.187            12.891                 Moscow          1611.375
       148   05 Jun 2027 22:09:56.776   05 Jun 2027 22:12:17.784           141.008               CapeTown         17626.000
       149   06 Jun 2027 03:40:18.792   06 Jun 2027 03:42:51.688           152.896                Sumatra         19112.000
       150   06 Jun 2027 03:46:07.182   06 Jun 2027 03:46:28.899            21.717                Sumatra          2714.625
       151   06 Jun 2027 04:06:00.411   06 Jun 2027 04:06:18.813            18.402                Irkutsk          2300.250
       152   06 Jun 2027 04:09:53.740   06 Jun 2027 04:10:22.629            28.889              Murmansk2          3611.125
       153   06 Jun 2027 04:43:16.844   06 Jun 2027 04:44:15.644            58.800            RioGallegos          7350.000
       154   06 Jun 2027 04:45:58.985   06 Jun 2027 04:46:33.169            34.184            RioGallegos          4273.000
       155   06 Jun 2027 04:52:04.874   06 Jun 2027 04:52:52.165            47.291            RioGallegos          5911.375
       156   06 Jun 2027 05:17:31.405   06 Jun 2027 05:18:58.662            87.257                Sumatra         10907.125
       157   06 Jun 2027 05:24:12.931   06 Jun 2027 05:24:24.886            11.955                  Delhi          1494.375
       158   06 Jun 2027 05:31:43.101   06 Jun 2027 05:35:25.502           222.401                  Delhi         27800.125
       159   06 Jun 2027 05:42:32.788   06 Jun 2027 05:42:52.721            19.933                Novosib          2491.625
       160   06 Jun 2027 07:03:04.875   06 Jun 2027 07:05:20.578           135.703                  Delhi         16962.875
       161   06 Jun 2027 07:14:55.260   06 Jun 2027 07:15:18.915            23.655                Norilsk          2956.875
       162   06 Jun 2027 07:15:22.267   06 Jun 2027 07:15:28.648             6.381              Murmansk1           797.625
       163   06 Jun 2027 07:15:37.990   06 Jun 2027 07:16:14.514            36.524                Norilsk          4565.500
       164   06 Jun 2027 07:16:14.950   06 Jun 2027 07:16:34.659            19.709              Murmansk1          2463.625
       165   06 Jun 2027 07:16:43.308   06 Jun 2027 07:17:05.980            22.672                 Moscow          2834.000
       166   06 Jun 2027 07:17:14.731   06 Jun 2027 07:18:18.143            63.412                 Moscow          7926.500
       167   06 Jun 2027 07:18:33.567   06 Jun 2027 07:19:13.005            39.438                Norilsk          4929.750
       168   06 Jun 2027 07:20:43.863   06 Jun 2027 07:21:05.696            21.833                 Moscow          2729.125
       169   06 Jun 2027 08:24:53.988   06 Jun 2027 08:24:56.000             2.012               CapeTown           251.500
       170   06 Jun 2027 09:58:01.894   06 Jun 2027 09:59:51.653           109.759               CapeTown         13719.875
       171   06 Jun 2027 10:05:22.006   06 Jun 2027 10:07:36.500           134.494               CapeTown         16811.750
       172   06 Jun 2027 10:39:46.179   06 Jun 2027 10:40:51.620            65.441                Anadyr2          8180.125
       173   06 Jun 2027 10:41:46.930   06 Jun 2027 10:43:34.441           107.511                Anadyr2         13438.875
       174   06 Jun 2027 12:17:04.267   06 Jun 2027 12:18:36.319            92.052               Magadan2         11506.500
       175   06 Jun 2027 12:21:59.946   06 Jun 2027 12:22:11.055            11.109               Magadan2          1388.625
       176   06 Jun 2027 12:23:01.041   06 Jun 2027 12:26:36.300           215.259               Magadan2         26907.375
       177   06 Jun 2027 13:55:05.465   06 Jun 2027 13:56:04.764            59.299               Magadan2          7412.375
       178   06 Jun 2027 14:47:58.057   06 Jun 2027 14:49:01.348            63.291            RioGallegos          7911.375
       179   06 Jun 2027 15:32:28.600   06 Jun 2027 15:34:30.778           122.178                Irkutsk         15272.250
       180   06 Jun 2027 15:37:41.292   06 Jun 2027 15:37:46.117             4.825                Irkutsk           603.125
       181   06 Jun 2027 15:39:33.179   06 Jun 2027 15:41:59.110           145.931                Irkutsk         18241.375
       182   06 Jun 2027 15:48:58.783   06 Jun 2027 15:52:09.455           190.672                Sumatra         23834.000
       183   06 Jun 2027 17:08:15.296   06 Jun 2027 17:10:42.898           147.602                Novosib         18450.250
       184   06 Jun 2027 17:16:00.192   06 Jun 2027 17:17:46.819           106.627                  Delhi         13328.375
       185   06 Jun 2027 17:20:07.627   06 Jun 2027 17:22:15.710           128.083                  Delhi         16010.375
       186   06 Jun 2027 18:56:05.423   06 Jun 2027 18:57:28.965            83.542                  Delhi         10442.750
       187   06 Jun 2027 20:21:43.985   06 Jun 2027 20:22:49.636            65.651                 Moscow          8206.375
       188   06 Jun 2027 20:26:45.294   06 Jun 2027 20:28:09.139            83.845                 Moscow         10480.625
       189   06 Jun 2027 21:58:39.917   06 Jun 2027 21:58:42.223             2.306                 Moscow           288.250
       190   06 Jun 2027 21:59:08.476   06 Jun 2027 22:01:05.234           116.758              Murmansk1         14594.750
       191   06 Jun 2027 22:24:05.363   06 Jun 2027 22:24:32.308            26.945               CapeTown          3368.125
       192   07 Jun 2027 03:52:07.815   07 Jun 2027 03:57:52.911           345.096                Sumatra         43137.000
       193   07 Jun 2027 05:30:29.494   07 Jun 2027 05:30:59.490            29.996                Sumatra          3749.500
       194   07 Jun 2027 05:36:12.055   07 Jun 2027 05:38:23.841           131.786                  Delhi         16473.250
       195   07 Jun 2027 05:39:24.633   07 Jun 2027 05:41:20.571           115.938                  Delhi         14492.250
       196   07 Jun 2027 05:53:28.467   07 Jun 2027 05:53:52.459            23.992                Novosib          2999.000
       197   07 Jun 2027 05:54:30.154   07 Jun 2027 05:54:38.966             8.812                Norilsk          1101.500
       198   07 Jun 2027 07:16:42.351   07 Jun 2027 07:18:06.818            84.467                  Delhi         10558.375
       199   07 Jun 2027 07:19:14.131   07 Jun 2027 07:20:13.634            59.503                  Delhi          7437.875
       200   07 Jun 2027 07:25:27.587   07 Jun 2027 07:27:03.096            95.509                Novosib         11938.625
       201   07 Jun 2027 07:27:23.569   07 Jun 2027 07:27:39.691            16.122              Murmansk1          2015.250
       202   07 Jun 2027 07:27:48.491   07 Jun 2027 07:28:41.797            53.306                Novosib          6663.250
       203   07 Jun 2027 07:28:50.490   07 Jun 2027 07:29:40.715            50.225              Murmansk1          6278.125
       204   07 Jun 2027 07:30:14.191   07 Jun 2027 07:30:31.434            17.243                 Moscow          2155.375
       205   07 Jun 2027 07:30:38.540   07 Jun 2027 07:31:14.755            36.215                Norilsk          4526.875
       206   07 Jun 2027 07:31:56.077   07 Jun 2027 07:32:06.770            10.693                 Moscow          1336.625
       207   07 Jun 2027 08:36:02.792   07 Jun 2027 08:38:12.084           129.292               CapeTown         16161.500
       208   07 Jun 2027 08:43:59.838   07 Jun 2027 08:44:31.476            31.638               CapeTown          3954.750
       209   07 Jun 2027 10:11:06.920   07 Jun 2027 10:11:18.753            11.833               CapeTown          1479.125
       210   07 Jun 2027 10:50:41.767   07 Jun 2027 10:52:56.659           134.892                Anadyr1         16861.500
       211   07 Jun 2027 10:59:44.936   07 Jun 2027 11:00:35.952            51.016                Anadyr1          6377.000
       212   07 Jun 2027 11:01:59.791   07 Jun 2027 11:02:56.387            56.596                Anadyr2          7074.500
       213   07 Jun 2027 12:26:34.711   07 Jun 2027 12:26:35.424             0.713                Anadyr1            89.125
       214   07 Jun 2027 12:29:01.275   07 Jun 2027 12:30:09.706            68.431               Magadan1          8553.875
       215   07 Jun 2027 12:34:03.256   07 Jun 2027 12:38:34.084           270.828               Magadan1         33853.500
       216   07 Jun 2027 14:04:46.578   07 Jun 2027 14:04:52.421             5.843               Magadan2           730.375
       217   07 Jun 2027 14:09:31.207   07 Jun 2027 14:10:01.311            30.104               Magadan1          3763.000
       218   07 Jun 2027 14:57:02.977   07 Jun 2027 14:58:13.082            70.105            RioGallegos          8763.125
       219   07 Jun 2027 15:00:59.406   07 Jun 2027 15:02:14.229            74.823            RioGallegos          9352.875
       220   07 Jun 2027 15:44:23.761   07 Jun 2027 15:46:08.845           105.084                Irkutsk         13135.500
       221   07 Jun 2027 15:52:53.006   07 Jun 2027 15:53:55.495            62.489                Irkutsk          7811.125
       222   07 Jun 2027 15:58:04.549   07 Jun 2027 16:02:24.981           260.432                Sumatra         32554.000
       223   07 Jun 2027 17:20:12.805   07 Jun 2027 17:21:14.919            62.114                Novosib          7764.250
       224   07 Jun 2027 17:27:46.668   07 Jun 2027 17:33:37.305           350.637                  Delhi         43829.625
       225   07 Jun 2027 20:33:42.312   07 Jun 2027 20:34:32.739            50.427                 Moscow          6303.375
       226   07 Jun 2027 20:35:43.734   07 Jun 2027 20:36:40.217            56.483                 Moscow          7060.375
       227   07 Jun 2027 22:09:39.240   07 Jun 2027 22:10:32.018            52.778                 Moscow          6597.250
       228   07 Jun 2027 22:34:54.009   07 Jun 2027 22:36:29.048            95.039               CapeTown         11879.875
       229   07 Jun 2027 22:41:14.929   07 Jun 2027 22:43:02.441           107.512               CapeTown         13439.000
       230   08 Jun 2027 04:04:02.703   08 Jun 2027 04:07:10.775           188.072                Sumatra         23509.000
       231   08 Jun 2027 04:30:32.584   08 Jun 2027 04:30:48.507            15.923                Norilsk          1990.375
       232   08 Jun 2027 04:30:55.998   08 Jun 2027 04:31:00.613             4.615              Murmansk1           576.875
       233   08 Jun 2027 05:08:56.237   08 Jun 2027 05:09:59.359            63.122            RioGallegos          7890.250
       234   08 Jun 2027 05:44:21.400   08 Jun 2027 05:45:08.812            47.412                Sumatra          5926.500
       235   08 Jun 2027 05:48:16.551   08 Jun 2027 05:49:45.714            89.163                  Delhi         11145.375
       236   08 Jun 2027 05:50:28.065   08 Jun 2027 05:51:23.257            55.192                  Delhi          6899.000
       237   08 Jun 2027 06:04:35.733   08 Jun 2027 06:05:51.265            75.532                Novosib          9441.500
       238   08 Jun 2027 07:37:21.211   08 Jun 2027 07:38:36.220            75.009                 Moscow          9376.125
       239   08 Jun 2027 07:39:01.957   08 Jun 2027 07:39:25.018            23.061              Murmansk1          2882.625
       240   08 Jun 2027 07:39:29.327   08 Jun 2027 07:39:51.879            22.552                 Moscow          2819.000
       241   08 Jun 2027 07:40:00.056   08 Jun 2027 07:40:35.839            35.783                 Moscow          4472.875
       242   08 Jun 2027 07:40:46.988   08 Jun 2027 07:41:02.710            15.722                Norilsk          1965.250
       243   08 Jun 2027 07:41:33.972   08 Jun 2027 07:44:09.369           155.397              Murmansk1         19424.625
       244   08 Jun 2027 07:44:11.012   08 Jun 2027 07:45:08.183            57.171                 Moscow          7146.375
       245   08 Jun 2027 08:47:28.571   08 Jun 2027 08:55:47.057           498.486               CapeTown         62310.750
       246   08 Jun 2027 12:40:59.238   08 Jun 2027 12:43:28.695           149.457               Magadan1         18682.125
       247   08 Jun 2027 12:45:49.870   08 Jun 2027 12:45:57.401             7.531               Magadan2           941.375
       248   08 Jun 2027 12:47:06.693   08 Jun 2027 12:48:11.623            64.930               Magadan1          8116.250
       249   08 Jun 2027 12:50:14.004   08 Jun 2027 12:52:20.470           126.466               Magadan2         15808.250
       250   08 Jun 2027 15:08:36.830   08 Jun 2027 15:10:38.763           121.933            RioGallegos         15241.625
       251   08 Jun 2027 15:56:20.431   08 Jun 2027 15:57:38.950            78.519                Irkutsk          9814.875
       252   08 Jun 2027 16:02:50.694   08 Jun 2027 16:05:51.039           180.345                Irkutsk         22543.125
       253   08 Jun 2027 16:10:02.254   08 Jun 2027 16:12:55.654           173.400                Sumatra         21675.000
       254   08 Jun 2027 17:39:37.640   08 Jun 2027 17:42:27.600           169.960                  Delhi         21245.000
       255   08 Jun 2027 19:16:21.498   08 Jun 2027 19:17:01.972            40.474                  Delhi          5059.250
       256   08 Jun 2027 19:20:17.790   08 Jun 2027 19:20:49.620            31.830                  Delhi          3978.750
       257   08 Jun 2027 19:23:01.077   08 Jun 2027 19:24:58.534           117.457                  Delhi         14682.125
       258   08 Jun 2027 20:42:26.091   08 Jun 2027 20:42:27.225             1.134              Murmansk1           141.750
       259   08 Jun 2027 20:45:41.539   08 Jun 2027 20:46:20.191            38.652                 Moscow          4831.500
       260   08 Jun 2027 20:48:50.266   08 Jun 2027 20:50:35.459           105.193                 Moscow         13149.125
       261   09 Jun 2027 03:04:15.143   09 Jun 2027 03:04:35.851            20.708                Novosib          2588.500
       262   09 Jun 2027 03:04:44.485   09 Jun 2027 03:04:51.340             6.855               Magadan1           856.875
       263   09 Jun 2027 03:04:54.610   09 Jun 2027 03:05:06.734            12.124                Irkutsk          1515.500
       264   09 Jun 2027 03:05:22.694   09 Jun 2027 03:06:17.654            54.960                Novosib          6870.000
       265   09 Jun 2027 03:09:42.187   09 Jun 2027 03:10:01.146            18.959                Norilsk          2369.875
       266   09 Jun 2027 03:41:27.575   09 Jun 2027 03:45:32.522           244.947            RioGallegos         30618.375
       267   09 Jun 2027 04:16:03.203   09 Jun 2027 04:18:25.281           142.078                Sumatra         17759.750
       268   09 Jun 2027 04:38:45.824   09 Jun 2027 04:39:01.391            15.567                 Moscow          1945.875
       269   09 Jun 2027 04:39:02.790   09 Jun 2027 04:39:58.719            55.929                Novosib          6991.125
       270   09 Jun 2027 04:40:21.333   09 Jun 2027 04:40:23.296             1.963                 Moscow           245.375
       271   09 Jun 2027 04:40:35.228   09 Jun 2027 04:42:01.323            86.095                Norilsk         10761.875
       272   09 Jun 2027 04:42:06.199   09 Jun 2027 04:42:36.077            29.878                 Moscow          3734.750
       273   09 Jun 2027 06:00:26.667   09 Jun 2027 06:02:50.038           143.371                  Delhi         17921.375
       274   09 Jun 2027 06:03:18.403   09 Jun 2027 06:05:01.656           103.253                  Delhi         12906.625
       275   09 Jun 2027 06:16:13.924   09 Jun 2027 06:17:28.641            74.717                 Moscow          9339.625
       276   09 Jun 2027 06:17:49.445   09 Jun 2027 06:18:12.860            23.415                Norilsk          2926.875
       277   09 Jun 2027 07:51:21.364   09 Jun 2027 07:52:54.205            92.841              Murmansk2         11605.125
       278   09 Jun 2027 07:53:02.383   09 Jun 2027 07:53:08.863             6.480                Norilsk           810.000
       279   09 Jun 2027 07:53:13.279   09 Jun 2027 07:54:14.718            61.439                 Moscow          7679.875
       280   09 Jun 2027 07:54:44.918   09 Jun 2027 07:55:06.875            21.957                 Moscow          2744.625
       281   09 Jun 2027 08:59:04.085   09 Jun 2027 09:05:49.639           405.554               CapeTown         50694.250
       282   09 Jun 2027 11:14:42.593   09 Jun 2027 11:14:56.514            13.921                Anadyr2          1740.125
       283   09 Jun 2027 11:15:23.451   09 Jun 2027 11:17:37.667           134.216                Anadyr1         16777.000
       284   09 Jun 2027 12:52:57.994   09 Jun 2027 12:55:03.918           125.924               Magadan1         15740.500
       285   09 Jun 2027 13:02:55.648   09 Jun 2027 13:05:29.050           153.402               Magadan1         19175.250
       286   09 Jun 2027 14:49:45.384   09 Jun 2027 14:49:55.996            10.612                Sumatra          1326.500
       287   09 Jun 2027 15:20:31.629   09 Jun 2027 15:22:24.789           113.160            RioGallegos         14145.000
       288   09 Jun 2027 15:28:54.927   09 Jun 2027 15:30:03.155            68.228            RioGallegos          8528.500
       289   09 Jun 2027 16:11:20.314   09 Jun 2027 16:13:17.606           117.292                Irkutsk         14661.500
       290   09 Jun 2027 16:22:05.555   09 Jun 2027 16:24:00.143           114.588                Sumatra         14323.500
       291   09 Jun 2027 16:29:45.741   09 Jun 2027 16:31:46.825           121.084                Sumatra         15135.500
       292   09 Jun 2027 17:47:52.452   09 Jun 2027 17:49:04.003            71.551                Novosib          8943.875
       293   09 Jun 2027 17:51:32.467   09 Jun 2027 17:54:17.275           164.808                  Delhi         20601.000
       294   09 Jun 2027 18:01:04.924   09 Jun 2027 18:01:05.365             0.441                  Delhi            55.125
       295   09 Jun 2027 19:28:51.686   09 Jun 2027 19:29:16.929            25.243                  Delhi          3155.375
       296   09 Jun 2027 20:57:41.556   09 Jun 2027 21:00:57.132           195.576                 Moscow         24447.000
       297   09 Jun 2027 21:24:47.704   09 Jun 2027 21:26:50.457           122.753               CapeTown         15344.125
       298   10 Jun 2027 02:55:05.311   10 Jun 2027 02:56:25.265            79.954                Sumatra          9994.250
       299   10 Jun 2027 03:16:51.771   10 Jun 2027 03:16:56.746             4.975                Norilsk           621.875
       300   10 Jun 2027 03:16:58.089   10 Jun 2027 03:17:38.459            40.370              Murmansk2          5046.250
       301   10 Jun 2027 03:18:06.404   10 Jun 2027 03:18:51.664            45.260                Norilsk          5657.500
       302   10 Jun 2027 03:19:06.443   10 Jun 2027 03:19:16.733            10.290              Murmansk2          1286.250
       303   10 Jun 2027 03:21:48.170   10 Jun 2027 03:22:15.013            26.843              Murmansk1          3355.375
       304   10 Jun 2027 03:53:42.871   10 Jun 2027 03:56:24.147           161.276            RioGallegos         20159.500
       305   10 Jun 2027 03:57:03.473   10 Jun 2027 03:57:56.233            52.760            RioGallegos          6595.000
       306   10 Jun 2027 04:28:09.351   10 Jun 2027 04:29:38.966            89.615                Sumatra         11201.875
       307   10 Jun 2027 04:31:06.862   10 Jun 2027 04:32:57.015           110.153                Sumatra         13769.125
       308   10 Jun 2027 04:51:00.133   10 Jun 2027 04:52:44.685           104.552                Novosib         13069.000
       309   10 Jun 2027 04:53:32.921   10 Jun 2027 04:54:14.990            42.069                Novosib          5258.625
       310   10 Jun 2027 06:12:42.926   10 Jun 2027 06:15:06.409           143.483                  Delhi         17935.375
       311   10 Jun 2027 06:19:05.588   10 Jun 2027 06:19:46.304            40.716                  Delhi          5089.500
       312   10 Jun 2027 06:27:18.177   10 Jun 2027 06:27:44.200            26.023                Novosib          3252.875
       313   10 Jun 2027 06:27:48.680   10 Jun 2027 06:28:07.920            19.240              Murmansk2          2405.000
       314   10 Jun 2027 06:28:20.998   10 Jun 2027 06:29:07.006            46.008                 Moscow          5751.000
       315   10 Jun 2027 06:29:30.961   10 Jun 2027 06:30:51.136            80.175                Novosib         10021.875
       316   10 Jun 2027 08:03:03.113   10 Jun 2027 08:03:52.557            49.444              Murmansk2          6180.500
       317   10 Jun 2027 08:03:57.152   10 Jun 2027 08:04:33.471            36.319                 Moscow          4539.875
       318   10 Jun 2027 08:04:41.771   10 Jun 2027 08:05:27.273            45.502                 Moscow          5687.750
       319   10 Jun 2027 09:10:46.245   10 Jun 2027 09:16:55.698           369.453               CapeTown         46181.625
       320   10 Jun 2027 11:26:43.428   10 Jun 2027 11:29:48.236           184.808                Anadyr1         23101.000
       321   10 Jun 2027 11:30:19.048   10 Jun 2027 11:30:46.919            27.871               Magadan2          3483.875
       322   10 Jun 2027 11:33:14.414   10 Jun 2027 11:38:58.197           343.783               Magadan2         42972.875
       323   10 Jun 2027 15:00:37.128   10 Jun 2027 15:03:02.870           145.742                Sumatra         18217.750
       324   10 Jun 2027 15:09:11.770   10 Jun 2027 15:09:13.295             1.525                Sumatra           190.625
       325   10 Jun 2027 15:41:55.631   10 Jun 2027 15:43:07.852            72.221            RioGallegos          9027.625
       326   10 Jun 2027 16:23:34.712   10 Jun 2027 16:25:12.556            97.844                Irkutsk         12230.500
       327   10 Jun 2027 16:34:14.650   10 Jun 2027 16:35:20.974            66.324                Sumatra          8290.500
       328   10 Jun 2027 16:35:41.830   10 Jun 2027 16:37:02.589            80.759                  Delhi         10094.875
       329   10 Jun 2027 17:59:27.421   10 Jun 2027 18:00:13.062            45.641                Novosib          5705.125
       330   10 Jun 2027 18:03:30.794   10 Jun 2027 18:06:43.209           192.415                  Delhi         24051.875
       331   10 Jun 2027 19:39:48.814   10 Jun 2027 19:40:10.206            21.392                 Moscow          2674.000
       332   10 Jun 2027 21:08:31.859   10 Jun 2027 21:09:19.117            47.258              Murmansk2          5907.250
       333   10 Jun 2027 21:09:42.261   10 Jun 2027 21:10:03.600            21.339                 Moscow          2667.375
       334   10 Jun 2027 21:11:35.430   10 Jun 2027 21:13:00.966            85.536                 Moscow         10692.000
       335   10 Jun 2027 21:36:48.381   10 Jun 2027 21:38:36.224           107.843               CapeTown         13480.375
       336   11 Jun 2027 03:06:02.296   11 Jun 2027 03:09:56.362           234.066                Sumatra         29258.250
       337   11 Jun 2027 03:14:15.280   11 Jun 2027 03:14:56.341            41.061                Sumatra          5132.625
       338   11 Jun 2027 03:29:34.001   11 Jun 2027 03:29:41.573             7.572                Novosib           946.500
       339   11 Jun 2027 03:30:11.114   11 Jun 2027 03:30:21.672            10.558              Murmansk2          1319.750
       340   11 Jun 2027 03:30:41.216   11 Jun 2027 03:31:39.518            58.302                Novosib          7287.750
       341   11 Jun 2027 04:06:02.440   11 Jun 2027 04:07:12.267            69.827            RioGallegos          8728.375
       342   11 Jun 2027 04:08:06.350   11 Jun 2027 04:08:23.931            17.581            RioGallegos          2197.625
       343   11 Jun 2027 04:10:00.393   11 Jun 2027 04:10:23.864            23.471            RioGallegos          2933.875
       344   11 Jun 2027 04:14:46.196   11 Jun 2027 04:15:39.547            53.351            RioGallegos          6668.875
       345   11 Jun 2027 04:40:21.538   11 Jun 2027 04:41:05.652            44.114                Sumatra          5514.250
       346   11 Jun 2027 04:42:16.569   11 Jun 2027 04:42:56.261            39.692                Sumatra          4961.500
       347   11 Jun 2027 04:44:26.540   11 Jun 2027 04:44:51.270            24.730                Sumatra          3091.250
       348   11 Jun 2027 04:47:58.641   11 Jun 2027 04:48:18.556            19.915                Sumatra          2489.375
       349   11 Jun 2027 05:03:05.263   11 Jun 2027 05:06:51.681           226.418                Novosib         28302.250
       350   11 Jun 2027 06:26:56.649   11 Jun 2027 06:29:04.086           127.437                  Delhi         15929.625
       351   11 Jun 2027 06:40:20.767   11 Jun 2027 06:41:31.834            71.067              Murmansk1          8883.375
       352   11 Jun 2027 06:41:46.343   11 Jun 2027 06:42:59.824            73.481                 Moscow          9185.125
       353   11 Jun 2027 06:43:25.116   11 Jun 2027 06:44:13.028            47.912                 Moscow          5989.000
       354   11 Jun 2027 08:16:41.082   11 Jun 2027 08:17:45.426            64.344                 Moscow          8043.000
       355   11 Jun 2027 09:22:33.407   11 Jun 2027 09:28:20.094           346.687               CapeTown         43335.875
       356   11 Jun 2027 11:38:44.459   11 Jun 2027 11:38:51.809             7.350                Anadyr2           918.750
       357   11 Jun 2027 11:40:18.930   11 Jun 2027 11:41:56.582            97.652                Anadyr1         12206.500
       358   11 Jun 2027 11:46:11.499   11 Jun 2027 11:47:17.495            65.996                Anadyr1          8249.500
       359   11 Jun 2027 11:47:57.004   11 Jun 2027 11:47:58.995             1.991               Magadan2           248.875
       360   11 Jun 2027 13:16:57.419   11 Jun 2027 13:21:11.293           253.874               Magadan2         31734.250
       361   11 Jun 2027 15:11:31.613   11 Jun 2027 15:19:51.676           500.063                Sumatra         62507.875
       362   11 Jun 2027 16:37:44.914   11 Jun 2027 16:38:53.350            68.436                Novosib          8554.500
       363   11 Jun 2027 16:46:35.965   11 Jun 2027 16:50:09.767           213.802                  Delhi         26725.250
       364   11 Jun 2027 18:15:32.428   11 Jun 2027 18:16:44.755            72.327                  Delhi          9040.875
       365   11 Jun 2027 18:23:14.371   11 Jun 2027 18:24:28.946            74.575                  Delhi          9321.875
       366   11 Jun 2027 19:50:34.247   11 Jun 2027 19:51:30.967            56.720                 Moscow          7090.000
       367   11 Jun 2027 21:33:51.047   11 Jun 2027 21:34:35.060            44.013                 Moscow          5501.625
       368   11 Jun 2027 21:45:42.448   11 Jun 2027 21:46:48.807            66.359               CapeTown          8294.875
       369   11 Jun 2027 21:48:46.245   11 Jun 2027 21:50:27.120           100.875               CapeTown         12609.375
       370   12 Jun 2027 03:17:15.725   12 Jun 2027 03:17:29.109            13.384                Sumatra          1673.000
       371   12 Jun 2027 03:18:19.681   12 Jun 2027 03:24:49.355           389.674                Sumatra         48709.250
       372   12 Jun 2027 04:52:40.599   12 Jun 2027 04:52:41.641             1.042                Sumatra           130.250
       373   12 Jun 2027 04:54:39.221   12 Jun 2027 04:56:51.139           131.918                Sumatra         16489.750
       374   12 Jun 2027 05:07:01.931   12 Jun 2027 05:08:52.732           110.801                  Delhi         13850.125
       375   12 Jun 2027 05:16:23.278   12 Jun 2027 05:17:33.820            70.542                Irkutsk          8817.750
       376   12 Jun 2027 06:37:37.982   12 Jun 2027 06:41:13.563           215.581                  Delhi         26947.625
       377   12 Jun 2027 06:52:29.308   12 Jun 2027 06:53:04.628            35.320                Novosib          4415.000
       378   12 Jun 2027 06:53:09.561   12 Jun 2027 06:53:25.558            15.997                Norilsk          1999.625
       379   12 Jun 2027 06:53:28.021   12 Jun 2027 06:54:55.599            87.578                Novosib         10947.250
       380   12 Jun 2027 09:34:24.599   12 Jun 2027 09:38:22.319           237.720               CapeTown         29715.000
       381   12 Jun 2027 10:14:58.676   12 Jun 2027 10:15:12.949            14.273                Anadyr1          1784.125
       382   12 Jun 2027 10:24:30.495   12 Jun 2027 10:24:32.168             1.673                Anadyr1           209.125
       383   12 Jun 2027 11:50:45.652   12 Jun 2027 11:50:50.625             4.973                Anadyr1           621.625
       384   12 Jun 2027 11:52:39.413   12 Jun 2027 11:54:02.805            83.392                Anadyr2         10424.000
       385   12 Jun 2027 11:55:30.823   12 Jun 2027 11:56:30.053            59.230                Anadyr1          7403.750
       386   12 Jun 2027 12:00:02.551   12 Jun 2027 12:00:21.179            18.628                Anadyr2          2328.500
       387   12 Jun 2027 12:02:53.771   12 Jun 2027 12:02:58.816             5.045               Magadan1           630.625
       388   12 Jun 2027 13:28:57.898   12 Jun 2027 13:32:13.536           195.638               Magadan2         24454.750
       389   12 Jun 2027 13:36:39.440   12 Jun 2027 13:38:33.086           113.646               Magadan1         14205.750
       390   12 Jun 2027 15:12:12.179   12 Jun 2027 15:13:42.909            90.730                Irkutsk         11341.250
       391   12 Jun 2027 15:23:02.213   12 Jun 2027 15:24:34.880            92.667                Sumatra         11583.375
       392   12 Jun 2027 15:26:31.201   12 Jun 2027 15:30:06.484           215.283                Sumatra         26910.375
       393   12 Jun 2027 16:47:48.603   12 Jun 2027 16:49:13.161            84.558                Novosib         10569.750
       394   12 Jun 2027 16:52:59.867   12 Jun 2027 17:01:43.034           523.167                  Delhi         65395.875
       395   12 Jun 2027 20:05:29.573   12 Jun 2027 20:07:33.697           124.124                 Moscow         15515.500
       396   12 Jun 2027 21:57:54.350   12 Jun 2027 21:58:24.627            30.277               CapeTown          3784.625
       397   12 Jun 2027 22:04:28.792   12 Jun 2027 22:04:50.843            22.051               CapeTown          2756.375
       398   12 Jun 2027 22:06:45.315   12 Jun 2027 22:07:42.579            57.264               CapeTown          7158.000
       399   13 Jun 2027 03:28:50.801   13 Jun 2027 03:35:33.102           402.301                Sumatra         50287.625
       400   13 Jun 2027 05:06:14.648   13 Jun 2027 05:07:01.811            47.163                Sumatra          5895.375
       401   13 Jun 2027 05:12:33.901   13 Jun 2027 05:15:32.608           178.707                  Delhi         22338.375
       402   13 Jun 2027 05:28:59.508   13 Jun 2027 05:29:09.971            10.463                Novosib          1307.875
       403   13 Jun 2027 05:29:34.256   13 Jun 2027 05:30:05.363            31.107                 Moscow          3888.375
       404   13 Jun 2027 05:30:12.535   13 Jun 2027 05:30:59.699            47.164              Murmansk2          5895.500
       405   13 Jun 2027 05:31:04.105   13 Jun 2027 05:31:32.644            28.539                Novosib          3567.375
       406   13 Jun 2027 05:32:23.306   13 Jun 2027 05:32:27.246             3.940              Murmansk2           492.500
       407   13 Jun 2027 05:33:41.256   13 Jun 2027 05:34:02.526            21.270                Norilsk          2658.750
       408   13 Jun 2027 06:50:21.025   13 Jun 2027 06:53:29.096           188.071                  Delhi         23508.875
       409   13 Jun 2027 07:04:33.736   13 Jun 2027 07:05:04.399            30.663              Murmansk1          3832.875
       410   13 Jun 2027 07:05:06.178   13 Jun 2027 07:05:19.053            12.875              Murmansk1          1609.375
       411   13 Jun 2027 07:05:25.941   13 Jun 2027 07:06:29.192            63.251                Norilsk          7906.375
       412   13 Jun 2027 07:07:00.493   13 Jun 2027 07:07:26.234            25.741                Norilsk          3217.625
       413   13 Jun 2027 07:08:17.972   13 Jun 2027 07:08:41.332            23.360                 Moscow          2920.000
       414   13 Jun 2027 08:14:46.181   13 Jun 2027 08:17:44.692           178.511               CapeTown         22313.875
       415   13 Jun 2027 09:46:19.207   13 Jun 2027 09:48:54.068           154.861               CapeTown         19357.625
       416   13 Jun 2027 10:32:51.320   13 Jun 2027 10:33:45.259            53.939                Anadyr1          6742.375
       417   13 Jun 2027 12:02:46.947   13 Jun 2027 12:03:41.285            54.338                Anadyr2          6792.250
       418   13 Jun 2027 12:05:23.310   13 Jun 2027 12:07:36.279           132.969               Magadan2         16621.125
       419   13 Jun 2027 12:09:33.642   13 Jun 2027 12:10:36.053            62.411               Magadan2          7801.375
       420   13 Jun 2027 12:14:17.617   13 Jun 2027 12:14:54.409            36.792               Magadan2          4599.000
       421   13 Jun 2027 13:40:58.796   13 Jun 2027 13:42:58.665           119.869               Magadan2         14983.625
       422   13 Jun 2027 13:49:44.162   13 Jun 2027 13:50:34.268            50.106               Magadan2          6263.250
       423   13 Jun 2027 15:25:10.536   13 Jun 2027 15:26:17.066            66.530                Irkutsk          8316.250
       424   13 Jun 2027 15:30:25.651   13 Jun 2027 15:32:16.039           110.388                Irkutsk         13798.500
       425   13 Jun 2027 15:34:41.277   13 Jun 2027 15:36:58.262           136.985                Sumatra         17123.125
       426   13 Jun 2027 15:39:55.159   13 Jun 2027 15:41:05.828            70.669                Sumatra          8833.625
       427   13 Jun 2027 16:58:58.908   13 Jun 2027 17:01:44.534           165.626                Novosib         20703.250
       428   13 Jun 2027 17:05:29.958   13 Jun 2027 17:11:27.816           357.858                  Delhi         44732.250
       429   13 Jun 2027 20:10:01.615   13 Jun 2027 20:11:27.567            85.952                 Moscow         10744.000
       430   13 Jun 2027 20:12:25.201   13 Jun 2027 20:15:07.574           162.373                 Moscow         20296.625
       431   13 Jun 2027 22:14:23.802   13 Jun 2027 22:14:46.069            22.267               CapeTown          2783.375
       432   13 Jun 2027 22:19:30.021   13 Jun 2027 22:20:05.767            35.746               CapeTown          4468.250
