uniorb/output/strategy_1/Drop/Drop_KinoSat_111604.txt

KinoSat_111604
-------------------------
    Access    *     Start Time (UTCG)     *     Stop Time (UTCG)  *   Duration (s)        *       Station  *  Data (Mbytes)
         1   01 Jun 2027 03:26:23.589   01 Jun 2027 03:29:04.518           160.929              Murmansk1          5029.031
         2   01 Jun 2027 03:29:21.104   01 Jun 2027 03:30:34.774            73.670                Novosib          2302.187
         3   01 Jun 2027 03:30:47.189   01 Jun 2027 03:31:00.066            12.877              Murmansk1           402.406
         4   01 Jun 2027 03:31:00.066   01 Jun 2027 03:31:07.748             7.682              Murmansk2           240.063
         5   01 Jun 2027 03:31:23.312   01 Jun 2027 03:32:51.201            87.889                  Delhi          2746.531
         6   01 Jun 2027 03:36:03.576   01 Jun 2027 03:36:07.368             3.792                  Delhi           118.500
         7   01 Jun 2027 03:49:36.084   01 Jun 2027 03:52:00.543           144.459               CapeTown          4514.344
         8   01 Jun 2027 05:03:09.118   01 Jun 2027 05:03:15.516             6.398                Novosib           199.938
         9   01 Jun 2027 05:03:32.302   01 Jun 2027 05:05:01.159            88.857                Norilsk          2776.781
        10   01 Jun 2027 05:05:19.188   01 Jun 2027 05:08:14.968           175.780              Murmansk2          5493.125
        11   01 Jun 2027 05:08:14.968   01 Jun 2027 05:08:51.497            36.529              Murmansk1          1141.531
        12   01 Jun 2027 05:08:52.352   01 Jun 2027 05:09:04.734            12.382                 Moscow           386.938
        13   01 Jun 2027 05:23:11.054   01 Jun 2027 05:25:37.985           146.931               CapeTown          4591.594
        14   01 Jun 2027 06:26:58.713   01 Jun 2027 06:30:59.431           240.718                Anadyr1          7522.438
        15   01 Jun 2027 08:03:43.773   01 Jun 2027 08:06:16.758           152.985               Magadan2          4780.781
        16   01 Jun 2027 09:37:50.736   01 Jun 2027 09:42:32.701           281.965               Magadan2          8811.406
        17   01 Jun 2027 09:42:32.701   01 Jun 2027 09:42:53.739            21.038               Magadan1           657.438
        18   01 Jun 2027 09:43:15.036   01 Jun 2027 09:43:35.876            20.840               Magadan2           651.250
        19   01 Jun 2027 09:43:51.649   01 Jun 2027 09:43:52.257             0.608                Irkutsk            19.000
        20   01 Jun 2027 09:43:55.723   01 Jun 2027 09:44:02.923             7.200               Magadan2           225.000
        21   01 Jun 2027 10:18:59.425   01 Jun 2027 10:19:41.189            41.764            RioGallegos          1305.125
        22   01 Jun 2027 10:20:00.258   01 Jun 2027 10:20:32.290            32.032            RioGallegos          1001.000
        23   01 Jun 2027 10:55:15.852   01 Jun 2027 10:55:25.408             9.556                Sumatra           298.625
        24   01 Jun 2027 10:56:38.521   01 Jun 2027 10:57:56.075            77.554                Sumatra          2423.562
        25   01 Jun 2027 11:15:27.962   01 Jun 2027 11:17:32.630           124.668                Novosib          3895.875
        26   01 Jun 2027 11:17:37.067   01 Jun 2027 11:18:05.809            28.742              Murmansk1           898.188
        27   01 Jun 2027 11:18:05.906   01 Jun 2027 11:18:19.147            13.241                Irkutsk           413.781
        28   01 Jun 2027 11:18:34.726   01 Jun 2027 11:19:35.286            60.560                Novosib          1892.500
        29   01 Jun 2027 11:19:45.572   01 Jun 2027 11:21:42.168           116.596                Norilsk          3643.625
        30   01 Jun 2027 11:21:44.460   01 Jun 2027 11:21:53.394             8.934              Murmansk1           279.188
        31   01 Jun 2027 11:22:14.525   01 Jun 2027 11:22:40.462            25.937              Murmansk1           810.531
        32   01 Jun 2027 11:23:32.084   01 Jun 2027 11:23:51.290            19.206              Murmansk1           600.187
        33   01 Jun 2027 11:24:27.771   01 Jun 2027 11:24:52.740            24.969              Murmansk2           780.281
        34   01 Jun 2027 11:55:40.938   01 Jun 2027 11:58:47.888           186.950            RioGallegos          5842.187
        35   01 Jun 2027 12:00:03.784   01 Jun 2027 12:00:30.467            26.683            RioGallegos           833.844
        36   01 Jun 2027 12:29:59.468   01 Jun 2027 12:30:15.646            16.178                Sumatra           505.563
        37   01 Jun 2027 12:31:47.052   01 Jun 2027 12:34:44.122           177.070                Sumatra          5533.437
        38   01 Jun 2027 12:45:01.450   01 Jun 2027 12:48:25.166           203.716                Irkutsk          6366.125
        39   01 Jun 2027 14:14:46.295   01 Jun 2027 14:16:34.245           107.950                  Delhi          3373.438
        40   01 Jun 2027 14:19:05.870   01 Jun 2027 14:20:06.673            60.803                  Delhi          1900.094
        41   01 Jun 2027 14:23:05.019   01 Jun 2027 14:26:24.463           199.444                Novosib          6232.625
        42   01 Jun 2027 14:26:51.919   01 Jun 2027 14:27:45.611            53.692                Norilsk          1677.875
        43   01 Jun 2027 14:27:48.875   01 Jun 2027 14:28:35.235            46.360                Novosib          1448.750
        44   01 Jun 2027 14:31:11.193   01 Jun 2027 14:32:03.520            52.327                Norilsk          1635.219
        45   01 Jun 2027 15:58:21.834   01 Jun 2027 16:00:22.923           121.089                 Moscow          3784.031
        46   01 Jun 2027 16:01:53.321   01 Jun 2027 16:02:46.705            53.384              Murmansk2          1668.250
        47   01 Jun 2027 16:03:13.723   01 Jun 2027 16:03:43.545            29.822              Murmansk2           931.938
        48   01 Jun 2027 16:07:55.178   01 Jun 2027 16:12:15.948           260.770                Norilsk          8149.063
        49   01 Jun 2027 17:12:04.908   01 Jun 2027 17:12:41.506            36.598               CapeTown          1143.687
        50   01 Jun 2027 17:37:08.038   01 Jun 2027 17:41:20.135           252.097                 Moscow          7878.031
        51   01 Jun 2027 17:44:44.838   01 Jun 2027 17:44:55.897            11.059              Murmansk1           345.594
        52   01 Jun 2027 17:53:51.044   01 Jun 2027 17:54:02.774            11.730                Anadyr1           366.563
        53   01 Jun 2027 17:54:41.094   01 Jun 2027 17:54:56.704            15.610                Anadyr2           487.813
        54   01 Jun 2027 17:55:33.466   01 Jun 2027 17:56:12.119            38.653                Anadyr2          1207.906
        55   01 Jun 2027 18:48:10.662   01 Jun 2027 18:51:53.788           223.126               CapeTown          6972.688
        56   01 Jun 2027 19:20:01.185   01 Jun 2027 19:25:59.715           358.530              Murmansk1         11204.062
        57   01 Jun 2027 19:33:37.863   01 Jun 2027 19:34:05.032            27.169               Magadan2           849.031
        58   01 Jun 2027 21:04:15.022   01 Jun 2027 21:05:47.807            92.785                Anadyr2          2899.531
        59   01 Jun 2027 21:05:47.924   01 Jun 2027 21:07:15.859            87.935                Anadyr1          2747.969
        60   01 Jun 2027 21:07:35.252   01 Jun 2027 21:08:04.675            29.423                Anadyr1           919.469
        61   01 Jun 2027 21:08:21.959   01 Jun 2027 21:11:25.597           183.638               Magadan2          5738.688
        62   01 Jun 2027 21:13:02.312   01 Jun 2027 21:13:04.392             2.080               Magadan2            65.000
        63   01 Jun 2027 21:13:35.134   01 Jun 2027 21:13:47.683            12.549               Magadan2           392.156
        64   01 Jun 2027 21:59:27.843   01 Jun 2027 22:01:59.521           151.678            RioGallegos          4739.938
        65   01 Jun 2027 22:02:27.913   01 Jun 2027 22:02:28.336             0.423            RioGallegos            13.219
        66   01 Jun 2027 22:40:00.648   01 Jun 2027 22:41:48.747           108.099                Anadyr2          3378.094
        67   01 Jun 2027 22:42:07.018   01 Jun 2027 22:43:42.331            95.313                Norilsk          2978.531
        68   01 Jun 2027 22:43:46.311   01 Jun 2027 22:45:54.952           128.641               Magadan1          4020.031
        69   01 Jun 2027 22:46:40.818   01 Jun 2027 22:47:37.762            56.944                Irkutsk          1779.500
        70   01 Jun 2027 23:00:58.471   01 Jun 2027 23:03:48.534           170.063                Sumatra          5314.469
        71   02 Jun 2027 00:15:06.447   02 Jun 2027 00:17:29.304           142.857                Anadyr1          4464.281
        72   02 Jun 2027 00:17:59.177   02 Jun 2027 00:19:42.609           103.432                Norilsk          3232.250
        73   02 Jun 2027 00:20:55.607   02 Jun 2027 00:21:32.575            36.968               Magadan2          1155.250
        74   02 Jun 2027 00:21:51.969   02 Jun 2027 00:22:46.055            54.086                Irkutsk          1690.187
        75   02 Jun 2027 00:23:23.446   02 Jun 2027 00:24:03.184            39.738                Irkutsk          1241.812
        76   02 Jun 2027 00:24:42.836   02 Jun 2027 00:25:06.078            23.242                Novosib           726.313
        77   02 Jun 2027 00:30:58.768   02 Jun 2027 00:31:24.064            25.296                Novosib           790.500
        78   02 Jun 2027 00:31:34.473   02 Jun 2027 00:33:37.809           123.336                  Delhi          3854.250
        79   02 Jun 2027 01:10:05.851   02 Jun 2027 01:10:57.990            52.139            RioGallegos          1629.344
        80   02 Jun 2027 01:12:30.228   02 Jun 2027 01:12:41.987            11.759            RioGallegos           367.469
        81   02 Jun 2027 01:48:59.200   02 Jun 2027 01:49:33.085            33.885                Anadyr2          1058.906
        82   02 Jun 2027 01:50:00.040   02 Jun 2027 01:51:05.993            65.953                Anadyr1          2061.031
        83   02 Jun 2027 01:53:44.235   02 Jun 2027 01:54:16.980            32.745                Anadyr1          1023.281
        84   02 Jun 2027 01:54:24.926   02 Jun 2027 01:55:38.292            73.366                Norilsk          2292.688
        85   02 Jun 2027 01:56:35.653   02 Jun 2027 01:57:12.470            36.817              Murmansk2          1150.531
        86   02 Jun 2027 01:57:18.724   02 Jun 2027 01:57:47.905            29.181              Murmansk1           911.906
        87   02 Jun 2027 01:58:09.543   02 Jun 2027 01:59:34.147            84.604                Irkutsk          2643.875
        88   02 Jun 2027 01:59:39.026   02 Jun 2027 01:59:56.389            17.363                Irkutsk           542.594
        89   02 Jun 2027 02:05:07.733   02 Jun 2027 02:07:21.961           134.228                  Delhi          4194.625
        90   02 Jun 2027 02:47:39.016   02 Jun 2027 02:50:55.145           196.129            RioGallegos          6129.031
        91   02 Jun 2027 03:38:16.322   02 Jun 2027 03:38:31.994            15.672                 Moscow           489.750
        92   02 Jun 2027 03:38:39.034   02 Jun 2027 03:39:13.344            34.310                Novosib          1072.188
        93   02 Jun 2027 03:39:27.627   02 Jun 2027 03:42:22.568           174.941                Norilsk          5466.906
        94   02 Jun 2027 03:42:23.638   02 Jun 2027 03:43:24.374            60.736              Murmansk1          1898.000
        95   02 Jun 2027 03:44:58.770   02 Jun 2027 03:47:18.172           139.402                  Delhi          4356.312
        96   02 Jun 2027 04:02:00.482   02 Jun 2027 04:03:38.994            98.512               CapeTown          3078.500
        97   02 Jun 2027 05:16:27.727   02 Jun 2027 05:16:49.922            22.195                Norilsk           693.594
        98   02 Jun 2027 05:16:57.507   02 Jun 2027 05:19:17.212           139.705              Murmansk1          4365.781
        99   02 Jun 2027 05:19:41.143   02 Jun 2027 05:20:07.401            26.258              Murmansk1           820.562
       100   02 Jun 2027 05:36:04.763   02 Jun 2027 05:37:25.682            80.919               CapeTown          2528.719
       101   02 Jun 2027 06:38:59.706   02 Jun 2027 06:41:05.826           126.120                Anadyr1          3941.250
       102   02 Jun 2027 08:16:41.585   02 Jun 2027 08:18:24.787           103.202                Norilsk          3225.063
       103   02 Jun 2027 08:18:35.997   02 Jun 2027 08:20:28.624           112.627               Magadan1          3519.594
       104   02 Jun 2027 08:57:32.783   02 Jun 2027 08:57:54.415            21.632            RioGallegos           676.000
       105   02 Jun 2027 08:58:28.429   02 Jun 2027 08:58:52.526            24.097            RioGallegos           753.031
       106   02 Jun 2027 09:49:51.318   02 Jun 2027 09:54:36.864           285.546               Magadan1          8923.313
       107   02 Jun 2027 09:55:25.209   02 Jun 2027 09:55:57.404            32.195               Magadan1          1006.094
       108   02 Jun 2027 11:27:37.535   02 Jun 2027 11:28:56.988            79.453                Irkutsk          2482.906
       109   02 Jun 2027 11:29:14.501   02 Jun 2027 11:29:35.608            21.107                Norilsk           659.594
       110   02 Jun 2027 11:29:44.111   02 Jun 2027 11:31:15.577            91.466                Novosib          2858.313
       111   02 Jun 2027 11:31:18.845   02 Jun 2027 11:31:34.399            15.554                Novosib           486.062
       112   02 Jun 2027 11:31:52.419   02 Jun 2027 11:34:55.200           182.781                Norilsk          5711.906
       113   02 Jun 2027 11:36:19.358   02 Jun 2027 11:36:46.126            26.768              Murmansk1           836.500
       114   02 Jun 2027 12:08:06.597   02 Jun 2027 12:12:03.324           236.727            RioGallegos          7397.719
       115   02 Jun 2027 12:12:53.872   02 Jun 2027 12:13:10.982            17.110            RioGallegos           534.688
       116   02 Jun 2027 12:42:20.663   02 Jun 2027 12:44:26.010           125.347                Sumatra          3917.094
       117   02 Jun 2027 12:46:32.841   02 Jun 2027 12:47:33.053            60.212                Sumatra          1881.625
       118   02 Jun 2027 12:56:52.927   02 Jun 2027 12:57:43.594            50.667                Novosib          1583.344
       119   02 Jun 2027 12:57:44.048   02 Jun 2027 13:00:22.356           158.308                Irkutsk          4947.125
       120   02 Jun 2027 13:01:47.167   02 Jun 2027 13:02:22.127            34.960                Irkutsk          1092.500
       121   02 Jun 2027 14:27:20.555   02 Jun 2027 14:32:23.489           302.934                  Delhi          9466.687
       122   02 Jun 2027 14:35:46.954   02 Jun 2027 14:39:49.753           242.799                Novosib          7587.469
       123   02 Jun 2027 16:10:31.090   02 Jun 2027 16:13:33.428           182.338                 Moscow          5698.063
       124   02 Jun 2027 16:14:40.246   02 Jun 2027 16:15:15.289            35.043              Murmansk1          1095.094
       125   02 Jun 2027 16:17:07.005   02 Jun 2027 16:17:07.491             0.486              Murmansk1            15.187
       126   02 Jun 2027 16:21:06.007   02 Jun 2027 16:23:50.225           164.218                Norilsk          5131.813
       127   02 Jun 2027 17:23:57.258   02 Jun 2027 17:25:46.026           108.768               CapeTown          3399.000
       128   02 Jun 2027 17:49:56.747   02 Jun 2027 17:54:36.783           280.036                 Moscow          8751.125
       129   02 Jun 2027 18:06:24.195   02 Jun 2027 18:06:27.533             3.338                Anadyr2           104.312
       130   02 Jun 2027 18:10:26.129   02 Jun 2027 18:10:34.649             8.520                Anadyr2           266.250
       131   02 Jun 2027 18:11:02.324   02 Jun 2027 18:11:51.732            49.408                Anadyr2          1544.000
       132   02 Jun 2027 19:00:28.348   02 Jun 2027 19:01:48.445            80.097               CapeTown          2503.031
       133   02 Jun 2027 19:03:45.350   02 Jun 2027 19:04:28.964            43.614               CapeTown          1362.937
       134   02 Jun 2027 19:04:52.505   02 Jun 2027 19:05:15.891            23.386               CapeTown           730.812
       135   02 Jun 2027 19:32:56.889   02 Jun 2027 19:37:25.284           268.395              Murmansk1          8387.344
       136   02 Jun 2027 19:37:29.782   02 Jun 2027 19:37:45.969            16.187              Murmansk2           505.844
       137   02 Jun 2027 19:43:00.676   02 Jun 2027 19:44:47.667           106.991               Magadan2          3343.469
       138   02 Jun 2027 21:16:16.368   02 Jun 2027 21:21:26.200           309.832                Anadyr1          9682.250
       139   02 Jun 2027 21:21:32.261   02 Jun 2027 21:24:33.109           180.848               Magadan2          5651.500
       140   02 Jun 2027 21:25:35.787   02 Jun 2027 21:25:52.920            17.133               Magadan1           535.406
       141   02 Jun 2027 22:11:06.631   02 Jun 2027 22:14:17.830           191.199            RioGallegos          5974.969
       142   02 Jun 2027 22:17:17.177   02 Jun 2027 22:17:35.021            17.844            RioGallegos           557.625
       143   02 Jun 2027 22:20:10.512   02 Jun 2027 22:20:28.309            17.797            RioGallegos           556.156
       144   02 Jun 2027 22:51:58.951   02 Jun 2027 22:53:30.094            91.143                Anadyr1          2848.219
       145   02 Jun 2027 22:53:59.615   02 Jun 2027 22:54:44.617            45.002                Anadyr2          1406.313
       146   02 Jun 2027 22:55:03.418   02 Jun 2027 22:56:19.685            76.267               Magadan2          2383.344
       147   02 Jun 2027 22:56:53.142   02 Jun 2027 22:56:58.046             4.904               Magadan1           153.250
       148   02 Jun 2027 22:57:33.932   02 Jun 2027 22:58:18.696            44.764               Magadan2          1398.875
       149   02 Jun 2027 22:58:30.128   02 Jun 2027 22:59:32.888            62.760                Irkutsk          1961.250
       150   02 Jun 2027 23:01:25.585   02 Jun 2027 23:01:48.268            22.683                Irkutsk           708.844
       151   02 Jun 2027 23:06:40.333   02 Jun 2027 23:07:09.890            29.557                Irkutsk           923.656
       152   02 Jun 2027 23:07:57.954   02 Jun 2027 23:08:31.914            33.960                Irkutsk          1061.250
       153   02 Jun 2027 23:12:31.231   02 Jun 2027 23:14:07.230            95.999                Sumatra          2999.969
       154   02 Jun 2027 23:23:14.229   02 Jun 2027 23:24:07.394            53.165                Sumatra          1661.406
       155   02 Jun 2027 23:54:51.161   02 Jun 2027 23:55:28.955            37.794            RioGallegos          1181.063
       156   02 Jun 2027 23:57:26.112   02 Jun 2027 23:57:46.564            20.452            RioGallegos           639.125
       157   02 Jun 2027 23:58:15.945   02 Jun 2027 23:58:51.269            35.324            RioGallegos          1103.875
       158   03 Jun 2027 00:26:56.818   03 Jun 2027 00:26:57.454             0.636                Anadyr2            19.875
       159   03 Jun 2027 00:27:14.008   03 Jun 2027 00:27:26.900            12.892                Anadyr2           402.875
       160   03 Jun 2027 00:27:40.628   03 Jun 2027 00:28:17.193            36.565                Anadyr2          1142.656
       161   03 Jun 2027 00:28:56.393   03 Jun 2027 00:29:14.339            17.946                Anadyr1           560.813
       162   03 Jun 2027 00:29:28.520   03 Jun 2027 00:29:36.087             7.567                Anadyr1           236.469
       163   03 Jun 2027 00:30:01.377   03 Jun 2027 00:31:44.597           103.220                Norilsk          3225.625
       164   03 Jun 2027 00:32:30.397   03 Jun 2027 00:32:57.471            27.074               Magadan1           846.063
       165   03 Jun 2027 00:33:53.518   03 Jun 2027 00:35:59.130           125.612                Irkutsk          3925.375
       166   03 Jun 2027 00:39:43.463   03 Jun 2027 00:39:43.647             0.184                Irkutsk             5.750
       167   03 Jun 2027 00:39:57.351   03 Jun 2027 00:40:24.079            26.728                Novosib           835.250
       168   03 Jun 2027 00:41:45.902   03 Jun 2027 00:42:33.311            47.409                Novosib          1481.531
       169   03 Jun 2027 00:44:56.045   03 Jun 2027 00:45:52.663            56.618                Irkutsk          1769.313
       170   03 Jun 2027 00:49:17.085   03 Jun 2027 00:49:32.148            15.063                  Delhi           470.719
       171   03 Jun 2027 00:51:41.498   03 Jun 2027 00:52:28.120            46.622                  Delhi          1456.937
       172   03 Jun 2027 00:56:20.768   03 Jun 2027 00:58:32.702           131.934                Sumatra          4122.938
       173   03 Jun 2027 02:00:40.937   03 Jun 2027 02:00:44.429             3.492                Anadyr2           109.125
       174   03 Jun 2027 02:01:19.821   03 Jun 2027 02:01:34.412            14.591                Anadyr1           455.969
       175   03 Jun 2027 02:02:25.349   03 Jun 2027 02:03:01.320            35.971                Anadyr2          1124.094
       176   03 Jun 2027 02:05:02.089   03 Jun 2027 02:05:45.556            43.467                Anadyr2          1358.344
       177   03 Jun 2027 02:06:01.948   03 Jun 2027 02:06:53.252            51.304                Norilsk          1603.250
       178   03 Jun 2027 02:07:34.083   03 Jun 2027 02:07:38.775             4.692                Norilsk           146.625
       179   03 Jun 2027 02:08:14.302   03 Jun 2027 02:08:44.137            29.835               Magadan1           932.344
       180   03 Jun 2027 02:09:09.509   03 Jun 2027 02:09:53.745            44.236              Murmansk1          1382.375
       181   03 Jun 2027 02:10:02.680   03 Jun 2027 02:10:26.208            23.528                Novosib           735.250
       182   03 Jun 2027 02:11:05.960   03 Jun 2027 02:11:22.095            16.135              Murmansk2           504.219
       183   03 Jun 2027 02:12:18.426   03 Jun 2027 02:13:22.218            63.792                Irkutsk          1993.500
       184   03 Jun 2027 02:17:13.063   03 Jun 2027 02:17:32.295            19.232                Irkutsk           601.000
       185   03 Jun 2027 02:20:09.722   03 Jun 2027 02:21:23.381            73.659                  Delhi          2301.844
       186   03 Jun 2027 02:27:29.313   03 Jun 2027 02:28:48.132            78.819                  Delhi          2463.094
       187   03 Jun 2027 03:00:22.915   03 Jun 2027 03:00:46.070            23.155            RioGallegos           723.594
       188   03 Jun 2027 03:01:58.146   03 Jun 2027 03:02:49.482            51.336            RioGallegos          1604.250
       189   03 Jun 2027 03:03:14.081   03 Jun 2027 03:03:21.472             7.391            RioGallegos           230.969
       190   03 Jun 2027 03:50:23.563   03 Jun 2027 03:54:21.532           237.969              Murmansk1          7436.531
       191   03 Jun 2027 03:54:21.532   03 Jun 2027 03:54:51.739            30.207              Murmansk2           943.969
       192   03 Jun 2027 03:55:05.471   03 Jun 2027 03:56:24.763            79.292                Novosib          2477.875
       193   03 Jun 2027 05:27:54.269   03 Jun 2027 05:28:38.506            44.237                Norilsk          1382.406
       194   03 Jun 2027 05:28:41.147   03 Jun 2027 05:29:51.191            70.044              Murmansk2          2188.875
       195   03 Jun 2027 05:30:20.644   03 Jun 2027 05:30:55.944            35.300              Murmansk2          1103.125
       196   03 Jun 2027 05:34:03.283   03 Jun 2027 05:34:54.728            51.445                 Moscow          1607.656
       197   03 Jun 2027 06:51:22.109   03 Jun 2027 06:52:42.031            79.922               Magadan1          2497.563
       198   03 Jun 2027 06:52:42.031   03 Jun 2027 06:53:30.005            47.974               Magadan2          1499.187
       199   03 Jun 2027 08:27:45.752   03 Jun 2027 08:28:21.674            35.922                Anadyr2          1122.563
       200   03 Jun 2027 08:28:53.589   03 Jun 2027 08:31:38.412           164.823                Anadyr2          5150.719
       201   03 Jun 2027 10:02:41.124   03 Jun 2027 10:07:49.921           308.797               Magadan1          9649.906
       202   03 Jun 2027 11:37:51.575   03 Jun 2027 11:38:17.765            26.190                Novosib           818.438
       203   03 Jun 2027 11:38:22.957   03 Jun 2027 11:39:20.925            57.968                Norilsk          1811.500
       204   03 Jun 2027 11:39:29.755   03 Jun 2027 11:40:01.429            31.674                Irkutsk           989.812
       205   03 Jun 2027 11:40:02.708   03 Jun 2027 11:41:16.643            73.935                Norilsk          2310.469
       206   03 Jun 2027 11:41:24.123   03 Jun 2027 11:41:39.490            15.367              Murmansk1           480.219
       207   03 Jun 2027 11:41:44.138   03 Jun 2027 11:44:10.176           146.038                Irkutsk          4563.687
       208   03 Jun 2027 12:54:50.966   03 Jun 2027 12:55:46.002            55.036                Sumatra          1719.875
       209   03 Jun 2027 12:57:34.383   03 Jun 2027 12:58:52.809            78.426                Sumatra          2450.812
       210   03 Jun 2027 13:08:47.093   03 Jun 2027 13:09:53.710            66.617                  Delhi          2081.781
       211   03 Jun 2027 13:10:24.108   03 Jun 2027 13:14:23.055           238.947                Irkutsk          7467.094
       212   03 Jun 2027 14:40:07.042   03 Jun 2027 14:41:55.803           108.761                  Delhi          3398.781
       213   03 Jun 2027 14:42:58.951   03 Jun 2027 14:44:52.529           113.578                  Delhi          3549.312
       214   03 Jun 2027 14:48:37.803   03 Jun 2027 14:51:49.870           192.067                Novosib          6002.094
       215   03 Jun 2027 16:03:45.109   03 Jun 2027 16:05:11.522            86.413               CapeTown          2700.406
       216   03 Jun 2027 16:05:21.434   03 Jun 2027 16:06:11.961            50.527               CapeTown          1578.969
       217   03 Jun 2027 16:22:43.684   03 Jun 2027 16:23:04.354            20.670                 Moscow           645.938
       218   03 Jun 2027 16:23:46.540   03 Jun 2027 16:24:20.709            34.169                 Moscow          1067.781
       219   03 Jun 2027 16:26:12.347   03 Jun 2027 16:27:03.493            51.146              Murmansk1          1598.312
       220   03 Jun 2027 16:27:17.033   03 Jun 2027 16:27:49.399            32.366              Murmansk1          1011.437
       221   03 Jun 2027 16:30:48.096   03 Jun 2027 16:31:00.307            12.211              Murmansk2           381.594
       222   03 Jun 2027 16:32:54.492   03 Jun 2027 16:33:31.157            36.665              Murmansk1          1145.781
       223   03 Jun 2027 16:41:28.455   03 Jun 2027 16:43:24.816           116.361                Anadyr1          3636.281
       224   03 Jun 2027 16:44:14.573   03 Jun 2027 16:44:45.330            30.757                Anadyr1           961.156
       225   03 Jun 2027 16:47:55.289   03 Jun 2027 16:48:05.396            10.107                Anadyr1           315.844
       226   03 Jun 2027 16:48:09.295   03 Jun 2027 16:48:11.908             2.613                Anadyr2            81.656
       227   03 Jun 2027 17:35:52.951   03 Jun 2027 17:36:41.301            48.350               CapeTown          1510.938
       228   03 Jun 2027 17:38:58.863   03 Jun 2027 17:39:35.153            36.290               CapeTown          1134.063
       229   03 Jun 2027 17:44:12.603   03 Jun 2027 17:44:30.964            18.361               CapeTown           573.781
       230   03 Jun 2027 17:47:03.250   03 Jun 2027 17:47:49.034            45.784               CapeTown          1430.750
       231   03 Jun 2027 18:02:57.599   03 Jun 2027 18:06:26.447           208.848                 Moscow          6526.500
       232   03 Jun 2027 18:08:55.596   03 Jun 2027 18:09:16.540            20.944              Murmansk2           654.500
       233   03 Jun 2027 18:12:52.064   03 Jun 2027 18:13:31.184            39.120              Murmansk2          1222.500
       234   03 Jun 2027 18:25:13.485   03 Jun 2027 18:25:20.862             7.377                Anadyr2           230.531
       235   03 Jun 2027 18:26:40.348   03 Jun 2027 18:27:00.163            19.815                Anadyr1           619.219
       236   03 Jun 2027 18:27:03.879   03 Jun 2027 18:27:11.453             7.574                Anadyr1           236.688
       237   03 Jun 2027 18:27:26.569   03 Jun 2027 18:27:40.722            14.153                Anadyr1           442.281
       238   03 Jun 2027 19:12:51.543   03 Jun 2027 19:13:55.676            64.133               CapeTown          2004.156
       239   03 Jun 2027 19:16:43.374   03 Jun 2027 19:18:08.490            85.116               CapeTown          2659.875
       240   03 Jun 2027 19:46:05.584   03 Jun 2027 19:49:21.123           195.539              Murmansk1          6110.594
       241   03 Jun 2027 19:54:55.850   03 Jun 2027 19:55:50.055            54.205               Magadan2          1693.906
       242   03 Jun 2027 19:56:37.133   03 Jun 2027 19:57:30.837            53.704               Magadan1          1678.250
       243   03 Jun 2027 20:03:22.059   03 Jun 2027 20:03:52.678            30.619               Magadan1           956.844
       244   03 Jun 2027 21:28:17.506   03 Jun 2027 21:30:20.050           122.544                Anadyr2          3829.500
       245   03 Jun 2027 21:30:33.790   03 Jun 2027 21:35:58.654           324.864               Magadan1         10152.000
       246   03 Jun 2027 21:36:03.065   03 Jun 2027 21:36:07.451             4.386               Magadan1           137.063
       247   03 Jun 2027 21:39:38.313   03 Jun 2027 21:40:02.347            24.034               Magadan2           751.063
       248   03 Jun 2027 21:41:01.906   03 Jun 2027 21:42:27.125            85.219               Magadan2          2663.094
       249   03 Jun 2027 22:22:51.175   03 Jun 2027 22:23:45.425            54.250            RioGallegos          1695.312
       250   03 Jun 2027 22:24:45.334   03 Jun 2027 22:24:56.995            11.661            RioGallegos           364.406
       251   03 Jun 2027 22:25:08.530   03 Jun 2027 22:25:22.329            13.799            RioGallegos           431.219
       252   03 Jun 2027 22:25:47.788   03 Jun 2027 22:26:10.040            22.252            RioGallegos           695.375
       253   03 Jun 2027 23:03:56.560   03 Jun 2027 23:05:04.276            67.716                Anadyr1          2116.125
       254   03 Jun 2027 23:06:02.786   03 Jun 2027 23:07:13.849            71.063                Anadyr1          2220.719
       255   03 Jun 2027 23:07:17.741   03 Jun 2027 23:08:44.436            86.695               Magadan2          2709.219
       256   03 Jun 2027 23:09:45.166   03 Jun 2027 23:10:00.835            15.669               Magadan1           489.656
       257   03 Jun 2027 23:10:22.193   03 Jun 2027 23:11:16.271            54.078                Irkutsk          1689.938
       258   03 Jun 2027 23:12:08.874   03 Jun 2027 23:12:35.855            26.981                Irkutsk           843.156
       259   03 Jun 2027 23:15:14.292   03 Jun 2027 23:15:34.845            20.553                Novosib           642.281
       260   03 Jun 2027 23:16:32.974   03 Jun 2027 23:17:06.276            33.302                Irkutsk          1040.688
       261   03 Jun 2027 23:24:12.146   03 Jun 2027 23:24:47.581            35.435                Sumatra          1107.344
       262   03 Jun 2027 23:26:00.307   03 Jun 2027 23:26:36.982            36.675                Sumatra          1146.094
       263   03 Jun 2027 23:28:00.369   03 Jun 2027 23:28:34.733            34.364                Sumatra          1073.875
       264   03 Jun 2027 23:31:26.348   03 Jun 2027 23:31:51.068            24.720                Sumatra           772.500
       265   04 Jun 2027 00:07:26.352   04 Jun 2027 00:07:57.375            31.023            RioGallegos           969.469
       266   04 Jun 2027 00:09:00.489   04 Jun 2027 00:09:29.309            28.820            RioGallegos           900.625
       267   04 Jun 2027 00:38:45.872   04 Jun 2027 00:39:04.070            18.198                Anadyr1           568.687
       268   04 Jun 2027 00:39:24.512   04 Jun 2027 00:40:12.722            48.210                Anadyr1          1506.562
       269   04 Jun 2027 00:40:57.734   04 Jun 2027 00:41:30.139            32.405                Anadyr1          1012.656
       270   04 Jun 2027 00:42:03.644   04 Jun 2027 00:43:46.484           102.840                Norilsk          3213.750
       271   04 Jun 2027 00:43:59.448   04 Jun 2027 00:44:59.091            59.643               Magadan1          1863.844
       272   04 Jun 2027 00:45:55.905   04 Jun 2027 00:47:10.836            74.931                Irkutsk          2341.594
       273   04 Jun 2027 00:48:10.998   04 Jun 2027 00:49:42.722            91.724                Novosib          2866.375
       274   04 Jun 2027 00:57:11.856   04 Jun 2027 00:58:01.137            49.281                  Delhi          1540.031
       275   04 Jun 2027 00:59:52.673   04 Jun 2027 01:00:35.957            43.284                  Delhi          1352.625
       276   04 Jun 2027 01:06:11.619   04 Jun 2027 01:07:30.955            79.336                Sumatra          2479.250
       277   04 Jun 2027 01:40:31.373   04 Jun 2027 01:41:03.589            32.216            RioGallegos          1006.750
       278   04 Jun 2027 01:44:34.859   04 Jun 2027 01:44:53.273            18.414            RioGallegos           575.438
       279   04 Jun 2027 02:12:28.283   04 Jun 2027 02:13:19.114            50.831                Anadyr2          1588.469
       280   04 Jun 2027 02:16:47.123   04 Jun 2027 02:16:49.831             2.708                Anadyr1            84.625
       281   04 Jun 2027 02:17:01.818   04 Jun 2027 02:17:42.954            41.136                Anadyr1          1285.500
       282   04 Jun 2027 02:18:03.762   04 Jun 2027 02:18:43.239            39.477                Norilsk          1233.656
       283   04 Jun 2027 02:19:07.140   04 Jun 2027 02:19:16.809             9.669                Norilsk           302.156
       284   04 Jun 2027 02:19:22.694   04 Jun 2027 02:19:38.953            16.259                Norilsk           508.094
       285   04 Jun 2027 02:20:26.577   04 Jun 2027 02:21:33.486            66.909              Murmansk2          2090.906
       286   04 Jun 2027 02:21:50.865   04 Jun 2027 02:22:50.108            59.243                Novosib          1851.344
       287   04 Jun 2027 02:25:12.936   04 Jun 2027 02:25:27.773            14.837                Irkutsk           463.656
       288   04 Jun 2027 02:28:47.211   04 Jun 2027 02:28:57.210             9.999                Irkutsk           312.469
       289   04 Jun 2027 02:29:21.060   04 Jun 2027 02:29:56.081            35.021                Irkutsk          1094.406
       290   04 Jun 2027 02:34:21.933   04 Jun 2027 02:34:46.571            24.638                  Delhi           769.938
       291   04 Jun 2027 02:39:49.609   04 Jun 2027 02:41:18.032            88.423                  Delhi          2763.219
       292   04 Jun 2027 04:02:38.418   04 Jun 2027 04:03:32.977            54.559              Murmansk2          1704.969
       293   04 Jun 2027 04:03:35.394   04 Jun 2027 04:03:54.458            19.064                Novosib           595.750
       294   04 Jun 2027 04:04:35.019   04 Jun 2027 04:08:08.354           213.335              Murmansk1          6666.719
       295   04 Jun 2027 04:08:13.266   04 Jun 2027 04:11:11.348           178.082                 Moscow          5565.062
       296   04 Jun 2027 04:24:26.068   04 Jun 2027 04:25:07.696            41.628               CapeTown          1300.875
       297   04 Jun 2027 04:26:08.976   04 Jun 2027 04:26:34.582            25.606               CapeTown           800.188
       298   04 Jun 2027 04:28:04.792   04 Jun 2027 04:28:30.109            25.317               CapeTown           791.156
       299   04 Jun 2027 04:29:37.832   04 Jun 2027 04:30:13.149            35.317               CapeTown          1103.656
       300   04 Jun 2027 04:34:01.170   04 Jun 2027 04:34:20.205            19.035               CapeTown           594.844
       301   04 Jun 2027 04:35:03.950   04 Jun 2027 04:35:36.844            32.894               CapeTown          1027.937
       302   04 Jun 2027 05:39:36.743   04 Jun 2027 05:40:27.018            50.275                Norilsk          1571.094
       303   04 Jun 2027 05:40:33.385   04 Jun 2027 05:45:06.868           273.483              Murmansk1          8546.344
       304   04 Jun 2027 05:45:31.850   04 Jun 2027 05:46:15.109            43.259                 Moscow          1351.844
       305   04 Jun 2027 05:59:51.916   04 Jun 2027 06:00:29.638            37.722               CapeTown          1178.812
       306   04 Jun 2027 07:04:01.113   04 Jun 2027 07:05:58.315           117.202                Norilsk          3662.563
       307   04 Jun 2027 07:08:03.038   04 Jun 2027 07:08:34.609            31.571              Murmansk1           986.594
       308   04 Jun 2027 08:38:27.637   04 Jun 2027 08:39:23.147            55.510                Irkutsk          1734.687
       309   04 Jun 2027 08:39:29.656   04 Jun 2027 08:39:35.052             5.396                Norilsk           168.625
       310   04 Jun 2027 08:39:35.322   04 Jun 2027 08:40:28.904            53.582               Magadan1          1674.437
       311   04 Jun 2027 08:40:33.772   04 Jun 2027 08:42:37.417           123.645               Magadan2          3863.906
       312   04 Jun 2027 08:42:58.491   04 Jun 2027 08:44:23.556            85.065                Anadyr2          2658.281
       313   04 Jun 2027 10:12:59.365   04 Jun 2027 10:13:47.228            47.863                Novosib          1495.719
       314   04 Jun 2027 10:14:42.110   04 Jun 2027 10:15:31.568            49.458               Magadan2          1545.562
       315   04 Jun 2027 10:15:36.685   04 Jun 2027 10:18:32.994           176.309               Magadan1          5509.656
       316   04 Jun 2027 10:18:44.640   04 Jun 2027 10:18:44.697             0.057                Irkutsk             1.781
       317   04 Jun 2027 10:19:18.514   04 Jun 2027 10:19:25.944             7.430                Norilsk           232.188
       318   04 Jun 2027 10:19:34.234   04 Jun 2027 10:19:43.745             9.511              Murmansk1           297.219
       319   04 Jun 2027 10:20:00.802   04 Jun 2027 10:20:33.873            33.071                Norilsk          1033.469
       320   04 Jun 2027 10:24:13.066   04 Jun 2027 10:24:33.876            20.810              Murmansk1           650.313
       321   04 Jun 2027 10:54:54.973   04 Jun 2027 10:55:54.881            59.908            RioGallegos          1872.125
       322   04 Jun 2027 11:30:05.213   04 Jun 2027 11:30:44.261            39.048                Sumatra          1220.250
       323   04 Jun 2027 11:37:33.094   04 Jun 2027 11:37:41.972             8.878                Sumatra           277.438
       324   04 Jun 2027 11:42:07.803   04 Jun 2027 11:42:33.347            25.544                  Delhi           798.250
       325   04 Jun 2027 11:47:02.328   04 Jun 2027 11:47:38.602            36.274                  Delhi          1133.563
       326   04 Jun 2027 11:49:57.609   04 Jun 2027 11:51:06.728            69.119                Novosib          2159.969
       327   04 Jun 2027 11:51:20.611   04 Jun 2027 11:53:17.331           116.720                Irkutsk          3647.500
       328   04 Jun 2027 11:53:29.153   04 Jun 2027 11:53:53.999            24.846                Novosib           776.437
       329   04 Jun 2027 11:54:03.558   04 Jun 2027 11:54:19.704            16.146              Murmansk1           504.563
       330   04 Jun 2027 11:54:19.704   04 Jun 2027 11:55:12.498            52.794              Murmansk2          1649.812
       331   04 Jun 2027 11:55:22.146   04 Jun 2027 11:55:30.407             8.261                Norilsk           258.156
       332   04 Jun 2027 11:55:34.072   04 Jun 2027 11:55:38.385             4.313                Novosib           134.781
       333   04 Jun 2027 11:55:40.746   04 Jun 2027 11:56:23.699            42.953                Novosib          1342.281
       334   04 Jun 2027 11:56:57.570   04 Jun 2027 11:57:12.556            14.986              Murmansk2           468.313
       335   04 Jun 2027 12:01:07.271   04 Jun 2027 12:01:40.265            32.994              Murmansk2          1031.062
       336   04 Jun 2027 12:02:40.175   04 Jun 2027 12:02:42.234             2.059              Murmansk2            64.344
       337   04 Jun 2027 12:03:15.337   04 Jun 2027 12:03:33.847            18.510              Murmansk2           578.438
       338   04 Jun 2027 12:33:15.917   04 Jun 2027 12:34:41.036            85.119            RioGallegos          2659.969
       339   04 Jun 2027 12:38:50.525   04 Jun 2027 12:39:27.915            37.390            RioGallegos          1168.438
       340   04 Jun 2027 13:07:34.271   04 Jun 2027 13:09:55.408           141.137                Sumatra          4410.531
       341   04 Jun 2027 13:23:20.885   04 Jun 2027 13:26:23.010           182.125                Irkutsk          5691.406
       342   04 Jun 2027 13:27:49.951   04 Jun 2027 13:30:08.346           138.395                Irkutsk          4324.844
       343   04 Jun 2027 14:53:13.282   04 Jun 2027 14:54:49.706            96.424                  Delhi          3013.250
       344   04 Jun 2027 14:56:59.273   04 Jun 2027 14:57:31.769            32.496                  Delhi          1015.500
       345   04 Jun 2027 15:01:42.146   04 Jun 2027 15:05:38.975           236.829                Novosib          7400.906
       346   04 Jun 2027 15:08:25.158   04 Jun 2027 15:09:15.052            49.894                Norilsk          1559.188
       347   04 Jun 2027 16:14:40.648   04 Jun 2027 16:15:57.681            77.033               CapeTown          2407.281
       348   04 Jun 2027 16:34:59.814   04 Jun 2027 16:35:49.407            49.593                 Moscow          1549.781
       349   04 Jun 2027 16:36:04.324   04 Jun 2027 16:36:23.975            19.651                 Moscow           614.094
       350   04 Jun 2027 16:37:30.421   04 Jun 2027 16:38:04.838            34.417                 Moscow          1075.531
       351   04 Jun 2027 16:39:54.734   04 Jun 2027 16:40:41.008            46.274              Murmansk1          1446.062
       352   04 Jun 2027 16:48:40.259   04 Jun 2027 16:48:54.749            14.490              Murmansk2           452.813
       353   04 Jun 2027 16:50:12.833   04 Jun 2027 16:50:46.995            34.162              Murmansk2          1067.563
       354   04 Jun 2027 16:53:15.459   04 Jun 2027 16:54:17.895            62.436                Anadyr1          1951.125
       355   04 Jun 2027 16:55:04.711   04 Jun 2027 16:55:55.394            50.683                Anadyr2          1583.844
       356   04 Jun 2027 16:59:42.792   04 Jun 2027 17:00:12.617            29.825                Anadyr2           932.031
       357   04 Jun 2027 17:47:51.648   04 Jun 2027 17:48:27.607            35.959               CapeTown          1123.719
       358   04 Jun 2027 17:53:19.584   04 Jun 2027 17:53:47.138            27.554               CapeTown           861.062
       359   04 Jun 2027 17:56:45.552   04 Jun 2027 17:57:04.132            18.580               CapeTown           580.625
       360   04 Jun 2027 18:00:12.188   04 Jun 2027 18:00:22.279            10.091               CapeTown           315.344
       361   04 Jun 2027 18:16:21.920   04 Jun 2027 18:19:30.044           188.124                 Moscow          5878.875
       362   04 Jun 2027 18:20:41.786   04 Jun 2027 18:22:02.792            81.006              Murmansk1          2531.437
       363   04 Jun 2027 18:31:37.313   04 Jun 2027 18:32:13.290            35.977                Anadyr1          1124.281
       364   04 Jun 2027 18:33:04.104   04 Jun 2027 18:33:42.497            38.393               Magadan2          1199.781
       365   04 Jun 2027 18:35:31.869   04 Jun 2027 18:35:36.044             4.175               Magadan1           130.469
       366   04 Jun 2027 19:25:22.768   04 Jun 2027 19:26:05.997            43.229               CapeTown          1350.906
       367   04 Jun 2027 19:28:28.995   04 Jun 2027 19:29:48.586            79.591               CapeTown          2487.219
       368   04 Jun 2027 20:04:23.702   04 Jun 2027 20:07:48.266           204.564                Anadyr2          6392.625
       369   04 Jun 2027 20:07:52.155   04 Jun 2027 20:09:19.986            87.831               Magadan1          2744.719
       370   04 Jun 2027 20:10:08.585   04 Jun 2027 20:11:10.954            62.369               Magadan2          1949.031
       371   04 Jun 2027 21:40:18.408   04 Jun 2027 21:42:21.767           123.359                Anadyr1          3854.969
       372   04 Jun 2027 21:42:33.764   04 Jun 2027 21:43:59.998            86.234                Anadyr2          2694.813
       373   04 Jun 2027 21:44:15.971   04 Jun 2027 21:46:11.491           115.520                Norilsk          3610.000
       374   04 Jun 2027 21:46:15.272   04 Jun 2027 21:47:35.057            79.785               Magadan1          2493.281
       375   04 Jun 2027 21:48:25.229   04 Jun 2027 21:48:56.392            31.163               Magadan1           973.844
       376   04 Jun 2027 21:49:43.737   04 Jun 2027 21:49:48.378             4.641               Magadan1           145.031
       377   04 Jun 2027 21:49:51.953   04 Jun 2027 21:50:26.409            34.456               Magadan2          1076.750
       378   04 Jun 2027 22:34:39.700   04 Jun 2027 22:36:37.433           117.733            RioGallegos          3679.156
       379   04 Jun 2027 22:36:50.462   04 Jun 2027 22:36:56.884             6.422            RioGallegos           200.687
       380   04 Jun 2027 22:37:53.380   04 Jun 2027 22:38:03.682            10.302            RioGallegos           321.937
       381   04 Jun 2027 22:40:23.291   04 Jun 2027 22:40:33.443            10.152            RioGallegos           317.250
       382   04 Jun 2027 22:42:47.132   04 Jun 2027 22:43:09.685            22.553            RioGallegos           704.781
       383   04 Jun 2027 23:15:53.400   04 Jun 2027 23:16:38.974            45.574                Anadyr2          1424.187
       384   04 Jun 2027 23:16:47.380   04 Jun 2027 23:16:54.254             6.874                Anadyr2           214.813
       385   04 Jun 2027 23:17:04.686   04 Jun 2027 23:18:07.711            63.025                Anadyr2          1969.531
       386   04 Jun 2027 23:18:30.100   04 Jun 2027 23:19:48.136            78.036                Norilsk          2438.625
       387   04 Jun 2027 23:21:33.132   04 Jun 2027 23:21:43.212            10.080               Magadan2           315.000
       388   04 Jun 2027 23:22:10.112   04 Jun 2027 23:22:21.952            11.840               Magadan2           370.000
       389   04 Jun 2027 23:22:42.793   04 Jun 2027 23:22:52.491             9.698               Magadan1           303.062
       390   04 Jun 2027 23:22:52.491   04 Jun 2027 23:23:24.052            31.561               Magadan2           986.281
       391   04 Jun 2027 23:23:32.078   04 Jun 2027 23:23:39.812             7.734                Irkutsk           241.688
       392   04 Jun 2027 23:23:56.725   04 Jun 2027 23:24:49.807            53.082                Novosib          1658.812
       393   04 Jun 2027 23:25:43.269   04 Jun 2027 23:26:40.817            57.548                Novosib          1798.375
       394   04 Jun 2027 23:32:47.088   04 Jun 2027 23:33:16.053            28.965                Irkutsk           905.156
       395   04 Jun 2027 23:35:59.867   04 Jun 2027 23:36:39.462            39.595                Sumatra          1237.344
       396   04 Jun 2027 23:38:51.642   04 Jun 2027 23:39:09.053            17.411                Sumatra           544.094
       397   04 Jun 2027 23:44:22.391   04 Jun 2027 23:45:28.770            66.379                Sumatra          2074.344
       398   05 Jun 2027 00:16:49.626   05 Jun 2027 00:17:42.184            52.558            RioGallegos          1642.437
       399   05 Jun 2027 00:50:33.607   05 Jun 2027 00:50:55.619            22.012                Anadyr2           687.875
       400   05 Jun 2027 00:50:55.619   05 Jun 2027 00:51:22.764            27.145                Anadyr1           848.281
       401   05 Jun 2027 00:52:08.745   05 Jun 2027 00:52:48.099            39.354                Anadyr2          1229.812
       402   05 Jun 2027 00:52:59.056   05 Jun 2027 00:53:18.058            19.002                Anadyr2           593.812
       403   05 Jun 2027 00:54:05.947   05 Jun 2027 00:55:48.243           102.296                Norilsk          3196.750
       404   05 Jun 2027 00:57:32.196   05 Jun 2027 00:57:52.200            20.004                Norilsk           625.125
       405   05 Jun 2027 00:57:59.072   05 Jun 2027 00:59:59.299           120.227                Irkutsk          3757.094
       406   05 Jun 2027 01:00:37.803   05 Jun 2027 01:01:03.342            25.539                Novosib           798.094
       407   05 Jun 2027 01:03:09.217   05 Jun 2027 01:03:22.155            12.938                Novosib           404.313
       408   05 Jun 2027 01:05:33.240   05 Jun 2027 01:05:47.225            13.985                Irkutsk           437.031
       409   05 Jun 2027 01:06:13.809   05 Jun 2027 01:06:20.845             7.036                Novosib           219.875
       410   05 Jun 2027 01:08:43.298   05 Jun 2027 01:08:46.209             2.911                Novosib            90.969
       411   05 Jun 2027 01:09:53.011   05 Jun 2027 01:11:17.224            84.213                  Delhi          2631.656
       412   05 Jun 2027 01:46:30.522   05 Jun 2027 01:47:14.833            44.311            RioGallegos          1384.719
       413   05 Jun 2027 01:48:08.343   05 Jun 2027 01:48:55.833            47.490            RioGallegos          1484.063
       414   05 Jun 2027 01:53:47.139   05 Jun 2027 01:55:07.193            80.054            RioGallegos          2501.687
       415   05 Jun 2027 02:29:27.408   05 Jun 2027 02:29:47.969            20.561                Anadyr1           642.531
       416   05 Jun 2027 02:30:05.397   05 Jun 2027 02:31:17.704            72.307                Norilsk          2259.594
       417   05 Jun 2027 02:32:24.398   05 Jun 2027 02:33:13.677            49.279              Murmansk1          1539.969
       418   05 Jun 2027 02:33:53.914   05 Jun 2027 02:34:20.433            26.519                Novosib           828.719
       419   05 Jun 2027 02:34:38.506   05 Jun 2027 02:35:28.297            49.791                Irkutsk          1555.969
       420   05 Jun 2027 02:35:46.037   05 Jun 2027 02:35:53.083             7.046                Novosib           220.188
       421   05 Jun 2027 02:37:26.880   05 Jun 2027 02:38:06.133            39.253                Irkutsk          1226.656
       422   05 Jun 2027 02:41:02.165   05 Jun 2027 02:42:03.555            61.390                Irkutsk          1918.438
       423   05 Jun 2027 02:49:57.215   05 Jun 2027 02:51:25.735            88.520                  Delhi          2766.250
       424   05 Jun 2027 04:15:06.598   05 Jun 2027 04:17:58.479           171.881                Norilsk          5371.281
       425   05 Jun 2027 04:18:19.416   05 Jun 2027 04:19:28.443            69.027                Novosib          2157.094
       426   05 Jun 2027 04:19:29.970   05 Jun 2027 04:20:24.308            54.338              Murmansk2          1698.063
       427   05 Jun 2027 04:20:52.837   05 Jun 2027 04:24:05.669           192.832                 Moscow          6026.000
       428   05 Jun 2027 04:35:46.694   05 Jun 2027 04:36:26.700            40.006               CapeTown          1250.188
       429   05 Jun 2027 04:36:39.145   05 Jun 2027 04:37:22.466            43.321               CapeTown          1353.781
       430   05 Jun 2027 04:39:07.051   05 Jun 2027 04:39:42.153            35.102               CapeTown          1096.937
       431   05 Jun 2027 04:43:10.079   05 Jun 2027 04:43:43.647            33.568               CapeTown          1049.000
       432   05 Jun 2027 05:39:31.763   05 Jun 2027 05:39:41.220             9.457                Anadyr2           295.531
       433   05 Jun 2027 05:40:48.573   05 Jun 2027 05:41:14.254            25.681                Anadyr2           802.531
       434   05 Jun 2027 05:42:38.407   05 Jun 2027 05:43:07.958            29.551               Magadan2           923.469
       435   05 Jun 2027 05:51:14.238   05 Jun 2027 05:52:15.563            61.325                Norilsk          1916.406
       436   05 Jun 2027 05:52:16.048   05 Jun 2027 05:55:39.190           203.142              Murmansk1          6348.187
       437   05 Jun 2027 05:55:39.190   05 Jun 2027 05:57:08.798            89.608              Murmansk2          2800.250
       438   05 Jun 2027 06:22:15.301   05 Jun 2027 06:22:20.277             4.976               CapeTown           155.500
       439   05 Jun 2027 07:15:00.655   05 Jun 2027 07:15:46.233            45.578                Anadyr2          1424.312
       440   05 Jun 2027 07:15:50.998   05 Jun 2027 07:16:00.566             9.568                Norilsk           299.000
       441   05 Jun 2027 07:16:10.311   05 Jun 2027 07:17:55.166           104.855                Norilsk          3276.719
       442   05 Jun 2027 07:18:10.589   05 Jun 2027 07:18:46.636            36.047               Magadan1          1126.469
       443   05 Jun 2027 07:19:06.956   05 Jun 2027 07:19:23.756            16.800                Anadyr2           525.000
       444   05 Jun 2027 07:20:06.304   05 Jun 2027 07:20:17.441            11.137               Magadan1           348.031
       445   05 Jun 2027 08:01:08.304   05 Jun 2027 08:01:23.781            15.477            RioGallegos           483.656
       446   05 Jun 2027 08:02:29.655   05 Jun 2027 08:02:41.369            11.714            RioGallegos           366.062
       447   05 Jun 2027 08:05:56.070   05 Jun 2027 08:06:07.270            11.200            RioGallegos           350.000
       448   05 Jun 2027 08:48:18.596   05 Jun 2027 08:49:00.099            41.503               Magadan2          1296.969
       449   05 Jun 2027 08:49:10.232   05 Jun 2027 08:50:05.127            54.895                Anadyr1          1715.469
       450   05 Jun 2027 08:50:05.127   05 Jun 2027 08:51:46.460           101.333                Anadyr2          3166.656
       451   05 Jun 2027 08:51:57.583   05 Jun 2027 08:52:10.586            13.003                Irkutsk           406.344
       452   05 Jun 2027 08:52:19.780   05 Jun 2027 08:52:28.685             8.905                Irkutsk           278.281
       453   05 Jun 2027 08:52:39.298   05 Jun 2027 08:54:58.625           139.327                Anadyr1          4353.969
       454   05 Jun 2027 08:54:58.625   05 Jun 2027 08:56:16.312            77.687                Anadyr2          2427.719
       455   05 Jun 2027 10:25:25.468   05 Jun 2027 10:25:25.682             0.214                Irkutsk             6.688
       456   05 Jun 2027 10:26:09.162   05 Jun 2027 10:26:28.173            19.011                Irkutsk           594.094
       457   05 Jun 2027 10:26:42.597   05 Jun 2027 10:28:06.296            83.699               Magadan2          2615.594
       458   05 Jun 2027 10:28:06.296   05 Jun 2027 10:30:31.732           145.436               Magadan1          4544.875
       459   05 Jun 2027 10:30:53.041   05 Jun 2027 10:30:58.854             5.813              Murmansk2           181.656
       460   05 Jun 2027 10:31:15.760   05 Jun 2027 10:31:34.027            18.267              Murmansk1           570.844
       461   05 Jun 2027 10:31:34.027   05 Jun 2027 10:31:54.137            20.110              Murmansk2           628.437
       462   05 Jun 2027 10:31:57.392   05 Jun 2027 10:32:49.323            51.931                Norilsk          1622.844
       463   05 Jun 2027 11:07:00.226   05 Jun 2027 11:07:50.201            49.975            RioGallegos          1561.719
       464   05 Jun 2027 11:08:14.149   05 Jun 2027 11:09:07.235            53.086            RioGallegos          1658.937
       465   05 Jun 2027 11:42:33.120   05 Jun 2027 11:44:06.884            93.764                Sumatra          2930.125
       466   05 Jun 2027 12:09:27.654   05 Jun 2027 12:11:10.225           102.571                Norilsk          3205.344
       467   05 Jun 2027 12:47:31.093   05 Jun 2027 12:47:53.924            22.831            RioGallegos           713.469
       468   05 Jun 2027 12:51:04.443   05 Jun 2027 12:51:17.608            13.165            RioGallegos           411.406
       469   05 Jun 2027 12:53:48.059   05 Jun 2027 12:54:18.378            30.319            RioGallegos           947.469
       470   05 Jun 2027 13:20:40.810   05 Jun 2027 13:21:44.769            63.959                Sumatra          1998.719
       471   05 Jun 2027 13:24:41.130   05 Jun 2027 13:25:00.789            19.659                Sumatra           614.344
       472   05 Jun 2027 13:34:19.423   05 Jun 2027 13:35:59.258            99.835                Novosib          3119.844
       473   05 Jun 2027 13:36:37.465   05 Jun 2027 13:38:21.875           104.410                Irkutsk          3262.812
       474   05 Jun 2027 13:47:27.149   05 Jun 2027 13:48:28.500            61.351                Norilsk          1917.219
       475   05 Jun 2027 15:07:13.082   05 Jun 2027 15:10:08.324           175.242                  Delhi          5476.312
       476   05 Jun 2027 15:11:36.859   05 Jun 2027 15:12:04.775            27.916                 Moscow           872.375
       477   05 Jun 2027 15:13:52.635   05 Jun 2027 15:15:01.331            68.696              Murmansk1          2146.750
       478   05 Jun 2027 15:15:15.920   05 Jun 2027 15:18:05.585           169.665                Novosib          5302.031
       479   05 Jun 2027 16:26:29.696   05 Jun 2027 16:27:15.091            45.395               CapeTown          1418.594
       480   05 Jun 2027 16:31:36.338   05 Jun 2027 16:32:32.755            56.417               CapeTown          1763.031
       481   05 Jun 2027 16:47:51.727   05 Jun 2027 16:48:30.293            38.566                 Moscow          1205.188
       482   05 Jun 2027 16:50:38.820   05 Jun 2027 16:51:06.104            27.284              Murmansk2           852.625
