uniorb/output/strategy_1/Drop/Drop_KinoSat_110810.txt

KinoSat_110810
-------------------------
    Access    *     Start Time (UTCG)     *     Stop Time (UTCG)  *   Duration (s)        *       Station  *  Data (Mbytes)
         1   01 Jun 2027 04:25:09.504   01 Jun 2027 04:25:27.317            17.813               Magadan2           556.656
         2   01 Jun 2027 04:25:34.934   01 Jun 2027 04:26:27.120            52.186                Anadyr2          1630.813
         3   01 Jun 2027 04:26:28.654   01 Jun 2027 04:27:48.975            80.321                Anadyr2          2510.031
         4   01 Jun 2027 05:59:21.899   01 Jun 2027 06:00:02.960            41.061                Irkutsk          1283.156
         5   01 Jun 2027 06:00:03.018   01 Jun 2027 06:00:16.963            13.945                Anadyr1           435.781
         6   01 Jun 2027 06:00:30.055   01 Jun 2027 06:02:10.569           100.514                Novosib          3141.062
         7   01 Jun 2027 06:02:12.813   01 Jun 2027 06:02:36.243            23.430                Anadyr1           732.188
         8   01 Jun 2027 06:02:38.798   01 Jun 2027 06:03:26.780            47.982                Irkutsk          1499.437
         9   01 Jun 2027 06:03:33.097   01 Jun 2027 06:04:27.521            54.424                Anadyr2          1700.750
        10   01 Jun 2027 06:04:30.977   01 Jun 2027 06:05:15.318            44.341                Irkutsk          1385.656
        11   01 Jun 2027 06:05:18.531   01 Jun 2027 06:05:25.943             7.412                Norilsk           231.625
        12   01 Jun 2027 06:05:29.791   01 Jun 2027 06:05:32.445             2.654               Magadan1            82.938
        13   01 Jun 2027 06:06:04.995   01 Jun 2027 06:06:58.719            53.724              Murmansk2          1678.875
        14   01 Jun 2027 06:07:01.314   01 Jun 2027 06:07:14.644            13.330              Murmansk2           416.563
        15   01 Jun 2027 06:08:06.545   01 Jun 2027 06:08:23.593            17.048                Norilsk           532.750
        16   01 Jun 2027 06:08:30.796   01 Jun 2027 06:09:03.900            33.104              Murmansk1          1034.500
        17   01 Jun 2027 06:12:50.019   01 Jun 2027 06:13:37.924            47.905              Murmansk2          1497.031
        18   01 Jun 2027 06:40:32.516   01 Jun 2027 06:40:51.729            19.213            RioGallegos           600.406
        19   01 Jun 2027 06:41:03.804   01 Jun 2027 06:42:24.710            80.906            RioGallegos          2528.312
        20   01 Jun 2027 07:17:15.979   01 Jun 2027 07:18:45.080            89.101                Sumatra          2784.406
        21   01 Jun 2027 07:36:53.168   01 Jun 2027 07:38:08.875            75.707               Magadan1          2365.844
        22   01 Jun 2027 07:38:18.255   01 Jun 2027 07:38:28.861            10.606                Irkutsk           331.437
        23   01 Jun 2027 07:38:46.299   01 Jun 2027 07:42:58.248           251.949                Novosib          7873.406
        24   01 Jun 2027 08:16:53.116   01 Jun 2027 08:17:43.292            50.176            RioGallegos          1568.000
        25   01 Jun 2027 08:25:45.734   01 Jun 2027 08:26:01.437            15.703            RioGallegos           490.719
        26   01 Jun 2027 08:51:15.908   01 Jun 2027 08:53:01.922           106.014                Sumatra          3312.938
        27   01 Jun 2027 09:01:26.657   01 Jun 2027 09:03:30.279           123.622                  Delhi          3863.187
        28   01 Jun 2027 09:13:14.268   01 Jun 2027 09:14:09.030            54.762                Irkutsk          1711.312
        29   01 Jun 2027 09:14:41.363   01 Jun 2027 09:16:55.432           134.069                Irkutsk          4189.656
        30   01 Jun 2027 09:17:02.258   01 Jun 2027 09:17:47.077            44.819                Norilsk          1400.594
        31   01 Jun 2027 09:18:13.247   01 Jun 2027 09:19:04.345            51.098                Novosib          1596.812
        32   01 Jun 2027 09:24:19.033   01 Jun 2027 09:24:31.372            12.339              Murmansk1           385.594
        33   01 Jun 2027 10:35:54.456   01 Jun 2027 10:40:01.170           246.714                  Delhi          7709.812
        34   01 Jun 2027 10:50:35.956   01 Jun 2027 10:53:15.713           159.757              Murmansk1          4992.406
        35   01 Jun 2027 10:55:34.205   01 Jun 2027 10:55:58.334            24.129                 Moscow           754.031
        36   01 Jun 2027 12:19:44.724   01 Jun 2027 12:22:09.481           144.757                 Moscow          4523.656
        37   01 Jun 2027 12:23:00.590   01 Jun 2027 12:23:45.676            45.086                 Moscow          1408.938
        38   01 Jun 2027 12:23:50.018   01 Jun 2027 12:27:49.076           239.058              Murmansk1          7470.563
        39   01 Jun 2027 12:28:26.856   01 Jun 2027 12:28:39.677            12.821              Murmansk2           400.656
        40   01 Jun 2027 12:30:25.903   01 Jun 2027 12:30:56.042            30.139                Norilsk           941.844
        41   01 Jun 2027 13:33:41.606   01 Jun 2027 13:36:55.795           194.189               CapeTown          6068.406
        42   01 Jun 2027 13:37:26.721   01 Jun 2027 13:37:50.574            23.853               CapeTown           745.406
        43   01 Jun 2027 14:00:49.449   01 Jun 2027 14:02:57.571           128.122              Murmansk1          4003.812
        44   01 Jun 2027 14:02:57.571   01 Jun 2027 14:03:59.156            61.585              Murmansk2          1924.531
        45   01 Jun 2027 14:14:03.921   01 Jun 2027 14:16:13.699           129.778                Anadyr2          4055.563
        46   01 Jun 2027 14:16:38.280   01 Jun 2027 14:18:06.140            87.860                Anadyr1          2745.625
        47   01 Jun 2027 15:09:27.108   01 Jun 2027 15:10:35.692            68.584               CapeTown          2143.250
        48   01 Jun 2027 15:40:55.267   01 Jun 2027 15:41:46.382            51.115              Murmansk1          1597.344
        49   01 Jun 2027 15:49:45.667   01 Jun 2027 15:51:21.375            95.708                Anadyr2          2990.875
        50   01 Jun 2027 15:51:56.264   01 Jun 2027 15:53:25.597            89.333                Anadyr1          2791.656
        51   01 Jun 2027 15:53:27.228   01 Jun 2027 15:56:38.122           190.894               Magadan2          5965.437
        52   01 Jun 2027 15:59:02.759   01 Jun 2027 15:59:44.305            41.546               Magadan2          1298.313
        53   01 Jun 2027 17:25:41.038   01 Jun 2027 17:27:12.429            91.391                Anadyr2          2855.969
        54   01 Jun 2027 17:27:31.459   01 Jun 2027 17:27:47.442            15.983                Anadyr1           499.469
        55   01 Jun 2027 17:27:59.146   01 Jun 2027 17:30:47.483           168.337               Magadan2          5260.531
        56   01 Jun 2027 17:34:01.740   01 Jun 2027 17:34:44.410            42.670               Magadan2          1333.437
        57   01 Jun 2027 18:21:20.278   01 Jun 2027 18:24:24.320           184.042            RioGallegos          5751.312
        58   01 Jun 2027 18:28:11.144   01 Jun 2027 18:28:26.527            15.383            RioGallegos           480.719
        59   01 Jun 2027 19:03:38.242   01 Jun 2027 19:07:42.992           244.750                Norilsk          7648.437
        60   01 Jun 2027 19:08:20.709   01 Jun 2027 19:09:07.011            46.302                Irkutsk          1446.938
        61   01 Jun 2027 19:09:30.010   01 Jun 2027 19:10:25.694            55.684                Irkutsk          1740.125
        62   01 Jun 2027 19:11:23.390   01 Jun 2027 19:12:45.191            81.801                Irkutsk          2556.281
        63   01 Jun 2027 19:13:41.002   01 Jun 2027 19:13:57.668            16.666                Irkutsk           520.812
        64   01 Jun 2027 19:22:53.685   01 Jun 2027 19:22:58.412             4.727                Sumatra           147.719
        65   01 Jun 2027 19:24:53.769   01 Jun 2027 19:29:40.690           286.921                Sumatra          8966.281
        66   01 Jun 2027 20:43:52.364   01 Jun 2027 20:44:29.106            36.742                Novosib          1148.187
        67   01 Jun 2027 20:44:40.555   01 Jun 2027 20:45:11.844            31.289                Novosib           977.781
        68   01 Jun 2027 20:45:39.024   01 Jun 2027 20:46:18.392            39.368                Novosib          1230.250
        69   01 Jun 2027 20:46:54.363   01 Jun 2027 20:47:41.121            46.758                Novosib          1461.187
        70   01 Jun 2027 20:53:04.946   01 Jun 2027 20:55:06.702           121.756                  Delhi          3804.875
        71   01 Jun 2027 22:18:13.422   01 Jun 2027 22:22:02.747           229.325              Murmansk2          7166.406
        72   01 Jun 2027 22:22:21.646   01 Jun 2027 22:24:22.431           120.785              Murmansk1          3774.531
        73   01 Jun 2027 23:49:48.431   01 Jun 2027 23:50:38.062            49.631               Magadan1          1550.969
        74   01 Jun 2027 23:51:30.021   01 Jun 2027 23:51:32.785             2.764               Magadan2            86.375
        75   01 Jun 2027 23:52:06.769   01 Jun 2027 23:52:24.413            17.644               Magadan1           551.375
        76   01 Jun 2027 23:52:45.101   01 Jun 2027 23:53:01.367            16.266               Magadan1           508.313
        77   01 Jun 2027 23:53:36.049   01 Jun 2027 23:55:16.931           100.882              Murmansk2          3152.563
        78   01 Jun 2027 23:56:21.625   01 Jun 2027 23:57:46.125            84.500              Murmansk1          2640.625
        79   01 Jun 2027 23:58:05.895   01 Jun 2027 23:59:52.737           106.842                 Moscow          3338.812
        80   02 Jun 2027 00:02:46.015   02 Jun 2027 00:03:24.797            38.782                 Moscow          1211.938
        81   02 Jun 2027 00:22:52.549   02 Jun 2027 00:24:05.756            73.207               CapeTown          2287.719
        82   02 Jun 2027 00:27:04.601   02 Jun 2027 00:27:46.313            41.712               CapeTown          1303.500
        83   02 Jun 2027 00:29:12.824   02 Jun 2027 00:30:11.120            58.296               CapeTown          1821.750
        84   02 Jun 2027 01:22:38.975   02 Jun 2027 01:23:01.407            22.432               Magadan2           701.000
        85   02 Jun 2027 01:28:15.963   02 Jun 2027 01:28:48.316            32.353               Magadan2          1011.031
        86   02 Jun 2027 01:29:32.082   02 Jun 2027 01:30:36.624            64.542              Murmansk1          2016.937
        87   02 Jun 2027 01:32:13.447   02 Jun 2027 01:32:39.985            26.538              Murmansk1           829.313
        88   02 Jun 2027 01:32:44.549   02 Jun 2027 01:33:32.330            47.781                 Moscow          1493.156
        89   02 Jun 2027 01:36:39.391   02 Jun 2027 01:36:43.337             3.946                 Moscow           123.312
        90   02 Jun 2027 01:40:01.279   02 Jun 2027 01:40:05.523             4.244                 Moscow           132.625
        91   02 Jun 2027 01:40:33.592   02 Jun 2027 01:41:11.186            37.594                 Moscow          1174.812
        92   02 Jun 2027 01:56:40.043   02 Jun 2027 01:57:28.847            48.804               CapeTown          1525.125
        93   02 Jun 2027 02:08:06.223   02 Jun 2027 02:09:21.422            75.199               CapeTown          2349.969
        94   02 Jun 2027 02:53:27.213   02 Jun 2027 02:54:29.086            61.873                Anadyr1          1933.531
        95   02 Jun 2027 02:54:35.048   02 Jun 2027 02:55:41.090            66.042               Magadan2          2063.812
        96   02 Jun 2027 02:56:17.848   02 Jun 2027 02:56:22.999             5.151               Magadan1           160.969
        97   02 Jun 2027 02:57:42.465   02 Jun 2027 02:57:45.667             3.202               Magadan1           100.062
        98   02 Jun 2027 02:58:21.372   02 Jun 2027 02:59:03.438            42.066               Magadan1          1314.562
        99   02 Jun 2027 03:00:04.636   02 Jun 2027 03:00:36.965            32.329                Anadyr2          1010.281
       100   02 Jun 2027 03:00:48.832   02 Jun 2027 03:02:10.894            82.062                Anadyr2          2564.438
       101   02 Jun 2027 03:02:53.726   02 Jun 2027 03:03:07.346            13.620                Anadyr2           425.625
       102   02 Jun 2027 04:36:40.673   02 Jun 2027 04:37:06.469            25.796                Irkutsk           806.125
       103   02 Jun 2027 04:37:49.767   02 Jun 2027 04:37:54.738             4.971                Norilsk           155.344
       104   02 Jun 2027 04:38:02.365   02 Jun 2027 04:42:00.177           237.812                Anadyr1          7431.625
       105   02 Jun 2027 05:19:09.454   02 Jun 2027 05:19:43.614            34.160            RioGallegos          1067.500
       106   02 Jun 2027 06:11:17.407   02 Jun 2027 06:11:55.709            38.302                Norilsk          1196.938
       107   02 Jun 2027 06:11:57.719   02 Jun 2027 06:12:54.504            56.785                Norilsk          1774.531
       108   02 Jun 2027 06:12:55.437   02 Jun 2027 06:15:44.200           168.763                Irkutsk          5273.844
       109   02 Jun 2027 06:16:14.173   02 Jun 2027 06:17:18.192            64.019                Norilsk          2000.594
       110   02 Jun 2027 06:17:19.691   02 Jun 2027 06:17:27.648             7.957               Magadan1           248.656
       111   02 Jun 2027 06:17:27.738   02 Jun 2027 06:18:01.698            33.960              Murmansk1          1061.250
       112   02 Jun 2027 06:20:36.279   02 Jun 2027 06:20:59.705            23.426              Murmansk2           732.063
       113   02 Jun 2027 06:52:25.212   02 Jun 2027 06:54:23.073           117.861            RioGallegos          3683.156
       114   02 Jun 2027 06:55:05.235   02 Jun 2027 06:55:10.762             5.527            RioGallegos           172.719
       115   02 Jun 2027 07:28:34.774   02 Jun 2027 07:31:36.987           182.213                Sumatra          5694.156
       116   02 Jun 2027 07:48:51.074   02 Jun 2027 07:50:45.021           113.947                Novosib          3560.844
       117   02 Jun 2027 07:50:50.503   02 Jun 2027 07:53:28.760           158.257              Murmansk1          4945.531
       118   02 Jun 2027 07:53:56.043   02 Jun 2027 07:54:22.775            26.732                Norilsk           835.375
       119   02 Jun 2027 08:29:14.783   02 Jun 2027 08:29:46.656            31.873            RioGallegos           996.031
       120   02 Jun 2027 09:03:31.082   02 Jun 2027 09:04:49.442            78.360                Sumatra          2448.750
       121   02 Jun 2027 09:07:41.216   02 Jun 2027 09:08:31.197            49.981                Sumatra          1561.906
       122   02 Jun 2027 09:13:22.582   02 Jun 2027 09:13:36.552            13.970                  Delhi           436.563
       123   02 Jun 2027 09:26:13.114   02 Jun 2027 09:26:57.553            44.439                Irkutsk          1388.719
       124   02 Jun 2027 09:27:16.472   02 Jun 2027 09:27:28.254            11.782                 Moscow           368.187
       125   02 Jun 2027 09:27:32.169   02 Jun 2027 09:28:21.113            48.944              Murmansk1          1529.500
       126   02 Jun 2027 09:28:36.961   02 Jun 2027 09:29:27.112            50.151                Novosib          1567.219
       127   02 Jun 2027 09:29:32.627   02 Jun 2027 09:30:48.752            76.125              Murmansk1          2378.906
       128   02 Jun 2027 09:31:31.869   02 Jun 2027 09:32:10.051            38.182              Murmansk1          1193.187
       129   02 Jun 2027 09:33:48.378   02 Jun 2027 09:34:02.971            14.593              Murmansk1           456.031
       130   02 Jun 2027 09:34:19.095   02 Jun 2027 09:34:29.101            10.006              Murmansk1           312.687
       131   02 Jun 2027 10:48:21.379   02 Jun 2027 10:51:34.860           193.481                  Delhi          6046.281
       132   02 Jun 2027 11:02:21.430   02 Jun 2027 11:04:16.813           115.383                 Moscow          3605.719
       133   02 Jun 2027 11:04:22.799   02 Jun 2027 11:04:40.384            17.585                 Moscow           549.531
       134   02 Jun 2027 11:05:01.344   02 Jun 2027 11:06:15.766            74.422                Norilsk          2325.688
       135   02 Jun 2027 11:06:17.633   02 Jun 2027 11:07:25.933            68.300              Murmansk1          2134.375
       136   02 Jun 2027 12:31:51.377   02 Jun 2027 12:35:00.620           189.243                 Moscow          5913.844
       137   02 Jun 2027 12:35:22.935   02 Jun 2027 12:36:41.492            78.557              Murmansk1          2454.906
       138   02 Jun 2027 12:36:41.836   02 Jun 2027 12:38:48.570           126.734              Murmansk2          3960.438
       139   02 Jun 2027 12:51:45.469   02 Jun 2027 12:55:40.825           235.356                Anadyr1          7354.875
       140   02 Jun 2027 13:45:30.688   02 Jun 2027 13:48:52.727           202.039               CapeTown          6313.719
       141   02 Jun 2027 14:13:12.320   02 Jun 2027 14:14:01.842            49.522              Murmansk2          1547.562
       142   02 Jun 2027 14:14:43.229   02 Jun 2027 14:16:00.843            77.614              Murmansk2          2425.438
       143   02 Jun 2027 14:26:01.483   02 Jun 2027 14:28:02.249           120.766                Anadyr1          3773.938
       144   02 Jun 2027 14:28:37.842   02 Jun 2027 14:30:05.701            87.859                Anadyr2          2745.594
       145   02 Jun 2027 15:21:40.951   02 Jun 2027 15:22:02.531            21.580               CapeTown           674.375
       146   02 Jun 2027 16:01:46.751   02 Jun 2027 16:03:21.172            94.421                Anadyr2          2950.656
       147   02 Jun 2027 16:03:41.888   02 Jun 2027 16:05:39.571           117.683                Anadyr1          3677.594
       148   02 Jun 2027 16:05:43.524   02 Jun 2027 16:07:34.775           111.251               Magadan2          3476.594
       149   02 Jun 2027 16:07:50.696   02 Jun 2027 16:08:26.737            36.041               Magadan1          1126.281
       150   02 Jun 2027 17:37:42.124   02 Jun 2027 17:39:13.866            91.742                Anadyr1          2866.938
       151   02 Jun 2027 17:39:14.795   02 Jun 2027 17:41:10.447           115.652                Anadyr2          3614.125
       152   02 Jun 2027 17:41:17.329   02 Jun 2027 17:43:11.814           114.485               Magadan2          3577.656
       153   02 Jun 2027 17:43:11.814   02 Jun 2027 17:44:01.467            49.653               Magadan1          1551.656
       154   02 Jun 2027 17:45:49.908   02 Jun 2027 17:46:15.235            25.327               Magadan2           791.469
       155   02 Jun 2027 17:47:28.604   02 Jun 2027 17:47:31.688             3.084               Magadan1            96.375
       156   02 Jun 2027 18:32:51.745   02 Jun 2027 18:36:12.981           201.236            RioGallegos          6288.625
       157   02 Jun 2027 18:39:19.004   02 Jun 2027 18:39:39.341            20.337            RioGallegos           635.531
       158   02 Jun 2027 19:13:26.139   02 Jun 2027 19:15:18.262           112.123                Anadyr2          3503.844
       159   02 Jun 2027 19:15:36.613   02 Jun 2027 19:19:43.375           246.762                Norilsk          7711.313
       160   02 Jun 2027 19:20:06.850   02 Jun 2027 19:24:11.311           244.461                Irkutsk          7639.406
       161   02 Jun 2027 19:34:18.680   02 Jun 2027 19:37:32.072           193.392                Sumatra          6043.500
       162   02 Jun 2027 20:55:19.639   02 Jun 2027 20:56:51.835            92.196                Irkutsk          2881.125
       163   02 Jun 2027 20:57:00.811   02 Jun 2027 20:58:32.563            91.752                Novosib          2867.250
       164   02 Jun 2027 21:04:19.905   02 Jun 2027 21:07:17.464           177.559                  Delhi          5548.719
       165   02 Jun 2027 22:27:52.915   02 Jun 2027 22:28:40.473            47.558               Magadan1          1486.187
       166   02 Jun 2027 22:30:04.912   02 Jun 2027 22:35:59.880           354.968              Murmansk2         11092.750
       167   02 Jun 2027 23:57:03.239   02 Jun 2027 23:57:21.782            18.543                Anadyr1           579.469
       168   02 Jun 2027 23:58:28.079   02 Jun 2027 23:58:41.817            13.738                Anadyr2           429.313
       169   03 Jun 2027 00:01:19.036   03 Jun 2027 00:03:07.972           108.936               Magadan1          3404.250
       170   03 Jun 2027 00:04:46.419   03 Jun 2027 00:04:49.049             2.630               Magadan2            82.187
       171   03 Jun 2027 00:05:36.760   03 Jun 2027 00:06:32.839            56.079              Murmansk1          1752.469
       172   03 Jun 2027 00:06:33.737   03 Jun 2027 00:07:24.141            50.404              Murmansk2          1575.125
       173   03 Jun 2027 00:07:26.774   03 Jun 2027 00:08:04.274            37.500                Novosib          1171.875
       174   03 Jun 2027 00:08:55.951   03 Jun 2027 00:09:32.475            36.524              Murmansk2          1141.375
       175   03 Jun 2027 00:09:56.627   03 Jun 2027 00:10:53.067            56.440                 Moscow          1763.750
       176   03 Jun 2027 00:34:16.748   03 Jun 2027 00:37:17.440           180.692               CapeTown          5646.625
       177   03 Jun 2027 00:39:03.617   03 Jun 2027 00:39:38.979            35.362               CapeTown          1105.063
       178   03 Jun 2027 00:41:04.538   03 Jun 2027 00:41:12.226             7.688               CapeTown           240.250
       179   03 Jun 2027 01:32:58.547   03 Jun 2027 01:34:06.599            68.052               Magadan1          2126.625
       180   03 Jun 2027 01:34:06.599   03 Jun 2027 01:35:10.490            63.891               Magadan2          1996.594
       181   03 Jun 2027 01:41:33.781   03 Jun 2027 01:42:28.670            54.889              Murmansk2          1715.281
       182   03 Jun 2027 01:42:28.670   03 Jun 2027 01:43:03.521            34.851              Murmansk1          1089.094
       183   03 Jun 2027 01:44:46.118   03 Jun 2027 01:45:15.577            29.459                 Moscow           920.594
       184   03 Jun 2027 01:46:01.655   03 Jun 2027 01:46:22.097            20.442                 Moscow           638.813
       185   03 Jun 2027 02:08:48.949   03 Jun 2027 02:10:23.923            94.974               CapeTown          2967.938
       186   03 Jun 2027 03:05:34.466   03 Jun 2027 03:05:52.378            17.912                Anadyr2           559.750
       187   03 Jun 2027 03:05:57.282   03 Jun 2027 03:06:18.456            21.174                Anadyr1           661.688
       188   03 Jun 2027 03:06:20.386   03 Jun 2027 03:06:22.002             1.616                Anadyr1            50.500
       189   03 Jun 2027 03:06:52.040   03 Jun 2027 03:06:55.701             3.661                Anadyr1           114.406
       190   03 Jun 2027 03:11:24.130   03 Jun 2027 03:12:32.690            68.560                Anadyr1          2142.500
       191   03 Jun 2027 03:12:34.736   03 Jun 2027 03:12:41.863             7.127               Magadan1           222.719
       192   03 Jun 2027 03:12:41.863   03 Jun 2027 03:12:46.360             4.497               Magadan2           140.531
       193   03 Jun 2027 03:12:52.231   03 Jun 2027 03:14:10.975            78.744                Anadyr2          2460.750
       194   03 Jun 2027 03:14:14.276   03 Jun 2027 03:15:10.629            56.353                Anadyr2          1761.031
       195   03 Jun 2027 04:49:48.820   03 Jun 2027 04:51:30.409           101.589               Magadan2          3174.656
       196   03 Jun 2027 04:51:48.399   03 Jun 2027 04:53:56.970           128.571                Anadyr1          4017.844
       197   03 Jun 2027 05:30:38.625   03 Jun 2027 05:31:04.483            25.858            RioGallegos           808.062
       198   03 Jun 2027 05:31:28.798   03 Jun 2027 05:31:41.336            12.538            RioGallegos           391.813
       199   03 Jun 2027 06:24:13.072   03 Jun 2027 06:25:49.004            95.932                Irkutsk          2997.875
       200   03 Jun 2027 06:26:09.197   03 Jun 2027 06:29:21.217           192.020               Magadan1          6000.625
       201   03 Jun 2027 06:29:29.387   03 Jun 2027 06:30:34.525            65.138                Novosib          2035.563
       202   03 Jun 2027 06:31:19.840   03 Jun 2027 06:31:48.906            29.066                Norilsk           908.313
       203   03 Jun 2027 07:04:21.083   03 Jun 2027 07:06:08.794           107.711            RioGallegos          3365.969
       204   03 Jun 2027 07:40:04.981   03 Jun 2027 07:43:28.621           203.640                Sumatra          6363.750
       205   03 Jun 2027 08:00:50.454   03 Jun 2027 08:01:05.576            15.122                Novosib           472.562
       206   03 Jun 2027 08:01:33.959   03 Jun 2027 08:02:44.732            70.773                Irkutsk          2211.656
       207   03 Jun 2027 08:03:00.710   03 Jun 2027 08:06:14.577           193.867              Murmansk2          6058.344
       208   03 Jun 2027 09:15:53.742   03 Jun 2027 09:16:42.946            49.204                Sumatra          1537.625
       209   03 Jun 2027 09:23:41.123   03 Jun 2027 09:25:14.802            93.679                  Delhi          2927.469
       210   03 Jun 2027 09:26:30.156   03 Jun 2027 09:26:56.459            26.303                  Delhi           821.969
       211   03 Jun 2027 09:38:28.591   03 Jun 2027 09:40:04.042            95.451                Novosib          2982.844
       212   03 Jun 2027 09:40:16.278   03 Jun 2027 09:40:36.573            20.295                Norilsk           634.219
       213   03 Jun 2027 09:40:40.646   03 Jun 2027 09:43:03.613           142.967                Novosib          4467.719
       214   03 Jun 2027 11:00:57.855   03 Jun 2027 11:03:14.554           136.699                  Delhi          4271.844
       215   03 Jun 2027 11:13:39.280   03 Jun 2027 11:14:20.139            40.859                 Moscow          1276.844
       216   03 Jun 2027 11:14:22.112   03 Jun 2027 11:15:18.524            56.412                 Moscow          1762.875
       217   03 Jun 2027 11:15:26.045   03 Jun 2027 11:16:20.716            54.671                 Moscow          1708.469
       218   03 Jun 2027 11:16:27.713   03 Jun 2027 11:17:02.940            35.227              Murmansk1          1100.844
       219   03 Jun 2027 11:17:05.307   03 Jun 2027 11:17:46.034            40.727                 Moscow          1272.719
       220   03 Jun 2027 11:18:15.167   03 Jun 2027 11:18:47.937            32.770              Murmansk2          1024.062
       221   03 Jun 2027 12:44:01.192   03 Jun 2027 12:45:19.337            78.145                 Moscow          2442.031
       222   03 Jun 2027 12:46:59.867   03 Jun 2027 12:47:51.950            52.083                 Moscow          1627.594
       223   03 Jun 2027 12:48:09.843   03 Jun 2027 12:49:28.045            78.202              Murmansk2          2443.812
       224   03 Jun 2027 12:49:28.045   03 Jun 2027 12:50:44.020            75.975              Murmansk1          2374.219
       225   03 Jun 2027 12:51:08.234   03 Jun 2027 12:52:15.753            67.519              Murmansk1          2109.969
       226   03 Jun 2027 12:52:23.446   03 Jun 2027 12:52:29.416             5.970              Murmansk2           186.563
       227   03 Jun 2027 12:52:53.927   03 Jun 2027 12:53:14.616            20.689              Murmansk2           646.531
       228   03 Jun 2027 12:56:22.700   03 Jun 2027 12:56:49.429            26.729                Norilsk           835.281
       229   03 Jun 2027 13:03:14.244   03 Jun 2027 13:06:41.137           206.893                Anadyr1          6465.406
       230   03 Jun 2027 13:07:10.046   03 Jun 2027 13:08:51.942           101.896                Anadyr2          3184.250
       231   03 Jun 2027 14:26:03.586   03 Jun 2027 14:26:29.142            25.556              Murmansk1           798.625
       232   03 Jun 2027 14:26:31.943   03 Jun 2027 14:26:42.230            10.287              Murmansk1           321.469
       233   03 Jun 2027 14:28:02.444   03 Jun 2027 14:28:33.310            30.866              Murmansk2           964.563
       234   03 Jun 2027 14:37:59.874   03 Jun 2027 14:42:04.735           244.861                Anadyr2          7651.906
       235   03 Jun 2027 16:06:44.644   03 Jun 2027 16:09:35.879           171.235              Murmansk2          5351.094
       236   03 Jun 2027 16:13:47.964   03 Jun 2027 16:15:21.381            93.417                Anadyr2          2919.281
       237   03 Jun 2027 16:15:23.326   03 Jun 2027 16:15:48.704            25.378                Anadyr1           793.062
       238   03 Jun 2027 16:16:27.990   03 Jun 2027 16:19:03.550           155.560               Magadan1          4861.250
       239   03 Jun 2027 16:19:09.827   03 Jun 2027 16:20:24.135            74.308               Magadan2          2322.125
       240   03 Jun 2027 17:49:43.053   03 Jun 2027 17:51:29.235           106.182                Anadyr1          3318.187
       241   03 Jun 2027 17:51:59.995   03 Jun 2027 17:55:17.565           197.570               Magadan1          6174.062
       242   03 Jun 2027 17:57:36.010   03 Jun 2027 17:57:44.981             8.971               Magadan1           280.344
       243   03 Jun 2027 18:44:31.554   03 Jun 2027 18:50:54.164           382.610            RioGallegos         11956.563
       244   03 Jun 2027 19:27:35.856   03 Jun 2027 19:28:52.440            76.584                Norilsk          2393.250
       245   03 Jun 2027 19:31:56.429   03 Jun 2027 19:34:38.359           161.930                Irkutsk          5060.313
       246   03 Jun 2027 19:45:53.401   03 Jun 2027 19:48:55.162           181.761                Sumatra          5680.031
       247   03 Jun 2027 19:49:26.591   03 Jun 2027 19:49:46.657            20.066                Sumatra           627.063
       248   03 Jun 2027 19:50:20.456   03 Jun 2027 19:52:08.719           108.263                Sumatra          3383.219
       249   03 Jun 2027 21:07:38.246   03 Jun 2027 21:07:56.366            18.120                Novosib           566.250
       250   03 Jun 2027 21:09:27.426   03 Jun 2027 21:10:28.015            60.589                Novosib          1893.406
       251   03 Jun 2027 21:15:48.632   03 Jun 2027 21:19:05.982           197.350                  Delhi          6167.188
       252   03 Jun 2027 21:21:37.247   03 Jun 2027 21:21:42.741             5.494                  Delhi           171.687
       253   03 Jun 2027 22:39:47.920   03 Jun 2027 22:40:18.851            30.931               Magadan1           966.594
       254   03 Jun 2027 22:40:32.189   03 Jun 2027 22:40:49.996            17.807                Norilsk           556.469
       255   03 Jun 2027 22:41:59.205   03 Jun 2027 22:49:51.637           472.432              Murmansk2         14763.500
       256   03 Jun 2027 22:50:48.654   03 Jun 2027 22:51:37.454            48.800                 Moscow          1525.000
       257   04 Jun 2027 00:16:28.417   04 Jun 2027 00:16:48.177            19.760               Magadan1           617.500
       258   04 Jun 2027 00:17:37.769   04 Jun 2027 00:19:13.691            95.922              Murmansk1          2997.563
       259   04 Jun 2027 00:20:57.535   04 Jun 2027 00:21:22.596            25.061              Murmansk2           783.156
       260   04 Jun 2027 00:21:44.702   04 Jun 2027 00:22:19.052            34.350                 Moscow          1073.437
       261   04 Jun 2027 00:23:03.004   04 Jun 2027 00:24:03.202            60.198                 Moscow          1881.188
       262   04 Jun 2027 00:27:17.898   04 Jun 2027 00:27:58.327            40.429                 Moscow          1263.406
       263   04 Jun 2027 00:28:49.859   04 Jun 2027 00:29:10.492            20.633                 Moscow           644.781
       264   04 Jun 2027 00:45:48.353   04 Jun 2027 00:46:51.144            62.791               CapeTown          1962.219
       265   04 Jun 2027 00:47:25.144   04 Jun 2027 00:48:35.855            70.711               CapeTown          2209.719
       266   04 Jun 2027 01:44:31.623   04 Jun 2027 01:45:33.904            62.281               Magadan1          1946.281
       267   04 Jun 2027 01:45:33.904   04 Jun 2027 01:45:45.761            11.857               Magadan2           370.531
       268   04 Jun 2027 01:47:07.112   04 Jun 2027 01:47:13.157             6.045               Magadan2           188.906
       269   04 Jun 2027 01:48:31.663   04 Jun 2027 01:49:03.393            31.730               Magadan2           991.562
       270   04 Jun 2027 01:50:45.979   04 Jun 2027 01:51:06.667            20.688                Norilsk           646.500
       271   04 Jun 2027 01:53:35.439   04 Jun 2027 01:55:05.157            89.718              Murmansk2          2803.687
       272   04 Jun 2027 01:55:27.707   04 Jun 2027 01:55:44.331            16.624              Murmansk1           519.500
       273   04 Jun 2027 01:56:48.240   04 Jun 2027 01:57:44.300            56.060                 Moscow          1751.875
       274   04 Jun 2027 01:59:59.847   04 Jun 2027 02:00:28.818            28.971                 Moscow           905.344
       275   04 Jun 2027 02:05:12.252   04 Jun 2027 02:05:30.302            18.050                 Moscow           564.063
       276   04 Jun 2027 02:21:03.478   04 Jun 2027 02:22:19.357            75.879               CapeTown          2371.219
       277   04 Jun 2027 02:31:30.821   04 Jun 2027 02:31:49.624            18.803               CapeTown           587.594
       278   04 Jun 2027 03:23:59.699   04 Jun 2027 03:24:15.607            15.908                Anadyr2           497.125
       279   04 Jun 2027 03:24:18.023   04 Jun 2027 03:24:26.406             8.383               Magadan1           261.969
       280   04 Jun 2027 03:24:36.803   04 Jun 2027 03:25:27.380            50.577               Magadan1          1580.531
       281   04 Jun 2027 03:25:27.380   04 Jun 2027 03:25:33.311             5.931               Magadan2           185.344
       282   04 Jun 2027 03:25:50.577   04 Jun 2027 03:27:49.477           118.900               Magadan2          3715.625
       283   04 Jun 2027 03:27:55.026   04 Jun 2027 03:30:19.180           144.154                Anadyr1          4504.813
       284   04 Jun 2027 05:01:08.242   04 Jun 2027 05:03:00.528           112.286                Irkutsk          3508.937
       285   04 Jun 2027 05:05:44.131   04 Jun 2027 05:05:52.490             8.359                Anadyr1           261.219
       286   04 Jun 2027 06:36:16.961   04 Jun 2027 06:37:15.563            58.602                Irkutsk          1831.312
       287   04 Jun 2027 06:37:30.685   04 Jun 2027 06:40:34.229           183.544               Magadan1          5735.750
       288   04 Jun 2027 06:40:40.155   04 Jun 2027 06:40:53.039            12.884                Novosib           402.625
       289   04 Jun 2027 06:41:00.765   04 Jun 2027 06:41:12.667            11.902               Magadan2           371.937
       290   04 Jun 2027 06:41:20.866   04 Jun 2027 06:42:29.026            68.160              Murmansk1          2130.000
       291   04 Jun 2027 06:45:08.900   04 Jun 2027 06:45:57.428            48.528              Murmansk2          1516.500
       292   04 Jun 2027 07:16:20.191   04 Jun 2027 07:18:30.142           129.951            RioGallegos          4060.969
       293   04 Jun 2027 07:51:43.720   04 Jun 2027 07:53:01.996            78.276                Sumatra          2446.125
       294   04 Jun 2027 07:53:59.198   04 Jun 2027 07:55:25.960            86.762                Sumatra          2711.312
       295   04 Jun 2027 08:05:32.569   04 Jun 2027 08:05:40.844             8.275                  Delhi           258.594
       296   04 Jun 2027 08:12:21.778   04 Jun 2027 08:12:47.913            26.135                Novosib           816.719
       297   04 Jun 2027 08:12:49.981   04 Jun 2027 08:13:01.801            11.820                Norilsk           369.375
       298   04 Jun 2027 08:13:07.996   04 Jun 2027 08:13:47.818            39.822                Novosib          1244.437
       299   04 Jun 2027 08:14:01.183   04 Jun 2027 08:15:40.256            99.073                Novosib          3096.031
       300   04 Jun 2027 08:15:51.972   04 Jun 2027 08:16:46.455            54.483                Irkutsk          1702.594
       301   04 Jun 2027 08:17:02.050   04 Jun 2027 08:17:41.469            39.419                Novosib          1231.844
       302   04 Jun 2027 08:17:51.044   04 Jun 2027 08:18:13.224            22.180              Murmansk2           693.125
       303   04 Jun 2027 08:18:13.224   04 Jun 2027 08:18:33.213            19.989              Murmansk1           624.656
       304   04 Jun 2027 08:54:13.990   04 Jun 2027 08:54:52.938            38.948            RioGallegos          1217.125
       305   04 Jun 2027 08:57:41.660   04 Jun 2027 08:58:03.875            22.215            RioGallegos           694.219
       306   04 Jun 2027 09:28:26.052   04 Jun 2027 09:28:42.103            16.051                Sumatra           501.594
       307   04 Jun 2027 09:29:02.004   04 Jun 2027 09:29:10.781             8.777                Sumatra           274.281
       308   04 Jun 2027 09:31:51.477   04 Jun 2027 09:32:55.266            63.789                Sumatra          1993.406
       309   04 Jun 2027 09:37:02.774   04 Jun 2027 09:38:37.113            94.339                  Delhi          2948.094
       310   04 Jun 2027 09:49:14.902   04 Jun 2027 09:49:44.235            29.333                 Moscow           916.656
       311   04 Jun 2027 09:49:52.161   04 Jun 2027 09:50:02.177            10.016                 Moscow           313.000
       312   04 Jun 2027 09:50:30.361   04 Jun 2027 09:50:41.864            11.503                Norilsk           359.469
       313   04 Jun 2027 09:50:52.696   04 Jun 2027 09:51:11.491            18.795              Murmansk2           587.344
       314   04 Jun 2027 09:51:12.989   04 Jun 2027 09:51:28.828            15.839                Norilsk           494.969
       315   04 Jun 2027 09:51:35.240   04 Jun 2027 09:52:19.725            44.485                Norilsk          1390.156
       316   04 Jun 2027 09:52:34.129   04 Jun 2027 09:53:11.989            37.860                Novosib          1183.125
       317   04 Jun 2027 09:53:35.973   04 Jun 2027 09:54:00.162            24.189              Murmansk1           755.906
       318   04 Jun 2027 09:54:30.921   04 Jun 2027 09:55:02.876            31.955                 Moscow           998.594
       319   04 Jun 2027 09:56:11.368   04 Jun 2027 09:56:19.631             8.263                 Moscow           258.219
       320   04 Jun 2027 11:13:47.706   04 Jun 2027 11:15:59.516           131.810                  Delhi          4119.062
       321   04 Jun 2027 11:24:50.040   04 Jun 2027 11:25:49.243            59.203                 Moscow          1850.094
       322   04 Jun 2027 11:26:01.382   04 Jun 2027 11:26:15.439            14.057                Novosib           439.281
       323   04 Jun 2027 11:26:32.611   04 Jun 2027 11:26:51.215            18.604                 Moscow           581.375
       324   04 Jun 2027 11:27:01.515   04 Jun 2027 11:27:20.424            18.909                 Moscow           590.906
       325   04 Jun 2027 11:27:21.871   04 Jun 2027 11:28:32.385            70.514                Novosib          2203.563
       326   04 Jun 2027 11:28:35.603   04 Jun 2027 11:28:58.286            22.683              Murmansk2           708.844
       327   04 Jun 2027 11:29:02.039   04 Jun 2027 11:29:05.440             3.401              Murmansk2           106.281
       328   04 Jun 2027 11:29:24.631   04 Jun 2027 11:29:35.064            10.433                 Moscow           326.031
       329   04 Jun 2027 11:29:37.939   04 Jun 2027 11:30:26.850            48.911                 Moscow          1528.469
       330   04 Jun 2027 12:36:51.245   04 Jun 2027 12:38:40.702           109.457               CapeTown          3420.531
       331   04 Jun 2027 12:41:20.058   04 Jun 2027 12:41:51.760            31.702               CapeTown           990.688
       332   04 Jun 2027 12:56:14.353   04 Jun 2027 12:57:18.064            63.711                 Moscow          1990.969
       333   04 Jun 2027 12:59:42.343   04 Jun 2027 13:02:35.797           173.454              Murmansk1          5420.437
       334   04 Jun 2027 13:04:17.355   04 Jun 2027 13:04:32.049            14.694              Murmansk2           459.188
       335   04 Jun 2027 13:14:55.459   04 Jun 2027 13:21:35.131           399.672                Anadyr1         12489.750
       336   04 Jun 2027 14:49:58.930   04 Jun 2027 14:51:48.083           109.153                Anadyr1          3411.031
       337   04 Jun 2027 14:51:57.396   04 Jun 2027 14:52:35.539            38.143                Anadyr2          1191.969
       338   04 Jun 2027 14:53:47.819   04 Jun 2027 14:55:30.856           103.037                Anadyr2          3219.906
       339   04 Jun 2027 16:20:02.814   04 Jun 2027 16:21:35.107            92.293              Murmansk2          2884.156
       340   04 Jun 2027 16:25:49.276   04 Jun 2027 16:27:21.928            92.652                Anadyr2          2895.375
       341   04 Jun 2027 16:27:40.850   04 Jun 2027 16:28:14.544            33.694                Anadyr1          1052.938
       342   04 Jun 2027 16:28:23.065   04 Jun 2027 16:31:22.908           179.843               Magadan2          5620.094
       343   04 Jun 2027 16:32:04.552   04 Jun 2027 16:33:27.418            82.866               Magadan2          2589.563
       344   04 Jun 2027 18:01:43.765   04 Jun 2027 18:04:16.743           152.978                Anadyr2          4780.562
       345   04 Jun 2027 18:04:36.181   04 Jun 2027 18:08:15.388           219.207                Norilsk          6850.219
       346   04 Jun 2027 18:56:16.642   04 Jun 2027 18:58:41.557           144.915            RioGallegos          4528.594
       347   04 Jun 2027 18:59:58.151   04 Jun 2027 19:00:41.522            43.371            RioGallegos          1355.344
       348   04 Jun 2027 19:40:03.060   04 Jun 2027 19:41:54.919           111.859               Magadan2          3495.594
       349   04 Jun 2027 19:42:33.362   04 Jun 2027 19:42:54.004            20.642                Norilsk           645.062
       350   04 Jun 2027 19:43:45.274   04 Jun 2027 19:45:04.048            78.774                Norilsk          2461.688
       351   04 Jun 2027 19:45:34.830   04 Jun 2027 19:46:34.150            59.320                Irkutsk          1853.750
       352   04 Jun 2027 19:46:34.162   04 Jun 2027 19:48:39.713           125.551                Novosib          3923.469
       353   04 Jun 2027 19:52:09.885   04 Jun 2027 19:53:35.065            85.180                Irkutsk          2661.875
       354   04 Jun 2027 19:58:04.304   04 Jun 2027 19:58:55.099            50.795                Sumatra          1587.344
       355   04 Jun 2027 20:00:08.065   04 Jun 2027 20:01:26.712            78.647                Sumatra          2457.719
       356   04 Jun 2027 21:19:23.113   04 Jun 2027 21:20:01.210            38.097                Irkutsk          1190.531
       357   04 Jun 2027 21:20:11.127   04 Jun 2027 21:21:32.783            81.656                Novosib          2551.750
       358   04 Jun 2027 21:21:49.596   04 Jun 2027 21:22:33.639            44.043                Novosib          1376.344
       359   04 Jun 2027 21:24:59.924   04 Jun 2027 21:25:45.779            45.855                Novosib          1432.969
       360   04 Jun 2027 21:27:26.073   04 Jun 2027 21:30:58.660           212.587                  Delhi          6643.344
       361   04 Jun 2027 22:53:55.377   04 Jun 2027 22:58:13.646           258.269              Murmansk2          8070.906
       362   04 Jun 2027 22:58:57.291   04 Jun 2027 23:04:42.310           345.019                 Moscow         10781.844
       363   05 Jun 2027 00:29:38.998   05 Jun 2027 00:31:05.461            86.463              Murmansk1          2701.969
       364   05 Jun 2027 00:32:59.039   05 Jun 2027 00:33:50.620            51.581              Murmansk1          1611.906
       365   05 Jun 2027 00:35:03.664   05 Jun 2027 00:35:10.246             6.582                 Moscow           205.688
       366   05 Jun 2027 00:36:09.302   05 Jun 2027 00:36:49.501            40.199                 Moscow          1256.219
       367   05 Jun 2027 00:45:08.328   05 Jun 2027 00:45:22.028            13.700                 Moscow           428.125
       368   05 Jun 2027 00:57:26.272   05 Jun 2027 00:59:09.693           103.421               CapeTown          3231.906
       369   05 Jun 2027 01:08:20.837   05 Jun 2027 01:09:22.234            61.397               CapeTown          1918.656
       370   05 Jun 2027 01:56:06.202   05 Jun 2027 01:56:07.676             1.474               Magadan2            46.063
       371   05 Jun 2027 01:56:10.619   05 Jun 2027 01:57:02.235            51.616               Magadan1          1613.000
       372   05 Jun 2027 01:57:46.800   05 Jun 2027 01:58:09.157            22.357               Magadan1           698.656
       373   05 Jun 2027 01:58:44.602   05 Jun 2027 01:59:02.459            17.857               Magadan2           558.031
       374   05 Jun 2027 02:01:02.043   05 Jun 2027 02:01:16.540            14.497               Magadan2           453.031
       375   05 Jun 2027 02:02:26.959   05 Jun 2027 02:02:32.670             5.711               Magadan2           178.469
       376   05 Jun 2027 02:02:41.115   05 Jun 2027 02:02:55.065            13.950                Norilsk           435.937
       377   05 Jun 2027 02:04:26.932   05 Jun 2027 02:04:36.689             9.757                Norilsk           304.906
       378   05 Jun 2027 02:05:37.031   05 Jun 2027 02:07:20.049           103.018              Murmansk1          3219.313
       379   05 Jun 2027 02:08:50.877   05 Jun 2027 02:09:18.246            27.369                 Moscow           855.281
       380   05 Jun 2027 02:10:21.023   05 Jun 2027 02:10:55.384            34.361                 Moscow          1073.781
       381   05 Jun 2027 02:16:02.645   05 Jun 2027 02:16:05.383             2.738                 Moscow            85.563
       382   05 Jun 2027 02:17:36.539   05 Jun 2027 02:17:37.913             1.374                 Moscow            42.937
       383   05 Jun 2027 02:18:22.680   05 Jun 2027 02:18:27.856             5.176                 Moscow           161.750
       384   05 Jun 2027 02:18:40.972   05 Jun 2027 02:18:56.065            15.093                 Moscow           471.656
       385   05 Jun 2027 02:21:19.085   05 Jun 2027 02:21:21.703             2.618                 Moscow            81.813
       386   05 Jun 2027 02:33:24.299   05 Jun 2027 02:34:03.498            39.199               CapeTown          1224.969
       387   05 Jun 2027 02:38:22.164   05 Jun 2027 02:38:34.574            12.410               CapeTown           387.812
       388   05 Jun 2027 02:38:43.197   05 Jun 2027 02:38:44.535             1.338               CapeTown            41.813
       389   05 Jun 2027 02:39:25.159   05 Jun 2027 02:40:10.115            44.956               CapeTown          1404.875
       390   05 Jun 2027 03:35:23.625   05 Jun 2027 03:36:36.239            72.614                Anadyr1          2269.188
       391   05 Jun 2027 03:36:38.653   05 Jun 2027 03:37:28.035            49.382               Magadan2          1543.188
       392   05 Jun 2027 03:37:28.035   05 Jun 2027 03:37:34.548             6.513               Magadan1           203.531
       393   05 Jun 2027 03:37:39.463   05 Jun 2027 03:37:53.804            14.341               Magadan1           448.156
       394   05 Jun 2027 03:38:11.649   05 Jun 2027 03:41:37.439           205.790               Magadan1          6430.937
       395   05 Jun 2027 03:41:37.439   05 Jun 2027 03:42:01.761            24.322               Magadan2           760.063
       396   05 Jun 2027 05:13:17.740   05 Jun 2027 05:16:13.352           175.612                Anadyr2          5487.875
       397   05 Jun 2027 06:47:57.996   05 Jun 2027 06:49:19.917            81.921               Magadan1          2560.031
       398   05 Jun 2027 06:49:25.653   05 Jun 2027 06:51:09.399           103.746               Magadan2          3242.063
       399   05 Jun 2027 06:51:22.882   05 Jun 2027 06:52:58.974            96.092                Novosib          3002.875
       400   05 Jun 2027 06:53:03.422   05 Jun 2027 06:53:19.078            15.656                Norilsk           489.250
       401   05 Jun 2027 06:53:22.655   05 Jun 2027 06:54:24.390            61.735              Murmansk2          1929.219
       402   05 Jun 2027 06:54:24.390   05 Jun 2027 06:54:48.479            24.089              Murmansk1           752.781
       403   05 Jun 2027 06:55:01.659   05 Jun 2027 06:55:10.320             8.661              Murmansk1           270.656
       404   05 Jun 2027 06:55:26.990   05 Jun 2027 06:55:34.892             7.902              Murmansk1           246.937
       405   05 Jun 2027 06:56:29.039   05 Jun 2027 06:56:43.181            14.142              Murmansk2           441.937
       406   05 Jun 2027 06:56:43.181   05 Jun 2027 06:56:59.348            16.167              Murmansk1           505.219
       407   05 Jun 2027 07:28:22.600   05 Jun 2027 07:30:17.441           114.841            RioGallegos          3588.781
       408   05 Jun 2027 08:03:29.452   05 Jun 2027 08:04:46.543            77.091                Sumatra          2409.094
       409   05 Jun 2027 08:04:59.472   05 Jun 2027 08:06:15.211            75.739                Sumatra          2366.844
       410   05 Jun 2027 08:15:16.415   05 Jun 2027 08:16:40.742            84.327                  Delhi          2635.219
       411   05 Jun 2027 08:23:57.464   05 Jun 2027 08:24:19.962            22.498                Irkutsk           703.063
       412   05 Jun 2027 08:24:20.457   05 Jun 2027 08:24:32.887            12.430                Novosib           388.438
       413   05 Jun 2027 08:24:46.496   05 Jun 2027 08:25:13.458            26.962                Novosib           842.563
       414   05 Jun 2027 08:25:36.382   05 Jun 2027 08:25:59.745            23.363                Irkutsk           730.094
       415   05 Jun 2027 08:26:01.952   05 Jun 2027 08:26:16.022            14.070              Murmansk2           439.688
       416   05 Jun 2027 08:26:16.022   05 Jun 2027 08:26:21.663             5.641              Murmansk1           176.281
       417   05 Jun 2027 08:26:35.153   05 Jun 2027 08:27:07.931            32.778                Norilsk          1024.313
       418   05 Jun 2027 08:27:14.519   05 Jun 2027 08:27:28.109            13.590                Irkutsk           424.687
       419   05 Jun 2027 08:27:29.505   05 Jun 2027 08:27:55.595            26.090              Murmansk1           815.313
       420   05 Jun 2027 08:27:56.435   05 Jun 2027 08:27:56.960             0.525                Irkutsk            16.406
       421   05 Jun 2027 08:27:57.283   05 Jun 2027 08:27:59.505             2.222                Norilsk            69.437
       422   05 Jun 2027 08:28:05.841   05 Jun 2027 08:28:11.100             5.259                Novosib           164.344
       423   05 Jun 2027 08:28:18.861   05 Jun 2027 08:28:38.823            19.962              Murmansk2           623.812
       424   05 Jun 2027 08:28:50.603   05 Jun 2027 08:29:49.110            58.507                 Moscow          1828.344
       425   05 Jun 2027 09:06:53.602   05 Jun 2027 09:07:39.657            46.055            RioGallegos          1439.219
       426   05 Jun 2027 09:08:50.539   05 Jun 2027 09:09:26.572            36.033            RioGallegos          1126.031
       427   05 Jun 2027 09:41:12.632   05 Jun 2027 09:43:02.604           109.972                Sumatra          3436.625
       428   05 Jun 2027 09:47:28.515   05 Jun 2027 09:47:32.079             3.564                  Delhi           111.375
       429   05 Jun 2027 10:01:34.221   05 Jun 2027 10:02:41.628            67.407                Novosib          2106.469
       430   05 Jun 2027 10:02:51.586   05 Jun 2027 10:02:59.463             7.877              Murmansk1           246.156
       431   05 Jun 2027 10:03:03.258   05 Jun 2027 10:04:17.633            74.375                Novosib          2324.219
       432   05 Jun 2027 10:04:25.468   05 Jun 2027 10:04:34.935             9.467                Novosib           295.844
       433   05 Jun 2027 10:04:38.796   05 Jun 2027 10:05:16.422            37.626              Murmansk2          1175.812
       434   05 Jun 2027 10:07:44.699   05 Jun 2027 10:08:26.417            41.718                 Moscow          1303.688
       435   05 Jun 2027 11:27:00.712   05 Jun 2027 11:29:56.607           175.895                  Delhi          5496.719
       436   05 Jun 2027 11:35:18.595   05 Jun 2027 11:36:22.865            64.270              Murmansk2          2008.438
       437   05 Jun 2027 11:36:27.321   05 Jun 2027 11:36:28.710             1.389                 Moscow            43.406
       438   05 Jun 2027 11:36:33.372   05 Jun 2027 11:37:11.260            37.888              Murmansk2          1184.000
       439   05 Jun 2027 11:37:28.734   05 Jun 2027 11:38:32.058            63.324              Murmansk2          1978.875
       440   05 Jun 2027 11:38:39.544   05 Jun 2027 11:39:24.026            44.482              Murmansk2          1390.063
       441   05 Jun 2027 11:39:34.990   05 Jun 2027 11:40:36.057            61.067                 Moscow          1908.344
       442   05 Jun 2027 11:40:51.943   05 Jun 2027 11:41:05.195            13.252                Norilsk           414.125
       443   05 Jun 2027 11:41:31.231   05 Jun 2027 11:41:59.380            28.149              Murmansk1           879.656
       444   05 Jun 2027 11:41:59.380   05 Jun 2027 11:42:11.805            12.425              Murmansk2           388.281
       445   05 Jun 2027 11:42:17.141   05 Jun 2027 11:43:33.595            76.454                 Moscow          2389.188
       446   05 Jun 2027 12:47:43.362   05 Jun 2027 12:50:19.358           155.996               CapeTown          4874.875
       447   05 Jun 2027 12:53:30.426   05 Jun 2027 12:53:58.412            27.986               CapeTown           874.562
       448   05 Jun 2027 13:08:31.085   05 Jun 2027 13:08:58.158            27.073                 Moscow           846.031
       449   05 Jun 2027 13:11:54.801   05 Jun 2027 13:14:11.397           136.596              Murmansk1          4268.625
       450   05 Jun 2027 13:14:37.439   05 Jun 2027 13:14:59.948            22.509              Murmansk1           703.406
       451   05 Jun 2027 13:17:48.814   05 Jun 2027 13:17:57.771             8.957              Murmansk1           279.906
       452   05 Jun 2027 13:18:37.575   05 Jun 2027 13:18:48.674            11.099              Murmansk1           346.844
       453   05 Jun 2027 13:26:42.707   05 Jun 2027 13:30:29.520           226.813                Anadyr1          7087.906
       454   05 Jun 2027 13:30:31.986   05 Jun 2027 13:31:38.551            66.565                Anadyr2          2080.156
       455   05 Jun 2027 13:32:11.661   05 Jun 2027 13:33:36.462            84.801                Anadyr2          2650.031
       456   05 Jun 2027 15:01:58.530   05 Jun 2027 15:03:58.643           120.113                Anadyr2          3753.531
       457   05 Jun 2027 15:04:33.535   05 Jun 2027 15:04:45.771            12.236                Anadyr2           382.375
       458   05 Jun 2027 15:05:12.528   05 Jun 2027 15:05:30.162            17.634                Anadyr2           551.062
       459   05 Jun 2027 15:06:24.980   05 Jun 2027 15:09:35.568           190.588               Magadan2          5955.875
       460   05 Jun 2027 15:09:35.568   05 Jun 2027 15:10:58.584            83.016               Magadan1          2594.250
       461   05 Jun 2027 16:37:50.637   05 Jun 2027 16:39:31.049           100.412                Anadyr2          3137.875
       462   05 Jun 2027 16:40:19.457   05 Jun 2027 16:43:04.726           165.269               Magadan1          5164.656
       463   05 Jun 2027 16:45:12.989   05 Jun 2027 16:45:24.912            11.923               Magadan2           372.594
       464   05 Jun 2027 16:48:41.531   05 Jun 2027 16:49:51.870            70.339               Magadan1          2198.094
       465   05 Jun 2027 18:13:44.231   05 Jun 2027 18:16:34.339           170.108                Anadyr2          5315.875
       466   05 Jun 2027 18:16:51.828   05 Jun 2027 18:20:03.211           191.383                Norilsk          5980.719
       467   05 Jun 2027 18:23:24.478   05 Jun 2027 18:25:30.123           125.645                Irkutsk          3926.406
       468   05 Jun 2027 19:08:05.445   05 Jun 2027 19:08:37.458            32.013            RioGallegos          1000.406
       469   05 Jun 2027 19:09:14.132   05 Jun 2027 19:09:37.796            23.664            RioGallegos           739.500
       470   05 Jun 2027 19:10:49.244   05 Jun 2027 19:11:26.350            37.106            RioGallegos          1159.562
       471   05 Jun 2027 19:52:05.757   05 Jun 2027 19:52:57.508            51.751               Magadan2          1617.219
       472   05 Jun 2027 19:53:08.064   05 Jun 2027 19:53:17.386             9.322                Norilsk           291.312
       473   05 Jun 2027 19:53:51.593   05 Jun 2027 19:54:43.443            51.850               Magadan2          1620.312
       474   05 Jun 2027 19:55:27.287   05 Jun 2027 19:55:46.634            19.347                Norilsk           604.594
       475   05 Jun 2027 19:55:46.851   05 Jun 2027 19:56:04.958            18.107                Irkutsk           565.844
       476   05 Jun 2027 19:56:39.162   05 Jun 2027 19:57:09.161            29.999                Norilsk           937.469
       477   05 Jun 2027 19:57:19.102   05 Jun 2027 20:01:31.006           251.904                Novosib          7872.000
       478   05 Jun 2027 20:03:12.411   05 Jun 2027 20:03:47.629            35.218                Novosib          1100.563
       479   05 Jun 2027 20:10:36.204   05 Jun 2027 20:11:37.619            61.415                Sumatra          1919.219
       480   05 Jun 2027 20:12:41.915   05 Jun 2027 20:13:04.066            22.151                Sumatra           692.219
       481   05 Jun 2027 20:19:50.045   05 Jun 2027 20:21:05.640            75.595                Sumatra          2362.344
       482   05 Jun 2027 21:31:26.032   05 Jun 2027 21:31:43.516            17.484                Irkutsk           546.375
