uniorb/output/strategy_1/Drop/Drop_KinoSat_110204.txt

KinoSat_110204
-------------------------
    Access    *     Start Time (UTCG)     *     Stop Time (UTCG)  *   Duration (s)        *       Station  *  Data (Mbytes)
         1   01 Jun 2027 04:13:18.886   01 Jun 2027 04:15:56.668           157.782                Irkutsk         19722.750
         2   01 Jun 2027 04:16:31.538   01 Jun 2027 04:16:51.538            20.000                Norilsk          2500.000
         3   01 Jun 2027 04:17:09.703   01 Jun 2027 04:18:11.548            61.845                Novosib          7730.625
         4   01 Jun 2027 04:53:48.107   01 Jun 2027 04:54:49.526            61.419            RioGallegos          7677.375
         5   01 Jun 2027 04:57:07.469   01 Jun 2027 04:57:50.993            43.524            RioGallegos          5440.500
         6   01 Jun 2027 05:28:04.396   01 Jun 2027 05:28:34.238            29.842                Sumatra          3730.250
         7   01 Jun 2027 05:30:24.224   01 Jun 2027 05:32:31.748           127.524                Sumatra         15940.500
         8   01 Jun 2027 05:38:52.851   01 Jun 2027 05:40:49.146           116.295                  Delhi         14536.875
         9   01 Jun 2027 05:52:22.153   01 Jun 2027 05:53:16.679            54.526                Irkutsk          6815.750
        10   01 Jun 2027 07:12:54.720   01 Jun 2027 07:14:23.783            89.063                  Delhi         11132.875
        11   01 Jun 2027 07:15:12.744   01 Jun 2027 07:15:56.921            44.177                  Delhi          5522.125
        12   01 Jun 2027 07:27:39.541   01 Jun 2027 07:27:52.501            12.960                 Moscow          1620.000
        13   01 Jun 2027 07:27:53.890   01 Jun 2027 07:28:12.219            18.329                 Moscow          2291.125
        14   01 Jun 2027 07:28:30.635   01 Jun 2027 07:29:28.214            57.579                 Moscow          7197.375
        15   01 Jun 2027 07:29:38.484   01 Jun 2027 07:30:30.507            52.023              Murmansk2          6502.875
        16   01 Jun 2027 10:14:39.203   01 Jun 2027 10:14:52.611            13.408               CapeTown          1676.000
        17   01 Jun 2027 10:50:34.747   01 Jun 2027 10:55:04.265           269.518                Anadyr1         33689.750
        18   01 Jun 2027 12:29:07.835   01 Jun 2027 12:33:36.409           268.574               Magadan2         33571.750
        19   01 Jun 2027 15:01:16.037   01 Jun 2027 15:01:17.018             0.981            RioGallegos           122.625
        20   01 Jun 2027 15:02:59.556   01 Jun 2027 15:05:31.220           151.664            RioGallegos         18958.000
        21   01 Jun 2027 15:44:40.095   01 Jun 2027 15:47:25.701           165.606                Irkutsk         20700.750
        22   01 Jun 2027 16:01:10.074   01 Jun 2027 16:02:39.023            88.949                Sumatra         11118.625
        23   01 Jun 2027 16:05:46.327   01 Jun 2027 16:06:19.831            33.504                Sumatra          4188.000
        24   01 Jun 2027 17:20:17.547   01 Jun 2027 17:23:36.478           198.931                Novosib         24866.375
        25   01 Jun 2027 17:28:53.093   01 Jun 2027 17:32:18.740           205.647                  Delhi         25705.875
        26   01 Jun 2027 20:33:43.372   01 Jun 2027 20:35:26.396           103.024                 Moscow          1097.251
        27   02 Jun 2027 04:30:55.334   02 Jun 2027 04:31:25.493            30.159                Novosib          3769.875
        28   02 Jun 2027 05:06:14.805   02 Jun 2027 05:06:31.039            16.234            RioGallegos          2029.250
        29   02 Jun 2027 05:40:27.074   02 Jun 2027 05:42:03.865            96.791                Sumatra         12098.875
        30   02 Jun 2027 05:43:26.068   02 Jun 2027 05:44:35.019            68.951                Sumatra          8618.875
        31   02 Jun 2027 05:48:14.370   02 Jun 2027 05:51:03.443           169.073                  Delhi         21134.125
        32   02 Jun 2027 06:03:46.500   02 Jun 2027 06:03:52.951             6.451                Irkutsk           806.375
        33   02 Jun 2027 06:03:56.196   02 Jun 2027 06:04:48.986            52.790                Novosib          6598.750
        34   02 Jun 2027 06:05:52.557   02 Jun 2027 06:06:22.995            30.438                Novosib          3804.750
        35   02 Jun 2027 07:25:31.215   02 Jun 2027 07:27:05.525            94.310                  Delhi         11788.750
        36   02 Jun 2027 07:40:05.700   02 Jun 2027 07:41:26.116            80.416                 Moscow         10052.000
        37   02 Jun 2027 07:41:43.793   02 Jun 2027 07:42:15.861            32.068                Norilsk          4008.500
        38   02 Jun 2027 07:43:11.873   02 Jun 2027 07:43:51.333            39.460                 Moscow          4932.500
        39   02 Jun 2027 11:02:33.136   02 Jun 2027 11:03:28.927            55.791                Anadyr1          6973.875
        40   02 Jun 2027 11:06:35.109   02 Jun 2027 11:07:35.012            59.903                Anadyr2          7487.875
        41   02 Jun 2027 11:13:07.347   02 Jun 2027 11:14:01.517            54.170                Anadyr1          6771.250
        42   02 Jun 2027 12:41:01.241   02 Jun 2027 12:43:41.907           160.666               Magadan2         20083.250
        43   02 Jun 2027 12:44:56.529   02 Jun 2027 12:46:22.314            85.785               Magadan1         10723.125
        44   02 Jun 2027 12:49:56.933   02 Jun 2027 12:50:31.711            34.778               Magadan1          4347.250
        45   02 Jun 2027 15:09:04.777   02 Jun 2027 15:13:10.651           245.874            RioGallegos         30734.250
        46   02 Jun 2027 15:57:40.099   02 Jun 2027 16:00:30.708           170.609                Irkutsk         21326.125
        47   02 Jun 2027 16:12:21.742   02 Jun 2027 16:14:38.866           137.124                Sumatra         17140.500
        48   02 Jun 2027 17:32:11.499   02 Jun 2027 17:34:00.756           109.257                Novosib         13657.125
        49   02 Jun 2027 17:40:21.841   02 Jun 2027 17:44:11.243           229.402                  Delhi         28675.250
        50   02 Jun 2027 17:47:08.387   02 Jun 2027 17:47:42.656            34.269                  Delhi          4283.625
        51   02 Jun 2027 20:45:38.633   02 Jun 2027 20:47:22.255           103.622                 Moscow         12952.750
        52   02 Jun 2027 21:17:37.862   02 Jun 2027 21:19:37.995           120.133               CapeTown         15016.625
        53   03 Jun 2027 03:40:53.462   03 Jun 2027 03:43:39.055           165.593            RioGallegos         20699.125
        54   03 Jun 2027 03:44:47.267   03 Jun 2027 03:45:15.912            28.645            RioGallegos          3580.625
        55   03 Jun 2027 04:16:16.950   03 Jun 2027 04:20:40.892           263.942                Sumatra         32992.750
        56   03 Jun 2027 04:38:23.033   03 Jun 2027 04:38:47.828            24.795                Novosib          3099.375
        57   03 Jun 2027 04:39:02.207   03 Jun 2027 04:39:49.274            47.067                Novosib          5883.375
        58   03 Jun 2027 04:40:09.362   03 Jun 2027 04:40:28.005            18.643              Murmansk2          2330.375
        59   03 Jun 2027 04:40:43.328   03 Jun 2027 04:41:27.058            43.730                Norilsk          5466.250
        60   03 Jun 2027 04:41:42.532   03 Jun 2027 04:42:12.941            30.409                Novosib          3801.125
        61   03 Jun 2027 05:18:47.327   03 Jun 2027 05:19:16.086            28.759            RioGallegos          3594.875
        62   03 Jun 2027 05:20:50.039   03 Jun 2027 05:21:05.078            15.039            RioGallegos          1879.875
        63   03 Jun 2027 05:26:24.487   03 Jun 2027 05:26:39.141            14.654            RioGallegos          1831.750
        64   03 Jun 2027 05:52:59.405   03 Jun 2027 05:54:59.144           119.739                Sumatra         14967.375
        65   03 Jun 2027 06:00:05.411   03 Jun 2027 06:03:10.391           184.980                  Delhi         23122.500
        66   03 Jun 2027 06:15:47.314   03 Jun 2027 06:15:57.003             9.689                Irkutsk          1211.125
        67   03 Jun 2027 06:16:07.270   03 Jun 2027 06:17:09.991            62.721              Murmansk2          7840.125
        68   03 Jun 2027 06:17:17.694   03 Jun 2027 06:17:38.081            20.387              Murmansk1          2548.375
        69   03 Jun 2027 07:38:21.094   03 Jun 2027 07:38:25.916             4.822                  Delhi           602.750
        70   03 Jun 2027 07:44:14.850   03 Jun 2027 07:45:37.822            82.972                  Delhi         10371.500
        71   03 Jun 2027 07:51:47.070   03 Jun 2027 07:53:14.402            87.332                Novosib         10916.500
        72   03 Jun 2027 07:53:44.673   03 Jun 2027 07:55:12.978            88.305                 Moscow         11038.125
        73   03 Jun 2027 09:01:24.293   03 Jun 2027 09:03:32.593           128.300               CapeTown         16037.500
        74   03 Jun 2027 11:14:32.190   03 Jun 2027 11:15:17.854            45.664                Anadyr1          5708.000
        75   03 Jun 2027 11:16:31.208   03 Jun 2027 11:18:09.516            98.308                Anadyr2         12288.500
        76   03 Jun 2027 11:19:18.904   03 Jun 2027 11:20:11.526            52.622                Anadyr2          6577.750
        77   03 Jun 2027 12:52:56.315   03 Jun 2027 12:54:46.530           110.215               Magadan1         13776.875
        78   03 Jun 2027 13:00:10.964   03 Jun 2027 13:04:18.569           247.605               Magadan2         30950.625
        79   03 Jun 2027 15:20:49.871   03 Jun 2027 15:21:12.821            22.950            RioGallegos          2868.750
        80   03 Jun 2027 15:23:25.758   03 Jun 2027 15:25:06.100           100.342            RioGallegos         12542.750
        81   03 Jun 2027 16:08:21.840   03 Jun 2027 16:11:16.002           174.162                Irkutsk         21770.250
        82   03 Jun 2027 16:22:09.014   03 Jun 2027 16:24:41.364           152.350                Sumatra         19043.750
        83   03 Jun 2027 17:44:07.061   03 Jun 2027 17:45:45.331            98.270                Novosib         12283.750
        84   03 Jun 2027 17:51:59.294   03 Jun 2027 17:56:07.440           248.146                  Delhi         31018.250
        85   03 Jun 2027 20:57:35.256   03 Jun 2027 20:58:56.619            81.363                 Moscow         10170.375
        86   03 Jun 2027 21:21:59.502   03 Jun 2027 21:22:46.181            46.679               CapeTown          5834.875
        87   04 Jun 2027 03:15:58.504   04 Jun 2027 03:17:34.495            95.991               Magadan1         11998.875
        88   04 Jun 2027 03:52:55.876   04 Jun 2027 03:52:58.604             2.728            RioGallegos           341.000
        89   04 Jun 2027 03:55:58.083   04 Jun 2027 03:56:11.530            13.447            RioGallegos          1680.875
        90   04 Jun 2027 03:57:29.862   04 Jun 2027 03:57:39.440             9.578            RioGallegos          1197.250
        91   04 Jun 2027 04:28:02.695   04 Jun 2027 04:32:49.285           286.590                Sumatra         35823.750
        92   04 Jun 2027 04:49:49.453   04 Jun 2027 04:51:01.749            72.296                Irkutsk          9037.000
        93   04 Jun 2027 04:52:03.527   04 Jun 2027 04:52:53.216            49.689              Murmansk2          6211.125
        94   04 Jun 2027 04:53:16.096   04 Jun 2027 04:53:46.025            29.929              Murmansk2          3741.125
        95   04 Jun 2027 04:53:48.446   04 Jun 2027 04:55:10.622            82.176                Novosib         10272.000
        96   04 Jun 2027 05:31:26.948   04 Jun 2027 05:32:17.504            50.556            RioGallegos          6319.500
        97   04 Jun 2027 06:05:46.022   04 Jun 2027 06:07:08.943            82.921                Sumatra         10365.125
        98   04 Jun 2027 06:12:01.783   04 Jun 2027 06:13:52.995           111.212                  Delhi         13901.500
        99   04 Jun 2027 06:15:13.985   04 Jun 2027 06:17:22.521           128.536                  Delhi         16067.000
       100   04 Jun 2027 06:28:29.268   04 Jun 2027 06:28:38.904             9.636                Novosib          1204.500
       101   04 Jun 2027 06:29:04.090   04 Jun 2027 06:29:18.717            14.627              Murmansk1          1828.375
       102   04 Jun 2027 06:29:23.563   04 Jun 2027 06:29:32.929             9.366                Norilsk          1170.750
       103   04 Jun 2027 06:29:43.296   04 Jun 2027 06:30:12.261            28.965              Murmansk1          3620.625
       104   04 Jun 2027 06:30:25.397   04 Jun 2027 06:30:40.034            14.637                Norilsk          1829.625
       105   04 Jun 2027 06:31:05.454   04 Jun 2027 06:31:23.532            18.078                 Moscow          2259.750
       106   04 Jun 2027 07:51:34.157   04 Jun 2027 07:53:20.292           106.135                  Delhi         13266.875
       107   04 Jun 2027 08:00:40.391   04 Jun 2027 08:00:58.318            17.927              Murmansk2          2240.875
       108   04 Jun 2027 08:01:08.510   04 Jun 2027 08:02:08.693            60.183                Novosib          7522.875
       109   04 Jun 2027 08:02:27.522   04 Jun 2027 08:03:15.691            48.169                Novosib          6021.125
       110   04 Jun 2027 08:03:17.974   04 Jun 2027 08:04:02.161            44.187                 Moscow          5523.375
       111   04 Jun 2027 08:04:16.706   04 Jun 2027 08:04:21.240             4.534                Norilsk           566.750
       112   04 Jun 2027 08:04:21.434   04 Jun 2027 08:04:53.347            31.913                 Moscow          3989.125
       113   04 Jun 2027 08:05:01.671   04 Jun 2027 08:05:26.062            24.391              Murmansk1          3048.875
       114   04 Jun 2027 08:05:56.606   04 Jun 2027 08:06:22.556            25.950                Norilsk          3243.750
       115   04 Jun 2027 08:06:30.648   04 Jun 2027 08:07:50.457            79.809                 Moscow          9976.125
       116   04 Jun 2027 09:12:16.504   04 Jun 2027 09:15:16.814           180.310               CapeTown         22538.750
       117   04 Jun 2027 09:53:19.665   04 Jun 2027 09:54:51.379            91.714                Anadyr2         11464.250
       118   04 Jun 2027 11:26:31.787   04 Jun 2027 11:28:50.421           138.634                Anadyr2         17329.250
       119   04 Jun 2027 11:29:02.507   04 Jun 2027 11:32:39.604           217.097                Anadyr1         27137.125
       120   04 Jun 2027 13:04:52.706   04 Jun 2027 13:06:48.633           115.927               Magadan2         14490.875
       121   04 Jun 2027 15:32:38.678   04 Jun 2027 15:38:18.510           339.832            RioGallegos         42479.000
       122   04 Jun 2027 16:20:16.058   04 Jun 2027 16:22:19.736           123.678                Irkutsk         15459.750
       123   04 Jun 2027 16:33:57.902   04 Jun 2027 16:36:54.028           176.126                Sumatra         22015.750
       124   04 Jun 2027 17:56:03.942   04 Jun 2027 17:57:21.599            77.657                Novosib          9707.125
       125   04 Jun 2027 18:03:43.052   04 Jun 2027 18:05:49.229           126.177                  Delhi         15772.125
       126   04 Jun 2027 19:42:19.123   04 Jun 2027 19:42:39.187            20.064                 Moscow          2508.000
       127   04 Jun 2027 21:06:13.669   04 Jun 2027 21:06:29.093            15.424              Murmansk2          1928.000
       128   04 Jun 2027 21:09:33.028   04 Jun 2027 21:10:38.503            65.475                 Moscow          8184.375
       129   04 Jun 2027 21:16:21.734   04 Jun 2027 21:17:37.672            75.938                 Moscow          9492.250
       130   04 Jun 2027 21:33:43.074   04 Jun 2027 21:36:23.696           160.622               CapeTown         20077.750
       131   05 Jun 2027 03:27:02.667   05 Jun 2027 03:27:59.144            56.477               Magadan2          7059.625
       132   05 Jun 2027 03:28:17.191   05 Jun 2027 03:29:18.912            61.721               Magadan2          7715.125
       133   05 Jun 2027 03:30:41.981   05 Jun 2027 03:30:44.041             2.060                Novosib           257.500
       134   05 Jun 2027 03:34:47.945   05 Jun 2027 03:34:54.572             6.627                Norilsk           828.375
       135   05 Jun 2027 04:05:01.704   05 Jun 2027 04:06:54.321           112.617            RioGallegos         14077.125
       136   05 Jun 2027 04:39:54.570   05 Jun 2027 04:42:58.050           183.480                Sumatra         22935.000
       137   05 Jun 2027 05:02:22.306   05 Jun 2027 05:03:16.312            54.006              Murmansk1          6750.750
       138   05 Jun 2027 05:03:26.980   05 Jun 2027 05:03:42.839            15.859              Murmansk1          1982.375
       139   05 Jun 2027 05:03:49.621   05 Jun 2027 05:04:50.527            60.906                Novosib          7613.250
       140   05 Jun 2027 05:05:06.159   05 Jun 2027 05:05:48.097            41.938              Murmansk2          5242.250
       141   05 Jun 2027 05:05:54.968   05 Jun 2027 05:06:15.289            20.321                Novosib          2540.125
       142   05 Jun 2027 05:44:15.881   05 Jun 2027 05:44:58.611            42.730            RioGallegos          5341.250
       143   05 Jun 2027 06:19:00.421   05 Jun 2027 06:19:07.479             7.058                Sumatra           882.250
       144   05 Jun 2027 06:21:18.675   05 Jun 2027 06:21:22.497             3.822                Sumatra           477.750
       145   05 Jun 2027 06:22:57.227   05 Jun 2027 06:23:58.881            61.654                Sumatra          7706.750
       146   05 Jun 2027 06:24:03.449   05 Jun 2027 06:24:57.748            54.299                  Delhi          6787.375
       147   05 Jun 2027 06:25:55.604   05 Jun 2027 06:26:24.928            29.324                  Delhi          3665.500
       148   05 Jun 2027 06:27:14.290   05 Jun 2027 06:29:08.262           113.972                  Delhi         14246.500
       149   05 Jun 2027 06:40:19.941   05 Jun 2027 06:40:32.731            12.790                 Moscow          1598.750
       150   05 Jun 2027 06:40:58.018   05 Jun 2027 06:42:15.984            77.966                 Moscow          9745.750
       151   05 Jun 2027 08:11:52.610   05 Jun 2027 08:12:21.574            28.964              Murmansk1          3620.500
       152   05 Jun 2027 08:12:32.855   05 Jun 2027 08:13:18.955            46.100              Murmansk2          5762.500
       153   05 Jun 2027 08:13:25.019   05 Jun 2027 08:13:47.024            22.005                 Moscow          2750.625
       154   05 Jun 2027 08:13:51.370   05 Jun 2027 08:15:23.505            92.135                 Moscow         11516.875
       155   05 Jun 2027 08:16:08.490   05 Jun 2027 08:17:36.736            88.246                Norilsk         11030.750
       156   05 Jun 2027 08:17:43.249   05 Jun 2027 08:18:34.182            50.933                 Moscow          6366.625
       157   05 Jun 2027 08:18:49.425   05 Jun 2027 08:19:12.973            23.548                Norilsk          2943.500
       158   05 Jun 2027 08:19:30.282   05 Jun 2027 08:19:58.559            28.277                 Moscow          3534.625
       159   05 Jun 2027 09:23:34.863   05 Jun 2027 09:27:05.611           210.748               CapeTown         26343.500
       160   05 Jun 2027 11:38:31.814   05 Jun 2027 11:41:40.475           188.661                Anadyr2         23582.625
       161   05 Jun 2027 11:41:58.903   05 Jun 2027 11:43:20.917            82.014                Anadyr1         10251.750
       162   05 Jun 2027 13:16:50.162   05 Jun 2027 13:17:57.594            67.432               Magadan2          8429.000
       163   05 Jun 2027 13:19:09.208   05 Jun 2027 13:21:55.450           166.242               Magadan1         20780.250
       164   05 Jun 2027 13:26:06.488   05 Jun 2027 13:26:23.291            16.803               Magadan1          2100.375
       165   05 Jun 2027 15:44:30.275   05 Jun 2027 15:47:42.646           192.371            RioGallegos         24046.375
       166   05 Jun 2027 15:53:59.684   05 Jun 2027 15:56:09.394           129.710            RioGallegos         16213.750
       167   05 Jun 2027 16:32:11.951   05 Jun 2027 16:33:47.025            95.074                Irkutsk         11884.250
       168   05 Jun 2027 16:40:43.170   05 Jun 2027 16:41:19.397            36.227                Novosib          4528.375
       169   05 Jun 2027 16:45:52.658   05 Jun 2027 16:49:00.613           187.955                Sumatra         23494.375
       170   05 Jun 2027 18:12:48.241   05 Jun 2027 18:14:56.035           127.794                Novosib         15974.250
       171   05 Jun 2027 18:15:31.761   05 Jun 2027 18:18:09.577           157.816                  Delhi         19727.000
       172   05 Jun 2027 19:46:39.371   05 Jun 2027 19:47:45.451            66.080                 Moscow          8260.000
       173   05 Jun 2027 21:25:14.662   05 Jun 2027 21:26:20.275            65.613                 Moscow          8201.625
       174   05 Jun 2027 21:45:31.885   05 Jun 2027 21:46:34.633            62.748               CapeTown          7843.500
       175   05 Jun 2027 21:48:31.360   05 Jun 2027 21:49:02.224            30.864               CapeTown          3858.000
       176   05 Jun 2027 21:52:53.502   05 Jun 2027 21:53:20.649            27.147               CapeTown          3393.375
       177   05 Jun 2027 21:56:44.541   05 Jun 2027 21:57:54.318            69.777               CapeTown          8722.125
       178   06 Jun 2027 03:20:39.790   06 Jun 2027 03:23:07.582           147.792                Sumatra         18474.000
       179   06 Jun 2027 03:40:00.510   06 Jun 2027 03:40:19.834            19.324               Magadan1          2415.500
       180   06 Jun 2027 03:40:41.790   06 Jun 2027 03:40:56.718            14.928               Magadan1          1866.000
       181   06 Jun 2027 03:41:14.702   06 Jun 2027 03:41:23.278             8.576                Irkutsk          1072.000
       182   06 Jun 2027 03:42:00.053   06 Jun 2027 03:42:18.582            18.529                Novosib          2316.125
       183   06 Jun 2027 03:42:30.784   06 Jun 2027 03:42:38.972             8.188                Norilsk          1023.500
       184   06 Jun 2027 03:46:39.539   06 Jun 2027 03:46:48.546             9.007              Murmansk2          1125.875
       185   06 Jun 2027 03:48:23.096   06 Jun 2027 03:48:48.514            25.418              Murmansk1          3177.250
       186   06 Jun 2027 04:17:11.112   06 Jun 2027 04:17:34.798            23.686            RioGallegos          2960.750
       187   06 Jun 2027 04:20:10.825   06 Jun 2027 04:20:19.795             8.970            RioGallegos          1121.250
       188   06 Jun 2027 04:21:47.838   06 Jun 2027 04:23:13.478            85.640            RioGallegos         10705.000
       189   06 Jun 2027 04:24:38.207   06 Jun 2027 04:25:05.844            27.637            RioGallegos          3454.625
       190   06 Jun 2027 04:25:34.665   06 Jun 2027 04:26:55.852            81.187            RioGallegos         10148.375
       191   06 Jun 2027 04:51:52.142   06 Jun 2027 04:54:40.117           167.975                Sumatra         20996.875
       192   06 Jun 2027 05:14:47.337   06 Jun 2027 05:15:00.499            13.162                Novosib          1645.250
       193   06 Jun 2027 05:15:01.780   06 Jun 2027 05:17:55.663           173.883                Novosib         21735.375
       194   06 Jun 2027 06:36:10.583   06 Jun 2027 06:37:24.267            73.684                  Delhi          9210.500
       195   06 Jun 2027 06:38:48.324   06 Jun 2027 06:40:59.511           131.187                  Delhi         16398.375
       196   06 Jun 2027 06:52:26.411   06 Jun 2027 06:52:36.684            10.273                 Moscow          1284.125
       197   06 Jun 2027 06:52:39.992   06 Jun 2027 06:52:52.992            13.000                Novosib          1625.000
       198   06 Jun 2027 06:52:55.884   06 Jun 2027 06:53:50.602            54.718              Murmansk1          6839.750
       199   06 Jun 2027 06:55:42.224   06 Jun 2027 06:56:06.663            24.439                 Moscow          3054.875
       200   06 Jun 2027 08:23:52.680   06 Jun 2027 08:24:50.805            58.125                 Moscow          7265.625
       201   06 Jun 2027 08:25:06.534   06 Jun 2027 08:25:20.201            13.667              Murmansk1          1708.375
       202   06 Jun 2027 08:25:34.603   06 Jun 2027 08:27:03.286            88.683                 Moscow         11085.375
       203   06 Jun 2027 08:27:15.636   06 Jun 2027 08:27:29.696            14.060              Murmansk1          1757.500
       204   06 Jun 2027 08:27:29.696   06 Jun 2027 08:27:39.765            10.069              Murmansk2          1258.625
       205   06 Jun 2027 08:27:50.123   06 Jun 2027 08:28:21.721            31.598              Murmansk1          3949.750
       206   06 Jun 2027 08:28:31.547   06 Jun 2027 08:29:28.634            57.087                Norilsk          7135.875
       207   06 Jun 2027 08:29:37.878   06 Jun 2027 08:30:22.658            44.780                Norilsk          5597.500
       208   06 Jun 2027 09:35:05.824   06 Jun 2027 09:38:58.172           232.348               CapeTown         29043.500
       209   06 Jun 2027 10:19:32.338   06 Jun 2027 10:19:58.654            26.316                Anadyr2          3289.500
       210   06 Jun 2027 11:50:32.201   06 Jun 2027 11:52:54.369           142.168                Anadyr2         17771.000
       211   06 Jun 2027 11:53:21.125   06 Jun 2027 11:54:46.677            85.552                Anadyr1         10694.000
       212   06 Jun 2027 11:54:51.868   06 Jun 2027 11:55:19.867            27.999               Magadan1          3499.875
       213   06 Jun 2027 13:28:48.495   06 Jun 2027 13:29:43.602            55.107               Magadan1          6888.375
       214   06 Jun 2027 13:31:08.428   06 Jun 2027 13:33:50.558           162.130               Magadan2         20266.250
       215   06 Jun 2027 15:14:53.668   06 Jun 2027 15:17:12.667           138.999                Irkutsk         17374.875
       216   06 Jun 2027 15:25:42.469   06 Jun 2027 15:27:29.306           106.837                Sumatra         13354.625
       217   06 Jun 2027 15:29:20.870   06 Jun 2027 15:31:46.555           145.685                Sumatra         18210.625
       218   06 Jun 2027 16:45:05.096   06 Jun 2027 16:46:30.961            85.865                Novosib         10733.125
       219   06 Jun 2027 16:57:53.022   06 Jun 2027 17:00:12.916           139.894                Sumatra         17486.750
       220   06 Jun 2027 17:04:53.968   06 Jun 2027 17:07:31.863           157.895                Sumatra         19736.875
       221   06 Jun 2027 18:23:58.072   06 Jun 2027 18:24:49.917            51.845                Novosib          6480.625
       222   06 Jun 2027 18:27:24.610   06 Jun 2027 18:30:23.324           178.714                  Delhi         22339.250
       223   06 Jun 2027 19:58:24.282   06 Jun 2027 19:59:55.565            91.283                 Moscow         11410.375
       224   06 Jun 2027 21:39:43.406   06 Jun 2027 21:41:03.356            79.950                 Moscow          9993.750
       225   06 Jun 2027 21:57:25.713   06 Jun 2027 21:59:17.270           111.557               CapeTown         13944.625
       226   06 Jun 2027 22:06:58.851   06 Jun 2027 22:08:24.503            85.652               CapeTown         10706.500
       227   07 Jun 2027 03:31:01.678   07 Jun 2027 03:33:19.355           137.677                Sumatra         17209.625
       228   07 Jun 2027 03:53:42.118   07 Jun 2027 03:55:36.551           114.433                Novosib         14304.125
       229   07 Jun 2027 03:58:54.732   07 Jun 2027 03:59:20.463            25.731                Norilsk          3216.375
       230   07 Jun 2027 04:29:24.309   07 Jun 2027 04:30:02.284            37.975            RioGallegos          4746.875
       231   07 Jun 2027 04:34:58.078   07 Jun 2027 04:36:28.260            90.182            RioGallegos         11272.750
       232   07 Jun 2027 05:03:55.302   07 Jun 2027 05:05:50.151           114.849                Sumatra         14356.125
       233   07 Jun 2027 05:11:43.335   07 Jun 2027 05:13:36.468           113.133                Sumatra         14141.625
       234   07 Jun 2027 05:27:00.209   07 Jun 2027 05:27:47.861            47.652                Norilsk          5956.500
       235   07 Jun 2027 05:27:50.194   07 Jun 2027 05:27:59.766             9.572              Murmansk1          1196.500
       236   07 Jun 2027 05:28:06.871   07 Jun 2027 05:28:14.817             7.946                Norilsk           993.250
       237   07 Jun 2027 05:28:23.699   07 Jun 2027 05:29:52.430            88.731                Irkutsk         11091.375
       238   07 Jun 2027 05:29:54.012   07 Jun 2027 05:30:10.200            16.188                Novosib          2023.500
       239   07 Jun 2027 06:48:23.540   07 Jun 2027 06:51:04.585           161.045                  Delhi         20130.625
       240   07 Jun 2027 07:03:31.334   07 Jun 2027 07:03:51.728            20.394              Murmansk2          2549.250
       241   07 Jun 2027 07:03:55.898   07 Jun 2027 07:04:14.513            18.615                 Moscow          2326.875
       242   07 Jun 2027 07:04:26.741   07 Jun 2027 07:05:17.037            50.296                Norilsk          6287.000
       243   07 Jun 2027 07:05:21.549   07 Jun 2027 07:06:30.053            68.504                 Moscow          8563.000
       244   07 Jun 2027 08:36:14.910   07 Jun 2027 08:36:41.843            26.933                 Moscow          3366.625
       245   07 Jun 2027 08:37:54.888   07 Jun 2027 08:39:01.987            67.099              Murmansk1          8387.375
       246   07 Jun 2027 08:39:17.205   07 Jun 2027 08:39:50.287            33.082              Murmansk2          4135.250
       247   07 Jun 2027 08:40:05.142   07 Jun 2027 08:41:15.749            70.607              Murmansk2          8825.875
       248   07 Jun 2027 09:46:44.769   07 Jun 2027 09:50:53.981           249.212               CapeTown         31151.500
       249   07 Jun 2027 10:26:55.421   07 Jun 2027 10:26:59.608             4.187                Anadyr2           523.375
       250   07 Jun 2027 10:28:16.989   07 Jun 2027 10:29:53.291            96.302                Anadyr2         12037.750
       251   07 Jun 2027 12:02:32.876   07 Jun 2027 12:04:30.571           117.695                Anadyr2         14711.875
       252   07 Jun 2027 12:05:32.865   07 Jun 2027 12:07:23.482           110.617                Anadyr1         13827.125
       253   07 Jun 2027 12:09:36.553   07 Jun 2027 12:09:57.589            21.036               Magadan2          2629.500
       254   07 Jun 2027 13:40:47.559   07 Jun 2027 13:43:40.525           172.966               Magadan2         21620.750
       255   07 Jun 2027 15:21:27.052   07 Jun 2027 15:21:29.646             2.594                Irkutsk           324.250
       256   07 Jun 2027 15:26:05.363   07 Jun 2027 15:28:45.803           160.440                Irkutsk         20055.000
       257   07 Jun 2027 15:36:29.540   07 Jun 2027 15:41:41.133           311.593                Sumatra         38949.125
       258   07 Jun 2027 16:58:43.644   07 Jun 2027 17:00:12.945            89.301                Novosib         11162.625
       259   07 Jun 2027 17:03:04.158   07 Jun 2027 17:03:22.431            18.273                Novosib          2284.125
       260   07 Jun 2027 17:07:05.322   07 Jun 2027 17:10:19.560           194.238                  Delhi         24279.750
       261   07 Jun 2027 18:39:21.118   07 Jun 2027 18:42:31.164           190.046                  Delhi         23755.750
       262   07 Jun 2027 20:10:12.999   07 Jun 2027 20:14:36.464           263.465                 Moscow         32933.125
       263   07 Jun 2027 22:11:46.942   07 Jun 2027 22:12:38.227            51.285               CapeTown          6410.625
       264   07 Jun 2027 22:17:04.282   07 Jun 2027 22:18:51.756           107.474               CapeTown         13434.250
       265   08 Jun 2027 03:42:03.142   08 Jun 2027 03:45:04.614           181.472                Sumatra         22684.000
       266   08 Jun 2027 03:47:48.547   08 Jun 2027 03:51:03.934           195.387                Sumatra         24423.375
       267   08 Jun 2027 05:16:04.242   08 Jun 2027 05:17:14.432            70.190                Sumatra          8773.750
       268   08 Jun 2027 05:20:28.426   08 Jun 2027 05:20:48.692            20.266                Sumatra          2533.250
       269   08 Jun 2027 05:22:00.259   08 Jun 2027 05:22:42.832            42.573                Sumatra          5321.625
       270   08 Jun 2027 05:25:03.708   08 Jun 2027 05:26:53.206           109.498                  Delhi         13687.250
       271   08 Jun 2027 05:39:31.097   08 Jun 2027 05:41:45.962           134.865                Novosib         16858.125
       272   08 Jun 2027 05:43:38.971   08 Jun 2027 05:43:52.453            13.482                Novosib          1685.250
       273   08 Jun 2027 07:00:42.998   08 Jun 2027 07:02:53.858           130.860                  Delhi         16357.500
       274   08 Jun 2027 07:15:39.831   08 Jun 2027 07:15:53.976            14.145                 Moscow          1768.125
       275   08 Jun 2027 07:15:58.490   08 Jun 2027 07:16:21.088            22.598                 Moscow          2824.750
       276   08 Jun 2027 07:16:25.834   08 Jun 2027 07:16:36.935            11.101                Norilsk          1387.625
       277   08 Jun 2027 07:16:39.825   08 Jun 2027 07:16:43.164             3.339                 Moscow           417.375
       278   08 Jun 2027 07:16:52.934   08 Jun 2027 07:17:53.375            60.441              Murmansk2          7555.125
       279   08 Jun 2027 07:18:09.561   08 Jun 2027 07:18:58.809            49.248                Novosib          6156.000
       280   08 Jun 2027 08:51:11.797   08 Jun 2027 08:51:43.776            31.979                 Moscow          3997.375
       281   08 Jun 2027 08:51:50.074   08 Jun 2027 08:52:18.480            28.406              Murmansk2          3550.750
       282   08 Jun 2027 08:53:14.814   08 Jun 2027 08:53:37.866            23.052              Murmansk2          2881.500
       283   08 Jun 2027 08:54:26.912   08 Jun 2027 08:54:53.870            26.958              Murmansk1          3369.750
       284   08 Jun 2027 09:58:29.448   08 Jun 2027 10:02:52.723           263.275               CapeTown         32909.375
       285   08 Jun 2027 10:43:18.896   08 Jun 2027 10:43:32.791            13.895                Anadyr1          1736.875
       286   08 Jun 2027 10:45:08.054   08 Jun 2027 10:45:50.148            42.094                Anadyr1          5261.750
       287   08 Jun 2027 10:46:28.185   08 Jun 2027 10:48:24.461           116.276                Anadyr2         14534.500
       288   08 Jun 2027 12:14:33.781   08 Jun 2027 12:14:54.645            20.864                Anadyr1          2608.000
       289   08 Jun 2027 12:15:49.622   08 Jun 2027 12:16:15.135            25.513                Anadyr2          3189.125
       290   08 Jun 2027 12:17:31.241   08 Jun 2027 12:19:11.358           100.117               Magadan1         12514.625
       291   08 Jun 2027 12:20:43.452   08 Jun 2027 12:20:59.469            16.017               Magadan1          2002.125
       292   08 Jun 2027 13:52:47.240   08 Jun 2027 13:53:58.679            71.439               Magadan2          8929.875
       293   08 Jun 2027 13:55:51.682   08 Jun 2027 13:57:17.743            86.061               Magadan1         10757.625
       294   08 Jun 2027 14:00:55.836   08 Jun 2027 14:02:21.883            86.047               Magadan2         10755.875
       295   08 Jun 2027 15:33:08.483   08 Jun 2027 15:37:17.436           248.953                Irkutsk         31119.125
       296   08 Jun 2027 15:47:40.988   08 Jun 2027 15:50:59.601           198.613                Sumatra         24826.625
       297   08 Jun 2027 15:53:54.334   08 Jun 2027 15:56:46.864           172.530                Sumatra         21566.250
       298   08 Jun 2027 17:11:56.100   08 Jun 2027 17:13:05.151            69.051                Novosib          8631.375
       299   08 Jun 2027 17:17:51.972   08 Jun 2027 17:22:48.432           296.460                  Delhi         37057.500
       300   08 Jun 2027 20:22:04.492   08 Jun 2027 20:26:06.978           242.486                 Moscow         30310.750
       301   08 Jun 2027 22:24:09.027   08 Jun 2027 22:24:37.539            28.512               CapeTown          3564.000
       302   08 Jun 2027 22:29:25.921   08 Jun 2027 22:29:49.679            23.758               CapeTown          2969.750
       303   09 Jun 2027 03:53:22.199   09 Jun 2027 03:56:56.060           213.861                Sumatra         26732.625
       304   09 Jun 2027 04:17:42.599   09 Jun 2027 04:17:44.426             1.827                Norilsk           228.375
       305   09 Jun 2027 04:18:04.100   09 Jun 2027 04:18:24.053            19.953              Murmansk1          2494.125
       306   09 Jun 2027 04:19:03.808   09 Jun 2027 04:19:10.399             6.591                Norilsk           823.875
       307   09 Jun 2027 04:54:03.339   09 Jun 2027 04:56:52.582           169.243            RioGallegos         21155.375
       308   09 Jun 2027 04:57:20.928   09 Jun 2027 04:58:05.863            44.935            RioGallegos          5616.875
       309   09 Jun 2027 05:28:19.544   09 Jun 2027 05:28:48.601            29.057                Sumatra          3632.125
       310   09 Jun 2027 05:36:43.381   09 Jun 2027 05:39:07.885           144.504                  Delhi         18063.000
       311   09 Jun 2027 05:52:16.157   09 Jun 2027 05:52:36.325            20.168                Irkutsk          2521.000
       312   09 Jun 2027 05:52:48.285   09 Jun 2027 05:53:12.591            24.306                Novosib          3038.250
       313   09 Jun 2027 05:53:39.831   09 Jun 2027 05:54:13.043            33.212              Murmansk2          4151.500
       314   09 Jun 2027 05:54:29.596   09 Jun 2027 05:55:47.694            78.098                Novosib          9762.250
       315   09 Jun 2027 07:13:10.078   09 Jun 2027 07:15:27.473           137.395                  Delhi         17174.375
       316   09 Jun 2027 07:27:41.799   09 Jun 2027 07:28:26.255            44.456                Norilsk          5557.000
       317   09 Jun 2027 07:28:39.976   09 Jun 2027 07:28:57.370            17.394                Norilsk          2174.250
       318   09 Jun 2027 07:28:58.675   09 Jun 2027 07:29:45.897            47.222                 Moscow          5902.750
       319   09 Jun 2027 07:29:53.533   09 Jun 2027 07:30:45.202            51.669              Murmansk2          6458.625
       320   09 Jun 2027 10:10:18.607   09 Jun 2027 10:12:50.789           152.182               CapeTown         19022.750
       321   09 Jun 2027 10:14:54.247   09 Jun 2027 10:15:04.096             9.849               CapeTown          1231.125
       322   09 Jun 2027 10:50:49.527   09 Jun 2027 10:51:59.208            69.681                Anadyr2          8710.125
       323   09 Jun 2027 10:55:07.674   09 Jun 2027 10:55:19.520            11.846                Anadyr1          1480.750
       324   09 Jun 2027 10:57:48.333   09 Jun 2027 10:58:06.957            18.624                Anadyr1          2328.000
       325   09 Jun 2027 10:58:11.319   09 Jun 2027 11:00:22.712           131.393                Anadyr2         16424.125
       326   09 Jun 2027 12:29:22.516   09 Jun 2027 12:33:51.337           268.821               Magadan2         33602.625
       327   09 Jun 2027 14:04:47.445   09 Jun 2027 14:05:19.588            32.143               Magadan2          4017.875
       328   09 Jun 2027 15:01:26.741   09 Jun 2027 15:03:15.091           108.350            RioGallegos         13543.750
       329   09 Jun 2027 15:44:54.699   09 Jun 2027 15:49:13.244           258.545                Irkutsk         32318.125
       330   09 Jun 2027 16:01:28.051   09 Jun 2027 16:02:53.944            85.893                Sumatra         10736.625
       331   09 Jun 2027 16:06:01.398   09 Jun 2027 16:06:33.227            31.829                Sumatra          3978.625
       332   09 Jun 2027 17:20:32.243   09 Jun 2027 17:24:51.223           258.980                Novosib         32372.500
       333   09 Jun 2027 17:29:07.279   09 Jun 2027 17:32:33.519           206.240                  Delhi         25780.000
       334   09 Jun 2027 19:04:31.787   09 Jun 2027 19:05:21.458            49.671                  Delhi          6208.875
       335   09 Jun 2027 19:06:30.555   09 Jun 2027 19:07:37.250            66.695                  Delhi          8336.875
       336   09 Jun 2027 20:33:58.094   09 Jun 2027 20:36:16.523           138.429                 Moscow         17303.625
       337   09 Jun 2027 20:38:58.223   09 Jun 2027 20:41:13.848           135.625                 Moscow         16953.125
       338   09 Jun 2027 22:33:37.269   09 Jun 2027 22:34:31.760            54.491               CapeTown          6811.375
       339   10 Jun 2027 04:04:52.593   10 Jun 2027 04:08:53.229           240.636                Sumatra         30079.500
       340   10 Jun 2027 05:42:18.279   10 Jun 2027 05:43:38.568            80.289                Sumatra         10036.125
       341   10 Jun 2027 05:48:28.997   10 Jun 2027 05:51:18.413           169.416                  Delhi         21177.000
       342   10 Jun 2027 06:03:32.610   10 Jun 2027 06:05:15.175           102.565                Irkutsk         12820.625
       343   10 Jun 2027 07:40:04.175   10 Jun 2027 07:40:55.730            51.555              Murmansk1          6444.375
       344   10 Jun 2027 07:41:17.223   10 Jun 2027 07:42:36.556            79.333              Murmansk1          9916.625
       345   10 Jun 2027 07:42:36.556   10 Jun 2027 07:42:48.752            12.196              Murmansk2          1524.500
       346   10 Jun 2027 09:12:52.676   10 Jun 2027 09:13:23.608            30.932                 Moscow          3866.500
       347   10 Jun 2027 09:33:15.206   10 Jun 2027 09:33:41.271            26.065                Anadyr1          3258.125
       348   10 Jun 2027 10:22:11.467   10 Jun 2027 10:25:06.122           174.655               CapeTown         21831.875
       349   10 Jun 2027 11:02:47.929   10 Jun 2027 11:03:43.399            55.470                Anadyr2          6933.750
       350   10 Jun 2027 11:06:51.068   10 Jun 2027 11:07:49.655            58.587                Anadyr2          7323.375
       351   10 Jun 2027 11:07:55.091   10 Jun 2027 11:10:21.274           146.183                Anadyr1         18272.875
       352   10 Jun 2027 12:41:15.957   10 Jun 2027 12:43:55.430           159.473               Magadan2         19934.125
       353   10 Jun 2027 12:45:11.936   10 Jun 2027 12:46:54.190           102.254               Magadan1         12781.750
       354   10 Jun 2027 15:09:19.298   10 Jun 2027 15:13:25.511           246.213            RioGallegos         30776.625
       355   10 Jun 2027 15:57:55.454   10 Jun 2027 16:00:46.228           170.774                Irkutsk         21346.750
       356   10 Jun 2027 16:10:41.086   10 Jun 2027 16:12:36.964           115.878                Sumatra         14484.750
       357   10 Jun 2027 17:32:26.227   10 Jun 2027 17:34:15.996           109.769                Novosib         13721.125
       358   10 Jun 2027 17:40:36.209   10 Jun 2027 17:44:26.106           229.897                  Delhi         28737.125
       359   10 Jun 2027 17:47:23.605   10 Jun 2027 17:47:55.933            32.328                  Delhi          4041.000
       360   10 Jun 2027 19:18:22.287   10 Jun 2027 19:20:15.341           113.054                  Delhi         14131.750
       361   10 Jun 2027 20:45:53.382   10 Jun 2027 20:47:36.503           103.121                 Moscow         12890.125
       362   10 Jun 2027 20:54:26.664   10 Jun 2027 20:55:25.123            58.459                 Moscow          7307.375
       363   10 Jun 2027 22:48:27.211   10 Jun 2027 22:50:18.812           111.601               CapeTown         13950.125
       364   11 Jun 2027 03:04:15.165   11 Jun 2027 03:04:26.789            11.624               Magadan2          1453.000
       365   11 Jun 2027 03:04:26.789   11 Jun 2027 03:04:33.065             6.276               Magadan1           784.500
       366   11 Jun 2027 03:04:44.627   11 Jun 2027 03:05:20.923            36.296                Irkutsk          4537.000
       367   11 Jun 2027 03:05:26.517   11 Jun 2027 03:05:49.306            22.789                Novosib          2848.625
       368   11 Jun 2027 03:05:56.257   11 Jun 2027 03:06:38.967            42.710                Novosib          5338.750
       369   11 Jun 2027 03:41:08.296   11 Jun 2027 03:42:32.662            84.366            RioGallegos         10545.750
       370   11 Jun 2027 03:43:53.992   11 Jun 2027 03:44:19.609            25.617            RioGallegos          3202.125
       371   11 Jun 2027 03:44:59.136   11 Jun 2027 03:45:35.338            36.202            RioGallegos          4525.250
       372   11 Jun 2027 04:16:31.475   11 Jun 2027 04:20:55.990           264.515                Sumatra         33064.375
       373   11 Jun 2027 04:38:51.748   11 Jun 2027 04:40:28.066            96.318                Norilsk         12039.750
       374   11 Jun 2027 04:41:01.303   11 Jun 2027 04:42:00.696            59.393                Novosib          7424.125
       375   11 Jun 2027 04:42:16.910   11 Jun 2027 04:42:24.458             7.548                Irkutsk           943.500
       376   11 Jun 2027 04:42:27.333   11 Jun 2027 04:43:16.822            49.489                Novosib          6186.125
       377   11 Jun 2027 05:53:14.891   11 Jun 2027 05:55:13.908           119.017                Sumatra         14877.125
       378   11 Jun 2027 06:00:20.130   11 Jun 2027 06:03:25.303           185.173                  Delhi         23146.625
       379   11 Jun 2027 06:15:58.764   11 Jun 2027 06:16:05.089             6.325                Novosib           790.625
       380   11 Jun 2027 06:17:08.721   11 Jun 2027 06:17:23.917            15.196                Norilsk          1899.500
       381   11 Jun 2027 06:17:24.843   11 Jun 2027 06:17:52.611            27.768              Murmansk1          3471.000
       382   11 Jun 2027 06:18:56.739   11 Jun 2027 06:19:32.797            36.058                Novosib          4507.250
       383   11 Jun 2027 07:38:36.922   11 Jun 2027 07:38:40.122             3.200                  Delhi           400.000
       384   11 Jun 2027 07:39:35.018   11 Jun 2027 07:41:38.151           123.133                  Delhi         15391.625
       385   11 Jun 2027 07:51:26.459   11 Jun 2027 07:52:45.115            78.656              Murmansk2          9832.000
       386   11 Jun 2027 07:52:59.428   11 Jun 2027 07:53:11.455            12.027              Murmansk2          1503.375
       387   11 Jun 2027 07:53:28.647   11 Jun 2027 07:54:37.422            68.775              Murmansk1          8596.875
       388   11 Jun 2027 07:55:00.418   11 Jun 2027 07:55:14.258            13.840                Norilsk          1730.000
       389   11 Jun 2027 07:55:16.777   11 Jun 2027 07:56:08.537            51.760              Murmansk1          6470.000
       390   11 Jun 2027 09:01:37.507   11 Jun 2027 09:03:47.180           129.673               CapeTown         16209.125
       391   11 Jun 2027 10:34:07.533   11 Jun 2027 10:36:17.087           129.554               CapeTown         16194.250
       392   11 Jun 2027 11:14:46.995   11 Jun 2027 11:15:32.375            45.380                Anadyr2          5672.500
       393   11 Jun 2027 11:18:24.057   11 Jun 2027 11:19:46.206            82.149                Anadyr2         10268.625
       394   11 Jun 2027 11:20:26.663   11 Jun 2027 11:22:33.209           126.546                Anadyr1         15818.250
       395   11 Jun 2027 12:53:11.058   11 Jun 2027 12:55:00.701           109.643               Magadan2         13705.375
       396   11 Jun 2027 14:32:08.887   11 Jun 2027 14:33:41.532            92.645               Magadan2         11580.625
       397   11 Jun 2027 15:21:04.465   11 Jun 2027 15:25:20.999           256.534            RioGallegos         32066.750
       398   11 Jun 2027 16:08:36.543   11 Jun 2027 16:11:29.617           173.074                Irkutsk         21634.250
       399   11 Jun 2027 16:22:23.596   11 Jun 2027 16:24:56.458           152.862                Sumatra         19107.750
       400   11 Jun 2027 17:44:21.816   11 Jun 2027 17:46:38.080           136.264                Novosib         17033.000
       401   11 Jun 2027 17:52:13.787   11 Jun 2027 17:53:36.439            82.652                  Delhi         10331.500
       402   11 Jun 2027 17:55:46.768   11 Jun 2027 17:56:22.379            35.611                  Delhi          4451.375
       403   11 Jun 2027 19:32:15.335   11 Jun 2027 19:32:56.034            40.699                  Delhi          5087.375
       404   11 Jun 2027 20:54:27.100   11 Jun 2027 20:55:22.771            55.671              Murmansk2          6958.875
       405   11 Jun 2027 20:57:50.028   11 Jun 2027 20:59:10.987            80.959                 Moscow         10119.875
       406   11 Jun 2027 21:00:23.492   11 Jun 2027 21:02:32.758           129.266                 Moscow         16158.250
       407   12 Jun 2027 03:15:15.391   12 Jun 2027 03:16:29.548            74.157               Magadan2          9269.625
       408   12 Jun 2027 03:16:33.958   12 Jun 2027 03:17:49.111            75.153               Magadan2          9394.125
       409   12 Jun 2027 03:53:10.767   12 Jun 2027 03:53:17.835             7.068            RioGallegos           883.500
       410   12 Jun 2027 03:54:14.012   12 Jun 2027 03:54:37.697            23.685            RioGallegos          2960.625
       411   12 Jun 2027 03:56:26.245   12 Jun 2027 03:56:27.101             0.856            RioGallegos           107.000
       412   12 Jun 2027 03:57:43.993   12 Jun 2027 03:57:59.513            15.520            RioGallegos          1940.000
       413   12 Jun 2027 04:28:17.331   12 Jun 2027 04:33:04.512           287.181                Sumatra         35897.625
       414   12 Jun 2027 04:49:56.087   12 Jun 2027 04:50:04.402             8.315                Irkutsk          1039.375
       415   12 Jun 2027 04:50:56.627   12 Jun 2027 04:51:44.288            47.661                Norilsk          5957.625
       416   12 Jun 2027 04:51:51.410   12 Jun 2027 04:51:57.500             6.090              Murmansk1           761.250
       417   12 Jun 2027 04:51:57.500   12 Jun 2027 04:52:18.250            20.750              Murmansk2          2593.750
       418   12 Jun 2027 04:52:28.554   12 Jun 2027 04:52:54.744            26.190                Norilsk          3273.750
       419   12 Jun 2027 04:53:08.805   12 Jun 2027 04:53:30.606            21.801              Murmansk2          2725.125
       420   12 Jun 2027 04:53:36.357   12 Jun 2027 04:54:37.000            60.643                Norilsk          7580.375
       421   12 Jun 2027 05:31:42.515   12 Jun 2027 05:32:32.131            49.616            RioGallegos          6202.000
       422   12 Jun 2027 05:34:04.589   12 Jun 2027 05:34:21.348            16.759            RioGallegos          2094.875
       423   12 Jun 2027 06:06:01.823   12 Jun 2027 06:07:22.853            81.030                Sumatra         10128.750
       424   12 Jun 2027 06:12:16.593   12 Jun 2027 06:14:08.105           111.512                  Delhi         13939.000
       425   12 Jun 2027 06:28:43.365   12 Jun 2027 06:29:34.370            51.005                 Moscow          6375.625
       426   12 Jun 2027 06:29:46.834   12 Jun 2027 06:30:13.883            27.049                 Moscow          3381.125
       427   12 Jun 2027 07:51:50.560   12 Jun 2027 07:53:34.819           104.259                  Delhi         13032.375
       428   12 Jun 2027 08:00:31.680   12 Jun 2027 08:01:16.442            44.762                Novosib          5595.250
       429   12 Jun 2027 08:01:23.909   12 Jun 2027 08:02:23.243            59.334                Novosib          7416.750
       430   12 Jun 2027 08:02:42.517   12 Jun 2027 08:03:27.660            45.143              Murmansk1          5642.875
       431   12 Jun 2027 08:03:33.017   12 Jun 2027 08:04:05.545            32.528                Norilsk          4066.000
       432   12 Jun 2027 08:04:17.448   12 Jun 2027 08:04:49.829            32.381                 Moscow          4047.625
       433   12 Jun 2027 08:04:57.092   12 Jun 2027 08:05:27.419            30.327                Novosib          3790.875
       434   12 Jun 2027 08:05:34.747   12 Jun 2027 08:05:34.769             0.022                Novosib             2.750
       435   12 Jun 2027 08:05:40.081   12 Jun 2027 08:06:44.564            64.483                 Moscow          8060.375
       436   12 Jun 2027 08:07:02.269   12 Jun 2027 08:07:52.662            50.393                Norilsk          6299.125
       437   12 Jun 2027 08:08:04.827   12 Jun 2027 08:08:22.255            17.428                 Moscow          2178.500
       438   12 Jun 2027 09:12:30.450   12 Jun 2027 09:15:31.511           181.061               CapeTown         22632.625
       439   12 Jun 2027 10:46:06.512   12 Jun 2027 10:47:41.715            95.203               CapeTown         11900.375
       440   12 Jun 2027 11:26:46.603   12 Jun 2027 11:29:05.555           138.952                Anadyr1         17369.000
       441   12 Jun 2027 11:29:18.242   12 Jun 2027 11:31:43.790           145.548                Anadyr1         18193.500
       442   12 Jun 2027 13:05:07.477   12 Jun 2027 13:06:31.477            84.000               Magadan1         10500.000
       443   12 Jun 2027 13:07:03.843   12 Jun 2027 13:10:16.590           192.747               Magadan2         24093.375
       444   12 Jun 2027 15:32:53.334   12 Jun 2027 15:36:49.966           236.632            RioGallegos         29579.000
       445   12 Jun 2027 16:20:30.794   12 Jun 2027 16:22:33.869           123.075                Irkutsk         15384.375
       446   12 Jun 2027 16:34:12.589   12 Jun 2027 16:37:09.018           176.429                Sumatra         22053.625
       447   12 Jun 2027 17:56:18.720   12 Jun 2027 17:57:35.990            77.270                Novosib          9658.750
       448   12 Jun 2027 18:03:57.642   12 Jun 2027 18:08:22.059           264.417                  Delhi         33052.125
       449   12 Jun 2027 21:09:57.178   12 Jun 2027 21:10:52.950            55.772                 Moscow          6971.500
       450   12 Jun 2027 21:33:57.666   12 Jun 2027 21:36:38.673           161.007               CapeTown         20125.875
       451   12 Jun 2027 21:37:52.277   12 Jun 2027 21:38:25.582            33.305               CapeTown          4163.125
       452   13 Jun 2027 03:27:17.414   13 Jun 2027 03:28:15.541            58.127               Magadan2          7265.875
       453   13 Jun 2027 03:28:32.260   13 Jun 2027 03:29:33.444            61.184               Magadan1          7648.000
       454   13 Jun 2027 04:05:16.662   13 Jun 2027 04:05:34.154            17.492            RioGallegos          2186.500
       455   13 Jun 2027 04:14:21.034   13 Jun 2027 04:14:58.443            37.409            RioGallegos          4676.125
       456   13 Jun 2027 04:40:09.307   13 Jun 2027 04:44:09.423           240.116                Sumatra         30014.500
       457   13 Jun 2027 05:02:01.661   13 Jun 2027 05:03:49.260           107.599                Irkutsk         13449.875
       458   13 Jun 2027 05:04:44.291   13 Jun 2027 05:05:04.371            20.080                Novosib          2510.000
       459   13 Jun 2027 05:05:13.584   13 Jun 2027 05:05:20.678             7.094              Murmansk1           886.750
       460   13 Jun 2027 05:05:25.372   13 Jun 2027 05:05:42.883            17.511                Norilsk          2188.875
       461   13 Jun 2027 05:06:05.117   13 Jun 2027 05:07:44.052            98.935              Murmansk2         12366.875
       462   13 Jun 2027 05:07:59.172   13 Jun 2027 05:08:03.390             4.218                Novosib           527.250
       463   13 Jun 2027 05:44:31.632   13 Jun 2027 05:45:13.299            41.667            RioGallegos          5208.375
       464   13 Jun 2027 06:19:16.985   13 Jun 2027 06:19:22.100             5.115                Sumatra           639.375
       465   13 Jun 2027 06:21:33.143   13 Jun 2027 06:21:37.595             4.452                Sumatra           556.500
       466   13 Jun 2027 06:23:11.588   13 Jun 2027 06:24:13.666            62.078                Sumatra          7759.750
       467   13 Jun 2027 06:24:18.349   13 Jun 2027 06:26:09.800           111.451                  Delhi         13931.375
       468   13 Jun 2027 06:27:29.097   13 Jun 2027 06:29:22.809           113.712                  Delhi         14214.000
       469   13 Jun 2027 06:40:47.792   13 Jun 2027 06:41:12.263            24.471                 Moscow          3058.875
       470   13 Jun 2027 06:41:34.981   13 Jun 2027 06:42:59.772            84.791              Murmansk1         10598.875
       471   13 Jun 2027 08:12:14.074   13 Jun 2027 08:12:36.236            22.162              Murmansk1          2770.250
       472   13 Jun 2027 08:12:47.406   13 Jun 2027 08:13:34.811            47.405              Murmansk1          5925.625
       473   13 Jun 2027 08:13:34.811   13 Jun 2027 08:13:47.540            12.729              Murmansk2          1591.125
       474   13 Jun 2027 08:14:01.572   13 Jun 2027 08:15:41.937           100.365                 Moscow         12545.625
       475   13 Jun 2027 08:16:07.344   13 Jun 2027 08:16:46.381            39.037              Murmansk1          4879.625
       476   13 Jun 2027 08:16:49.933   13 Jun 2027 08:17:21.924            31.991                 Moscow          3998.875
       477   13 Jun 2027 08:17:52.420   13 Jun 2027 08:19:29.955            97.535                Norilsk         12191.875
       478   13 Jun 2027 08:19:44.685   13 Jun 2027 08:20:13.945            29.260                 Moscow          3657.500
       479   13 Jun 2027 09:23:49.096   13 Jun 2027 09:27:20.397           211.301               CapeTown         26412.625
       480   13 Jun 2027 09:29:50.569   13 Jun 2027 09:32:59.831           189.262               CapeTown         23657.750
       481   13 Jun 2027 11:38:46.638   13 Jun 2027 11:39:18.612            31.974                Anadyr2          3996.750
       482   13 Jun 2027 11:41:22.104   13 Jun 2027 11:42:14.126            52.022                Anadyr1          6502.750
