uniorb/output/strategy_1/Drop/Drop_KinoSat_111708.txt

KinoSat_111708
-------------------------
    Access    *     Start Time (UTCG)     *     Stop Time (UTCG)  *   Duration (s)        *       Station  *  Data (Mbytes)
         1   01 Jun 2027 04:21:08.546   01 Jun 2027 04:22:20.287            71.741                Norilsk          2241.906
         2   01 Jun 2027 04:22:27.516   01 Jun 2027 04:22:37.954            10.438                Norilsk           326.188
         3   01 Jun 2027 04:22:42.073   01 Jun 2027 04:25:26.086           164.013              Murmansk1          5125.406
         4   01 Jun 2027 04:25:26.086   01 Jun 2027 04:25:41.597            15.511              Murmansk2           484.719
         5   01 Jun 2027 04:46:52.043   01 Jun 2027 04:47:54.017            61.974               CapeTown          1936.687
         6   01 Jun 2027 05:58:11.129   01 Jun 2027 05:58:50.997            39.868              Murmansk1          1245.875
         7   01 Jun 2027 05:59:00.090   01 Jun 2027 06:00:42.363           102.273                 Moscow          3196.031
         8   01 Jun 2027 07:22:04.552   01 Jun 2027 07:24:26.291           141.739                Anadyr2          4429.344
         9   01 Jun 2027 07:25:49.740   01 Jun 2027 07:26:15.974            26.234               Magadan1           819.812
        10   01 Jun 2027 08:57:37.037   01 Jun 2027 09:02:10.837           273.800                Anadyr2          8556.250
        11   01 Jun 2027 10:31:18.119   01 Jun 2027 10:32:53.153            95.034               Magadan2          2969.812
        12   01 Jun 2027 10:33:56.325   01 Jun 2027 10:36:07.849           131.524               Magadan1          4110.125
        13   01 Jun 2027 10:36:07.849   01 Jun 2027 10:37:30.150            82.301               Magadan2          2571.906
        14   01 Jun 2027 12:59:25.179   01 Jun 2027 13:00:33.250            68.071            RioGallegos          2127.219
        15   01 Jun 2027 13:31:06.010   01 Jun 2027 13:31:43.135            37.125                Sumatra          1160.156
        16   01 Jun 2027 13:41:54.926   01 Jun 2027 13:45:04.238           189.312                Irkutsk          5916.000
        17   01 Jun 2027 15:14:46.664   01 Jun 2027 15:15:47.135            60.471                  Delhi          1889.719
        18   01 Jun 2027 15:18:45.523   01 Jun 2027 15:23:11.426           265.903                Novosib          8309.469
        19   01 Jun 2027 15:25:10.607   01 Jun 2027 15:25:40.002            29.395                Novosib           918.594
        20   01 Jun 2027 17:07:55.249   01 Jun 2027 17:08:29.646            34.397              Murmansk1          1074.906
        21   01 Jun 2027 17:13:02.540   01 Jun 2027 17:13:25.803            23.263                Anadyr2           726.969
        22   01 Jun 2027 17:13:31.099   01 Jun 2027 17:13:34.195             3.096                Anadyr1            96.750
        23   01 Jun 2027 17:13:42.667   01 Jun 2027 17:14:01.816            19.149                Anadyr1           598.406
        24   01 Jun 2027 17:16:05.554   01 Jun 2027 17:16:09.667             4.113                Anadyr1           128.531
        25   01 Jun 2027 17:16:50.514   01 Jun 2027 17:17:01.853            11.339                Anadyr1           354.344
        26   01 Jun 2027 17:17:01.853   01 Jun 2027 17:17:10.462             8.609                Anadyr2           269.031
        27   01 Jun 2027 17:17:25.260   01 Jun 2027 17:17:36.829            11.569                Anadyr2           361.531
        28   01 Jun 2027 18:12:28.719   01 Jun 2027 18:13:22.593            53.874               CapeTown          1683.562
        29   01 Jun 2027 18:15:43.091   01 Jun 2027 18:17:35.043           111.952               CapeTown          3498.500
        30   01 Jun 2027 18:33:11.285   01 Jun 2027 18:36:43.053           211.768                 Moscow          6617.750
        31   01 Jun 2027 18:39:58.527   01 Jun 2027 18:40:37.428            38.901              Murmansk1          1215.656
        32   01 Jun 2027 19:42:47.168   01 Jun 2027 19:43:36.635            49.467               CapeTown          1545.844
        33   01 Jun 2027 19:47:58.547   01 Jun 2027 19:48:30.825            32.278               CapeTown          1008.687
        34   01 Jun 2027 19:49:15.536   01 Jun 2027 19:51:30.163           134.627               CapeTown          4207.094
        35   01 Jun 2027 20:16:24.542   01 Jun 2027 20:18:48.551           144.009              Murmansk1          4500.281
        36   01 Jun 2027 20:26:13.556   01 Jun 2027 20:26:32.582            19.026               Magadan1           594.563
        37   01 Jun 2027 20:27:13.586   01 Jun 2027 20:27:18.023             4.437               Magadan1           138.656
        38   01 Jun 2027 20:27:54.438   01 Jun 2027 20:28:23.672            29.234               Magadan2           913.563
        39   01 Jun 2027 20:29:52.656   01 Jun 2027 20:30:25.042            32.386               Magadan1          1012.063
        40   01 Jun 2027 20:33:42.457   01 Jun 2027 20:33:47.074             4.617               Magadan1           144.281
        41   01 Jun 2027 20:34:39.294   01 Jun 2027 20:34:58.720            19.426               Magadan1           607.062
        42   01 Jun 2027 21:58:01.741   01 Jun 2027 22:01:45.806           224.065                Anadyr2          7002.031
        43   01 Jun 2027 22:02:12.316   01 Jun 2027 22:03:04.571            52.255                Anadyr2          1632.969
        44   01 Jun 2027 22:03:23.010   01 Jun 2027 22:03:58.529            35.519                Norilsk          1109.969
        45   01 Jun 2027 22:04:10.970   01 Jun 2027 22:04:32.916            21.946               Magadan1           685.813
        46   01 Jun 2027 22:05:12.053   01 Jun 2027 22:06:22.451            70.398               Magadan1          2199.938
        47   01 Jun 2027 22:07:40.226   01 Jun 2027 22:07:56.194            15.968               Magadan1           499.000
        48   01 Jun 2027 22:09:29.022   01 Jun 2027 22:09:59.832            30.810               Magadan1           962.812
        49   01 Jun 2027 22:10:37.313   01 Jun 2027 22:10:43.174             5.861               Magadan1           183.156
        50   01 Jun 2027 22:11:12.640   01 Jun 2027 22:11:20.297             7.657               Magadan1           239.281
        51   01 Jun 2027 22:13:03.180   01 Jun 2027 22:13:12.880             9.700               Magadan2           303.125
        52   01 Jun 2027 22:52:29.515   01 Jun 2027 22:53:04.253            34.738            RioGallegos          1085.562
        53   01 Jun 2027 22:54:11.115   01 Jun 2027 22:54:35.043            23.928            RioGallegos           747.750
        54   01 Jun 2027 22:55:24.927   01 Jun 2027 22:55:52.134            27.207            RioGallegos           850.219
        55   01 Jun 2027 22:57:44.121   01 Jun 2027 22:57:56.082            11.961            RioGallegos           373.781
        56   01 Jun 2027 22:57:57.673   01 Jun 2027 22:58:26.301            28.628            RioGallegos           894.625
        57   01 Jun 2027 23:01:41.417   01 Jun 2027 23:01:55.556            14.139            RioGallegos           441.844
        58   01 Jun 2027 23:33:39.332   01 Jun 2027 23:34:29.693            50.361                Anadyr1          1573.781
        59   01 Jun 2027 23:34:35.075   01 Jun 2027 23:34:37.514             2.439                Anadyr2            76.219
        60   01 Jun 2027 23:35:30.064   01 Jun 2027 23:35:48.988            18.924                Anadyr2           591.375
        61   01 Jun 2027 23:35:50.577   01 Jun 2027 23:37:54.892           124.315                Norilsk          3884.844
        62   01 Jun 2027 23:37:58.833   01 Jun 2027 23:38:09.834            11.001               Magadan2           343.781
        63   01 Jun 2027 23:38:59.589   01 Jun 2027 23:39:19.667            20.078               Magadan1           627.437
        64   01 Jun 2027 23:39:53.671   01 Jun 2027 23:40:11.138            17.467               Magadan1           545.844
        65   01 Jun 2027 23:40:35.406   01 Jun 2027 23:41:23.200            47.794                Irkutsk          1493.562
        66   01 Jun 2027 23:42:05.276   01 Jun 2027 23:42:59.640            54.364                Novosib          1698.875
        67   01 Jun 2027 23:44:27.983   01 Jun 2027 23:44:37.153             9.170                Novosib           286.563
        68   01 Jun 2027 23:45:45.233   01 Jun 2027 23:46:27.925            42.692                Novosib          1334.125
        69   01 Jun 2027 23:57:35.601   01 Jun 2027 23:57:56.049            20.448                Sumatra           639.000
        70   01 Jun 2027 23:59:53.859   02 Jun 2027 00:00:09.436            15.577                Sumatra           486.781
        71   02 Jun 2027 00:01:17.509   02 Jun 2027 00:01:43.229            25.720                Sumatra           803.750
        72   02 Jun 2027 00:03:16.116   02 Jun 2027 00:03:56.258            40.142                Sumatra          1254.437
        73   02 Jun 2027 00:32:29.554   02 Jun 2027 00:33:25.407            55.853            RioGallegos          1745.406
        74   02 Jun 2027 00:38:54.019   02 Jun 2027 00:39:20.806            26.787            RioGallegos           837.094
        75   02 Jun 2027 01:08:25.046   02 Jun 2027 01:08:58.371            33.325                Anadyr1          1041.406
        76   02 Jun 2027 01:09:23.536   02 Jun 2027 01:10:03.998            40.462                Anadyr2          1264.437
        77   02 Jun 2027 01:10:03.998   02 Jun 2027 01:10:39.542            35.544                Anadyr1          1110.750
        78   02 Jun 2027 01:11:48.195   02 Jun 2027 01:13:41.582           113.387                Norilsk          3543.344
        79   02 Jun 2027 01:13:44.533   02 Jun 2027 01:14:04.052            19.519               Magadan1           609.969
        80   02 Jun 2027 01:15:40.865   02 Jun 2027 01:16:34.669            53.804                Irkutsk          1681.375
        81   02 Jun 2027 01:17:37.569   02 Jun 2027 01:18:51.804            74.235                Irkutsk          2319.844
        82   02 Jun 2027 01:24:05.124   02 Jun 2027 01:24:41.671            36.547                  Delhi          1142.094
        83   02 Jun 2027 01:29:44.318   02 Jun 2027 01:29:55.925            11.607                  Delhi           362.719
        84   02 Jun 2027 01:31:13.563   02 Jun 2027 01:31:49.290            35.727                Sumatra          1116.469
        85   02 Jun 2027 01:34:27.103   02 Jun 2027 01:36:02.679            95.576                Sumatra          2986.750
        86   02 Jun 2027 02:11:18.262   02 Jun 2027 02:11:22.020             3.758            RioGallegos           117.438
        87   02 Jun 2027 02:11:38.870   02 Jun 2027 02:12:38.840            59.970            RioGallegos          1874.063
        88   02 Jun 2027 02:43:01.697   02 Jun 2027 02:43:48.415            46.718                Anadyr2          1459.937
        89   02 Jun 2027 02:47:48.182   02 Jun 2027 02:49:38.109           109.927                Norilsk          3435.219
        90   02 Jun 2027 02:50:08.869   02 Jun 2027 02:50:27.062            18.193              Murmansk2           568.531
        91   02 Jun 2027 02:51:05.386   02 Jun 2027 02:51:45.988            40.602              Murmansk2          1268.813
        92   02 Jun 2027 02:51:50.970   02 Jun 2027 02:51:53.769             2.799                Novosib            87.469
        93   02 Jun 2027 02:52:15.765   02 Jun 2027 02:53:15.442            59.677                Irkutsk          1864.906
        94   02 Jun 2027 02:54:24.873   02 Jun 2027 02:54:40.409            15.536                Irkutsk           485.500
        95   02 Jun 2027 02:55:57.009   02 Jun 2027 02:56:29.393            32.384                Irkutsk          1012.000
        96   02 Jun 2027 03:01:34.538   02 Jun 2027 03:03:39.676           125.138                  Delhi          3910.562
        97   02 Jun 2027 04:32:57.816   02 Jun 2027 04:34:23.336            85.520                Norilsk          2672.500
        98   02 Jun 2027 04:34:36.610   02 Jun 2027 04:35:47.397            70.787                Norilsk          2212.094
        99   02 Jun 2027 04:36:07.036   02 Jun 2027 04:39:51.148           224.112                 Moscow          7003.500
       100   02 Jun 2027 04:53:40.137   02 Jun 2027 04:54:39.881            59.744               CapeTown          1867.000
       101   02 Jun 2027 06:09:00.406   02 Jun 2027 06:12:20.812           200.406                 Moscow          6262.687
       102   02 Jun 2027 06:13:24.359   02 Jun 2027 06:13:42.866            18.507              Murmansk2           578.344
       103   02 Jun 2027 06:14:46.155   02 Jun 2027 06:15:15.616            29.461                 Moscow           920.656
       104   02 Jun 2027 06:15:51.277   02 Jun 2027 06:16:37.470            46.193                 Moscow          1443.531
       105   02 Jun 2027 06:30:45.470   02 Jun 2027 06:30:55.070             9.600               CapeTown           300.000
       106   02 Jun 2027 06:31:44.679   02 Jun 2027 06:34:08.849           144.170               CapeTown          4505.312
       107   02 Jun 2027 07:32:56.095   02 Jun 2027 07:35:29.840           153.745               Magadan1          4804.531
       108   02 Jun 2027 07:36:00.329   02 Jun 2027 07:38:37.671           157.342                Anadyr1          4916.938
       109   02 Jun 2027 09:07:58.124   02 Jun 2027 09:09:44.971           106.847                Anadyr1          3338.969
       110   02 Jun 2027 09:10:07.384   02 Jun 2027 09:10:49.299            41.915                Anadyr1          1309.844
       111   02 Jun 2027 09:10:50.986   02 Jun 2027 09:14:04.971           193.985                Anadyr2          6062.031
       112   02 Jun 2027 10:44:23.419   02 Jun 2027 10:45:24.748            61.329               Magadan1          1916.531
       113   02 Jun 2027 10:45:24.748   02 Jun 2027 10:45:34.511             9.763               Magadan2           305.094
       114   02 Jun 2027 10:45:45.647   02 Jun 2027 10:46:27.634            41.987                Irkutsk          1312.094
       115   02 Jun 2027 10:46:46.389   02 Jun 2027 10:48:07.260            80.871               Magadan2          2527.219
       116   02 Jun 2027 10:48:07.260   02 Jun 2027 10:49:18.763            71.503               Magadan1          2234.469
       117   02 Jun 2027 12:05:58.243   02 Jun 2027 12:06:28.115            29.872                Sumatra           933.500
       118   02 Jun 2027 12:13:21.697   02 Jun 2027 12:15:02.929           101.232                Irkutsk          3163.500
       119   02 Jun 2027 12:15:29.713   02 Jun 2027 12:15:30.527             0.814                Novosib            25.437
       120   02 Jun 2027 12:16:18.938   02 Jun 2027 12:17:03.883            44.945                Irkutsk          1404.531
       121   02 Jun 2027 12:18:01.002   02 Jun 2027 12:19:09.470            68.468                Norilsk          2139.625
       122   02 Jun 2027 12:23:01.383   02 Jun 2027 12:23:04.210             2.827                Norilsk            88.344
       123   02 Jun 2027 12:23:46.166   02 Jun 2027 12:24:49.647            63.481                Norilsk          1983.781
       124   02 Jun 2027 13:03:17.488   02 Jun 2027 13:05:35.907           138.419            RioGallegos          4325.594
       125   02 Jun 2027 13:08:04.861   02 Jun 2027 13:09:06.260            61.399            RioGallegos          1918.719
       126   02 Jun 2027 13:37:41.630   02 Jun 2027 13:40:22.645           161.015                Sumatra          5031.719
       127   02 Jun 2027 13:43:05.619   02 Jun 2027 13:45:19.669           134.050                Sumatra          4189.063
       128   02 Jun 2027 13:53:32.467   02 Jun 2027 13:57:06.423           213.956                Irkutsk          6686.125
       129   02 Jun 2027 13:59:42.030   02 Jun 2027 13:59:47.713             5.683                Irkutsk           177.594
       130   02 Jun 2027 15:23:34.573   02 Jun 2027 15:27:21.811           227.238                  Delhi          7101.187
       131   02 Jun 2027 15:31:58.297   02 Jun 2027 15:34:28.409           150.112                Novosib          4691.000
       132   02 Jun 2027 15:35:17.812   02 Jun 2027 15:36:00.319            42.507                Novosib          1328.344
       133   02 Jun 2027 17:25:15.054   02 Jun 2027 17:25:43.845            28.791                Anadyr2           899.719
       134   02 Jun 2027 17:28:56.794   02 Jun 2027 17:29:04.240             7.446                Anadyr1           232.687
       135   02 Jun 2027 18:20:45.484   02 Jun 2027 18:20:49.475             3.991               CapeTown           124.719
       136   02 Jun 2027 18:22:40.303   02 Jun 2027 18:23:27.212            46.909               CapeTown          1465.906
       137   02 Jun 2027 18:46:57.053   02 Jun 2027 18:52:15.869           318.816              Murmansk2          9963.000
       138   02 Jun 2027 18:52:38.198   02 Jun 2027 18:53:13.227            35.029              Murmansk2          1094.656
       139   02 Jun 2027 19:04:48.214   02 Jun 2027 19:05:21.297            33.083               Magadan2          1033.844
       140   02 Jun 2027 19:55:23.235   02 Jun 2027 19:55:47.961            24.726               CapeTown           772.687
       141   02 Jun 2027 19:58:02.260   02 Jun 2027 19:59:09.087            66.827               CapeTown          2088.344
       142   02 Jun 2027 20:34:08.175   02 Jun 2027 20:37:24.044           195.869                Anadyr1          6120.906
       143   02 Jun 2027 20:37:26.437   02 Jun 2027 20:38:36.095            69.658               Magadan1          2176.813
       144   02 Jun 2027 20:38:37.389   02 Jun 2027 20:38:47.007             9.618               Magadan2           300.562
       145   02 Jun 2027 20:38:58.454   02 Jun 2027 20:39:08.724            10.270               Magadan2           320.937
       146   02 Jun 2027 20:40:14.419   02 Jun 2027 20:41:22.570            68.151               Magadan2          2129.719
       147   02 Jun 2027 22:10:02.583   02 Jun 2027 22:13:45.101           222.518                Anadyr1          6953.688
       148   02 Jun 2027 22:13:45.740   02 Jun 2027 22:15:49.802           124.062                Norilsk          3876.937
       149   02 Jun 2027 22:16:57.358   02 Jun 2027 22:17:23.378            26.020               Magadan2           813.125
       150   02 Jun 2027 22:18:20.841   02 Jun 2027 22:18:24.545             3.704               Magadan2           115.750
       151   02 Jun 2027 22:18:37.305   02 Jun 2027 22:19:11.796            34.491               Magadan2          1077.844
       152   02 Jun 2027 22:19:56.769   02 Jun 2027 22:20:27.058            30.289                Irkutsk           946.531
       153   02 Jun 2027 23:04:19.427   02 Jun 2027 23:05:29.771            70.344            RioGallegos          2198.250
       154   02 Jun 2027 23:06:04.282   02 Jun 2027 23:06:22.659            18.377            RioGallegos           574.281
       155   02 Jun 2027 23:07:30.778   02 Jun 2027 23:07:31.974             1.196            RioGallegos            37.375
       156   02 Jun 2027 23:09:42.262   02 Jun 2027 23:10:17.002            34.740            RioGallegos          1085.625
       157   02 Jun 2027 23:45:35.872   02 Jun 2027 23:46:19.111            43.239                Anadyr1          1351.219
       158   02 Jun 2027 23:46:49.906   02 Jun 2027 23:47:27.952            38.046                Anadyr1          1188.938
       159   02 Jun 2027 23:47:51.616   02 Jun 2027 23:49:05.966            74.350                Norilsk          2323.437
       160   02 Jun 2027 23:49:08.575   02 Jun 2027 23:49:42.994            34.419               Magadan2          1075.594
       161   02 Jun 2027 23:51:40.712   02 Jun 2027 23:52:14.308            33.596               Magadan1          1049.875
       162   02 Jun 2027 23:52:56.317   02 Jun 2027 23:53:25.190            28.873                Irkutsk           902.281
       163   02 Jun 2027 23:53:26.216   02 Jun 2027 23:55:41.342           135.126                Novosib          4222.688
       164   03 Jun 2027 00:05:40.322   03 Jun 2027 00:06:19.190            38.868                Sumatra          1214.625
       165   03 Jun 2027 00:14:07.042   03 Jun 2027 00:15:11.133            64.091                Sumatra          2002.844
       166   03 Jun 2027 00:40:23.737   03 Jun 2027 00:41:08.746            45.009            RioGallegos          1406.531
       167   03 Jun 2027 00:49:41.028   03 Jun 2027 00:49:56.141            15.113            RioGallegos           472.281
       168   03 Jun 2027 00:52:33.446   03 Jun 2027 00:52:33.745             0.299            RioGallegos             9.344
       169   03 Jun 2027 01:20:12.269   03 Jun 2027 01:20:49.943            37.674                Anadyr2          1177.312
       170   03 Jun 2027 01:20:49.943   03 Jun 2027 01:21:24.066            34.123                Anadyr1          1066.344
       171   03 Jun 2027 01:22:05.340   03 Jun 2027 01:22:27.660            22.320                Anadyr1           697.500
       172   03 Jun 2027 01:23:50.562   03 Jun 2027 01:25:33.390           102.828                Norilsk          3213.375
       173   03 Jun 2027 01:25:37.939   03 Jun 2027 01:26:06.647            28.708               Magadan2           897.125
       174   03 Jun 2027 01:27:24.151   03 Jun 2027 01:27:37.112            12.961               Magadan2           405.031
       175   03 Jun 2027 01:27:44.425   03 Jun 2027 01:29:37.758           113.333                Irkutsk          3541.656
       176   03 Jun 2027 01:30:52.288   03 Jun 2027 01:31:20.683            28.395                Novosib           887.344
       177   03 Jun 2027 01:35:23.826   03 Jun 2027 01:35:40.332            16.506                  Delhi           515.812
       178   03 Jun 2027 01:36:52.876   03 Jun 2027 01:37:37.666            44.790                  Delhi          1399.687
       179   03 Jun 2027 01:44:17.343   03 Jun 2027 01:46:16.641           119.298                Sumatra          3728.063
       180   03 Jun 2027 02:16:47.001   03 Jun 2027 02:16:51.256             4.255            RioGallegos           132.969
       181   03 Jun 2027 02:17:28.708   03 Jun 2027 02:17:48.456            19.748            RioGallegos           617.125
       182   03 Jun 2027 02:20:16.249   03 Jun 2027 02:20:32.287            16.038            RioGallegos           501.188
       183   03 Jun 2027 02:53:39.480   03 Jun 2027 02:53:43.779             4.299                Anadyr1           134.344
       184   03 Jun 2027 02:56:15.020   03 Jun 2027 02:56:27.662            12.642                Anadyr1           395.063
       185   03 Jun 2027 02:57:48.023   03 Jun 2027 02:58:44.540            56.517                Anadyr1          1766.156
       186   03 Jun 2027 02:59:49.792   03 Jun 2027 03:00:13.972            24.180                Norilsk           755.625
       187   03 Jun 2027 03:04:48.165   03 Jun 2027 03:05:02.666            14.501                Norilsk           453.156
       188   03 Jun 2027 03:05:07.086   03 Jun 2027 03:06:08.198            61.112                Irkutsk          1909.750
       189   03 Jun 2027 03:06:18.171   03 Jun 2027 03:07:10.662            52.491              Murmansk2          1640.344
       190   03 Jun 2027 03:07:16.189   03 Jun 2027 03:07:30.785            14.596                Novosib           456.125
       191   03 Jun 2027 03:07:36.939   03 Jun 2027 03:08:50.256            73.317                Novosib          2291.156
       192   03 Jun 2027 03:08:58.930   03 Jun 2027 03:09:39.644            40.714                Norilsk          1272.312
       193   03 Jun 2027 03:09:52.295   03 Jun 2027 03:10:45.928            53.633                Novosib          1676.031
       194   03 Jun 2027 03:11:28.078   03 Jun 2027 03:11:36.428             8.350                  Delhi           260.937
       195   03 Jun 2027 03:12:27.134   03 Jun 2027 03:12:52.261            25.127                Novosib           785.219
       196   03 Jun 2027 03:13:15.371   03 Jun 2027 03:14:14.053            58.682                Novosib          1833.812
       197   03 Jun 2027 04:44:41.494   03 Jun 2027 04:45:25.423            43.929              Murmansk1          1372.781
       198   03 Jun 2027 04:45:34.566   03 Jun 2027 04:45:45.717            11.151              Murmansk1           348.469
       199   03 Jun 2027 04:45:50.309   03 Jun 2027 04:49:39.166           228.857              Murmansk2          7151.781
       200   03 Jun 2027 04:50:37.567   03 Jun 2027 04:53:54.021           196.454                 Moscow          6139.188
       201   03 Jun 2027 05:05:24.798   03 Jun 2027 05:11:42.231           377.433               CapeTown         11794.781
       202   03 Jun 2027 06:08:55.362   03 Jun 2027 06:12:02.778           187.416                Anadyr2          5856.750
       203   03 Jun 2027 06:12:06.224   03 Jun 2027 06:12:15.931             9.707               Magadan1           303.344
       204   03 Jun 2027 06:12:15.931   03 Jun 2027 06:13:09.148            53.217               Magadan2          1663.031
       205   03 Jun 2027 06:14:03.395   03 Jun 2027 06:14:06.813             3.418               Magadan1           106.813
       206   03 Jun 2027 06:20:44.587   03 Jun 2027 06:22:04.479            79.892                 Moscow          2496.625
       207   03 Jun 2027 06:22:23.359   03 Jun 2027 06:22:55.710            32.351              Murmansk1          1010.969
       208   03 Jun 2027 06:42:15.810   03 Jun 2027 06:42:59.525            43.715               CapeTown          1366.094
       209   03 Jun 2027 06:46:08.482   03 Jun 2027 06:47:21.388            72.906               CapeTown          2278.312
       210   03 Jun 2027 07:44:45.658   03 Jun 2027 07:46:52.290           126.632                Anadyr2          3957.250
       211   03 Jun 2027 07:46:52.290   03 Jun 2027 07:47:37.551            45.261                Anadyr1          1414.406
       212   03 Jun 2027 09:18:48.400   03 Jun 2027 09:20:13.655            85.255                Anadyr2          2664.219
       213   03 Jun 2027 09:20:54.667   03 Jun 2027 09:24:33.091           218.424                Anadyr1          6825.750
       214   03 Jun 2027 09:24:33.091   03 Jun 2027 09:25:56.747            83.656                Anadyr2          2614.250
       215   03 Jun 2027 10:56:12.233   03 Jun 2027 10:57:27.274            75.041                Novosib          2345.031
       216   03 Jun 2027 10:57:42.479   03 Jun 2027 10:57:59.868            17.389                Irkutsk           543.406
       217   03 Jun 2027 10:58:01.420   03 Jun 2027 11:01:03.020           181.600               Magadan2          5675.000
       218   03 Jun 2027 11:01:12.358   03 Jun 2027 11:01:35.184            22.826                Norilsk           713.312
       219   03 Jun 2027 11:01:35.908   03 Jun 2027 11:01:49.449            13.541              Murmansk1           423.156
       220   03 Jun 2027 11:01:56.591   03 Jun 2027 11:01:58.843             2.252                Norilsk            70.375
       221   03 Jun 2027 11:02:10.827   03 Jun 2027 11:02:13.275             2.448                Novosib            76.500
       222   03 Jun 2027 11:02:22.675   03 Jun 2027 11:03:13.765            51.090                Novosib          1596.562
       223   03 Jun 2027 11:05:02.155   03 Jun 2027 11:05:06.578             4.423              Murmansk1           138.219
       224   03 Jun 2027 11:36:47.172   03 Jun 2027 11:38:44.001           116.829            RioGallegos          3650.906
       225   03 Jun 2027 12:11:37.712   03 Jun 2027 12:13:22.287           104.575                Sumatra          3267.969
       226   03 Jun 2027 12:25:36.083   03 Jun 2027 12:28:44.800           188.717                Irkutsk          5897.406
       227   03 Jun 2027 12:30:06.015   03 Jun 2027 12:31:08.944            62.929                Norilsk          1966.531
       228   03 Jun 2027 13:16:08.638   03 Jun 2027 13:17:30.763            82.125            RioGallegos          2566.406
       229   03 Jun 2027 13:23:21.980   03 Jun 2027 13:23:51.405            29.425            RioGallegos           919.531
       230   03 Jun 2027 13:51:06.814   03 Jun 2027 13:54:48.481           221.667                Sumatra          6927.094
       231   03 Jun 2027 14:03:24.899   03 Jun 2027 14:03:54.231            29.332                Novosib           916.625
       232   03 Jun 2027 14:04:34.522   03 Jun 2027 14:05:41.899            67.377                Novosib          2105.531
       233   03 Jun 2027 14:07:04.338   03 Jun 2027 14:08:46.857           102.519                Irkutsk          3203.719
       234   03 Jun 2027 15:40:14.260   03 Jun 2027 15:42:24.388           130.128                 Moscow          4066.500
       235   03 Jun 2027 15:43:37.096   03 Jun 2027 15:44:43.009            65.913              Murmansk1          2059.781
       236   03 Jun 2027 15:46:14.298   03 Jun 2027 15:47:22.235            67.937                Novosib          2123.031
       237   03 Jun 2027 15:48:45.541   03 Jun 2027 15:49:32.530            46.989                Norilsk          1468.406
       238   03 Jun 2027 15:50:51.773   03 Jun 2027 15:51:43.306            51.533                Norilsk          1610.406
       239   03 Jun 2027 15:51:57.228   03 Jun 2027 15:52:32.440            35.212                Norilsk          1100.375
       240   03 Jun 2027 16:55:10.893   03 Jun 2027 16:55:21.954            11.061               CapeTown           345.656
       241   03 Jun 2027 16:56:05.063   03 Jun 2027 16:57:54.887           109.824               CapeTown          3432.000
       242   03 Jun 2027 17:17:12.899   03 Jun 2027 17:17:13.785             0.886                 Moscow            27.688
       243   03 Jun 2027 17:20:28.951   03 Jun 2027 17:22:16.353           107.402              Murmansk2          3356.312
       244   03 Jun 2027 17:24:33.698   03 Jun 2027 17:24:37.964             4.266              Murmansk2           133.312
       245   03 Jun 2027 17:24:52.277   03 Jun 2027 17:24:54.498             2.221              Murmansk1            69.406
       246   03 Jun 2027 17:28:12.660   03 Jun 2027 17:28:44.755            32.095              Murmansk2          1002.969
       247   03 Jun 2027 17:34:46.819   03 Jun 2027 17:35:24.836            38.017                Anadyr1          1188.031
       248   03 Jun 2027 17:36:40.900   03 Jun 2027 17:36:59.219            18.319                Anadyr1           572.469
       249   03 Jun 2027 17:38:13.079   03 Jun 2027 17:38:18.531             5.452                Anadyr1           170.375
       250   03 Jun 2027 17:39:16.409   03 Jun 2027 17:39:45.175            28.766                Anadyr2           898.937
       251   03 Jun 2027 18:29:38.415   03 Jun 2027 18:31:48.180           129.765               CapeTown          4055.156
       252   03 Jun 2027 18:59:31.268   03 Jun 2027 19:00:09.908            38.640              Murmansk2          1207.500
       253   03 Jun 2027 19:00:49.939   03 Jun 2027 19:04:01.324           191.385              Murmansk1          5980.781
       254   03 Jun 2027 19:04:38.476   03 Jun 2027 19:04:47.591             9.115              Murmansk1           284.844
       255   03 Jun 2027 19:06:30.696   03 Jun 2027 19:06:50.461            19.765              Murmansk2           617.656
       256   03 Jun 2027 19:13:56.617   03 Jun 2027 19:14:25.050            28.433               Magadan2           888.531
       257   03 Jun 2027 19:16:06.212   03 Jun 2027 19:16:49.710            43.498               Magadan1          1359.312
       258   03 Jun 2027 19:18:13.489   03 Jun 2027 19:18:23.871            10.382               Magadan1           324.438
       259   03 Jun 2027 20:09:40.614   03 Jun 2027 20:10:45.815            65.201               CapeTown          2037.531
       260   03 Jun 2027 20:11:16.265   03 Jun 2027 20:11:38.161            21.896               CapeTown           684.250
       261   03 Jun 2027 20:12:04.403   03 Jun 2027 20:12:50.380            45.977               CapeTown          1436.781
       262   03 Jun 2027 20:46:09.987   03 Jun 2027 20:49:21.997           192.010                Anadyr2          6000.313
       263   03 Jun 2027 20:49:34.762   03 Jun 2027 20:50:05.026            30.264               Magadan2           945.750
       264   03 Jun 2027 20:50:07.015   03 Jun 2027 20:50:15.365             8.350               Magadan1           260.937
       265   03 Jun 2027 20:50:21.866   03 Jun 2027 20:50:50.619            28.753               Magadan1           898.531
       266   03 Jun 2027 20:54:06.199   03 Jun 2027 20:54:21.618            15.419               Magadan2           481.844
       267   03 Jun 2027 21:00:43.891   03 Jun 2027 21:00:45.545             1.654               Magadan1            51.687
       268   03 Jun 2027 22:22:03.108   03 Jun 2027 22:24:02.240           119.132                Anadyr2          3722.875
       269   03 Jun 2027 22:24:05.847   03 Jun 2027 22:26:14.456           128.609                Anadyr1          4019.031
       270   03 Jun 2027 22:26:15.270   03 Jun 2027 22:29:31.884           196.614               Magadan1          6144.188
       271   03 Jun 2027 22:30:03.099   03 Jun 2027 22:30:40.382            37.283                Irkutsk          1165.094
       272   03 Jun 2027 22:31:14.776   03 Jun 2027 22:31:49.416            34.640                Irkutsk          1082.500
       273   03 Jun 2027 22:47:22.885   03 Jun 2027 22:49:16.279           113.394                Sumatra          3543.562
       274   03 Jun 2027 23:16:11.982   03 Jun 2027 23:16:57.609            45.627            RioGallegos          1425.844
       275   03 Jun 2027 23:57:31.498   03 Jun 2027 23:58:11.917            40.419                Anadyr2          1263.094
       276   03 Jun 2027 23:58:55.139   03 Jun 2027 23:59:47.260            52.121                Anadyr2          1628.781
       277   03 Jun 2027 23:59:53.022   04 Jun 2027 00:01:35.520           102.498                Norilsk          3203.063
       278   04 Jun 2027 00:01:38.059   04 Jun 2027 00:01:45.507             7.448               Magadan1           232.750
       279   04 Jun 2027 00:01:52.520   04 Jun 2027 00:02:03.062            10.542               Magadan1           329.437
       280   04 Jun 2027 00:03:09.279   04 Jun 2027 00:03:34.248            24.969               Magadan1           780.281
       281   04 Jun 2027 00:03:54.830   04 Jun 2027 00:04:17.610            22.780                Irkutsk           711.875
       282   04 Jun 2027 00:05:00.012   04 Jun 2027 00:05:27.983            27.971                Irkutsk           874.094
       283   04 Jun 2027 00:05:37.732   04 Jun 2027 00:05:43.283             5.551                Irkutsk           173.469
       284   04 Jun 2027 00:06:38.906   04 Jun 2027 00:07:29.366            50.460                Novosib          1576.875
       285   04 Jun 2027 00:08:01.883   04 Jun 2027 00:08:04.961             3.078                Novosib            96.187
       286   04 Jun 2027 00:08:30.039   04 Jun 2027 00:09:19.391            49.352                Novosib          1542.250
       287   04 Jun 2027 00:17:36.537   04 Jun 2027 00:18:40.906            64.369                Sumatra          2011.531
       288   04 Jun 2027 00:20:28.903   04 Jun 2027 00:20:34.617             5.714                Sumatra           178.563
       289   04 Jun 2027 00:23:35.521   04 Jun 2027 00:24:19.001            43.480                Sumatra          1358.750
       290   04 Jun 2027 00:26:01.199   04 Jun 2027 00:26:23.150            21.951                Sumatra           685.969
       291   04 Jun 2027 00:51:49.244   04 Jun 2027 00:52:03.111            13.867            RioGallegos           433.344
       292   04 Jun 2027 00:52:41.368   04 Jun 2027 00:53:45.662            64.294            RioGallegos          2009.187
       293   04 Jun 2027 01:03:39.361   04 Jun 2027 01:04:06.663            27.302            RioGallegos           853.187
       294   04 Jun 2027 01:31:58.209   04 Jun 2027 01:32:09.856            11.647                Anadyr1           363.969
       295   04 Jun 2027 01:32:50.157   04 Jun 2027 01:33:24.285            34.128                Anadyr1          1066.500
       296   04 Jun 2027 01:33:24.285   04 Jun 2027 01:34:06.426            42.141                Anadyr2          1316.906
       297   04 Jun 2027 01:35:52.920   04 Jun 2027 01:37:34.982           102.062                Norilsk          3189.438
       298   04 Jun 2027 01:37:35.396   04 Jun 2027 01:37:47.415            12.019               Magadan1           375.594
       299   04 Jun 2027 01:39:43.347   04 Jun 2027 01:39:55.847            12.500              Murmansk1           390.625
       300   04 Jun 2027 01:40:31.300   04 Jun 2027 01:42:16.599           105.299                Novosib          3290.594
       301   04 Jun 2027 01:42:35.176   04 Jun 2027 01:43:23.857            48.681                Novosib          1521.281
       302   04 Jun 2027 01:46:44.521   04 Jun 2027 01:46:57.643            13.122                Novosib           410.062
       303   04 Jun 2027 01:48:04.013   04 Jun 2027 01:48:41.766            37.753                  Delhi          1179.781
       304   04 Jun 2027 01:53:31.971   04 Jun 2027 01:53:54.417            22.446                  Delhi           701.438
       305   04 Jun 2027 01:55:36.450   04 Jun 2027 01:56:43.089            66.639                  Delhi          2082.469
       306   04 Jun 2027 01:58:47.651   04 Jun 2027 02:00:04.405            76.754                Sumatra          2398.562
       307   04 Jun 2027 02:30:29.558   04 Jun 2027 02:31:26.538            56.980            RioGallegos          1780.625
       308   04 Jun 2027 03:17:59.290   04 Jun 2027 03:18:13.005            13.715                Irkutsk           428.594
       309   04 Jun 2027 03:18:17.798   04 Jun 2027 03:18:27.757             9.959                 Moscow           311.219
       310   04 Jun 2027 03:18:32.188   04 Jun 2027 03:18:42.333            10.145                Norilsk           317.031
       311   04 Jun 2027 03:18:52.271   04 Jun 2027 03:22:54.919           242.648              Murmansk1          7582.750
       312   04 Jun 2027 03:22:54.919   04 Jun 2027 03:23:36.969            42.050              Murmansk2          1314.062
       313   04 Jun 2027 03:23:36.969   04 Jun 2027 03:24:01.385            24.416              Murmansk1           763.000
       314   04 Jun 2027 03:24:07.154   04 Jun 2027 03:26:47.900           160.746                  Delhi          5023.312
       315   04 Jun 2027 04:56:35.402   04 Jun 2027 04:57:58.485            83.083                Norilsk          2596.344
       316   04 Jun 2027 04:58:13.036   04 Jun 2027 04:58:30.227            17.191                Norilsk           537.219
       317   04 Jun 2027 04:58:32.796   04 Jun 2027 04:58:52.858            20.062              Murmansk2           626.938
       318   04 Jun 2027 04:59:06.970   04 Jun 2027 05:00:17.960            70.990                 Moscow          2218.437
       319   04 Jun 2027 05:00:18.655   04 Jun 2027 05:00:44.898            26.243                 Moscow           820.094
       320   04 Jun 2027 05:00:47.999   04 Jun 2027 05:01:21.725            33.726                 Moscow          1053.938
       321   04 Jun 2027 05:01:26.602   04 Jun 2027 05:04:58.247           211.645                 Moscow          6613.906
       322   04 Jun 2027 05:20:16.533   04 Jun 2027 05:20:52.988            36.455               CapeTown          1139.219
       323   04 Jun 2027 05:21:27.210   04 Jun 2027 05:23:23.541           116.331               CapeTown          3635.344
       324   04 Jun 2027 06:20:57.006   04 Jun 2027 06:22:58.167           121.161                Anadyr2          3786.281
       325   04 Jun 2027 06:24:09.175   04 Jun 2027 06:24:53.341            44.166               Magadan2          1380.187
       326   04 Jun 2027 06:32:59.682   04 Jun 2027 06:33:28.860            29.178                 Moscow           911.813
       327   04 Jun 2027 06:34:51.996   04 Jun 2027 06:35:45.663            53.667                 Moscow          1677.094
       328   04 Jun 2027 06:54:55.761   04 Jun 2027 06:55:09.309            13.548               CapeTown           423.375
       329   04 Jun 2027 07:55:20.154   04 Jun 2027 07:56:44.805            84.651                Anadyr2          2645.344
       330   04 Jun 2027 07:57:05.481   04 Jun 2027 07:58:04.970            59.489               Magadan2          1859.031
       331   04 Jun 2027 07:58:24.853   04 Jun 2027 08:00:16.262           111.409               Magadan1          3481.531
       332   04 Jun 2027 08:01:36.199   04 Jun 2027 08:02:38.255            62.056                Anadyr1          1939.250
       333   04 Jun 2027 09:29:36.316   04 Jun 2027 09:30:35.134            58.818               Magadan1          1838.062
       334   04 Jun 2027 09:30:40.467   04 Jun 2027 09:31:31.642            51.175               Magadan1          1599.219
       335   04 Jun 2027 09:31:54.761   04 Jun 2027 09:32:11.933            17.172                Norilsk           536.625
       336   04 Jun 2027 09:32:15.236   04 Jun 2027 09:32:36.793            21.557               Magadan2           673.656
       337   04 Jun 2027 09:33:01.158   04 Jun 2027 09:34:29.357            88.199               Magadan2          2756.219
       338   04 Jun 2027 09:34:29.357   04 Jun 2027 09:35:27.023            57.666               Magadan1          1802.062
       339   04 Jun 2027 09:35:44.081   04 Jun 2027 09:36:20.780            36.699               Magadan2          1146.844
       340   04 Jun 2027 09:36:20.780   04 Jun 2027 09:36:32.730            11.950               Magadan1           373.437
       341   04 Jun 2027 09:36:35.563   04 Jun 2027 09:37:45.060            69.497                Anadyr2          2171.781
       342   04 Jun 2027 10:13:39.213   04 Jun 2027 10:13:58.746            19.533            RioGallegos           610.406
       343   04 Jun 2027 10:15:24.900   04 Jun 2027 10:15:53.639            28.739            RioGallegos           898.094
       344   04 Jun 2027 10:51:58.253   04 Jun 2027 10:52:57.883            59.630                Sumatra          1863.437
       345   04 Jun 2027 10:56:13.316   04 Jun 2027 10:56:59.926            46.610                Sumatra          1456.563
       346   04 Jun 2027 11:07:21.251   04 Jun 2027 11:07:37.110            15.859                Novosib           495.594
       347   04 Jun 2027 11:08:16.788   04 Jun 2027 11:08:48.893            32.105                Irkutsk          1003.281
       348   04 Jun 2027 11:09:07.151   04 Jun 2027 11:09:28.830            21.679                Norilsk           677.469
       349   04 Jun 2027 11:09:37.778   04 Jun 2027 11:10:47.936            70.158                Irkutsk          2192.437
       350   04 Jun 2027 11:11:07.808   04 Jun 2027 11:11:18.052            10.244                Norilsk           320.125
       351   04 Jun 2027 11:11:30.432   04 Jun 2027 11:11:45.393            14.961                Norilsk           467.531
       352   04 Jun 2027 11:11:59.787   04 Jun 2027 11:12:30.863            31.076                Irkutsk           971.125
       353   04 Jun 2027 11:12:39.394   04 Jun 2027 11:12:45.178             5.784              Murmansk2           180.750
       354   04 Jun 2027 11:12:55.020   04 Jun 2027 11:13:00.112             5.092              Murmansk2           159.125
       355   04 Jun 2027 11:13:01.713   04 Jun 2027 11:13:43.308            41.595                Irkutsk          1299.844
       356   04 Jun 2027 11:13:46.317   04 Jun 2027 11:14:50.045            63.728              Murmansk2          1991.500
       357   04 Jun 2027 11:49:25.446   04 Jun 2027 11:49:54.992            29.546            RioGallegos           923.312
       358   04 Jun 2027 11:51:55.465   04 Jun 2027 11:52:36.929            41.464            RioGallegos          1295.750
       359   04 Jun 2027 12:23:36.767   04 Jun 2027 12:24:08.521            31.754                Sumatra           992.313
       360   04 Jun 2027 12:27:39.322   04 Jun 2027 12:27:44.818             5.496                Sumatra           171.750
       361   04 Jun 2027 12:37:00.428   04 Jun 2027 12:37:32.966            32.538                  Delhi          1016.812
       362   04 Jun 2027 12:37:54.543   04 Jun 2027 12:39:06.570            72.027                Irkutsk          2250.844
       363   04 Jun 2027 12:39:43.018   04 Jun 2027 12:39:52.268             9.250                Novosib           289.063
       364   04 Jun 2027 12:42:12.602   04 Jun 2027 12:44:42.640           150.038                Norilsk          4688.688
       365   04 Jun 2027 13:29:14.999   04 Jun 2027 13:32:39.472           204.473            RioGallegos          6389.781
       366   04 Jun 2027 14:15:47.463   04 Jun 2027 14:15:53.309             5.846                Novosib           182.687
       367   04 Jun 2027 14:16:42.423   04 Jun 2027 14:17:34.661            52.238                Novosib          1632.437
       368   04 Jun 2027 14:19:49.743   04 Jun 2027 14:22:13.803           144.060                Novosib          4501.875
       369   04 Jun 2027 14:23:08.977   04 Jun 2027 14:23:20.339            11.362                Norilsk           355.063
       370   04 Jun 2027 14:27:13.109   04 Jun 2027 14:28:53.816           100.707                Norilsk          3147.094
       371   04 Jun 2027 15:52:12.933   04 Jun 2027 15:53:18.087            65.154                 Moscow          2036.062
       372   04 Jun 2027 15:54:20.897   04 Jun 2027 15:54:38.798            17.901                 Moscow           559.406
       373   04 Jun 2027 15:54:42.976   04 Jun 2027 15:55:31.412            48.436                 Moscow          1513.625
       374   04 Jun 2027 15:55:39.884   04 Jun 2027 15:57:11.756            91.872              Murmansk1          2871.000
       375   04 Jun 2027 15:59:46.020   04 Jun 2027 16:01:31.761           105.741                Norilsk          3304.406
       376   04 Jun 2027 16:03:19.406   04 Jun 2027 16:04:09.031            49.625                Norilsk          1550.781
       377   04 Jun 2027 16:04:59.027   04 Jun 2027 16:05:27.493            28.466                Norilsk           889.562
       378   04 Jun 2027 17:06:44.148   04 Jun 2027 17:07:22.430            38.282               CapeTown          1196.313
       379   04 Jun 2027 17:09:49.366   04 Jun 2027 17:10:18.455            29.089               CapeTown           909.031
       380   04 Jun 2027 17:29:38.957   04 Jun 2027 17:30:06.178            27.221                 Moscow           850.656
       381   04 Jun 2027 17:31:04.226   04 Jun 2027 17:33:20.002           135.776                 Moscow          4243.000
       382   04 Jun 2027 17:36:33.167   04 Jun 2027 17:36:54.510            21.343              Murmansk1           666.969
       383   04 Jun 2027 17:46:41.253   04 Jun 2027 17:48:04.729            83.476                Anadyr2          2608.625
       384   04 Jun 2027 17:49:25.181   04 Jun 2027 17:49:49.471            24.290                Anadyr1           759.062
       385   04 Jun 2027 17:55:08.170   04 Jun 2027 17:55:22.708            14.538                Anadyr1           454.313
       386   04 Jun 2027 17:56:13.058   04 Jun 2027 17:56:20.181             7.123                Anadyr2           222.594
       387   04 Jun 2027 18:41:43.942   04 Jun 2027 18:43:00.587            76.645               CapeTown          2395.156
       388   04 Jun 2027 18:43:18.405   04 Jun 2027 18:43:41.875            23.470               CapeTown           733.438
       389   04 Jun 2027 19:12:08.757   04 Jun 2027 19:13:09.290            60.533              Murmansk1          1891.656
       390   04 Jun 2027 19:14:16.547   04 Jun 2027 19:17:00.214           163.667              Murmansk2          5114.594
       391   04 Jun 2027 19:17:27.412   04 Jun 2027 19:18:32.310            64.898              Murmansk1          2028.063
       392   04 Jun 2027 19:25:36.492   04 Jun 2027 19:26:43.068            66.576               Magadan1          2080.500
       393   04 Jun 2027 19:27:17.758   04 Jun 2027 19:28:02.118            44.360               Magadan1          1386.250
       394   04 Jun 2027 20:58:11.764   04 Jun 2027 20:59:48.624            96.860                Anadyr2          3026.875
       395   04 Jun 2027 21:00:07.394   04 Jun 2027 21:02:02.402           115.008                Anadyr1          3594.000
       396   04 Jun 2027 21:02:24.574   04 Jun 2027 21:05:38.839           194.265               Magadan1          6070.781
       397   04 Jun 2027 21:09:11.597   04 Jun 2027 21:09:26.619            15.022               Magadan1           469.438
       398   04 Jun 2027 21:55:37.694   04 Jun 2027 21:57:15.086            97.392            RioGallegos          3043.500
       399   04 Jun 2027 22:34:03.267   04 Jun 2027 22:36:56.324           173.057                Anadyr1          5408.031
       400   04 Jun 2027 22:37:17.670   04 Jun 2027 22:39:28.120           130.450               Magadan1          4076.562
       401   04 Jun 2027 22:39:46.509   04 Jun 2027 22:40:06.543            20.034               Magadan1           626.062
       402   04 Jun 2027 22:41:28.314   04 Jun 2027 22:42:26.652            58.338                Irkutsk          1823.063
       403   04 Jun 2027 22:42:46.264   04 Jun 2027 22:43:20.402            34.138                Irkutsk          1066.812
       404   04 Jun 2027 22:46:57.670   04 Jun 2027 22:47:45.032            47.362                Irkutsk          1480.062
       405   04 Jun 2027 22:57:08.834   04 Jun 2027 22:58:27.972            79.138                Sumatra          2473.062
       406   04 Jun 2027 22:58:40.442   04 Jun 2027 22:58:45.115             4.673                Sumatra           146.031
       407   04 Jun 2027 23:02:10.934   04 Jun 2027 23:03:31.731            80.797                Sumatra          2524.906
       408   05 Jun 2027 00:09:26.122   05 Jun 2027 00:09:42.622            16.500                Anadyr2           515.625
       409   05 Jun 2027 00:09:44.171   05 Jun 2027 00:09:54.027             9.856                Anadyr1           308.000
       410   05 Jun 2027 00:10:12.702   05 Jun 2027 00:11:02.466            49.764                Anadyr2          1555.125
       411   05 Jun 2027 00:11:54.715   05 Jun 2027 00:12:50.925            56.210                Norilsk          1756.563
       412   05 Jun 2027 00:13:05.618   05 Jun 2027 00:13:37.721            32.103                Norilsk          1003.219
       413   05 Jun 2027 00:13:48.256   05 Jun 2027 00:13:53.908             5.652               Magadan2           176.625
       414   05 Jun 2027 00:13:58.149   05 Jun 2027 00:14:05.490             7.341               Magadan2           229.406
       415   05 Jun 2027 00:14:37.263   05 Jun 2027 00:14:56.168            18.905               Magadan2           590.781
       416   05 Jun 2027 00:15:27.816   05 Jun 2027 00:16:10.800            42.984               Magadan2          1343.250
       417   05 Jun 2027 00:16:43.999   05 Jun 2027 00:18:42.537           118.538                Novosib          3704.312
       418   05 Jun 2027 00:29:38.422   05 Jun 2027 00:29:42.043             3.621                Sumatra           113.156
       419   05 Jun 2027 00:31:33.819   05 Jun 2027 00:32:10.406            36.587                Sumatra          1143.344
       420   05 Jun 2027 00:33:48.284   05 Jun 2027 00:35:28.272            99.988                Sumatra          3124.625
       421   05 Jun 2027 01:05:45.837   05 Jun 2027 01:06:07.233            21.396            RioGallegos           668.625
       422   05 Jun 2027 01:09:37.521   05 Jun 2027 01:09:55.698            18.177            RioGallegos           568.031
       423   05 Jun 2027 01:11:45.772   05 Jun 2027 01:12:51.115            65.343            RioGallegos          2041.969
       424   05 Jun 2027 01:43:42.972   05 Jun 2027 01:44:04.321            21.349                Anadyr2           667.156
       425   05 Jun 2027 01:44:43.600   05 Jun 2027 01:45:24.119            40.519                Anadyr2          1266.219
       426   05 Jun 2027 01:45:49.478   05 Jun 2027 01:46:05.929            16.451                Anadyr1           514.094
       427   05 Jun 2027 01:47:55.243   05 Jun 2027 01:49:37.395           102.152                Norilsk          3192.250
       428   05 Jun 2027 01:51:07.548   05 Jun 2027 01:52:43.445            95.897              Murmansk2          2996.781
       429   05 Jun 2027 01:52:53.799   05 Jun 2027 01:54:00.201            66.402                Novosib          2075.062
       430   05 Jun 2027 01:56:57.721   05 Jun 2027 01:57:20.151            22.430                Irkutsk           700.937
       431   05 Jun 2027 01:59:07.884   05 Jun 2027 01:59:55.391            47.507                  Delhi          1484.594
       432   05 Jun 2027 02:06:31.495   05 Jun 2027 02:06:48.790            17.295                  Delhi           540.469
       433   05 Jun 2027 02:09:18.919   05 Jun 2027 02:11:10.230           111.311                  Delhi          3478.469
       434   05 Jun 2027 02:42:31.583   05 Jun 2027 02:43:40.939            69.356            RioGallegos          2167.375
       435   05 Jun 2027 02:44:45.944   05 Jun 2027 02:45:16.348            30.404            RioGallegos           950.125
       436   05 Jun 2027 03:31:14.298   05 Jun 2027 03:31:27.958            13.660                Norilsk           426.875
       437   05 Jun 2027 03:31:32.926   05 Jun 2027 03:31:56.720            23.794              Murmansk2           743.563
       438   05 Jun 2027 03:31:56.720   05 Jun 2027 03:32:15.524            18.804              Murmansk1           587.625
       439   05 Jun 2027 03:32:48.201   05 Jun 2027 03:36:58.420           250.219                 Moscow          7819.344
       440   05 Jun 2027 03:37:01.600   05 Jun 2027 03:37:25.320            23.720                Novosib           741.250
       441   05 Jun 2027 03:37:38.598   05 Jun 2027 03:39:52.823           134.225                  Delhi          4194.531
       442   05 Jun 2027 05:09:00.192   05 Jun 2027 05:09:10.080             9.888              Murmansk1           309.000
       443   05 Jun 2027 05:09:12.556   05 Jun 2027 05:09:38.647            26.091                 Moscow           815.344
       444   05 Jun 2027 05:09:52.553   05 Jun 2027 05:11:18.242            85.689                Norilsk          2677.781
       445   05 Jun 2027 05:11:27.231   05 Jun 2027 05:11:47.790            20.559                Novosib           642.469
       446   05 Jun 2027 05:11:52.007   05 Jun 2027 05:14:38.631           166.624              Murmansk1          5207.000
       447   05 Jun 2027 05:17:46.178   05 Jun 2027 05:18:08.445            22.267                 Moscow           695.844
       448   05 Jun 2027 05:32:05.898   05 Jun 2027 05:32:21.341            15.443               CapeTown           482.594
       449   05 Jun 2027 05:32:59.916   05 Jun 2027 05:33:45.105            45.189               CapeTown          1412.156
       450   05 Jun 2027 05:35:42.956   05 Jun 2027 05:37:18.977            96.021               CapeTown          3000.656
       451   05 Jun 2027 06:32:48.178   05 Jun 2027 06:33:51.026            62.848                Anadyr1          1964.000
       452   05 Jun 2027 06:33:53.521   05 Jun 2027 06:34:30.722            37.201                Anadyr1          1162.531
       453   05 Jun 2027 06:36:07.883   05 Jun 2027 06:36:21.611            13.728               Magadan1           429.000
       454   05 Jun 2027 06:36:42.178   05 Jun 2027 06:36:48.557             6.379                Anadyr2           199.344
       455   05 Jun 2027 06:37:30.447   05 Jun 2027 06:37:36.185             5.738                Anadyr2           179.313
       456   05 Jun 2027 06:38:10.044   05 Jun 2027 06:38:31.202            21.158                Anadyr1           661.187
       457   05 Jun 2027 08:09:08.897   05 Jun 2027 08:09:13.461             4.564                Norilsk           142.625
       458   05 Jun 2027 08:09:14.162   05 Jun 2027 08:10:02.724            48.562               Magadan1          1517.562
       459   05 Jun 2027 08:10:09.012   05 Jun 2027 08:12:18.760           129.748               Magadan1          4054.625
       460   05 Jun 2027 08:13:47.996   05 Jun 2027 08:14:37.807            49.811                Anadyr1          1556.594
       461   05 Jun 2027 09:42:41.583   05 Jun 2027 09:44:02.650            81.067               Magadan2          2533.344
       462   05 Jun 2027 09:44:11.189   05 Jun 2027 09:47:35.687           204.498               Magadan2          6390.563
       463   05 Jun 2027 09:48:05.548   05 Jun 2027 09:48:14.805             9.257               Magadan1           289.281
       464   05 Jun 2027 09:48:22.615   05 Jun 2027 09:50:09.360           106.745               Magadan2          3335.781
       465   05 Jun 2027 10:25:13.579   05 Jun 2027 10:25:35.729            22.150            RioGallegos           692.187
       466   05 Jun 2027 11:02:31.896   05 Jun 2027 11:04:08.422            96.526                Sumatra          3016.438
       467   05 Jun 2027 11:19:05.795   05 Jun 2027 11:19:24.466            18.671                Norilsk           583.469
       468   05 Jun 2027 11:19:35.356   05 Jun 2027 11:21:26.131           110.775               Magadan2          3461.719
       469   05 Jun 2027 11:21:26.131   05 Jun 2027 11:22:42.225            76.094               Magadan1          2377.937
       470   05 Jun 2027 11:23:19.075   05 Jun 2027 11:23:30.264            11.189                Norilsk           349.656
       471   05 Jun 2027 11:23:35.002   05 Jun 2027 11:24:03.137            28.135               Magadan1           879.219
       472   05 Jun 2027 11:24:09.323   05 Jun 2027 11:24:42.662            33.339                Novosib          1041.844
       473   05 Jun 2027 11:24:45.599   05 Jun 2027 11:25:25.987            40.388              Murmansk2          1262.125
       474   05 Jun 2027 11:25:27.399   05 Jun 2027 11:26:07.855            40.456                Irkutsk          1264.250
       475   05 Jun 2027 12:01:11.856   05 Jun 2027 12:01:59.561            47.705            RioGallegos          1490.781
       476   05 Jun 2027 12:09:46.453   05 Jun 2027 12:10:39.168            52.715            RioGallegos          1647.344
       477   05 Jun 2027 12:38:43.732   05 Jun 2027 12:39:59.163            75.431                Sumatra          2357.219
       478   05 Jun 2027 12:50:17.477   05 Jun 2027 12:51:13.426            55.949                Irkutsk          1748.406
       479   05 Jun 2027 12:51:48.758   05 Jun 2027 12:53:10.944            82.186                Novosib          2568.312
       480   05 Jun 2027 12:54:20.819   05 Jun 2027 12:55:24.904            64.085                Norilsk          2002.656
       481   05 Jun 2027 13:07:08.873   05 Jun 2027 13:07:47.881            39.008              Murmansk1          1219.000
       482   05 Jun 2027 13:42:56.985   05 Jun 2027 13:44:18.297            81.312            RioGallegos          2541.000
