uniorb/output/strategy_1/Drop/Drop_KinoSat_111501.txt

KinoSat_111501
-------------------------
    Access    *     Start Time (UTCG)     *     Stop Time (UTCG)  *   Duration (s)        *       Station  *  Data (Mbytes)
         1   01 Jun 2027 04:00:30.832   01 Jun 2027 04:01:18.655            47.823              Murmansk2          1494.469
         2   01 Jun 2027 04:01:27.209   01 Jun 2027 04:02:15.920            48.711                Norilsk          1522.219
         3   01 Jun 2027 04:02:21.125   01 Jun 2027 04:03:11.332            50.207                Novosib          1568.969
         4   01 Jun 2027 04:03:13.436   01 Jun 2027 04:04:58.196           104.760              Murmansk1          3273.750
         5   01 Jun 2027 04:05:30.076   01 Jun 2027 04:06:38.900            68.824                 Moscow          2150.750
         6   01 Jun 2027 04:07:49.107   01 Jun 2027 04:08:37.026            47.919                 Moscow          1497.469
         7   01 Jun 2027 04:20:01.511   01 Jun 2027 04:22:05.670           124.159               CapeTown          3879.969
         8   01 Jun 2027 04:22:51.699   01 Jun 2027 04:23:27.462            35.763               CapeTown          1117.594
         9   01 Jun 2027 04:24:17.718   01 Jun 2027 04:26:18.114           120.396               CapeTown          3762.375
        10   01 Jun 2027 05:24:12.269   01 Jun 2027 05:25:40.504            88.235                Anadyr2          2757.344
        11   01 Jun 2027 05:35:34.365   01 Jun 2027 05:35:57.083            22.718                Norilsk           709.938
        12   01 Jun 2027 05:36:00.175   01 Jun 2027 05:38:12.457           132.282              Murmansk1          4133.812
        13   01 Jun 2027 05:39:53.221   01 Jun 2027 05:40:56.792            63.571              Murmansk1          1986.594
        14   01 Jun 2027 06:59:24.085   01 Jun 2027 07:04:19.687           295.602                Anadyr2          9237.563
        15   01 Jun 2027 07:04:52.317   01 Jun 2027 07:05:02.222             9.905               Magadan2           309.531
        16   01 Jun 2027 08:32:25.075   01 Jun 2027 08:32:50.845            25.770               Magadan1           805.313
        17   01 Jun 2027 08:33:28.263   01 Jun 2027 08:34:08.038            39.775               Magadan1          1242.969
        18   01 Jun 2027 08:34:16.345   01 Jun 2027 08:37:47.320           210.975                Anadyr1          6592.969
        19   01 Jun 2027 08:38:27.755   01 Jun 2027 08:39:28.050            60.295                Anadyr1          1884.219
        20   01 Jun 2027 08:39:28.050   01 Jun 2027 08:40:33.069            65.019                Anadyr2          2031.844
        21   01 Jun 2027 10:10:54.121   01 Jun 2027 10:13:39.214           165.093                Irkutsk          5159.156
        22   01 Jun 2027 10:13:51.714   01 Jun 2027 10:14:59.693            67.979               Magadan2          2124.344
        23   01 Jun 2027 10:15:26.333   01 Jun 2027 10:15:29.735             3.402              Murmansk1           106.312
        24   01 Jun 2027 10:15:30.786   01 Jun 2027 10:16:42.773            71.987                Irkutsk          2249.594
        25   01 Jun 2027 10:51:30.008   01 Jun 2027 10:53:30.347           120.339            RioGallegos          3760.594
        26   01 Jun 2027 11:26:17.048   01 Jun 2027 11:27:25.644            68.596                Sumatra          2143.625
        27   01 Jun 2027 11:48:05.721   01 Jun 2027 11:48:23.177            17.456                Novosib           545.500
        28   01 Jun 2027 11:48:41.445   01 Jun 2027 11:54:22.085           340.640              Murmansk1         10645.000
        29   01 Jun 2027 11:57:29.808   01 Jun 2027 11:57:43.359            13.551              Murmansk2           423.469
        30   01 Jun 2027 12:31:06.577   01 Jun 2027 12:34:33.420           206.843            RioGallegos          6463.844
        31   01 Jun 2027 13:06:29.419   01 Jun 2027 13:09:16.122           166.703                Sumatra          5209.469
        32   01 Jun 2027 13:18:51.161   01 Jun 2027 13:20:20.774            89.613                Novosib          2800.406
        33   01 Jun 2027 13:21:22.553   01 Jun 2027 13:23:36.097           133.544                Novosib          4173.250
        34   01 Jun 2027 13:35:06.961   01 Jun 2027 13:35:11.504             4.543              Murmansk2           141.969
        35   01 Jun 2027 14:54:53.713   01 Jun 2027 14:58:37.860           224.147                 Moscow          7004.594
        36   01 Jun 2027 14:59:35.172   01 Jun 2027 15:01:32.948           117.776              Murmansk1          3680.500
        37   01 Jun 2027 15:01:54.139   01 Jun 2027 15:02:08.729            14.590              Murmansk1           455.938
        38   01 Jun 2027 15:02:10.831   01 Jun 2027 15:03:21.410            70.579                Norilsk          2205.594
        39   01 Jun 2027 15:04:01.946   01 Jun 2027 15:05:47.486           105.540                Norilsk          3298.125
        40   01 Jun 2027 15:06:27.219   01 Jun 2027 15:07:35.831            68.612                Norilsk          2144.125
        41   01 Jun 2027 16:09:42.844   01 Jun 2027 16:10:04.496            21.652               CapeTown           676.625
        42   01 Jun 2027 16:10:48.480   01 Jun 2027 16:12:37.198           108.718               CapeTown          3397.438
        43   01 Jun 2027 16:13:59.762   01 Jun 2027 16:14:30.320            30.558               CapeTown           954.937
        44   01 Jun 2027 16:16:34.515   01 Jun 2027 16:16:56.812            22.297               CapeTown           696.781
        45   01 Jun 2027 16:18:18.451   01 Jun 2027 16:18:56.521            38.070               CapeTown          1189.688
        46   01 Jun 2027 16:35:13.998   01 Jun 2027 16:35:31.610            17.612              Murmansk2           550.375
        47   01 Jun 2027 16:35:31.610   01 Jun 2027 16:35:52.533            20.923              Murmansk1           653.844
        48   01 Jun 2027 16:36:08.658   01 Jun 2027 16:36:53.014            44.356                 Moscow          1386.125
        49   01 Jun 2027 16:38:41.436   01 Jun 2027 16:39:47.215            65.779                 Moscow          2055.594
        50   01 Jun 2027 16:42:12.813   01 Jun 2027 16:42:58.310            45.497              Murmansk2          1421.781
        51   01 Jun 2027 16:43:28.711   01 Jun 2027 16:44:18.433            49.722              Murmansk2          1553.812
        52   01 Jun 2027 16:45:06.461   01 Jun 2027 16:45:28.468            22.007              Murmansk2           687.719
        53   01 Jun 2027 16:46:17.487   01 Jun 2027 16:46:34.941            17.454              Murmansk2           545.437
        54   01 Jun 2027 16:49:47.991   01 Jun 2027 16:50:15.629            27.638                Anadyr1           863.688
        55   01 Jun 2027 16:51:29.804   01 Jun 2027 16:51:59.506            29.702                Anadyr2           928.187
        56   01 Jun 2027 16:52:35.139   01 Jun 2027 16:52:49.428            14.289                Anadyr1           446.531
        57   01 Jun 2027 16:53:14.430   01 Jun 2027 16:53:32.587            18.157                Anadyr2           567.406
        58   01 Jun 2027 16:54:07.171   01 Jun 2027 16:54:32.274            25.103                Anadyr1           784.469
        59   01 Jun 2027 16:54:56.474   01 Jun 2027 16:55:30.878            34.404                Anadyr1          1075.125
        60   01 Jun 2027 16:56:07.522   01 Jun 2027 16:56:35.320            27.798                Anadyr2           868.687
        61   01 Jun 2027 16:57:23.755   01 Jun 2027 16:58:14.370            50.615                Anadyr1          1581.719
        62   01 Jun 2027 17:53:58.838   01 Jun 2027 17:54:37.252            38.414               CapeTown          1200.438
        63   01 Jun 2027 17:55:26.940   01 Jun 2027 17:56:03.561            36.621               CapeTown          1144.406
        64   01 Jun 2027 18:14:22.462   01 Jun 2027 18:16:58.958           156.496              Murmansk2          4890.500
        65   01 Jun 2027 18:17:35.519   01 Jun 2027 18:18:32.694            57.175              Murmansk2          1786.719
        66   01 Jun 2027 18:21:26.947   01 Jun 2027 18:22:58.725            91.778              Murmansk2          2868.062
        67   01 Jun 2027 18:32:30.413   01 Jun 2027 18:32:37.577             7.164               Magadan1           223.875
        68   01 Jun 2027 18:33:33.675   01 Jun 2027 18:34:05.279            31.604               Magadan1           987.625
        69   01 Jun 2027 18:34:20.719   01 Jun 2027 18:35:02.466            41.747               Magadan1          1304.594
        70   01 Jun 2027 18:36:50.405   01 Jun 2027 18:36:56.848             6.443                Anadyr2           201.344
        71   01 Jun 2027 19:26:31.067   01 Jun 2027 19:27:23.873            52.806               CapeTown          1650.187
        72   01 Jun 2027 20:00:50.587   01 Jun 2027 20:04:35.193           224.606                Anadyr2          7018.937
        73   01 Jun 2027 20:04:59.807   01 Jun 2027 20:05:36.534            36.727               Magadan1          1147.719
        74   01 Jun 2027 20:05:42.808   01 Jun 2027 20:05:50.007             7.199               Magadan2           224.969
        75   01 Jun 2027 20:06:06.433   01 Jun 2027 20:06:18.857            12.424               Magadan1           388.250
        76   01 Jun 2027 20:06:34.094   01 Jun 2027 20:07:02.993            28.899               Magadan2           903.094
        77   01 Jun 2027 20:07:29.081   01 Jun 2027 20:07:56.035            26.954               Magadan1           842.312
        78   01 Jun 2027 20:09:12.346   01 Jun 2027 20:09:23.248            10.902               Magadan1           340.687
        79   01 Jun 2027 20:09:55.976   01 Jun 2027 20:10:10.677            14.701               Magadan2           459.406
        80   01 Jun 2027 20:11:05.451   01 Jun 2027 20:11:36.403            30.952               Magadan1           967.250
        81   01 Jun 2027 20:13:26.197   01 Jun 2027 20:13:54.823            28.626               Magadan1           894.563
        82   01 Jun 2027 20:14:14.655   01 Jun 2027 20:14:34.643            19.988               Magadan2           624.625
        83   01 Jun 2027 21:36:43.021   01 Jun 2027 21:38:51.326           128.305                Anadyr1          4009.531
        84   01 Jun 2027 21:38:57.731   01 Jun 2027 21:43:38.698           280.967                Norilsk          8780.219
        85   01 Jun 2027 21:44:32.547   01 Jun 2027 21:45:11.273            38.726                Irkutsk          1210.188
        86   01 Jun 2027 21:46:39.029   01 Jun 2027 21:47:15.998            36.969                Irkutsk          1155.281
        87   01 Jun 2027 21:49:48.035   01 Jun 2027 21:50:28.606            40.571               Magadan2          1267.844
        88   01 Jun 2027 22:01:06.611   01 Jun 2027 22:02:44.662            98.051                Sumatra          3064.094
        89   01 Jun 2027 22:05:00.910   01 Jun 2027 22:05:13.687            12.777                Sumatra           399.281
        90   01 Jun 2027 22:37:15.986   01 Jun 2027 22:38:02.826            46.840            RioGallegos          1463.750
        91   01 Jun 2027 22:41:18.832   01 Jun 2027 22:41:50.528            31.696            RioGallegos           990.500
        92   01 Jun 2027 23:12:09.624   01 Jun 2027 23:12:26.744            17.120                Anadyr1           535.000
        93   01 Jun 2027 23:12:38.436   01 Jun 2027 23:12:44.598             6.162                Anadyr1           192.563
        94   01 Jun 2027 23:12:47.849   01 Jun 2027 23:13:10.678            22.829                Anadyr1           713.406
        95   01 Jun 2027 23:14:05.628   01 Jun 2027 23:14:34.609            28.981                Anadyr2           905.656
        96   01 Jun 2027 23:14:40.098   01 Jun 2027 23:15:44.383            64.285                Norilsk          2008.906
        97   01 Jun 2027 23:16:02.410   01 Jun 2027 23:16:18.645            16.235                Norilsk           507.344
        98   01 Jun 2027 23:17:09.028   01 Jun 2027 23:17:49.124            40.096                Norilsk          1253.000
        99   01 Jun 2027 23:18:22.148   01 Jun 2027 23:18:36.443            14.295               Magadan2           446.719
       100   01 Jun 2027 23:18:36.443   01 Jun 2027 23:18:43.192             6.749               Magadan1           210.906
       101   01 Jun 2027 23:19:20.298   01 Jun 2027 23:20:11.243            50.945                Norilsk          1592.031
       102   01 Jun 2027 23:21:36.019   01 Jun 2027 23:21:57.757            21.738                Novosib           679.313
       103   01 Jun 2027 23:22:50.857   01 Jun 2027 23:23:07.511            16.654                Novosib           520.437
       104   01 Jun 2027 23:25:29.659   01 Jun 2027 23:25:40.586            10.927                Novosib           341.469
       105   01 Jun 2027 23:25:54.666   01 Jun 2027 23:26:12.646            17.980                Novosib           561.875
       106   01 Jun 2027 23:27:09.293   01 Jun 2027 23:28:08.855            59.562                Novosib          1861.313
       107   01 Jun 2027 23:36:14.506   01 Jun 2027 23:36:45.220            30.714                Sumatra           959.812
       108   01 Jun 2027 23:38:15.619   01 Jun 2027 23:38:54.868            39.249                Sumatra          1226.531
       109   01 Jun 2027 23:43:39.887   01 Jun 2027 23:44:27.930            48.043                Sumatra          1501.344
       110   02 Jun 2027 00:14:19.145   02 Jun 2027 00:15:35.846            76.701            RioGallegos          2396.906
       111   02 Jun 2027 00:46:33.414   02 Jun 2027 00:47:03.214            29.800                Anadyr2           931.250
       112   02 Jun 2027 00:48:00.022   02 Jun 2027 00:48:25.964            25.942                Anadyr1           810.687
       113   02 Jun 2027 00:49:00.919   02 Jun 2027 00:49:33.606            32.687                Anadyr1          1021.469
       114   02 Jun 2027 00:50:33.853   02 Jun 2027 00:52:18.121           104.268                Norilsk          3258.375
       115   02 Jun 2027 00:53:19.533   02 Jun 2027 00:53:25.792             6.259               Magadan1           195.594
       116   02 Jun 2027 00:53:55.613   02 Jun 2027 00:54:31.780            36.167               Magadan2          1130.219
       117   02 Jun 2027 00:54:50.369   02 Jun 2027 00:55:22.542            32.173                Irkutsk          1005.406
       118   02 Jun 2027 00:55:34.676   02 Jun 2027 00:56:17.409            42.733                Novosib          1335.406
       119   02 Jun 2027 00:56:49.098   02 Jun 2027 00:57:03.489            14.391              Murmansk1           449.719
       120   02 Jun 2027 00:59:09.099   02 Jun 2027 00:59:13.467             4.368                Novosib           136.500
       121   02 Jun 2027 00:59:46.354   02 Jun 2027 01:00:15.394            29.040                Irkutsk           907.500
       122   02 Jun 2027 01:02:29.808   02 Jun 2027 01:02:43.702            13.894                Novosib           434.187
       123   02 Jun 2027 01:02:58.004   02 Jun 2027 01:03:00.815             2.811                Novosib            87.844
       124   02 Jun 2027 01:03:26.846   02 Jun 2027 01:03:34.468             7.622                Novosib           238.188
       125   02 Jun 2027 01:04:20.193   02 Jun 2027 01:05:31.290            71.097                Irkutsk          2221.781
       126   02 Jun 2027 01:13:38.522   02 Jun 2027 01:14:20.330            41.808                  Delhi          1306.500
       127   02 Jun 2027 01:43:14.114   02 Jun 2027 01:43:32.388            18.274            RioGallegos           571.063
       128   02 Jun 2027 01:43:56.675   02 Jun 2027 01:44:46.840            50.165            RioGallegos          1567.656
       129   02 Jun 2027 01:46:24.467   02 Jun 2027 01:46:27.292             2.825            RioGallegos            88.281
       130   02 Jun 2027 01:46:39.955   02 Jun 2027 01:47:34.827            54.872            RioGallegos          1714.750
       131   02 Jun 2027 02:19:54.845   02 Jun 2027 02:20:17.973            23.128                Anadyr1           722.750
       132   02 Jun 2027 02:20:20.941   02 Jun 2027 02:20:36.941            16.000                Anadyr1           500.000
       133   02 Jun 2027 02:22:19.658   02 Jun 2027 02:22:30.872            11.214                Anadyr2           350.438
       134   02 Jun 2027 02:22:51.920   02 Jun 2027 02:22:53.176             1.256                Anadyr2            39.250
       135   02 Jun 2027 02:23:15.306   02 Jun 2027 02:23:19.549             4.243                Anadyr1           132.594
       136   02 Jun 2027 02:23:56.212   02 Jun 2027 02:24:29.662            33.450                Anadyr1          1045.313
       137   02 Jun 2027 02:26:08.047   02 Jun 2027 02:27:00.219            52.172               Magadan2          1630.375
       138   02 Jun 2027 02:27:15.294   02 Jun 2027 02:27:43.206            27.912                Norilsk           872.250
       139   02 Jun 2027 02:28:47.100   02 Jun 2027 02:29:33.360            46.260              Murmansk1          1445.625
       140   02 Jun 2027 02:30:16.247   02 Jun 2027 02:31:05.569            49.322              Murmansk1          1541.313
       141   02 Jun 2027 02:31:33.471   02 Jun 2027 02:32:51.613            78.142                Irkutsk          2441.937
       142   02 Jun 2027 02:40:01.808   02 Jun 2027 02:40:07.560             5.752                Novosib           179.750
       143   02 Jun 2027 02:40:36.970   02 Jun 2027 02:41:02.663            25.693                Novosib           802.906
       144   02 Jun 2027 02:43:57.285   02 Jun 2027 02:44:38.138            40.853                  Delhi          1276.656
       145   02 Jun 2027 03:05:40.553   02 Jun 2027 03:05:59.190            18.637               CapeTown           582.406
       146   02 Jun 2027 04:12:03.304   02 Jun 2027 04:14:14.428           131.124                Novosib          4097.625
       147   02 Jun 2027 04:14:15.848   02 Jun 2027 04:14:40.680            24.832              Murmansk2           776.000
       148   02 Jun 2027 04:15:04.227   02 Jun 2027 04:17:10.767           126.540              Murmansk1          3954.375
       149   02 Jun 2027 04:17:11.223   02 Jun 2027 04:19:45.410           154.187                 Moscow          4818.344
       150   02 Jun 2027 04:39:43.413   02 Jun 2027 04:40:11.069            27.656               CapeTown           864.250
       151   02 Jun 2027 04:40:40.138   02 Jun 2027 04:41:23.968            43.830               CapeTown          1369.687
       152   02 Jun 2027 05:35:36.215   02 Jun 2027 05:36:51.552            75.337                Anadyr2          2354.281
       153   02 Jun 2027 05:37:39.659   02 Jun 2027 05:37:56.794            17.135               Magadan2           535.469
       154   02 Jun 2027 05:38:06.790   02 Jun 2027 05:38:56.051            49.261                Anadyr2          1539.406
       155   02 Jun 2027 05:39:21.012   02 Jun 2027 05:39:43.553            22.541                Anadyr1           704.406
       156   02 Jun 2027 05:40:20.418   02 Jun 2027 05:40:39.795            19.377                Anadyr1           605.531
       157   02 Jun 2027 05:40:54.326   02 Jun 2027 05:40:59.360             5.034               Magadan1           157.313
       158   02 Jun 2027 05:47:09.627   02 Jun 2027 05:47:14.290             4.663                Norilsk           145.719
       159   02 Jun 2027 05:47:23.480   02 Jun 2027 05:47:47.301            23.821              Murmansk1           744.406
       160   02 Jun 2027 05:47:56.585   02 Jun 2027 05:47:58.037             1.452                Norilsk            45.375
       161   02 Jun 2027 07:11:13.688   02 Jun 2027 07:11:47.454            33.766               Magadan2          1055.188
       162   02 Jun 2027 07:11:47.454   02 Jun 2027 07:13:47.129           119.675               Magadan1          3739.844
       163   02 Jun 2027 07:13:56.001   02 Jun 2027 07:15:14.092            78.091               Magadan2          2440.344
       164   02 Jun 2027 07:15:14.092   02 Jun 2027 07:16:22.370            68.278               Magadan1          2133.688
       165   02 Jun 2027 08:45:21.772   02 Jun 2027 08:47:08.890           107.118               Magadan2          3347.438
       166   02 Jun 2027 08:47:08.890   02 Jun 2027 08:49:12.515           123.625               Magadan1          3863.281
       167   02 Jun 2027 08:49:48.365   02 Jun 2027 08:50:46.278            57.913                Norilsk          1809.781
       168   02 Jun 2027 08:50:49.174   02 Jun 2027 08:52:59.313           130.139                Novosib          4066.844
       169   02 Jun 2027 08:52:59.679   02 Jun 2027 08:53:19.168            19.489                Norilsk           609.031
       170   02 Jun 2027 08:53:43.208   02 Jun 2027 08:54:17.932            34.724                Norilsk          1085.125
       171   02 Jun 2027 08:55:05.621   02 Jun 2027 08:55:37.409            31.788                Norilsk           993.375
       172   02 Jun 2027 09:28:02.407   02 Jun 2027 09:29:03.281            60.874            RioGallegos          1902.313
       173   02 Jun 2027 10:06:08.086   02 Jun 2027 10:07:34.347            86.261                Sumatra          2695.656
       174   02 Jun 2027 10:22:56.133   02 Jun 2027 10:25:26.883           150.750                Irkutsk          4710.937
       175   02 Jun 2027 10:25:28.269   02 Jun 2027 10:26:56.550            88.281               Magadan1          2758.781
       176   02 Jun 2027 10:26:56.550   02 Jun 2027 10:27:10.420            13.870               Magadan2           433.437
       177   02 Jun 2027 10:27:31.208   02 Jun 2027 10:28:04.966            33.758              Murmansk1          1054.937
       178   02 Jun 2027 10:28:23.539   02 Jun 2027 10:28:46.059            22.520                Irkutsk           703.750
       179   02 Jun 2027 10:29:00.245   02 Jun 2027 10:30:22.684            82.439              Murmansk2          2576.219
       180   02 Jun 2027 10:30:44.402   02 Jun 2027 10:31:49.073            64.671              Murmansk1          2020.969
       181   02 Jun 2027 11:03:41.426   02 Jun 2027 11:04:02.147            20.721            RioGallegos           647.531
       182   02 Jun 2027 11:04:22.552   02 Jun 2027 11:04:53.588            31.036            RioGallegos           969.875
       183   02 Jun 2027 11:05:28.293   02 Jun 2027 11:06:22.472            54.179            RioGallegos          1693.094
       184   02 Jun 2027 11:07:12.262   02 Jun 2027 11:07:59.878            47.616            RioGallegos          1488.000
       185   02 Jun 2027 11:38:17.623   02 Jun 2027 11:40:25.321           127.698                Sumatra          3990.563
       186   02 Jun 2027 11:59:50.703   02 Jun 2027 12:00:00.101             9.398                Norilsk           293.688
       187   02 Jun 2027 12:00:28.853   02 Jun 2027 12:00:52.900            24.047              Murmansk1           751.469
       188   02 Jun 2027 12:01:17.956   02 Jun 2027 12:01:41.292            23.336              Murmansk1           729.250
       189   02 Jun 2027 12:02:00.174   02 Jun 2027 12:04:21.748           141.574                Irkutsk          4424.188
       190   02 Jun 2027 12:05:09.677   02 Jun 2027 12:06:15.769            66.092                Novosib          2065.375
       191   02 Jun 2027 12:06:15.859   02 Jun 2027 12:06:43.923            28.064                 Moscow           877.000
       192   02 Jun 2027 12:07:48.678   02 Jun 2027 12:09:42.091           113.413                Norilsk          3544.156
       193   02 Jun 2027 12:09:44.893   02 Jun 2027 12:11:47.466           122.573              Murmansk1          3830.406
       194   02 Jun 2027 12:47:15.304   02 Jun 2027 12:48:11.113            55.809            RioGallegos          1744.031
       195   02 Jun 2027 12:48:29.000   02 Jun 2027 12:49:03.375            34.375            RioGallegos          1074.219
       196   02 Jun 2027 13:30:35.022   02 Jun 2027 13:32:37.767           122.745                Novosib          3835.781
       197   02 Jun 2027 13:33:14.767   02 Jun 2027 13:35:01.619           106.852                  Delhi          3339.125
       198   02 Jun 2027 13:36:36.751   02 Jun 2027 13:37:12.489            35.738                Novosib          1116.813
       199   02 Jun 2027 13:37:36.463   02 Jun 2027 13:38:16.003            39.540                Novosib          1235.625
       200   02 Jun 2027 13:38:43.531   02 Jun 2027 13:41:45.768           182.237                Novosib          5694.906
       201   02 Jun 2027 13:41:48.541   02 Jun 2027 13:43:37.445           108.904                 Moscow          3403.250
       202   02 Jun 2027 13:43:56.186   02 Jun 2027 13:45:41.966           105.780                Norilsk          3305.625
       203   02 Jun 2027 13:45:42.829   02 Jun 2027 13:47:22.588            99.759              Murmansk1          3117.469
       204   02 Jun 2027 15:12:27.755   02 Jun 2027 15:12:48.466            20.711                 Moscow           647.219
       205   02 Jun 2027 15:13:33.783   02 Jun 2027 15:13:53.451            19.668              Murmansk1           614.625
       206   02 Jun 2027 15:13:54.788   02 Jun 2027 15:14:28.863            34.075                 Moscow          1064.844
       207   02 Jun 2027 15:14:39.914   02 Jun 2027 15:21:18.908           398.994                Norilsk         12468.562
       208   02 Jun 2027 15:21:24.780   02 Jun 2027 15:22:39.340            74.560              Murmansk2          2330.000
       209   02 Jun 2027 15:23:08.677   02 Jun 2027 15:23:17.048             8.371              Murmansk1           261.594
       210   02 Jun 2027 16:27:52.507   02 Jun 2027 16:28:44.895            52.388               CapeTown          1637.125
       211   02 Jun 2027 16:30:07.085   02 Jun 2027 16:32:08.340           121.255               CapeTown          3789.219
       212   02 Jun 2027 16:51:53.361   02 Jun 2027 16:55:10.317           196.956                 Moscow          6154.875
       213   02 Jun 2027 16:57:30.629   02 Jun 2027 16:58:24.005            53.376              Murmansk2          1668.000
       214   02 Jun 2027 16:58:24.005   02 Jun 2027 16:59:15.488            51.483              Murmansk1          1608.844
       215   02 Jun 2027 17:08:55.761   02 Jun 2027 17:09:36.044            40.283                Anadyr2          1258.844
       216   02 Jun 2027 17:10:01.257   02 Jun 2027 17:10:08.973             7.716                Anadyr1           241.125
       217   02 Jun 2027 17:10:08.973   02 Jun 2027 17:10:27.068            18.095                Anadyr2           565.469
       218   02 Jun 2027 17:10:51.956   02 Jun 2027 17:11:09.407            17.451                Anadyr2           545.344
       219   02 Jun 2027 18:06:59.768   02 Jun 2027 18:07:47.933            48.165               CapeTown          1505.156
       220   02 Jun 2027 18:08:01.210   02 Jun 2027 18:08:43.848            42.638               CapeTown          1332.437
       221   02 Jun 2027 18:27:00.928   02 Jun 2027 18:27:27.795            26.867              Murmansk2           839.594
       222   02 Jun 2027 18:27:39.327   02 Jun 2027 18:28:45.055            65.728              Murmansk1          2054.000
       223   02 Jun 2027 18:31:15.177   02 Jun 2027 18:32:28.512            73.335              Murmansk1          2291.719
       224   02 Jun 2027 18:32:40.971   02 Jun 2027 18:33:28.283            47.312              Murmansk2          1478.500
       225   02 Jun 2027 18:43:54.728   02 Jun 2027 18:44:26.036            31.308                Anadyr2           978.375
       226   02 Jun 2027 18:45:19.104   02 Jun 2027 18:46:07.934            48.830               Magadan1          1525.938
       227   02 Jun 2027 18:46:36.802   02 Jun 2027 18:47:40.837            64.035               Magadan1          2001.094
       228   02 Jun 2027 18:49:15.116   02 Jun 2027 18:49:35.263            20.147                Anadyr1           629.594
       229   02 Jun 2027 20:12:52.242   02 Jun 2027 20:16:18.878           206.636                Anadyr1          6457.375
       230   02 Jun 2027 20:16:21.202   02 Jun 2027 20:17:00.096            38.894               Magadan1          1215.437
       231   02 Jun 2027 20:17:31.500   02 Jun 2027 20:17:39.526             8.026               Magadan2           250.813
       232   02 Jun 2027 20:17:58.705   02 Jun 2027 20:18:13.572            14.867               Magadan1           464.594
       233   02 Jun 2027 20:18:33.337   02 Jun 2027 20:18:49.220            15.883               Magadan1           496.344
       234   02 Jun 2027 20:19:01.006   02 Jun 2027 20:19:05.714             4.708               Magadan2           147.125
       235   02 Jun 2027 20:19:49.096   02 Jun 2027 20:19:50.832             1.736                Anadyr2            54.250
       236   02 Jun 2027 20:20:05.089   02 Jun 2027 20:20:20.861            15.772                Anadyr2           492.875
       237   02 Jun 2027 20:20:27.071   02 Jun 2027 20:20:56.068            28.997               Magadan2           906.156
       238   02 Jun 2027 20:21:18.599   02 Jun 2027 20:21:45.098            26.499               Magadan1           828.094
       239   02 Jun 2027 20:23:04.805   02 Jun 2027 20:23:40.650            35.845               Magadan1          1120.156
       240   02 Jun 2027 20:23:48.467   02 Jun 2027 20:24:01.097            12.630               Magadan1           394.688
       241   02 Jun 2027 20:24:39.556   02 Jun 2027 20:25:08.877            29.321               Magadan2           916.281
       242   02 Jun 2027 20:25:44.827   02 Jun 2027 20:25:57.628            12.801               Magadan2           400.031
       243   02 Jun 2027 20:26:54.497   02 Jun 2027 20:27:02.828             8.331               Magadan2           260.344
       244   02 Jun 2027 21:09:48.684   02 Jun 2027 21:11:36.370           107.686            RioGallegos          3365.187
       245   02 Jun 2027 21:48:42.957   02 Jun 2027 21:50:58.633           135.676                Anadyr1          4239.875
       246   02 Jun 2027 21:51:14.333   02 Jun 2027 21:51:46.144            31.811                Norilsk           994.094
       247   02 Jun 2027 21:52:46.393   02 Jun 2027 21:52:56.759            10.366                Norilsk           323.938
       248   02 Jun 2027 21:53:15.401   02 Jun 2027 21:53:21.827             6.426                Norilsk           200.812
       249   02 Jun 2027 21:53:28.187   02 Jun 2027 21:53:42.506            14.319               Magadan1           447.469
       250   02 Jun 2027 21:54:19.901   02 Jun 2027 21:55:35.701            75.800                Norilsk          2368.750
       251   02 Jun 2027 21:57:21.689   02 Jun 2027 21:57:29.171             7.482                Irkutsk           233.813
       252   02 Jun 2027 21:57:34.571   02 Jun 2027 21:57:59.747            25.176                Norilsk           786.750
       253   02 Jun 2027 21:58:55.851   02 Jun 2027 21:58:59.574             3.723                Irkutsk           116.344
       254   02 Jun 2027 21:59:13.609   02 Jun 2027 21:59:30.428            16.819               Magadan1           525.594
       255   02 Jun 2027 22:00:41.300   02 Jun 2027 22:00:41.608             0.308               Magadan2             9.625
       256   02 Jun 2027 22:00:45.893   02 Jun 2027 22:00:53.661             7.768               Magadan1           242.750
       257   02 Jun 2027 22:01:23.619   02 Jun 2027 22:02:09.670            46.051               Magadan1          1439.094
       258   02 Jun 2027 22:03:13.633   02 Jun 2027 22:03:32.581            18.948               Magadan1           592.125
       259   02 Jun 2027 22:11:26.829   02 Jun 2027 22:13:09.864           103.035                Sumatra          3219.844
       260   02 Jun 2027 22:51:46.997   02 Jun 2027 22:51:57.588            10.591            RioGallegos           330.969
       261   02 Jun 2027 22:52:17.348   02 Jun 2027 22:53:21.796            64.448            RioGallegos          2014.000
       262   02 Jun 2027 23:24:03.851   02 Jun 2027 23:24:30.911            27.060                Anadyr2           845.625
       263   02 Jun 2027 23:24:48.566   02 Jun 2027 23:26:06.799            78.233                Anadyr2          2444.781
       264   02 Jun 2027 23:26:35.680   02 Jun 2027 23:27:01.029            25.349                Norilsk           792.156
       265   02 Jun 2027 23:27:07.536   02 Jun 2027 23:27:14.023             6.487                Norilsk           202.719
       266   02 Jun 2027 23:27:33.300   02 Jun 2027 23:27:58.668            25.368               Magadan1           792.750
       267   02 Jun 2027 23:29:50.171   02 Jun 2027 23:30:24.466            34.295               Magadan2          1071.719
       268   02 Jun 2027 23:30:32.690   02 Jun 2027 23:31:39.656            66.966                Irkutsk          2092.688
       269   02 Jun 2027 23:33:37.679   02 Jun 2027 23:34:48.369            70.690                Novosib          2209.063
       270   02 Jun 2027 23:37:47.551   02 Jun 2027 23:38:16.476            28.925                Novosib           903.906
       271   02 Jun 2027 23:39:31.000   02 Jun 2027 23:40:06.451            35.451                Irkutsk          1107.844
       272   02 Jun 2027 23:42:41.080   02 Jun 2027 23:43:19.053            37.973                  Delhi          1186.656
       273   02 Jun 2027 23:53:12.560   02 Jun 2027 23:53:18.070             5.510                Sumatra           172.187
       274   02 Jun 2027 23:53:33.614   02 Jun 2027 23:54:01.229            27.615                Sumatra           862.969
       275   03 Jun 2027 00:24:52.221   03 Jun 2027 00:25:10.710            18.489            RioGallegos           577.781
       276   03 Jun 2027 00:27:33.096   03 Jun 2027 00:28:12.414            39.318            RioGallegos          1228.687
       277   03 Jun 2027 00:29:03.663   03 Jun 2027 00:29:32.306            28.643            RioGallegos           895.094
       278   03 Jun 2027 00:30:07.000   03 Jun 2027 00:30:29.878            22.878            RioGallegos           714.938
       279   03 Jun 2027 00:59:12.238   03 Jun 2027 00:59:35.928            23.690                Anadyr1           740.312
       280   03 Jun 2027 00:59:59.772   03 Jun 2027 01:00:23.549            23.777                Anadyr1           743.031
       281   03 Jun 2027 01:00:45.138   03 Jun 2027 01:00:52.097             6.959                Anadyr1           217.469
       282   03 Jun 2027 01:01:18.600   03 Jun 2027 01:01:50.882            32.282                Anadyr1          1008.812
       283   03 Jun 2027 01:02:36.054   03 Jun 2027 01:04:36.645           120.591                Norilsk          3768.469
       284   03 Jun 2027 01:05:43.391   03 Jun 2027 01:06:16.852            33.461              Murmansk2          1045.656
       285   03 Jun 2027 01:06:29.807   03 Jun 2027 01:07:15.615            45.808              Murmansk2          1431.500
       286   03 Jun 2027 01:11:16.760   03 Jun 2027 01:12:06.865            50.105                Novosib          1565.781
       287   03 Jun 2027 01:14:39.836   03 Jun 2027 01:15:12.630            32.794                Irkutsk          1024.812
       288   03 Jun 2027 01:17:03.438   03 Jun 2027 01:17:14.104            10.666                Novosib           333.313
       289   03 Jun 2027 01:20:37.612   03 Jun 2027 01:21:13.596            35.984                  Delhi          1124.500
       290   03 Jun 2027 01:21:31.864   03 Jun 2027 01:22:14.204            42.340                  Delhi          1323.125
       291   03 Jun 2027 01:25:00.611   03 Jun 2027 01:26:00.848            60.237                  Delhi          1882.406
       292   03 Jun 2027 01:55:28.923   03 Jun 2027 01:56:07.605            38.682            RioGallegos          1208.813
       293   03 Jun 2027 01:58:05.330   03 Jun 2027 01:58:18.969            13.639            RioGallegos           426.219
       294   03 Jun 2027 02:01:26.392   03 Jun 2027 02:02:20.266            53.874            RioGallegos          1683.562
       295   03 Jun 2027 02:33:32.708   03 Jun 2027 02:34:04.527            31.819                Anadyr1           994.344
       296   03 Jun 2027 02:34:30.303   03 Jun 2027 02:34:45.182            14.879                Anadyr1           464.969
       297   03 Jun 2027 02:37:22.670   03 Jun 2027 02:37:41.087            18.417                Anadyr2           575.531
       298   03 Jun 2027 02:37:46.064   03 Jun 2027 02:38:24.165            38.101               Magadan2          1190.656
       299   03 Jun 2027 02:39:11.423   03 Jun 2027 02:39:34.577            23.154                Norilsk           723.562
       300   03 Jun 2027 02:40:47.099   03 Jun 2027 02:41:19.927            32.828              Murmansk2          1025.875
       301   03 Jun 2027 02:42:28.394   03 Jun 2027 02:42:32.902             4.508                Novosib           140.875
       302   03 Jun 2027 02:42:57.144   03 Jun 2027 02:43:29.520            32.376                Novosib          1011.750
       303   03 Jun 2027 02:45:33.725   03 Jun 2027 02:45:54.730            21.005                Irkutsk           656.406
       304   03 Jun 2027 02:46:49.782   03 Jun 2027 02:47:54.522            64.740                Irkutsk          2023.125
       305   03 Jun 2027 02:53:09.117   03 Jun 2027 02:53:30.712            21.595                Novosib           674.844
       306   03 Jun 2027 02:54:35.179   03 Jun 2027 02:56:16.722           101.543                  Delhi          3173.219
       307   03 Jun 2027 04:23:40.848   03 Jun 2027 04:25:12.779            91.931              Murmansk1          2872.844
       308   03 Jun 2027 04:25:34.000   03 Jun 2027 04:28:21.229           167.229              Murmansk1          5225.906
       309   03 Jun 2027 04:29:11.189   03 Jun 2027 04:29:21.460            10.271              Murmansk2           320.969
       310   03 Jun 2027 05:48:08.172   03 Jun 2027 05:48:13.393             5.221               Magadan2           163.156
       311   03 Jun 2027 05:48:23.154   03 Jun 2027 05:53:28.865           305.711                Anadyr2          9553.469
       312   03 Jun 2027 07:24:48.447   03 Jun 2027 07:24:55.011             6.564               Magadan2           205.125
       313   03 Jun 2027 07:25:06.844   03 Jun 2027 07:25:15.911             9.067                Norilsk           283.344
       314   03 Jun 2027 07:25:20.401   03 Jun 2027 07:29:06.243           225.842               Magadan1          7057.563
       315   03 Jun 2027 07:32:49.010   03 Jun 2027 07:35:14.796           145.786                 Moscow          4555.813
       316   03 Jun 2027 08:58:28.113   03 Jun 2027 08:58:34.262             6.149               Magadan2           192.156
       317   03 Jun 2027 08:58:37.657   03 Jun 2027 09:03:59.822           322.165                Anadyr2         10067.656
       318   03 Jun 2027 09:04:05.025   03 Jun 2027 09:04:48.232            43.207               Magadan2          1350.219
       319   03 Jun 2027 10:34:34.773   03 Jun 2027 10:36:04.719            89.946                Norilsk          2810.813
       320   03 Jun 2027 10:36:10.319   03 Jun 2027 10:36:38.898            28.579                Norilsk           893.094
       321   03 Jun 2027 10:37:00.460   03 Jun 2027 10:37:04.821             4.361                Irkutsk           136.281
       322   03 Jun 2027 10:37:07.215   03 Jun 2027 10:38:38.087            90.872                Irkutsk          2839.750
       323   03 Jun 2027 10:38:44.226   03 Jun 2027 10:38:47.004             2.778                Norilsk            86.812
       324   03 Jun 2027 10:38:47.282   03 Jun 2027 10:40:07.368            80.086              Murmansk2          2502.687
       325   03 Jun 2027 10:40:11.511   03 Jun 2027 10:41:29.853            78.342                Novosib          2448.187
       326   03 Jun 2027 11:15:56.797   03 Jun 2027 11:16:57.474            60.677            RioGallegos          1896.156
       327   03 Jun 2027 11:18:32.056   03 Jun 2027 11:18:48.875            16.819            RioGallegos           525.594
       328   03 Jun 2027 11:25:13.842   03 Jun 2027 11:25:38.498            24.656            RioGallegos           770.500
       329   03 Jun 2027 11:50:23.911   03 Jun 2027 11:51:03.945            40.034                Sumatra          1251.063
       330   03 Jun 2027 11:53:21.917   03 Jun 2027 11:54:44.280            82.363                Sumatra          2573.844
       331   03 Jun 2027 12:07:55.839   03 Jun 2027 12:09:11.043            75.204                Irkutsk          2350.125
       332   03 Jun 2027 12:13:49.806   03 Jun 2027 12:15:01.166            71.360                Irkutsk          2230.000
       333   03 Jun 2027 12:22:39.080   03 Jun 2027 12:23:17.514            38.434              Murmansk2          1201.062
       334   03 Jun 2027 12:58:38.564   03 Jun 2027 12:59:54.071            75.507            RioGallegos          2359.594
       335   03 Jun 2027 13:34:57.040   03 Jun 2027 13:35:15.111            18.071                  Delhi           564.719
       336   03 Jun 2027 13:37:25.240   03 Jun 2027 13:39:45.605           140.365                  Delhi          4386.406
       337   03 Jun 2027 13:43:03.401   03 Jun 2027 13:43:46.672            43.271                Novosib          1352.219
       338   03 Jun 2027 13:46:37.019   03 Jun 2027 13:47:26.393            49.374                Novosib          1542.937
       339   03 Jun 2027 13:49:36.815   03 Jun 2027 13:50:12.082            35.267                Norilsk          1102.094
       340   03 Jun 2027 13:53:58.897   03 Jun 2027 13:54:22.012            23.115                Norilsk           722.344
       341   03 Jun 2027 13:55:32.101   03 Jun 2027 13:55:52.487            20.386                Norilsk           637.063
       342   03 Jun 2027 15:18:55.505   03 Jun 2027 15:22:48.378           232.873                 Moscow          7277.281
       343   03 Jun 2027 15:23:59.791   03 Jun 2027 15:25:08.360            68.569              Murmansk2          2142.781
       344   03 Jun 2027 15:27:28.000   03 Jun 2027 15:32:09.375           281.375                Norilsk          8792.969
       345   03 Jun 2027 16:57:00.157   03 Jun 2027 16:57:31.838            31.681                 Moscow           990.031
       346   03 Jun 2027 16:58:14.219   03 Jun 2027 16:58:17.393             3.174                 Moscow            99.187
       347   03 Jun 2027 16:59:51.363   03 Jun 2027 17:00:46.624            55.261              Murmansk2          1726.906
       348   03 Jun 2027 17:03:12.948   03 Jun 2027 17:03:46.017            33.069              Murmansk1          1033.406
       349   03 Jun 2027 17:07:58.489   03 Jun 2027 17:09:06.172            67.683              Murmansk1          2115.094
       350   03 Jun 2027 17:13:16.967   03 Jun 2027 17:13:37.722            20.755                Anadyr1           648.594
       351   03 Jun 2027 17:13:41.720   03 Jun 2027 17:14:31.417            49.697                Anadyr1          1553.031
       352   03 Jun 2027 17:21:44.955   03 Jun 2027 17:21:56.036            11.081                Anadyr2           346.281
       353   03 Jun 2027 17:21:56.036   03 Jun 2027 17:22:06.787            10.751                Anadyr1           335.969
       354   03 Jun 2027 18:08:52.643   03 Jun 2027 18:09:29.345            36.702               CapeTown          1146.937
       355   03 Jun 2027 18:13:39.297   03 Jun 2027 18:13:47.264             7.967               CapeTown           248.969
       356   03 Jun 2027 18:16:04.642   03 Jun 2027 18:16:21.115            16.473               CapeTown           514.781
       357   03 Jun 2027 18:19:15.754   03 Jun 2027 18:20:01.736            45.982               CapeTown          1436.938
       358   03 Jun 2027 18:39:43.335   03 Jun 2027 18:41:46.145           122.810              Murmansk1          3837.813
       359   03 Jun 2027 18:43:07.225   03 Jun 2027 18:44:33.175            85.950              Murmansk1          2685.938
       360   03 Jun 2027 18:44:54.632   03 Jun 2027 18:44:57.116             2.484              Murmansk2            77.625
       361   03 Jun 2027 18:50:12.806   03 Jun 2027 18:51:05.937            53.131                Anadyr1          1660.344
       362   03 Jun 2027 18:51:59.728   03 Jun 2027 18:52:38.125            38.397               Magadan1          1199.906
       363   03 Jun 2027 18:53:29.813   03 Jun 2027 18:54:22.765            52.952               Magadan1          1654.750
       364   03 Jun 2027 18:58:10.614   03 Jun 2027 18:58:20.901            10.287               Magadan2           321.469
       365   03 Jun 2027 18:59:54.674   03 Jun 2027 19:00:56.788            62.114               Magadan1          1941.062
       366   03 Jun 2027 20:24:53.826   03 Jun 2027 20:26:31.107            97.281                Anadyr2          3040.031
       367   03 Jun 2027 20:27:11.807   03 Jun 2027 20:31:02.633           230.826               Magadan2          7213.313
       368   03 Jun 2027 20:38:04.782   03 Jun 2027 20:38:26.638            21.856               Magadan2           683.000
       369   03 Jun 2027 21:20:49.019   03 Jun 2027 21:23:27.249           158.230            RioGallegos          4944.688
       370   03 Jun 2027 21:26:09.615   03 Jun 2027 21:26:39.494            29.879            RioGallegos           933.719
       371   03 Jun 2027 22:00:42.454   03 Jun 2027 22:02:44.937           122.483                Anadyr2          3827.594
       372   03 Jun 2027 22:02:49.969   03 Jun 2027 22:03:08.517            18.548                Norilsk           579.625
       373   03 Jun 2027 22:03:20.438   03 Jun 2027 22:03:44.268            23.830                Norilsk           744.687
       374   03 Jun 2027 22:04:18.766   03 Jun 2027 22:04:23.711             4.945                Norilsk           154.531
       375   03 Jun 2027 22:04:36.900   03 Jun 2027 22:04:57.754            20.854               Magadan2           651.688
       376   03 Jun 2027 22:05:05.400   03 Jun 2027 22:05:18.164            12.764                Norilsk           398.875
       377   03 Jun 2027 22:05:24.317   03 Jun 2027 22:05:51.637            27.320               Magadan1           853.750
       378   03 Jun 2027 22:05:56.818   03 Jun 2027 22:06:10.209            13.391                Norilsk           418.469
       379   03 Jun 2027 22:07:40.286   03 Jun 2027 22:08:22.533            42.247                Irkutsk          1320.219
       380   03 Jun 2027 22:09:43.039   03 Jun 2027 22:10:29.344            46.305                Irkutsk          1447.031
       381   03 Jun 2027 22:22:27.977   03 Jun 2027 22:22:32.150             4.173                Sumatra           130.406
       382   03 Jun 2027 22:24:07.184   03 Jun 2027 22:24:50.927            43.743                Sumatra          1366.969
       383   03 Jun 2027 22:25:14.923   03 Jun 2027 22:26:16.052            61.129                Sumatra          1910.281
       384   03 Jun 2027 22:30:59.173   03 Jun 2027 22:31:21.138            21.965                Sumatra           686.406
       385   03 Jun 2027 23:35:56.953   03 Jun 2027 23:38:07.824           130.871                Anadyr1          4089.719
       386   03 Jun 2027 23:38:20.210   03 Jun 2027 23:38:29.426             9.216                Anadyr2           288.000
       387   03 Jun 2027 23:38:37.528   03 Jun 2027 23:40:23.297           105.769                Norilsk          3305.281
       388   03 Jun 2027 23:40:38.083   03 Jun 2027 23:42:16.393            98.310               Magadan2          3072.187
       389   03 Jun 2027 23:43:08.777   03 Jun 2027 23:44:10.682            61.905                Novosib          1934.531
       390   03 Jun 2027 23:46:26.581   03 Jun 2027 23:46:37.927            11.346                Novosib           354.562
       391   03 Jun 2027 23:49:14.846   03 Jun 2027 23:49:55.382            40.536                Novosib          1266.750
       392   03 Jun 2027 23:52:46.420   03 Jun 2027 23:54:34.305           107.885                  Delhi          3371.406
       393   04 Jun 2027 00:39:52.006   04 Jun 2027 00:40:17.985            25.979            RioGallegos           811.844
       394   04 Jun 2027 01:10:01.219   04 Jun 2027 01:10:30.990            29.771                Anadyr2           930.344
       395   04 Jun 2027 01:10:37.788   04 Jun 2027 01:11:35.063            57.275                Anadyr1          1789.844
       396   04 Jun 2027 01:11:59.882   04 Jun 2027 01:12:15.125            15.243                Anadyr1           476.344
       397   04 Jun 2027 01:12:37.400   04 Jun 2027 01:12:38.725             1.325                Anadyr1            41.406
       398   04 Jun 2027 01:14:55.466   04 Jun 2027 01:15:25.853            30.387                Anadyr1           949.594
       399   04 Jun 2027 01:15:28.015   04 Jun 2027 01:16:45.266            77.251               Magadan1          2414.094
       400   04 Jun 2027 01:17:03.385   04 Jun 2027 01:18:08.258            64.873               Magadan1          2027.281
       401   04 Jun 2027 01:18:10.702   04 Jun 2027 01:20:31.491           140.789              Murmansk2          4399.656
       402   04 Jun 2027 01:28:57.976   04 Jun 2027 01:29:35.916            37.940                  Delhi          1185.625
       403   04 Jun 2027 02:07:47.363   04 Jun 2027 02:09:45.785           118.422            RioGallegos          3700.687
       404   04 Jun 2027 02:10:14.718   04 Jun 2027 02:10:36.608            21.890            RioGallegos           684.062
       405   04 Jun 2027 02:43:18.133   04 Jun 2027 02:43:42.902            24.769                Anadyr1           774.031
       406   04 Jun 2027 02:45:50.609   04 Jun 2027 02:46:19.462            28.853                Anadyr2           901.656
       407   04 Jun 2027 02:49:20.183   04 Jun 2027 02:49:51.505            31.322               Magadan1           978.812
       408   04 Jun 2027 02:50:04.771   04 Jun 2027 02:50:32.115            27.344               Magadan1           854.500
       409   04 Jun 2027 02:50:33.345   04 Jun 2027 02:50:38.007             4.662                Norilsk           145.688
       410   04 Jun 2027 02:50:57.815   04 Jun 2027 02:51:21.622            23.807               Magadan1           743.969
       411   04 Jun 2027 02:51:42.250   04 Jun 2027 02:51:46.202             3.952                Norilsk           123.500
       412   04 Jun 2027 02:52:47.603   04 Jun 2027 02:54:29.378           101.775              Murmansk2          3180.469
       413   04 Jun 2027 02:54:41.872   04 Jun 2027 02:55:18.131            36.259              Murmansk1          1133.094
       414   04 Jun 2027 02:56:10.172   04 Jun 2027 02:56:58.684            48.512                Irkutsk          1516.000
       415   04 Jun 2027 03:00:03.429   04 Jun 2027 03:00:41.410            37.981                Irkutsk          1186.906
       416   04 Jun 2027 03:01:07.505   04 Jun 2027 03:01:14.848             7.343                Norilsk           229.469
       417   04 Jun 2027 03:01:30.914   04 Jun 2027 03:02:38.315            67.401              Murmansk2          2106.281
       418   04 Jun 2027 03:02:46.071   04 Jun 2027 03:03:38.637            52.566              Murmansk1          1642.687
       419   04 Jun 2027 03:03:50.244   04 Jun 2027 03:04:38.026            47.782                  Delhi          1493.188
       420   04 Jun 2027 04:35:56.453   04 Jun 2027 04:36:56.760            60.307                Novosib          1884.594
       421   04 Jun 2027 04:37:10.385   04 Jun 2027 04:37:44.606            34.221                Norilsk          1069.406
       422   04 Jun 2027 04:38:08.716   04 Jun 2027 04:41:30.350           201.634              Murmansk1          6301.062
       423   04 Jun 2027 04:41:32.620   04 Jun 2027 04:42:14.726            42.106                 Moscow          1315.813
       424   04 Jun 2027 04:55:50.711   04 Jun 2027 04:58:24.541           153.830               CapeTown          4807.188
       425   04 Jun 2027 05:59:20.912   04 Jun 2027 06:01:08.479           107.567               Magadan2          3361.469
       426   04 Jun 2027 07:37:09.724   04 Jun 2027 07:39:19.482           129.758                Norilsk          4054.937
       427   04 Jun 2027 07:39:20.340   04 Jun 2027 07:40:17.064            56.724               Magadan2          1772.625
       428   04 Jun 2027 07:46:05.130   04 Jun 2027 07:46:30.869            25.739                 Moscow           804.344
       429   04 Jun 2027 09:09:30.576   04 Jun 2027 09:10:42.074            71.498               Magadan2          2234.312
       430   04 Jun 2027 09:10:52.034   04 Jun 2027 09:11:29.444            37.410               Magadan2          1169.063
       431   04 Jun 2027 09:11:34.760   04 Jun 2027 09:13:54.518           139.758               Magadan2          4367.437
       432   04 Jun 2027 09:14:09.528   04 Jun 2027 09:15:12.600            63.072                Anadyr1          1971.000
       433   04 Jun 2027 09:15:20.040   04 Jun 2027 09:15:27.901             7.861               Magadan2           245.656
       434   04 Jun 2027 09:15:45.142   04 Jun 2027 09:16:44.477            59.335               Magadan1          1854.219
       435   04 Jun 2027 09:17:02.474   04 Jun 2027 09:17:06.354             3.880                Norilsk           121.250
       436   04 Jun 2027 09:18:00.199   04 Jun 2027 09:18:22.131            21.932              Murmansk2           685.375
       437   04 Jun 2027 09:19:46.136   04 Jun 2027 09:19:58.844            12.708              Murmansk1           397.125
       438   04 Jun 2027 09:51:41.688   04 Jun 2027 09:52:28.060            46.372            RioGallegos          1449.125
       439   04 Jun 2027 09:53:10.308   04 Jun 2027 09:53:21.653            11.345            RioGallegos           354.531
       440   04 Jun 2027 10:28:05.795   04 Jun 2027 10:28:07.469             1.674                Sumatra            52.313
       441   04 Jun 2027 10:29:22.235   04 Jun 2027 10:30:40.759            78.524                Sumatra          2453.875
       442   04 Jun 2027 10:46:06.414   04 Jun 2027 10:46:34.853            28.439                Norilsk           888.719
       443   04 Jun 2027 10:46:57.566   04 Jun 2027 10:48:04.093            66.527                Irkutsk          2078.969
       444   04 Jun 2027 10:48:11.591   04 Jun 2027 10:48:34.470            22.879                Norilsk           714.969
       445   04 Jun 2027 10:48:36.297   04 Jun 2027 10:49:21.760            45.463                Norilsk          1420.719
       446   04 Jun 2027 10:49:32.134   04 Jun 2027 10:51:08.651            96.517                Irkutsk          3016.156
       447   04 Jun 2027 10:51:24.217   04 Jun 2027 10:51:44.634            20.417                Novosib           638.031
       448   04 Jun 2027 10:51:56.127   04 Jun 2027 10:52:06.860            10.733                Norilsk           335.406
       449   04 Jun 2027 10:52:11.099   04 Jun 2027 10:52:25.154            14.055                Irkutsk           439.219
       450   04 Jun 2027 10:52:27.124   04 Jun 2027 10:53:22.609            55.485              Murmansk1          1733.906
       451   04 Jun 2027 11:29:00.493   04 Jun 2027 11:29:34.235            33.742            RioGallegos          1054.437
       452   04 Jun 2027 11:30:27.684   04 Jun 2027 11:30:37.522             9.838            RioGallegos           307.437
       453   04 Jun 2027 11:32:47.987   04 Jun 2027 11:33:02.531            14.544            RioGallegos           454.500
       454   04 Jun 2027 12:02:36.276   04 Jun 2027 12:04:32.345           116.069                Sumatra          3627.156
       455   04 Jun 2027 12:17:25.760   04 Jun 2027 12:19:13.388           107.628                Novosib          3363.375
       456   04 Jun 2027 12:19:36.999   04 Jun 2027 12:20:24.310            47.311                Novosib          1478.469
       457   04 Jun 2027 12:26:52.128   04 Jun 2027 12:27:04.135            12.007              Murmansk1           375.219
       458   04 Jun 2027 12:29:46.874   04 Jun 2027 12:29:58.610            11.736              Murmansk1           366.750
       459   04 Jun 2027 12:33:27.186   04 Jun 2027 12:33:29.921             2.735              Murmansk1            85.469
       460   04 Jun 2027 12:33:29.921   04 Jun 2027 12:33:48.184            18.263              Murmansk2           570.719
       461   04 Jun 2027 13:47:20.396   04 Jun 2027 13:48:45.430            85.034                  Delhi          2657.312
       462   04 Jun 2027 13:51:15.646   04 Jun 2027 13:52:33.263            77.617                  Delhi          2425.531
       463   04 Jun 2027 13:55:37.136   04 Jun 2027 13:59:09.401           212.265                Novosib          6633.281
       464   04 Jun 2027 13:59:26.407   04 Jun 2027 14:00:09.252            42.845                Norilsk          1338.906
       465   04 Jun 2027 14:04:07.989   04 Jun 2027 14:04:17.257             9.268                Norilsk           289.625
       466   04 Jun 2027 14:07:10.640   04 Jun 2027 14:07:30.447            19.807                Norilsk           618.969
       467   04 Jun 2027 15:31:00.858   04 Jun 2027 15:35:06.451           245.593                 Moscow          7674.781
       468   04 Jun 2027 15:35:40.797   04 Jun 2027 15:36:01.089            20.292              Murmansk2           634.125
       469   04 Jun 2027 15:39:49.043   04 Jun 2027 15:41:26.367            97.324              Murmansk1          3041.375
       470   04 Jun 2027 15:41:32.722   04 Jun 2027 15:42:56.120            83.398                Norilsk          2606.188
       471   04 Jun 2027 15:43:27.596   04 Jun 2027 15:43:56.394            28.798                Norilsk           899.937
       472   04 Jun 2027 16:45:30.616   04 Jun 2027 16:46:16.867            46.251               CapeTown          1445.344
       473   04 Jun 2027 17:09:38.858   04 Jun 2027 17:10:57.948            79.090                 Moscow          2471.562
       474   04 Jun 2027 17:12:13.341   04 Jun 2027 17:12:32.956            19.615              Murmansk2           612.969
       475   04 Jun 2027 17:13:42.726   04 Jun 2027 17:14:29.333            46.607              Murmansk1          1456.469
       476   04 Jun 2027 17:15:09.965   04 Jun 2027 17:15:48.053            38.088              Murmansk1          1190.250
       477   04 Jun 2027 17:25:14.449   04 Jun 2027 17:26:45.707            91.258                Anadyr2          2851.812
       478   04 Jun 2027 17:28:52.120   04 Jun 2027 17:28:52.808             0.688                Anadyr2            21.500
       479   04 Jun 2027 17:30:08.311   04 Jun 2027 17:30:32.050            23.739                Anadyr2           741.844
       480   04 Jun 2027 18:20:47.728   04 Jun 2027 18:21:36.717            48.989               CapeTown          1530.906
       481   04 Jun 2027 18:21:44.074   04 Jun 2027 18:22:27.913            43.839               CapeTown          1369.969
       482   04 Jun 2027 18:52:30.575   04 Jun 2027 18:56:52.927           262.352              Murmansk1          8198.500
