uniorb/output/strategy_1/Drop/Drop_KinoSat_110901.txt

KinoSat_110901
-------------------------
    Access    *     Start Time (UTCG)     *     Stop Time (UTCG)  *   Duration (s)        *       Station  *  Data (Mbytes)
         1   01 Jun 2027 04:10:23.040   01 Jun 2027 04:13:21.893           178.853                Anadyr2          5589.156
         2   01 Jun 2027 04:13:21.893   01 Jun 2027 04:16:29.285           187.392                Anadyr1          5856.000
         3   01 Jun 2027 05:46:35.698   01 Jun 2027 05:47:27.202            51.504                Anadyr2          1609.500
         4   01 Jun 2027 05:47:47.502   01 Jun 2027 05:49:56.971           129.469                Anadyr1          4045.906
         5   01 Jun 2027 05:50:08.280   01 Jun 2027 05:52:04.999           116.719               Magadan1          3647.469
         6   01 Jun 2027 07:22:24.464   01 Jun 2027 07:23:04.474            40.010               Magadan1          1250.312
         7   01 Jun 2027 07:23:17.047   01 Jun 2027 07:23:37.553            20.506               Magadan2           640.812
         8   01 Jun 2027 07:23:37.553   01 Jun 2027 07:24:06.043            28.490               Magadan1           890.313
         9   01 Jun 2027 07:24:14.185   01 Jun 2027 07:25:31.864            77.679               Magadan2          2427.469
        10   01 Jun 2027 07:25:43.799   01 Jun 2027 07:27:50.739           126.940                Irkutsk          3966.875
        11   01 Jun 2027 07:28:02.235   01 Jun 2027 07:28:34.620            32.385                Novosib          1012.031
        12   01 Jun 2027 07:29:19.994   01 Jun 2027 07:29:38.484            18.490              Murmansk2           577.812
        13   01 Jun 2027 07:30:42.007   01 Jun 2027 07:31:02.566            20.559                Norilsk           642.469
        14   01 Jun 2027 08:02:33.806   01 Jun 2027 08:03:26.944            53.138            RioGallegos          1660.563
        15   01 Jun 2027 08:04:06.272   01 Jun 2027 08:04:30.706            24.434            RioGallegos           763.563
        16   01 Jun 2027 08:37:35.291   01 Jun 2027 08:40:03.595           148.304                Sumatra          4634.500
        17   01 Jun 2027 08:59:27.660   01 Jun 2027 08:59:51.265            23.605                Irkutsk           737.656
        18   01 Jun 2027 08:59:53.868   01 Jun 2027 09:01:46.496           112.628                Novosib          3519.625
        19   01 Jun 2027 09:01:49.634   01 Jun 2027 09:02:40.417            50.783                Norilsk          1586.969
        20   01 Jun 2027 09:02:56.144   01 Jun 2027 09:03:19.728            23.584                Norilsk           737.000
        21   01 Jun 2027 09:03:20.405   01 Jun 2027 09:03:42.754            22.349                Irkutsk           698.406
        22   01 Jun 2027 09:03:55.702   01 Jun 2027 09:06:00.578           124.876              Murmansk1          3902.375
        23   01 Jun 2027 09:06:00.578   01 Jun 2027 09:06:25.110            24.532              Murmansk2           766.625
        24   01 Jun 2027 09:41:19.577   01 Jun 2027 09:42:07.149            47.572            RioGallegos          1486.625
        25   01 Jun 2027 10:15:44.683   01 Jun 2027 10:17:17.146            92.463                Sumatra          2889.469
        26   01 Jun 2027 10:21:38.002   01 Jun 2027 10:22:41.479            63.477                  Delhi          1983.656
        27   01 Jun 2027 10:25:59.961   01 Jun 2027 10:26:03.965             4.004                  Delhi           125.125
        28   01 Jun 2027 10:37:14.413   01 Jun 2027 10:38:33.909            79.496                Novosib          2484.250
        29   01 Jun 2027 10:38:48.481   01 Jun 2027 10:40:48.931           120.450                Norilsk          3764.062
        30   01 Jun 2027 10:41:16.092   01 Jun 2027 10:41:38.915            22.823              Murmansk2           713.219
        31   01 Jun 2027 10:42:41.609   01 Jun 2027 10:43:25.464            43.855              Murmansk2          1370.469
        32   01 Jun 2027 12:01:48.284   01 Jun 2027 12:04:14.819           146.535                  Delhi          4579.219
        33   01 Jun 2027 12:08:26.483   01 Jun 2027 12:08:47.413            20.930                 Moscow           654.062
        34   01 Jun 2027 12:10:05.071   01 Jun 2027 12:10:30.784            25.713              Murmansk1           803.531
        35   01 Jun 2027 12:11:50.337   01 Jun 2027 12:12:49.512            59.175              Murmansk1          1849.219
        36   01 Jun 2027 12:12:49.512   01 Jun 2027 12:13:13.230            23.718              Murmansk2           741.188
        37   01 Jun 2027 12:14:22.538   01 Jun 2027 12:14:27.139             4.601              Murmansk1           143.781
        38   01 Jun 2027 12:14:33.005   01 Jun 2027 12:15:08.237            35.232              Murmansk1          1101.000
        39   01 Jun 2027 13:21:35.543   01 Jun 2027 13:24:18.980           163.437               CapeTown          5107.406
        40   01 Jun 2027 13:27:11.206   01 Jun 2027 13:27:55.242            44.036               CapeTown          1376.125
        41   01 Jun 2027 13:49:18.726   01 Jun 2027 13:50:13.883            55.157              Murmansk2          1723.656
        42   01 Jun 2027 13:55:49.283   01 Jun 2027 13:55:53.853             4.570              Murmansk1           142.813
        43   01 Jun 2027 13:56:12.409   01 Jun 2027 13:56:14.676             2.267              Murmansk1            70.844
        44   01 Jun 2027 14:00:48.313   01 Jun 2027 14:04:43.055           234.742                Anadyr1          7335.688
        45   01 Jun 2027 14:05:37.081   01 Jun 2027 14:05:47.452            10.371                Anadyr1           324.094
        46   01 Jun 2027 15:25:51.041   01 Jun 2027 15:26:28.526            37.485                 Moscow          1171.406
        47   01 Jun 2027 15:28:31.380   01 Jun 2027 15:28:43.022            11.642              Murmansk2           363.812
        48   01 Jun 2027 15:29:10.052   01 Jun 2027 15:29:38.452            28.400              Murmansk1           887.500
        49   01 Jun 2027 15:32:30.815   01 Jun 2027 15:32:56.776            25.961              Murmansk1           811.281
        50   01 Jun 2027 15:36:07.918   01 Jun 2027 15:37:01.591            53.673                Anadyr2          1677.281
        51   01 Jun 2027 15:37:28.664   01 Jun 2027 15:37:59.412            30.748                Anadyr1           960.875
        52   01 Jun 2027 15:38:22.498   01 Jun 2027 15:38:33.010            10.512                Anadyr2           328.500
        53   01 Jun 2027 15:38:33.010   01 Jun 2027 15:38:37.185             4.175                Anadyr1           130.469
        54   01 Jun 2027 15:39:02.933   01 Jun 2027 15:40:28.657            85.724                Anadyr2          2678.875
        55   01 Jun 2027 15:40:31.162   01 Jun 2027 15:43:09.018           157.856               Magadan2          4933.000
        56   01 Jun 2027 15:43:58.394   01 Jun 2027 15:45:18.824            80.430               Magadan1          2513.438
        57   01 Jun 2027 17:14:27.833   01 Jun 2027 17:15:07.139            39.306               Magadan1          1228.313
        58   01 Jun 2027 17:16:37.420   01 Jun 2027 17:17:14.782            37.362               Magadan1          1167.562
        59   01 Jun 2027 17:20:31.223   01 Jun 2027 17:21:20.155            48.932               Magadan2          1529.125
        60   01 Jun 2027 17:22:24.731   01 Jun 2027 17:22:32.755             8.024               Magadan1           250.750
        61   01 Jun 2027 17:25:32.284   01 Jun 2027 17:25:50.876            18.592               Magadan2           581.000
        62   01 Jun 2027 17:26:11.128   01 Jun 2027 17:26:22.988            11.860               Magadan2           370.625
        63   01 Jun 2027 18:47:53.909   01 Jun 2027 18:49:38.276           104.367                Anadyr1          3261.469
        64   01 Jun 2027 18:49:57.677   01 Jun 2027 18:51:35.768            98.091                Anadyr2          3065.344
        65   01 Jun 2027 18:51:46.416   01 Jun 2027 18:52:26.196            39.780               Magadan1          1243.125
        66   01 Jun 2027 18:52:48.324   01 Jun 2027 18:54:05.848            77.524                Norilsk          2422.625
        67   01 Jun 2027 18:56:50.265   01 Jun 2027 18:59:00.617           130.352                Irkutsk          4073.500
        68   01 Jun 2027 19:00:26.355   01 Jun 2027 19:00:36.821            10.466                Irkutsk           327.063
        69   01 Jun 2027 19:42:24.090   01 Jun 2027 19:43:34.744            70.654            RioGallegos          2207.937
        70   01 Jun 2027 19:44:41.101   01 Jun 2027 19:45:20.119            39.018            RioGallegos          1219.313
        71   01 Jun 2027 19:52:17.937   01 Jun 2027 19:52:56.717            38.780            RioGallegos          1211.875
        72   01 Jun 2027 20:25:45.820   01 Jun 2027 20:26:47.286            61.466                Norilsk          1920.812
        73   01 Jun 2027 20:27:09.105   01 Jun 2027 20:27:54.438            45.333               Magadan2          1416.656
        74   01 Jun 2027 20:29:50.474   01 Jun 2027 20:30:52.737            62.263                Norilsk          1945.719
        75   01 Jun 2027 20:31:16.850   01 Jun 2027 20:33:27.737           130.887                Novosib          4090.219
        76   01 Jun 2027 20:34:25.010   01 Jun 2027 20:35:09.771            44.761                Novosib          1398.781
        77   01 Jun 2027 20:36:30.867   01 Jun 2027 20:36:40.568             9.701                Novosib           303.156
        78   01 Jun 2027 20:36:59.510   01 Jun 2027 20:37:12.735            13.225                Novosib           413.281
        79   01 Jun 2027 20:51:46.911   01 Jun 2027 20:53:03.097            76.186                Sumatra          2380.813
        80   01 Jun 2027 21:59:22.676   01 Jun 2027 21:59:29.402             6.726                Anadyr1           210.188
        81   01 Jun 2027 22:02:20.523   01 Jun 2027 22:03:38.012            77.489               Magadan1          2421.531
        82   01 Jun 2027 22:05:26.142   01 Jun 2027 22:05:51.256            25.114               Magadan2           784.812
        83   01 Jun 2027 22:05:51.300   01 Jun 2027 22:06:03.989            12.689                Irkutsk           396.531
        84   01 Jun 2027 22:06:41.275   01 Jun 2027 22:07:50.076            68.801                Novosib          2150.031
        85   01 Jun 2027 22:11:09.768   01 Jun 2027 22:11:24.066            14.298                Novosib           446.813
        86   01 Jun 2027 22:13:01.886   01 Jun 2027 22:13:07.114             5.228                Novosib           163.375
        87   01 Jun 2027 22:13:14.628   01 Jun 2027 22:15:33.684           139.056                  Delhi          4345.500
        88   01 Jun 2027 22:22:36.600   01 Jun 2027 22:22:41.068             4.468                  Delhi           139.625
        89   01 Jun 2027 22:24:05.134   01 Jun 2027 22:25:22.977            77.843                  Delhi          2432.594
        90   01 Jun 2027 23:33:16.463   01 Jun 2027 23:33:28.762            12.299                Anadyr2           384.344
        91   01 Jun 2027 23:33:45.819   01 Jun 2027 23:33:57.605            11.786                Anadyr2           368.313
        92   01 Jun 2027 23:34:10.019   01 Jun 2027 23:34:11.089             1.070                Anadyr2            33.438
        93   01 Jun 2027 23:37:33.732   01 Jun 2027 23:38:59.589            85.857               Magadan1          2683.031
        94   01 Jun 2027 23:39:19.667   01 Jun 2027 23:39:53.671            34.004               Magadan1          1062.625
        95   01 Jun 2027 23:40:01.570   01 Jun 2027 23:42:52.841           171.271              Murmansk2          5352.219
        96   01 Jun 2027 23:43:52.697   01 Jun 2027 23:44:01.228             8.531              Murmansk2           266.594
        97   01 Jun 2027 23:44:27.808   01 Jun 2027 23:45:35.328            67.520                 Moscow          2110.000
        98   01 Jun 2027 23:46:40.950   01 Jun 2027 23:48:25.172           104.222                 Moscow          3256.937
        99   02 Jun 2027 00:14:01.551   02 Jun 2027 00:14:25.492            23.941               CapeTown           748.156
       100   02 Jun 2027 01:06:27.760   02 Jun 2027 01:06:44.263            16.503                Anadyr1           515.719
       101   02 Jun 2027 01:07:29.788   02 Jun 2027 01:07:49.168            19.380                Anadyr1           605.625
       102   02 Jun 2027 01:09:42.444   02 Jun 2027 01:11:49.608           127.164               Magadan2          3973.875
       103   02 Jun 2027 01:12:15.782   02 Jun 2027 01:13:30.056            74.274               Magadan2          2321.062
       104   02 Jun 2027 01:15:50.394   02 Jun 2027 01:16:56.398            66.004              Murmansk1          2062.625
       105   02 Jun 2027 01:21:13.149   02 Jun 2027 01:21:52.732            39.583                Novosib          1236.969
       106   02 Jun 2027 01:26:41.834   02 Jun 2027 01:26:55.182            13.348                 Moscow           417.125
       107   02 Jun 2027 01:31:07.608   02 Jun 2027 01:31:23.314            15.706                 Moscow           490.813
       108   02 Jun 2027 01:43:14.672   02 Jun 2027 01:44:26.652            71.980               CapeTown          2249.375
       109   02 Jun 2027 01:51:11.208   02 Jun 2027 01:51:20.644             9.436               CapeTown           294.875
       110   02 Jun 2027 01:52:41.319   02 Jun 2027 01:54:07.104            85.785               CapeTown          2680.781
       111   02 Jun 2027 02:39:42.253   02 Jun 2027 02:40:41.149            58.896                Anadyr1          1840.500
       112   02 Jun 2027 02:41:43.746   02 Jun 2027 02:42:33.421            49.675               Magadan1          1552.344
       113   02 Jun 2027 02:42:34.071   02 Jun 2027 02:42:56.256            22.185               Magadan2           693.281
       114   02 Jun 2027 02:46:43.707   02 Jun 2027 02:46:46.343             2.636               Magadan2            82.375
       115   02 Jun 2027 02:47:15.385   02 Jun 2027 02:48:05.876            50.491               Magadan2          1577.844
       116   02 Jun 2027 02:51:48.555   02 Jun 2027 02:52:42.134            53.579              Murmansk2          1674.344
       117   02 Jun 2027 02:53:23.316   02 Jun 2027 02:53:41.164            17.848              Murmansk2           557.750
       118   02 Jun 2027 02:55:04.828   02 Jun 2027 02:56:01.148            56.320                 Moscow          1760.000
       119   02 Jun 2027 04:21:17.702   02 Jun 2027 04:22:36.786            79.084                Anadyr1          2471.375
       120   02 Jun 2027 04:22:44.166   02 Jun 2027 04:23:43.475            59.309               Magadan1          1853.406
       121   02 Jun 2027 04:24:12.357   02 Jun 2027 04:24:13.502             1.145               Magadan2            35.781
       122   02 Jun 2027 04:24:32.864   02 Jun 2027 04:28:29.296           236.432                Anadyr1          7388.500
       123   02 Jun 2027 04:28:35.409   02 Jun 2027 04:29:25.467            50.058              Murmansk1          1564.312
       124   02 Jun 2027 04:29:27.196   02 Jun 2027 04:30:02.583            35.387                Norilsk          1105.844
       125   02 Jun 2027 04:32:21.768   02 Jun 2027 04:32:57.816            36.048                Norilsk          1126.500
       126   02 Jun 2027 04:34:45.106   02 Jun 2027 04:35:11.169            26.063              Murmansk1           814.469
       127   02 Jun 2027 05:08:06.291   02 Jun 2027 05:10:02.506           116.215            RioGallegos          3631.719
       128   02 Jun 2027 05:56:27.955   02 Jun 2027 05:56:37.957            10.002               Magadan2           312.563
       129   02 Jun 2027 05:56:53.644   02 Jun 2027 05:58:54.600           120.956                Anadyr1          3779.875
       130   02 Jun 2027 05:59:24.903   02 Jun 2027 06:02:44.492           199.589                Anadyr2          6237.156
       131   02 Jun 2027 06:02:55.834   02 Jun 2027 06:03:10.433            14.599                Novosib           456.219
       132   02 Jun 2027 06:03:25.361   02 Jun 2027 06:04:24.250            58.889                Norilsk          1840.281
       133   02 Jun 2027 06:04:48.936   02 Jun 2027 06:04:55.915             6.979                Norilsk           218.094
       134   02 Jun 2027 06:05:30.613   02 Jun 2027 06:06:19.890            49.277                Norilsk          1539.906
       135   02 Jun 2027 06:39:31.066   02 Jun 2027 06:41:44.165           133.099            RioGallegos          4159.344
       136   02 Jun 2027 07:34:38.851   02 Jun 2027 07:35:46.834            67.983                Irkutsk          2124.469
       137   02 Jun 2027 07:36:00.588   02 Jun 2027 07:37:05.119            64.531                Novosib          2016.594
       138   02 Jun 2027 07:37:07.627   02 Jun 2027 07:39:43.787           156.160                Irkutsk          4880.000
       139   02 Jun 2027 07:40:34.657   02 Jun 2027 07:40:40.687             6.030              Murmansk2           188.438
       140   02 Jun 2027 07:40:59.375   02 Jun 2027 07:41:43.793            44.418                Norilsk          1388.062
       141   02 Jun 2027 07:42:15.861   02 Jun 2027 07:42:20.738             4.877                Norilsk           152.406
       142   02 Jun 2027 07:44:01.616   02 Jun 2027 07:44:02.225             0.609              Murmansk2            19.031
       143   02 Jun 2027 07:44:43.675   02 Jun 2027 07:44:45.263             1.588              Murmansk2            49.625
       144   02 Jun 2027 08:14:40.934   02 Jun 2027 08:15:32.882            51.948            RioGallegos          1623.375
       145   02 Jun 2027 08:17:48.040   02 Jun 2027 08:18:24.825            36.785            RioGallegos          1149.531
       146   02 Jun 2027 08:19:21.369   02 Jun 2027 08:19:22.596             1.227            RioGallegos            38.344
       147   02 Jun 2027 08:49:29.288   02 Jun 2027 08:51:13.875           104.587                Sumatra          3268.344
       148   02 Jun 2027 09:00:08.986   02 Jun 2027 09:00:44.555            35.569                  Delhi          1111.531
       149   02 Jun 2027 09:11:26.813   02 Jun 2027 09:11:54.963            28.150                Novosib           879.688
       150   02 Jun 2027 09:11:59.745   02 Jun 2027 09:12:05.032             5.287              Murmansk1           165.219
       151   02 Jun 2027 09:12:17.256   02 Jun 2027 09:12:56.223            38.967                Norilsk          1217.719
       152   02 Jun 2027 09:13:07.544   02 Jun 2027 09:14:09.470            61.926                Novosib          1935.187
       153   02 Jun 2027 09:14:17.317   02 Jun 2027 09:16:50.865           153.548                Norilsk          4798.375
       154   02 Jun 2027 09:16:54.505   02 Jun 2027 09:17:39.162            44.657                 Moscow          1395.531
       155   02 Jun 2027 09:19:21.335   02 Jun 2027 09:19:56.807            35.472              Murmansk1          1108.500
       156   02 Jun 2027 09:54:12.824   02 Jun 2027 09:55:08.989            56.165            RioGallegos          1755.156
       157   02 Jun 2027 09:56:22.217   02 Jun 2027 09:57:14.818            52.601            RioGallegos          1643.781
       158   02 Jun 2027 10:29:20.742   02 Jun 2027 10:29:49.981            29.239                Sumatra           913.719
       159   02 Jun 2027 10:31:04.491   02 Jun 2027 10:32:33.215            88.724                Sumatra          2772.625
       160   02 Jun 2027 10:33:41.643   02 Jun 2027 10:34:12.393            30.750                  Delhi           960.938
       161   02 Jun 2027 10:38:15.372   02 Jun 2027 10:38:24.716             9.344                  Delhi           292.000
       162   02 Jun 2027 10:49:11.265   02 Jun 2027 10:49:34.955            23.690                Norilsk           740.312
       163   02 Jun 2027 10:49:41.962   02 Jun 2027 10:50:53.610            71.648              Murmansk2          2239.000
       164   02 Jun 2027 10:50:59.951   02 Jun 2027 10:52:47.319           107.368                 Moscow          3355.250
       165   02 Jun 2027 10:53:01.534   02 Jun 2027 10:53:07.942             6.408              Murmansk2           200.250
       166   02 Jun 2027 10:53:07.942   02 Jun 2027 10:53:51.666            43.724              Murmansk1          1366.375
       167   02 Jun 2027 10:54:28.744   02 Jun 2027 10:54:39.081            10.337                Norilsk           323.031
       168   02 Jun 2027 12:18:05.732   02 Jun 2027 12:20:31.638           145.906                 Moscow          4559.562
       169   02 Jun 2027 12:21:21.756   02 Jun 2027 12:21:46.260            24.504                 Moscow           765.750
       170   02 Jun 2027 12:21:57.879   02 Jun 2027 12:22:11.302            13.423                 Moscow           419.469
       171   02 Jun 2027 12:22:18.008   02 Jun 2027 12:26:14.094           236.086              Murmansk2          7377.688
       172   02 Jun 2027 12:26:33.641   02 Jun 2027 12:26:57.204            23.563              Murmansk2           736.344
       173   02 Jun 2027 12:28:54.340   02 Jun 2027 12:29:31.978            37.638                Norilsk          1176.187
       174   02 Jun 2027 13:32:59.331   02 Jun 2027 13:34:33.504            94.173               CapeTown          2942.906
       175   02 Jun 2027 13:35:14.659   02 Jun 2027 13:36:04.557            49.898               CapeTown          1559.312
       176   02 Jun 2027 13:37:41.033   02 Jun 2027 13:38:10.916            29.883               CapeTown           933.844
       177   02 Jun 2027 13:39:24.167   02 Jun 2027 13:39:51.725            27.558               CapeTown           861.187
       178   02 Jun 2027 13:58:24.398   02 Jun 2027 13:59:19.367            54.969              Murmansk2          1717.781
       179   02 Jun 2027 13:59:27.191   02 Jun 2027 14:00:40.809            73.618              Murmansk1          2300.562
       180   02 Jun 2027 14:02:49.825   02 Jun 2027 14:03:37.722            47.897              Murmansk2          1496.781
       181   02 Jun 2027 14:12:40.286   02 Jun 2027 14:15:45.065           184.779                Anadyr1          5774.344
       182   02 Jun 2027 15:11:55.081   02 Jun 2027 15:11:57.790             2.709               CapeTown            84.656
       183   02 Jun 2027 15:37:31.576   02 Jun 2027 15:39:41.965           130.389              Murmansk2          4074.656
       184   02 Jun 2027 15:48:08.122   02 Jun 2027 15:49:05.356            57.234                Anadyr1          1788.562
       185   02 Jun 2027 15:49:57.199   02 Jun 2027 15:50:06.161             8.962                Anadyr2           280.063
       186   02 Jun 2027 15:50:47.864   02 Jun 2027 15:52:11.356            83.492                Anadyr2          2609.125
       187   02 Jun 2027 15:52:33.704   02 Jun 2027 15:55:56.229           202.525               Magadan1          6328.906
       188   02 Jun 2027 15:55:56.229   02 Jun 2027 15:57:20.913            84.684               Magadan2          2646.375
       189   02 Jun 2027 17:24:02.050   02 Jun 2027 17:24:48.298            46.248                Anadyr2          1445.250
       190   02 Jun 2027 17:25:15.054   02 Jun 2027 17:25:21.606             6.552                Anadyr1           204.750
       191   02 Jun 2027 17:25:49.655   02 Jun 2027 17:25:58.548             8.893                Anadyr1           277.906
       192   02 Jun 2027 17:26:25.663   02 Jun 2027 17:26:58.725            33.062               Magadan2          1033.188
       193   02 Jun 2027 17:28:17.109   02 Jun 2027 17:28:39.736            22.627               Magadan2           707.094
       194   02 Jun 2027 17:32:29.767   02 Jun 2027 17:33:22.803            53.036               Magadan1          1657.375
       195   02 Jun 2027 17:33:43.936   02 Jun 2027 17:33:51.532             7.596               Magadan1           237.375
       196   02 Jun 2027 17:34:02.371   02 Jun 2027 17:36:24.990           142.619               Magadan1          4456.844
       197   02 Jun 2027 18:59:53.982   02 Jun 2027 19:01:01.930            67.948                Anadyr2          2123.375
       198   02 Jun 2027 19:01:56.274   02 Jun 2027 19:03:11.617            75.343                Anadyr1          2354.469
       199   02 Jun 2027 19:03:21.854   02 Jun 2027 19:03:39.591            17.737               Magadan1           554.281
       200   02 Jun 2027 19:04:02.747   02 Jun 2027 19:06:03.313           120.566                Norilsk          3767.687
       201   02 Jun 2027 19:07:51.910   02 Jun 2027 19:10:43.068           171.158                Irkutsk          5348.688
       202   02 Jun 2027 19:12:52.281   02 Jun 2027 19:13:52.328            60.047                Irkutsk          1876.469
       203   02 Jun 2027 19:24:37.811   02 Jun 2027 19:27:23.252           165.441                Sumatra          5170.031
       204   02 Jun 2027 20:42:52.747   02 Jun 2027 20:44:05.804            73.057                Novosib          2283.031
       205   02 Jun 2027 20:44:39.695   02 Jun 2027 20:45:05.327            25.632                Novosib           801.000
       206   02 Jun 2027 20:46:16.034   02 Jun 2027 20:47:01.435            45.401                Novosib          1418.781
       207   02 Jun 2027 20:47:39.609   02 Jun 2027 20:47:57.545            17.936                Novosib           560.500
       208   02 Jun 2027 20:48:44.742   02 Jun 2027 20:50:05.848            81.106                Novosib          2534.562
       209   02 Jun 2027 22:14:21.623   02 Jun 2027 22:15:22.594            60.971               Magadan1          1905.344
       210   02 Jun 2027 22:15:45.503   02 Jun 2027 22:16:01.811            16.308               Magadan2           509.625
       211   02 Jun 2027 22:17:23.378   02 Jun 2027 22:18:18.952            55.574               Magadan1          1736.688
       212   02 Jun 2027 22:18:31.031   02 Jun 2027 22:18:51.504            20.473                Irkutsk           639.781
       213   02 Jun 2027 22:19:02.746   02 Jun 2027 22:19:55.522            52.776              Murmansk1          1649.250
       214   02 Jun 2027 22:25:04.947   02 Jun 2027 22:26:28.124            83.177                  Delhi          2599.281
       215   02 Jun 2027 22:27:51.559   02 Jun 2027 22:28:06.755            15.196                  Delhi           474.875
       216   02 Jun 2027 22:29:31.494   02 Jun 2027 22:30:54.342            82.848                  Delhi          2589.000
       217   02 Jun 2027 23:49:07.356   02 Jun 2027 23:49:21.913            14.557                Anadyr1           454.906
       218   02 Jun 2027 23:49:29.962   02 Jun 2027 23:50:51.118            81.156               Magadan1          2536.125
       219   02 Jun 2027 23:51:42.884   02 Jun 2027 23:52:08.143            25.259               Magadan2           789.344
       220   02 Jun 2027 23:52:36.478   02 Jun 2027 23:56:32.066           235.588              Murmansk2          7362.125
       221   02 Jun 2027 23:57:31.248   02 Jun 2027 23:58:54.673            83.425                 Moscow          2607.031
       222   03 Jun 2027 00:02:19.167   03 Jun 2027 00:02:28.971             9.804                 Moscow           306.375
       223   03 Jun 2027 00:23:47.640   03 Jun 2027 00:26:33.197           165.557               CapeTown          5173.656
       224   03 Jun 2027 01:21:10.722   03 Jun 2027 01:22:26.749            76.027               Magadan2          2375.844
       225   03 Jun 2027 01:24:58.000   03 Jun 2027 01:25:37.939            39.939               Magadan2          1248.094
       226   03 Jun 2027 01:27:52.001   03 Jun 2027 01:28:53.320            61.319              Murmansk1          1916.219
       227   03 Jun 2027 01:30:06.897   03 Jun 2027 01:30:28.457            21.560                Novosib           673.750
       228   03 Jun 2027 01:32:53.665   03 Jun 2027 01:34:38.182           104.517                Novosib          3266.156
       229   03 Jun 2027 01:59:53.292   03 Jun 2027 02:00:04.017            10.725               CapeTown           335.156
       230   03 Jun 2027 02:00:27.013   03 Jun 2027 02:01:06.153            39.140               CapeTown          1223.125
       231   03 Jun 2027 02:51:42.308   03 Jun 2027 02:53:18.956            96.648                Anadyr2          3020.250
       232   03 Jun 2027 02:53:22.296   03 Jun 2027 02:54:25.104            62.808               Magadan1          1962.750
       233   03 Jun 2027 02:54:25.723   03 Jun 2027 02:54:28.518             2.795               Magadan2            87.344
       234   03 Jun 2027 02:55:42.847   03 Jun 2027 02:56:12.236            29.389               Magadan1           918.406
       235   03 Jun 2027 02:58:11.054   03 Jun 2027 02:58:43.869            32.815               Magadan2          1025.469
       236   03 Jun 2027 04:32:40.538   03 Jun 2027 04:34:38.374           117.836                Anadyr1          3682.375
       237   03 Jun 2027 04:34:45.434   03 Jun 2027 04:36:13.174            87.740               Magadan1          2741.875
       238   03 Jun 2027 04:36:29.722   03 Jun 2027 04:37:12.838            43.116                Anadyr1          1347.375
       239   03 Jun 2027 04:37:35.074   03 Jun 2027 04:40:13.550           158.476                Norilsk          4952.375
       240   03 Jun 2027 04:40:28.005   03 Jun 2027 04:40:55.457            27.452              Murmansk2           857.875
       241   03 Jun 2027 06:07:46.283   03 Jun 2027 06:12:06.224           259.941               Magadan1          8123.156
       242   03 Jun 2027 06:12:09.787   03 Jun 2027 06:12:15.931             6.144               Magadan2           192.000
       243   03 Jun 2027 06:12:29.197   03 Jun 2027 06:14:23.298           114.101                Norilsk          3565.656
       244   03 Jun 2027 06:14:34.275   03 Jun 2027 06:15:14.756            40.481                Novosib          1265.031
       245   03 Jun 2027 06:15:14.833   03 Jun 2027 06:15:24.915            10.082                Irkutsk           315.062
       246   03 Jun 2027 06:15:25.238   03 Jun 2027 06:16:16.192            50.954                Norilsk          1592.313
       247   03 Jun 2027 06:16:25.425   03 Jun 2027 06:17:17.694            52.269              Murmansk1          1633.406
       248   03 Jun 2027 06:17:17.694   03 Jun 2027 06:18:24.002            66.308              Murmansk2          2072.125
       249   03 Jun 2027 06:51:15.442   03 Jun 2027 06:52:36.651            81.209            RioGallegos          2537.781
       250   03 Jun 2027 06:53:47.229   03 Jun 2027 06:53:55.353             8.124            RioGallegos           253.875
       251   03 Jun 2027 07:46:42.711   03 Jun 2027 07:47:11.190            28.479               Magadan1           889.969
       252   03 Jun 2027 07:47:19.541   03 Jun 2027 07:49:45.274           145.733               Magadan1          4554.156
       253   03 Jun 2027 07:49:45.274   03 Jun 2027 07:50:21.259            35.985               Magadan2          1124.531
       254   03 Jun 2027 07:50:37.347   03 Jun 2027 07:51:53.946            76.599                Irkutsk          2393.719
       255   03 Jun 2027 08:26:51.714   03 Jun 2027 08:27:25.734            34.020            RioGallegos          1063.125
       256   03 Jun 2027 09:01:28.914   03 Jun 2027 09:01:57.104            28.190                Sumatra           880.937
       257   03 Jun 2027 09:04:38.013   03 Jun 2027 09:05:29.905            51.892                Sumatra          1621.625
       258   03 Jun 2027 09:11:28.133   03 Jun 2027 09:12:54.409            86.276                  Delhi          2696.125
       259   03 Jun 2027 09:23:41.268   03 Jun 2027 09:27:19.225           217.957              Murmansk1          6811.156
       260   03 Jun 2027 09:27:23.574   03 Jun 2027 09:29:08.021           104.447                Norilsk          3263.969
       261   03 Jun 2027 09:29:08.625   03 Jun 2027 09:29:59.566            50.941              Murmansk2          1591.906
       262   03 Jun 2027 09:30:01.528   03 Jun 2027 09:30:17.933            16.405              Murmansk2           512.656
       263   03 Jun 2027 10:07:23.309   03 Jun 2027 10:09:23.811           120.502            RioGallegos          3765.687
       264   03 Jun 2027 10:45:50.866   03 Jun 2027 10:47:08.953            78.087                  Delhi          2440.219
       265   03 Jun 2027 10:50:04.509   03 Jun 2027 10:50:26.514            22.005                  Delhi           687.656
       266   03 Jun 2027 11:00:21.128   03 Jun 2027 11:01:12.358            51.230                Norilsk          1600.938
       267   03 Jun 2027 11:01:14.261   03 Jun 2027 11:01:24.337            10.076                Novosib           314.875
       268   03 Jun 2027 11:01:25.147   03 Jun 2027 11:02:33.706            68.559                 Moscow          2142.469
       269   03 Jun 2027 11:02:38.669   03 Jun 2027 11:03:02.418            23.749              Murmansk1           742.156
       270   03 Jun 2027 11:03:13.765   03 Jun 2027 11:03:14.270             0.505                Novosib            15.781
       271   03 Jun 2027 11:03:17.172   03 Jun 2027 11:03:54.695            37.523              Murmansk2          1172.594
       272   03 Jun 2027 11:03:55.667   03 Jun 2027 11:04:46.703            51.036                 Moscow          1594.875
       273   03 Jun 2027 12:30:04.697   03 Jun 2027 12:34:18.582           253.885                 Moscow          7933.906
       274   03 Jun 2027 12:34:22.865   03 Jun 2027 12:36:14.379           111.514              Murmansk1          3484.812
       275   03 Jun 2027 12:36:14.379   03 Jun 2027 12:37:17.975            63.596              Murmansk2          1987.375
       276   03 Jun 2027 13:44:33.584   03 Jun 2027 13:47:52.561           198.977               CapeTown          6218.031
       277   03 Jun 2027 13:49:07.638   03 Jun 2027 13:50:31.422            83.784               CapeTown          2618.250
       278   03 Jun 2027 14:10:41.560   03 Jun 2027 14:13:06.650           145.090              Murmansk2          4534.063
       279   03 Jun 2027 14:24:34.444   03 Jun 2027 14:27:12.545           158.101                Anadyr2          4940.656
       280   03 Jun 2027 15:21:21.273   03 Jun 2027 15:22:17.637            56.364               CapeTown          1761.375
       281   03 Jun 2027 15:50:09.510   03 Jun 2027 15:51:27.078            77.568              Murmansk1          2424.000
       282   03 Jun 2027 15:51:35.580   03 Jun 2027 15:52:17.379            41.799              Murmansk2          1306.219
       283   03 Jun 2027 15:54:36.694   03 Jun 2027 15:54:38.668             1.974              Murmansk1            61.688
       284   03 Jun 2027 16:00:08.655   03 Jun 2027 16:01:56.998           108.343                Anadyr2          3385.719
       285   03 Jun 2027 16:02:08.661   03 Jun 2027 16:02:16.525             7.864                Anadyr1           245.750
       286   03 Jun 2027 16:02:23.388   03 Jun 2027 16:02:31.291             7.903                Anadyr1           246.969
       287   03 Jun 2027 16:03:05.579   03 Jun 2027 16:03:29.452            23.873                Anadyr1           746.031
       288   03 Jun 2027 16:04:36.342   03 Jun 2027 16:09:23.178           286.836               Magadan2          8963.625
       289   03 Jun 2027 17:36:03.427   03 Jun 2027 17:37:10.674            67.247                Anadyr2          2101.469
       290   03 Jun 2027 17:37:51.771   03 Jun 2027 17:37:54.466             2.695                Anadyr1            84.219
       291   03 Jun 2027 17:38:24.312   03 Jun 2027 17:40:19.367           115.055               Magadan2          3595.469
       292   03 Jun 2027 17:46:06.113   03 Jun 2027 17:48:12.738           126.625               Magadan2          3957.031
       293   03 Jun 2027 18:33:17.998   03 Jun 2027 18:35:12.625           114.627            RioGallegos          3582.094
       294   03 Jun 2027 19:14:03.980   03 Jun 2027 19:14:15.565            11.585                Anadyr2           362.031
       295   03 Jun 2027 19:14:16.261   03 Jun 2027 19:16:06.212           109.951               Magadan1          3435.969
       296   03 Jun 2027 19:16:13.612   03 Jun 2027 19:18:01.885           108.273                Norilsk          3383.531
       297   03 Jun 2027 19:18:34.612   03 Jun 2027 19:20:53.965           139.353                Norilsk          4354.781
       298   03 Jun 2027 19:24:58.336   03 Jun 2027 19:26:12.351            74.015                Irkutsk          2312.969
       299   03 Jun 2027 19:34:47.996   03 Jun 2027 19:36:38.368           110.372                Sumatra          3449.125
       300   03 Jun 2027 19:39:55.980   03 Jun 2027 19:41:10.142            74.162                Sumatra          2317.562
       301   03 Jun 2027 20:53:44.805   03 Jun 2027 20:55:32.146           107.341                Irkutsk          3354.406
       302   03 Jun 2027 20:56:12.177   03 Jun 2027 20:58:57.121           164.944                Novosib          5154.500
       303   03 Jun 2027 22:26:22.034   03 Jun 2027 22:27:36.566            74.532               Magadan2          2329.125
       304   03 Jun 2027 22:29:02.587   03 Jun 2027 22:33:15.567           252.980              Murmansk1          7905.625
       305   03 Jun 2027 22:36:59.202   03 Jun 2027 22:37:51.103            51.901                  Delhi          1621.906
       306   03 Jun 2027 22:39:33.242   03 Jun 2027 22:39:48.264            15.022                  Delhi           469.438
       307   03 Jun 2027 22:44:05.025   03 Jun 2027 22:45:14.898            69.873                  Delhi          2183.531
       308   03 Jun 2027 23:54:49.026   03 Jun 2027 23:54:52.204             3.178                Anadyr2            99.312
       309   04 Jun 2027 00:00:50.205   04 Jun 2027 00:01:03.488            13.283                Anadyr1           415.094
       310   04 Jun 2027 00:01:25.068   04 Jun 2027 00:02:14.750            49.682               Magadan2          1552.563
       311   04 Jun 2027 00:02:23.897   04 Jun 2027 00:02:56.133            32.236               Magadan1          1007.375
       312   04 Jun 2027 00:03:59.991   04 Jun 2027 00:06:02.525           122.534              Murmansk1          3829.188
       313   04 Jun 2027 00:06:02.525   04 Jun 2027 00:08:04.693           122.168              Murmansk2          3817.750
       314   04 Jun 2027 00:08:15.224   04 Jun 2027 00:09:48.509            93.285                 Moscow          2915.156
       315   04 Jun 2027 00:10:09.771   04 Jun 2027 00:11:34.521            84.750                 Moscow          2648.438
       316   04 Jun 2027 00:34:36.243   04 Jun 2027 00:36:35.949           119.706               CapeTown          3740.812
       317   04 Jun 2027 01:32:39.647   04 Jun 2027 01:33:40.325            60.678               Magadan2          1896.188
       318   04 Jun 2027 01:34:27.830   04 Jun 2027 01:34:40.349            12.519               Magadan1           391.219
       319   04 Jun 2027 01:39:53.684   04 Jun 2027 01:41:33.188            99.504              Murmansk2          3109.500
       320   04 Jun 2027 01:41:56.618   04 Jun 2027 01:42:07.824            11.206              Murmansk1           350.187
       321   04 Jun 2027 01:42:16.599   04 Jun 2027 01:42:35.176            18.577                Novosib           580.531
       322   04 Jun 2027 01:43:07.669   04 Jun 2027 01:44:49.097           101.428                 Moscow          3169.625
       323   04 Jun 2027 02:07:27.805   04 Jun 2027 02:08:22.163            54.358               CapeTown          1698.688
       324   04 Jun 2027 02:15:42.759   04 Jun 2027 02:16:28.880            46.121               CapeTown          1441.281
       325   04 Jun 2027 03:03:44.263   04 Jun 2027 03:04:39.652            55.389                Anadyr1          1730.906
       326   04 Jun 2027 03:04:39.652   04 Jun 2027 03:04:56.195            16.543                Anadyr2           516.969
       327   04 Jun 2027 03:09:55.922   04 Jun 2027 03:12:44.788           168.866                Anadyr1          5277.062
       328   04 Jun 2027 03:12:44.788   04 Jun 2027 03:13:21.739            36.951                Anadyr2          1154.719
       329   04 Jun 2027 03:13:56.484   04 Jun 2027 03:14:07.814            11.330               Magadan2           354.062
       330   04 Jun 2027 04:47:05.295   04 Jun 2027 04:47:13.368             8.073                Anadyr2           252.281
       331   04 Jun 2027 04:47:42.779   04 Jun 2027 04:48:32.071            49.292               Magadan1          1540.375
       332   04 Jun 2027 04:48:32.071   04 Jun 2027 04:48:58.005            25.934               Magadan2           810.437
       333   04 Jun 2027 04:49:03.884   04 Jun 2027 04:49:10.941             7.057                Anadyr2           220.531
       334   04 Jun 2027 04:49:13.586   04 Jun 2027 04:50:02.844            49.258               Magadan1          1539.313
       335   04 Jun 2027 04:50:02.844   04 Jun 2027 04:50:12.426             9.582               Magadan2           299.438
       336   04 Jun 2027 04:50:27.289   04 Jun 2027 04:50:41.463            14.174                Anadyr2           442.938
       337   04 Jun 2027 04:51:08.104   04 Jun 2027 04:51:15.760             7.656               Magadan2           239.250
       338   04 Jun 2027 04:51:59.416   04 Jun 2027 04:52:17.560            18.144               Magadan2           567.000
       339   04 Jun 2027 06:21:13.234   04 Jun 2027 06:22:09.101            55.867                Norilsk          1745.844
       340   04 Jun 2027 06:22:15.219   04 Jun 2027 06:24:15.040           119.821                Irkutsk          3744.406
       341   04 Jun 2027 06:24:17.835   04 Jun 2027 06:25:36.598            78.763                Norilsk          2461.344
       342   04 Jun 2027 06:25:38.481   04 Jun 2027 06:26:21.249            42.768                Novosib          1336.500
       343   04 Jun 2027 06:26:23.996   04 Jun 2027 06:27:06.929            42.933                Norilsk          1341.656
       344   04 Jun 2027 06:27:22.967   04 Jun 2027 06:28:29.268            66.301                Novosib          2071.906
       345   04 Jun 2027 06:28:36.789   04 Jun 2027 06:29:23.563            46.774                Norilsk          1461.688
       346   04 Jun 2027 06:29:28.891   04 Jun 2027 06:29:43.296            14.405              Murmansk1           450.156
       347   04 Jun 2027 06:29:56.971   04 Jun 2027 06:30:25.397            28.426                Norilsk           888.313
       348   04 Jun 2027 06:30:57.137   04 Jun 2027 06:31:13.762            16.625              Murmansk1           519.531
       349   04 Jun 2027 06:31:38.470   04 Jun 2027 06:31:45.102             6.632              Murmansk1           207.250
       350   04 Jun 2027 07:03:03.019   04 Jun 2027 07:05:52.131           169.112            RioGallegos          5284.750
       351   04 Jun 2027 07:40:13.882   04 Jun 2027 07:40:37.162            23.280                Sumatra           727.500
       352   04 Jun 2027 07:58:04.970   04 Jun 2027 07:58:24.853            19.883               Magadan1           621.344
       353   04 Jun 2027 07:58:28.449   04 Jun 2027 07:59:51.227            82.778                Irkutsk          2586.812
       354   04 Jun 2027 07:59:55.205   04 Jun 2027 08:00:03.354             8.149                Novosib           254.656
       355   04 Jun 2027 08:00:07.404   04 Jun 2027 08:00:07.734             0.330                Irkutsk            10.313
       356   04 Jun 2027 08:00:16.262   04 Jun 2027 08:01:12.110            55.848               Magadan2          1745.250
       357   04 Jun 2027 08:01:22.150   04 Jun 2027 08:01:27.600             5.450                Norilsk           170.312
       358   04 Jun 2027 08:01:28.383   04 Jun 2027 08:02:31.212            62.829                Irkutsk          1963.406
       359   04 Jun 2027 08:02:35.480   04 Jun 2027 08:03:07.528            32.048                Irkutsk          1001.500
       360   04 Jun 2027 08:03:12.399   04 Jun 2027 08:03:48.793            36.394              Murmansk2          1137.313
       361   04 Jun 2027 08:03:48.793   04 Jun 2027 08:04:23.294            34.501              Murmansk1          1078.156
       362   04 Jun 2027 08:04:42.908   04 Jun 2027 08:05:12.730            29.822                Novosib           931.938
       363   04 Jun 2027 08:39:06.383   04 Jun 2027 08:40:08.407            62.024            RioGallegos          1938.250
       364   04 Jun 2027 08:43:21.626   04 Jun 2027 08:43:35.467            13.841            RioGallegos           432.531
       365   04 Jun 2027 09:13:34.171   04 Jun 2027 09:14:33.245            59.074                Sumatra          1846.063
       366   04 Jun 2027 09:19:51.080   04 Jun 2027 09:20:29.040            37.960                Sumatra          1186.250
       367   04 Jun 2027 09:22:56.343   04 Jun 2027 09:24:17.529            81.186                  Delhi          2537.063
       368   04 Jun 2027 09:34:53.237   04 Jun 2027 09:35:14.226            20.989                Norilsk           655.906
       369   04 Jun 2027 09:35:28.841   04 Jun 2027 09:35:35.110             6.269              Murmansk2           195.906
       370   04 Jun 2027 09:35:40.535   04 Jun 2027 09:36:04.255            23.720              Murmansk2           741.250
       371   04 Jun 2027 09:36:15.750   04 Jun 2027 09:36:54.206            38.456                Irkutsk          1201.750
       372   04 Jun 2027 09:36:57.997   04 Jun 2027 09:37:19.382            21.385                 Moscow           668.281
       373   04 Jun 2027 09:37:25.197   04 Jun 2027 09:38:05.124            39.927              Murmansk1          1247.719
       374   04 Jun 2027 09:38:10.297   04 Jun 2027 09:38:11.492             1.195                Novosib            37.344
       375   04 Jun 2027 09:38:15.279   04 Jun 2027 09:38:19.950             4.671                Norilsk           145.969
       376   04 Jun 2027 09:38:31.308   04 Jun 2027 09:39:25.801            54.493                Irkutsk          1702.906
       377   04 Jun 2027 09:39:33.758   04 Jun 2027 09:40:02.230            28.472              Murmansk1           889.750
       378   04 Jun 2027 09:40:02.230   04 Jun 2027 09:40:50.931            48.701              Murmansk2          1521.906
       379   04 Jun 2027 09:42:08.749   04 Jun 2027 09:42:10.531             1.782                 Moscow            55.687
       380   04 Jun 2027 10:21:25.606   04 Jun 2027 10:21:59.016            33.410            RioGallegos          1044.063
       381   04 Jun 2027 10:58:06.124   04 Jun 2027 11:00:37.269           151.145                  Delhi          4723.281
       382   04 Jun 2027 11:10:50.389   04 Jun 2027 11:11:02.287            11.898                Novosib           371.813
       383   04 Jun 2027 11:11:07.707   04 Jun 2027 11:11:38.076            30.369              Murmansk2           949.031
       384   04 Jun 2027 11:11:47.243   04 Jun 2027 11:12:12.216            24.973              Murmansk1           780.406
       385   04 Jun 2027 11:12:15.447   04 Jun 2027 11:12:22.040             6.593              Murmansk2           206.031
       386   04 Jun 2027 11:12:26.707   04 Jun 2027 11:13:28.940            62.233                 Moscow          1944.781
       387   04 Jun 2027 11:13:36.789   04 Jun 2027 11:13:52.957            16.168                Norilsk           505.250
       388   04 Jun 2027 11:13:57.811   04 Jun 2027 11:14:04.362             6.551                 Moscow           204.719
       389   04 Jun 2027 11:14:07.031   04 Jun 2027 11:15:14.874            67.843                Novosib          2120.094
       390   04 Jun 2027 11:15:20.211   04 Jun 2027 11:16:11.864            51.653                Novosib          1614.156
       391   04 Jun 2027 12:42:06.530   04 Jun 2027 12:44:51.927           165.397                 Moscow          5168.656
       392   04 Jun 2027 12:45:24.633   04 Jun 2027 12:45:44.918            20.285                 Moscow           633.906
       393   04 Jun 2027 12:45:49.302   04 Jun 2027 12:48:47.597           178.295              Murmansk2          5571.719
       394   04 Jun 2027 12:48:54.113   04 Jun 2027 12:49:00.273             6.160              Murmansk2           192.500
       395   04 Jun 2027 12:53:33.977   04 Jun 2027 12:54:40.682            66.705                Norilsk          2084.531
       396   04 Jun 2027 13:56:14.839   04 Jun 2027 13:58:47.915           153.076               CapeTown          4783.625
       397   04 Jun 2027 13:59:47.914   04 Jun 2027 14:00:53.938            66.024               CapeTown          2063.250
       398   04 Jun 2027 14:23:00.829   04 Jun 2027 14:24:43.678           102.849              Murmansk1          3214.031
       399   04 Jun 2027 14:26:51.140   04 Jun 2027 14:27:30.560            39.420              Murmansk2          1231.875
       400   04 Jun 2027 14:36:30.201   04 Jun 2027 14:38:17.507           107.306                Anadyr2          3353.312
       401   04 Jun 2027 14:38:17.507   04 Jun 2027 14:38:53.314            35.807                Anadyr1          1118.969
       402   04 Jun 2027 14:44:26.880   04 Jun 2027 14:45:18.920            52.040                Anadyr1          1626.250
       403   04 Jun 2027 15:32:01.026   04 Jun 2027 15:32:08.975             7.949               CapeTown           248.406
       404   04 Jun 2027 16:02:51.357   04 Jun 2027 16:06:15.164           203.807              Murmansk1          6368.969
       405   04 Jun 2027 16:12:09.453   04 Jun 2027 16:12:39.925            30.472                Anadyr1           952.250
       406   04 Jun 2027 16:13:50.588   04 Jun 2027 16:13:56.120             5.532                Anadyr2           172.875
       407   04 Jun 2027 16:14:09.241   04 Jun 2027 16:14:23.379            14.138                Anadyr1           441.813
       408   04 Jun 2027 16:15:06.807   04 Jun 2027 16:15:24.252            17.445                Anadyr1           545.156
       409   04 Jun 2027 16:15:29.571   04 Jun 2027 16:18:52.361           202.790               Magadan2          6337.187
       410   04 Jun 2027 16:19:54.343   04 Jun 2027 16:21:25.590            91.247               Magadan1          2851.469
       411   04 Jun 2027 17:48:04.729   04 Jun 2027 17:49:25.181            80.452                Anadyr2          2514.125
       412   04 Jun 2027 17:49:49.471   04 Jun 2027 17:50:16.149            26.678                Anadyr1           833.688
       413   04 Jun 2027 17:50:23.646   04 Jun 2027 17:52:06.501           102.855               Magadan1          3214.219
       414   04 Jun 2027 17:57:48.990   04 Jun 2027 17:58:33.032            44.042               Magadan1          1376.313
       415   04 Jun 2027 18:44:09.055   04 Jun 2027 18:46:53.675           164.620            RioGallegos          5144.375
       416   04 Jun 2027 19:23:52.949   04 Jun 2027 19:23:54.915             1.966                Anadyr2            61.438
       417   04 Jun 2027 19:25:25.900   04 Jun 2027 19:25:41.382            15.482                Anadyr1           483.813
       418   04 Jun 2027 19:26:03.991   04 Jun 2027 19:29:38.286           214.295                Norilsk          6696.719
       419   04 Jun 2027 19:30:41.519   04 Jun 2027 19:31:19.774            38.255                Norilsk          1195.469
       420   04 Jun 2027 19:32:10.525   04 Jun 2027 19:34:20.142           129.617                Irkutsk          4050.531
       421   04 Jun 2027 19:34:56.028   04 Jun 2027 19:35:38.350            42.322                Irkutsk          1322.562
       422   04 Jun 2027 19:37:05.318   04 Jun 2027 19:38:10.765            65.447                Irkutsk          2045.219
       423   04 Jun 2027 19:45:46.109   04 Jun 2027 19:48:14.760           148.651                Sumatra          4645.344
       424   04 Jun 2027 19:51:51.641   04 Jun 2027 19:52:38.774            47.133                Sumatra          1472.906
       425   04 Jun 2027 21:05:43.726   04 Jun 2027 21:07:25.393           101.667                Irkutsk          3177.094
       426   04 Jun 2027 21:08:04.496   04 Jun 2027 21:10:02.717           118.221                Novosib          3694.406
       427   04 Jun 2027 21:16:09.210   04 Jun 2027 21:18:08.966           119.756                  Delhi          3742.375
       428   04 Jun 2027 22:40:44.831   04 Jun 2027 22:46:15.193           330.362              Murmansk1         10323.812
       429   05 Jun 2027 00:06:30.818   05 Jun 2027 00:06:41.580            10.762                Anadyr1           336.312
       430   05 Jun 2027 00:08:58.850   05 Jun 2027 00:09:13.358            14.508                Anadyr1           453.375
       431   05 Jun 2027 00:09:25.537   05 Jun 2027 00:09:32.737             7.200                Anadyr1           225.000
       432   05 Jun 2027 00:11:02.466   05 Jun 2027 00:11:25.470            23.004                Anadyr2           718.875
       433   05 Jun 2027 00:12:30.260   05 Jun 2027 00:14:16.704           106.444               Magadan1          3326.375
       434   05 Jun 2027 00:14:56.168   05 Jun 2027 00:15:27.816            31.648               Magadan2           989.000
       435   05 Jun 2027 00:16:00.086   05 Jun 2027 00:18:57.676           177.590              Murmansk2          5549.687
       436   05 Jun 2027 00:18:57.676   05 Jun 2027 00:20:27.250            89.574              Murmansk1          2799.187
       437   05 Jun 2027 00:21:19.095   05 Jun 2027 00:21:38.305            19.210                 Moscow           600.313
       438   05 Jun 2027 00:22:10.385   05 Jun 2027 00:22:57.255            46.870                 Moscow          1464.688
       439   05 Jun 2027 00:46:03.964   05 Jun 2027 00:47:22.484            78.520               CapeTown          2453.750
       440   05 Jun 2027 00:49:53.879   05 Jun 2027 00:51:05.732            71.853               CapeTown          2245.406
       441   05 Jun 2027 01:44:09.460   05 Jun 2027 01:45:09.695            60.235               Magadan2          1882.344
       442   05 Jun 2027 01:45:26.619   05 Jun 2027 01:45:43.001            16.382               Magadan1           511.937
       443   05 Jun 2027 01:49:48.366   05 Jun 2027 01:49:49.351             0.985               Magadan2            30.781
       444   05 Jun 2027 01:50:23.400   05 Jun 2027 01:50:46.368            22.968               Magadan2           717.750
       445   05 Jun 2027 01:51:32.307   05 Jun 2027 01:51:42.398            10.091                Norilsk           315.344
       446   05 Jun 2027 01:51:55.411   05 Jun 2027 01:53:28.900            93.489              Murmansk1          2921.531
       447   05 Jun 2027 01:54:28.061   05 Jun 2027 01:55:50.384            82.323                Novosib          2572.594
       448   05 Jun 2027 02:04:43.805   05 Jun 2027 02:05:38.601            54.796                 Moscow          1712.375
       449   05 Jun 2027 02:22:14.621   05 Jun 2027 02:22:32.290            17.669               CapeTown           552.156
       450   05 Jun 2027 02:25:48.339   05 Jun 2027 02:26:02.984            14.645               CapeTown           457.656
       451   05 Jun 2027 03:21:54.654   05 Jun 2027 03:23:29.251            94.597                Anadyr2          2956.156
       452   05 Jun 2027 03:23:33.535   05 Jun 2027 03:24:42.169            68.634                Anadyr2          2144.813
       453   05 Jun 2027 05:00:06.421   05 Jun 2027 05:00:19.624            13.203               Magadan2           412.594
       454   05 Jun 2027 05:00:27.498   05 Jun 2027 05:00:52.323            24.825                Irkutsk           775.781
       455   05 Jun 2027 05:00:55.082   05 Jun 2027 05:01:38.347            43.265                Norilsk          1352.031
       456   05 Jun 2027 05:01:51.150   05 Jun 2027 05:02:05.628            14.478               Magadan1           452.437
       457   05 Jun 2027 05:02:05.628   05 Jun 2027 05:02:14.474             8.846               Magadan2           276.437
       458   05 Jun 2027 05:02:28.505   05 Jun 2027 05:04:26.171           117.666                Anadyr1          3677.062
       459   05 Jun 2027 06:33:27.524   05 Jun 2027 06:35:03.968            96.444                Irkutsk          3013.875
       460   05 Jun 2027 06:35:21.704   05 Jun 2027 06:38:22.202           180.498                Irkutsk          5640.563
       461   05 Jun 2027 06:38:29.318   05 Jun 2027 06:39:36.745            67.427                Norilsk          2107.094
       462   05 Jun 2027 06:39:41.516   05 Jun 2027 06:39:55.284            13.768               Magadan2           430.250
       463   05 Jun 2027 06:39:58.234   05 Jun 2027 06:42:44.724           166.490              Murmansk1          5202.812
       464   05 Jun 2027 06:44:58.646   05 Jun 2027 06:45:04.029             5.383                Norilsk           168.219
       465   05 Jun 2027 07:14:53.768   05 Jun 2027 07:16:36.511           102.743            RioGallegos          3210.719
       466   05 Jun 2027 07:51:22.910   05 Jun 2027 07:52:49.027            86.117                Sumatra          2691.156
       467   05 Jun 2027 08:10:09.021   05 Jun 2027 08:10:37.391            28.370                Norilsk           886.562
       468   05 Jun 2027 08:10:49.642   05 Jun 2027 08:11:46.189            56.547                Irkutsk          1767.094
       469   05 Jun 2027 08:11:54.728   05 Jun 2027 08:11:59.957             5.229                Irkutsk           163.406
       470   05 Jun 2027 08:12:06.645   05 Jun 2027 08:12:30.012            23.367                Novosib           730.219
       471   05 Jun 2027 08:12:43.139   05 Jun 2027 08:14:27.251           104.112                Irkutsk          3253.500
       472   05 Jun 2027 08:14:37.213   05 Jun 2027 08:15:07.621            30.408                Irkutsk           950.250
       473   05 Jun 2027 08:15:10.229   05 Jun 2027 08:15:49.697            39.468              Murmansk2          1233.375
       474   05 Jun 2027 08:16:06.161   05 Jun 2027 08:17:17.857            71.696                Novosib          2240.500
       475   05 Jun 2027 08:51:25.267   05 Jun 2027 08:52:19.708            54.441            RioGallegos          1701.281
       476   05 Jun 2027 09:25:45.376   05 Jun 2027 09:27:27.958           102.582                Sumatra          3205.688
       477   05 Jun 2027 09:34:31.898   05 Jun 2027 09:35:38.341            66.443                  Delhi          2076.344
       478   05 Jun 2027 09:46:13.677   05 Jun 2027 09:46:20.666             6.989                  Delhi           218.406
       479   05 Jun 2027 09:47:01.312   05 Jun 2027 09:47:19.123            17.811                Novosib           556.594
       480   05 Jun 2027 09:47:20.972   05 Jun 2027 09:47:40.875            19.903                Norilsk           621.969
       481   05 Jun 2027 09:47:48.770   05 Jun 2027 09:47:56.614             7.844              Murmansk2           245.125
       482   05 Jun 2027 09:48:02.089   05 Jun 2027 09:48:53.281            51.192              Murmansk1          1599.750
