uniorb/output/strategy_1/Drop/Drop_KinoSat_110808.txt

KinoSat_110808
-------------------------
    Access    *     Start Time (UTCG)     *     Stop Time (UTCG)  *   Duration (s)        *       Station  *  Data (Mbytes)
         1   01 Jun 2027 03:07:14.108   01 Jun 2027 03:08:01.172            47.064                Anadyr2          1470.750
         2   01 Jun 2027 03:08:01.172   01 Jun 2027 03:09:22.741            81.569                Anadyr1          2549.031
         3   01 Jun 2027 03:12:13.872   01 Jun 2027 03:13:02.893            49.021                Anadyr2          1531.906
         4   01 Jun 2027 04:44:58.744   01 Jun 2027 04:47:27.123           148.379               Magadan1          4636.844
         5   01 Jun 2027 04:47:46.184   01 Jun 2027 04:49:04.545            78.361               Magadan2          2448.781
         6   01 Jun 2027 05:26:09.111   01 Jun 2027 05:26:50.943            41.832            RioGallegos          1307.250
         7   01 Jun 2027 06:19:25.482   01 Jun 2027 06:20:44.539            79.057               Magadan2          2470.531
         8   01 Jun 2027 06:20:51.347   01 Jun 2027 06:22:54.263           122.916                Irkutsk          3841.125
         9   01 Jun 2027 06:23:22.079   01 Jun 2027 06:23:26.879             4.800                Novosib           150.000
        10   01 Jun 2027 06:23:31.559   01 Jun 2027 06:24:10.521            38.962                Irkutsk          1217.562
        11   01 Jun 2027 06:24:14.210   01 Jun 2027 06:24:33.069            18.859               Magadan2           589.344
        12   01 Jun 2027 06:24:37.607   01 Jun 2027 06:25:02.997            25.390                Novosib           793.438
        13   01 Jun 2027 06:25:09.069   01 Jun 2027 06:25:28.257            19.188              Murmansk2           599.625
        14   01 Jun 2027 06:25:42.047   01 Jun 2027 06:26:08.875            26.828              Murmansk2           838.375
        15   01 Jun 2027 06:26:34.990   01 Jun 2027 06:27:03.226            28.236              Murmansk2           882.375
        16   01 Jun 2027 06:27:05.600   01 Jun 2027 06:27:26.986            21.386                Norilsk           668.312
        17   01 Jun 2027 06:29:12.255   01 Jun 2027 06:29:42.744            30.489              Murmansk1           952.781
        18   01 Jun 2027 06:59:31.399   01 Jun 2027 07:00:47.052            75.653            RioGallegos          2364.156
        19   01 Jun 2027 07:02:02.390   01 Jun 2027 07:02:30.543            28.153            RioGallegos           879.781
        20   01 Jun 2027 07:35:24.886   01 Jun 2027 07:35:32.614             7.728                Sumatra           241.500
        21   01 Jun 2027 07:36:22.354   01 Jun 2027 07:38:28.863           126.509                Sumatra          3953.406
        22   01 Jun 2027 07:56:22.469   01 Jun 2027 07:56:53.852            31.383                Novosib           980.719
        23   01 Jun 2027 07:57:21.536   01 Jun 2027 08:00:46.512           204.976                Irkutsk          6405.500
        24   01 Jun 2027 08:00:46.569   01 Jun 2027 08:02:09.963            83.394              Murmansk1          2606.062
        25   01 Jun 2027 08:07:17.314   01 Jun 2027 08:07:43.021            25.707              Murmansk2           803.344
        26   01 Jun 2027 08:36:39.088   01 Jun 2027 08:36:59.245            20.157            RioGallegos           629.906
        27   01 Jun 2027 08:38:05.246   01 Jun 2027 08:38:55.801            50.555            RioGallegos          1579.844
        28   01 Jun 2027 08:39:59.296   01 Jun 2027 08:40:10.771            11.475            RioGallegos           358.594
        29   01 Jun 2027 09:10:52.623   01 Jun 2027 09:11:53.843            61.220                Sumatra          1913.125
        30   01 Jun 2027 09:12:48.783   01 Jun 2027 09:14:11.258            82.475                Sumatra          2577.344
        31   01 Jun 2027 09:18:55.317   01 Jun 2027 09:20:27.480            92.163                  Delhi          2880.094
        32   01 Jun 2027 09:21:35.367   01 Jun 2027 09:22:15.693            40.326                  Delhi          1260.188
        33   01 Jun 2027 09:33:34.295   01 Jun 2027 09:34:11.268            36.973                Novosib          1155.406
        34   01 Jun 2027 09:34:18.042   01 Jun 2027 09:35:43.491            85.449                Irkutsk          2670.281
        35   01 Jun 2027 09:36:10.707   01 Jun 2027 09:38:13.055           122.348                Novosib          3823.375
        36   01 Jun 2027 09:38:17.791   01 Jun 2027 09:39:42.582            84.791              Murmansk1          2649.719
        37   01 Jun 2027 09:42:20.427   01 Jun 2027 09:43:10.631            50.204              Murmansk2          1568.875
        38   01 Jun 2027 10:55:50.838   01 Jun 2027 10:58:30.938           160.100                  Delhi          5003.125
        39   01 Jun 2027 11:09:58.642   01 Jun 2027 11:10:58.356            59.714                Novosib          1866.062
        40   01 Jun 2027 11:11:18.058   01 Jun 2027 11:12:19.149            61.091              Murmansk2          1909.094
        41   01 Jun 2027 11:12:39.477   01 Jun 2027 11:13:04.607            25.130              Murmansk1           785.312
        42   01 Jun 2027 11:13:56.441   01 Jun 2027 11:14:26.988            30.547              Murmansk1           954.594
        43   01 Jun 2027 11:17:12.389   01 Jun 2027 11:17:28.045            15.656                Norilsk           489.250
        44   01 Jun 2027 12:39:05.871   01 Jun 2027 12:41:28.367           142.496                 Moscow          4453.000
        45   01 Jun 2027 12:42:09.306   01 Jun 2027 12:43:10.831            61.525                 Moscow          1922.656
        46   01 Jun 2027 12:43:18.300   01 Jun 2027 12:45:54.591           156.291              Murmansk2          4884.094
        47   01 Jun 2027 12:47:12.527   01 Jun 2027 12:47:55.762            43.235              Murmansk2          1351.094
        48   01 Jun 2027 12:49:38.660   01 Jun 2027 12:51:11.050            92.390                Norilsk          2887.187
        49   01 Jun 2027 12:58:33.682   01 Jun 2027 13:03:05.382           271.700                Anadyr2          8490.625
        50   01 Jun 2027 13:54:18.574   01 Jun 2027 13:55:21.304            62.730               CapeTown          1960.313
        51   01 Jun 2027 14:33:09.464   01 Jun 2027 14:35:06.006           116.542                Anadyr2          3641.938
        52   01 Jun 2027 14:35:46.370   01 Jun 2027 14:37:20.336            93.966                Anadyr1          2936.438
        53   01 Jun 2027 15:33:03.637   01 Jun 2027 15:33:51.825            48.188               CapeTown          1505.875
        54   01 Jun 2027 16:01:28.483   01 Jun 2027 16:02:46.705            78.222              Murmansk1          2444.437
        55   01 Jun 2027 16:03:43.545   01 Jun 2027 16:04:44.922            61.377              Murmansk2          1918.031
        56   01 Jun 2027 16:08:56.495   01 Jun 2027 16:10:39.786           103.291                Anadyr1          3227.844
        57   01 Jun 2027 16:10:59.847   01 Jun 2027 16:11:38.277            38.430                Anadyr1          1200.938
        58   01 Jun 2027 16:11:39.454   01 Jun 2027 16:16:36.123           296.669               Magadan1          9270.906
        59   01 Jun 2027 17:44:51.731   01 Jun 2027 17:46:23.685            91.954                Anadyr2          2873.562
        60   01 Jun 2027 17:47:08.711   01 Jun 2027 17:51:04.458           235.747               Magadan1          7367.094
        61   01 Jun 2027 18:39:47.971   01 Jun 2027 18:44:46.911           298.940            RioGallegos          9341.875
        62   01 Jun 2027 19:23:08.423   01 Jun 2027 19:23:59.567            51.144               Magadan1          1598.250
        63   01 Jun 2027 19:23:59.567   01 Jun 2027 19:24:25.420            25.853               Magadan2           807.906
        64   01 Jun 2027 19:25:37.653   01 Jun 2027 19:26:52.854            75.201                Norilsk          2350.031
        65   01 Jun 2027 19:27:09.309   01 Jun 2027 19:30:37.533           208.224                Irkutsk          6507.000
        66   01 Jun 2027 19:41:11.624   01 Jun 2027 19:42:47.211            95.587                Sumatra          2987.094
        67   01 Jun 2027 19:44:37.173   01 Jun 2027 19:46:35.996           118.823                Sumatra          3713.219
        68   01 Jun 2027 19:47:41.320   01 Jun 2027 19:47:54.749            13.429                Sumatra           419.656
        69   01 Jun 2027 20:59:57.339   01 Jun 2027 21:00:08.446            11.107                Norilsk           347.094
        70   01 Jun 2027 21:02:29.365   01 Jun 2027 21:02:42.712            13.347                Irkutsk           417.094
        71   01 Jun 2027 21:02:49.503   01 Jun 2027 21:04:26.290            96.787                Novosib          3024.594
        72   01 Jun 2027 21:04:35.537   01 Jun 2027 21:05:34.967            59.430                Novosib          1857.187
        73   01 Jun 2027 21:11:09.038   01 Jun 2027 21:14:19.122           190.084                  Delhi          5940.125
        74   01 Jun 2027 21:16:44.347   01 Jun 2027 21:18:13.274            88.927                  Delhi          2778.969
        75   01 Jun 2027 22:37:10.267   01 Jun 2027 22:41:08.217           237.950              Murmansk2          7435.937
        76   01 Jun 2027 22:42:04.896   01 Jun 2027 22:43:00.319            55.423              Murmansk1          1731.969
        77   01 Jun 2027 22:43:41.279   01 Jun 2027 22:45:49.382           128.103                 Moscow          4003.219
        78   02 Jun 2027 00:10:04.717   02 Jun 2027 00:10:42.421            37.704               Magadan2          1178.250
        79   02 Jun 2027 00:10:42.421   02 Jun 2027 00:10:43.302             0.881               Magadan1            27.531
        80   02 Jun 2027 00:11:23.619   02 Jun 2027 00:11:48.872            25.253               Magadan2           789.156
        81   02 Jun 2027 00:12:46.362   02 Jun 2027 00:13:23.041            36.679              Murmansk2          1146.219
        82   02 Jun 2027 00:13:38.411   02 Jun 2027 00:14:23.017            44.606              Murmansk1          1393.937
        83   02 Jun 2027 00:14:39.159   02 Jun 2027 00:15:50.500            71.341                Novosib          2229.406
        84   02 Jun 2027 00:16:16.136   02 Jun 2027 00:16:47.446            31.310                 Moscow           978.438
        85   02 Jun 2027 00:18:10.613   02 Jun 2027 00:18:39.906            29.293                 Moscow           915.406
        86   02 Jun 2027 00:19:09.970   02 Jun 2027 00:19:18.875             8.905                 Moscow           278.281
        87   02 Jun 2027 00:20:02.090   02 Jun 2027 00:20:15.139            13.049                 Moscow           407.781
        88   02 Jun 2027 00:22:29.246   02 Jun 2027 00:22:54.674            25.428                 Moscow           794.625
        89   02 Jun 2027 00:23:57.240   02 Jun 2027 00:24:15.993            18.753                 Moscow           586.031
        90   02 Jun 2027 00:41:08.034   02 Jun 2027 00:44:19.076           191.042               CapeTown          5970.063
        91   02 Jun 2027 01:39:51.349   02 Jun 2027 01:40:11.772            20.423               Magadan1           638.219
        92   02 Jun 2027 01:40:11.772   02 Jun 2027 01:40:54.487            42.715               Magadan2          1334.844
        93   02 Jun 2027 01:46:20.407   02 Jun 2027 01:46:22.842             2.435                Norilsk            76.094
        94   02 Jun 2027 01:48:43.806   02 Jun 2027 01:50:13.441            89.635              Murmansk2          2801.094
        95   02 Jun 2027 01:50:39.586   02 Jun 2027 01:51:54.000            74.414              Murmansk1          2325.437
        96   02 Jun 2027 01:51:56.354   02 Jun 2027 01:53:00.674            64.320                 Moscow          2010.000
        97   02 Jun 2027 02:16:05.935   02 Jun 2027 02:17:31.669            85.734               CapeTown          2679.187
        98   02 Jun 2027 03:15:13.663   02 Jun 2027 03:15:31.030            17.367               Magadan1           542.719
        99   02 Jun 2027 03:18:40.664   02 Jun 2027 03:20:52.138           131.474               Magadan1          4108.563
       100   02 Jun 2027 03:20:59.045   02 Jun 2027 03:21:22.396            23.351               Magadan1           729.719
       101   02 Jun 2027 03:21:24.031   02 Jun 2027 03:25:27.947           243.916                Anadyr2          7622.375
       102   02 Jun 2027 04:57:01.613   02 Jun 2027 04:58:40.802            99.189               Magadan1          3099.656
       103   02 Jun 2027 06:31:41.139   02 Jun 2027 06:32:03.609            22.470                Novosib           702.188
       104   02 Jun 2027 06:32:13.276   02 Jun 2027 06:32:20.606             7.330                Norilsk           229.063
       105   02 Jun 2027 06:32:28.218   02 Jun 2027 06:35:37.160           188.942                Irkutsk          5904.438
       106   02 Jun 2027 06:35:46.967   02 Jun 2027 06:36:25.448            38.481               Magadan1          1202.531
       107   02 Jun 2027 06:36:27.398   02 Jun 2027 06:37:23.280            55.882                Norilsk          1746.312
       108   02 Jun 2027 07:11:29.191   02 Jun 2027 07:13:45.160           135.969            RioGallegos          4249.031
       109   02 Jun 2027 07:47:00.424   02 Jun 2027 07:48:59.693           119.269                Sumatra          3727.156
       110   02 Jun 2027 08:00:50.205   02 Jun 2027 08:01:06.741            16.536                  Delhi           516.750
       111   02 Jun 2027 08:08:13.214   02 Jun 2027 08:08:43.283            30.069                Irkutsk           939.656
       112   02 Jun 2027 08:09:06.811   02 Jun 2027 08:10:21.306            74.495                Norilsk          2327.969
       113   02 Jun 2027 08:10:38.033   02 Jun 2027 08:10:51.556            13.523                Norilsk           422.594
       114   02 Jun 2027 08:10:51.835   02 Jun 2027 08:13:03.963           132.128              Murmansk2          4129.000
       115   02 Jun 2027 08:49:09.130   02 Jun 2027 08:50:06.443            57.313            RioGallegos          1791.031
       116   02 Jun 2027 09:23:20.676   02 Jun 2027 09:23:50.734            30.058                Sumatra           939.312
       117   02 Jun 2027 09:24:23.723   02 Jun 2027 09:24:44.370            20.647                Sumatra           645.219
       118   02 Jun 2027 09:32:17.245   02 Jun 2027 09:33:43.751            86.506                  Delhi          2703.313
       119   02 Jun 2027 09:45:49.276   02 Jun 2027 09:46:02.331            13.055              Murmansk2           407.969
       120   02 Jun 2027 09:46:02.331   02 Jun 2027 09:46:25.193            22.862              Murmansk1           714.438
       121   02 Jun 2027 09:46:35.877   02 Jun 2027 09:48:22.001           106.124                Norilsk          3316.375
       122   02 Jun 2027 09:48:44.348   02 Jun 2027 09:49:08.783            24.435              Murmansk2           763.594
       123   02 Jun 2027 09:49:08.783   02 Jun 2027 09:49:22.928            14.145              Murmansk1           442.031
       124   02 Jun 2027 09:49:32.229   02 Jun 2027 09:49:39.352             7.123                Norilsk           222.594
       125   02 Jun 2027 09:49:42.059   02 Jun 2027 09:50:11.499            29.440                 Moscow           920.000
       126   02 Jun 2027 11:08:34.619   02 Jun 2027 11:10:14.240            99.621                  Delhi          3113.156
       127   02 Jun 2027 11:11:10.491   02 Jun 2027 11:12:51.342           100.851                  Delhi          3151.594
       128   02 Jun 2027 11:21:44.760   02 Jun 2027 11:21:46.941             2.181              Murmansk2            68.156
       129   02 Jun 2027 11:21:57.146   02 Jun 2027 11:24:58.281           181.135                Norilsk          5660.469
       130   02 Jun 2027 11:26:26.142   02 Jun 2027 11:27:34.078            67.936                 Moscow          2123.000
       131   02 Jun 2027 12:32:48.188   02 Jun 2027 12:34:00.457            72.269               CapeTown          2258.406
       132   02 Jun 2027 12:51:17.663   02 Jun 2027 12:52:27.197            69.534                 Moscow          2172.937
       133   02 Jun 2027 12:54:46.877   02 Jun 2027 12:56:37.715           110.838              Murmansk1          3463.688
       134   02 Jun 2027 12:56:37.715   02 Jun 2027 12:57:44.153            66.438              Murmansk2          2076.187
       135   02 Jun 2027 12:59:14.050   02 Jun 2027 12:59:55.336            41.286              Murmansk2          1290.187
       136   02 Jun 2027 13:10:11.128   02 Jun 2027 13:13:45.928           214.800                Anadyr2          6712.500
       137   02 Jun 2027 13:14:31.617   02 Jun 2027 13:16:35.719           124.102                Anadyr1          3878.187
       138   02 Jun 2027 14:33:02.858   02 Jun 2027 14:35:00.736           117.878              Murmansk1          3683.687
       139   02 Jun 2027 14:45:08.269   02 Jun 2027 14:46:17.709            69.440                Anadyr2          2170.000
       140   02 Jun 2027 14:46:17.709   02 Jun 2027 14:46:59.224            41.515                Anadyr1          1297.344
       141   02 Jun 2027 14:47:45.181   02 Jun 2027 14:49:03.758            78.577                Anadyr2          2455.531
       142   02 Jun 2027 15:43:19.239   02 Jun 2027 15:43:53.823            34.584               CapeTown          1080.750
       143   02 Jun 2027 16:14:36.247   02 Jun 2027 16:17:42.655           186.408              Murmansk2          5825.250
       144   02 Jun 2027 16:20:57.768   02 Jun 2027 16:22:30.626            92.858                Anadyr2          2901.812
       145   02 Jun 2027 16:22:53.452   02 Jun 2027 16:23:28.146            34.694                Anadyr1          1084.187
       146   02 Jun 2027 16:23:33.906   02 Jun 2027 16:23:52.393            18.487               Magadan1           577.719
       147   02 Jun 2027 16:24:39.400   02 Jun 2027 16:26:20.373           100.973               Magadan2          3155.406
       148   02 Jun 2027 16:26:25.399   02 Jun 2027 16:27:32.067            66.668               Magadan2          2083.375
       149   02 Jun 2027 16:29:16.985   02 Jun 2027 16:29:51.276            34.291               Magadan1          1071.594
       150   02 Jun 2027 16:31:00.357   02 Jun 2027 16:31:04.398             4.041               Magadan2           126.281
       151   02 Jun 2027 16:32:20.390   02 Jun 2027 16:32:34.317            13.927               Magadan2           435.219
       152   02 Jun 2027 17:56:52.537   02 Jun 2027 18:00:15.578           203.041                Anadyr1          6345.031
       153   02 Jun 2027 18:00:26.998   02 Jun 2027 18:02:54.600           147.602                Norilsk          4612.562
       154   02 Jun 2027 18:51:31.172   02 Jun 2027 18:57:44.779           373.607            RioGallegos         11675.219
       155   02 Jun 2027 19:34:44.765   02 Jun 2027 19:38:02.322           197.557                Norilsk          6173.656
       156   02 Jun 2027 19:39:00.512   02 Jun 2027 19:40:33.184            92.672                Irkutsk          2896.000
       157   02 Jun 2027 19:41:45.229   02 Jun 2027 19:43:55.909           130.680                Novosib          4083.750
       158   02 Jun 2027 19:52:51.091   02 Jun 2027 19:55:10.084           138.993                Sumatra          4343.531
       159   02 Jun 2027 21:14:31.187   02 Jun 2027 21:15:17.686            46.499                Irkutsk          1453.094
       160   02 Jun 2027 21:15:25.539   02 Jun 2027 21:16:40.646            75.107                Novosib          2347.094
       161   02 Jun 2027 21:17:40.362   02 Jun 2027 21:18:34.507            54.145                Novosib          1692.031
       162   02 Jun 2027 21:22:43.348   02 Jun 2027 21:26:10.199           206.851                  Delhi          6464.094
       163   02 Jun 2027 22:46:52.703   02 Jun 2027 22:47:22.290            29.587               Magadan2           924.594
       164   02 Jun 2027 22:47:34.112   02 Jun 2027 22:48:18.975            44.863               Magadan2          1401.969
       165   02 Jun 2027 22:49:05.757   02 Jun 2027 22:53:07.162           241.405              Murmansk1          7543.906
       166   02 Jun 2027 22:54:23.341   02 Jun 2027 22:59:42.841           319.500                 Moscow          9984.375
       167   03 Jun 2027 00:24:47.506   03 Jun 2027 00:26:23.601            96.095              Murmansk2          3002.969
       168   03 Jun 2027 00:27:40.217   03 Jun 2027 00:28:07.521            27.304              Murmansk2           853.250
       169   03 Jun 2027 00:28:12.242   03 Jun 2027 00:28:45.386            33.144                 Moscow          1035.750
       170   03 Jun 2027 00:29:55.553   03 Jun 2027 00:30:24.312            28.759                 Moscow           898.719
       171   03 Jun 2027 00:31:15.824   03 Jun 2027 00:32:08.587            52.763                 Moscow          1648.844
       172   03 Jun 2027 00:39:48.007   03 Jun 2027 00:40:02.481            14.474                 Moscow           452.312
       173   03 Jun 2027 00:52:43.499   03 Jun 2027 00:54:43.280           119.781               CapeTown          3743.156
       174   03 Jun 2027 00:55:58.896   03 Jun 2027 00:56:10.699            11.803               CapeTown           368.844
       175   03 Jun 2027 01:04:13.595   03 Jun 2027 01:04:27.820            14.225               CapeTown           444.531
       176   03 Jun 2027 01:49:23.928   03 Jun 2027 01:49:29.962             6.034                Anadyr2           188.562
       177   03 Jun 2027 01:49:40.000   03 Jun 2027 01:50:07.533            27.533                Anadyr2           860.406
       178   03 Jun 2027 01:50:47.618   03 Jun 2027 01:50:51.944             4.326                Anadyr1           135.187
       179   03 Jun 2027 01:51:25.309   03 Jun 2027 01:54:05.144           159.835               Magadan2          4994.844
       180   03 Jun 2027 02:00:45.429   03 Jun 2027 02:02:32.234           106.805              Murmansk1          3337.656
       181   03 Jun 2027 02:03:58.789   03 Jun 2027 02:04:41.744            42.955                 Moscow          1342.344
       182   03 Jun 2027 02:07:05.647   03 Jun 2027 02:07:23.714            18.067                 Moscow           564.594
       183   03 Jun 2027 02:09:27.821   03 Jun 2027 02:09:35.175             7.354                 Moscow           229.812
       184   03 Jun 2027 02:10:42.560   03 Jun 2027 02:11:43.093            60.533                 Moscow          1891.656
       185   03 Jun 2027 02:28:24.117   03 Jun 2027 02:29:20.929            56.812               CapeTown          1775.375
       186   03 Jun 2027 02:36:30.273   03 Jun 2027 02:37:39.009            68.736               CapeTown          2148.000
       187   03 Jun 2027 03:31:10.752   03 Jun 2027 03:32:16.866            66.114               Magadan1          2066.062
       188   03 Jun 2027 03:32:16.866   03 Jun 2027 03:32:42.694            25.828               Magadan2           807.125
       189   03 Jun 2027 03:33:01.738   03 Jun 2027 03:33:11.812            10.074               Magadan2           314.812
       190   03 Jun 2027 03:33:20.548   03 Jun 2027 03:37:28.523           247.975                Anadyr1          7749.219
       191   03 Jun 2027 05:08:24.259   03 Jun 2027 05:09:56.303            92.044                Irkutsk          2876.375
       192   03 Jun 2027 05:10:21.600   03 Jun 2027 05:10:43.170            21.570               Magadan1           674.062
       193   03 Jun 2027 05:10:45.940   03 Jun 2027 05:11:11.873            25.933                Irkutsk           810.406
       194   03 Jun 2027 05:11:12.555   03 Jun 2027 05:11:20.547             7.992               Magadan1           249.750
       195   03 Jun 2027 05:11:21.298   03 Jun 2027 05:12:58.090            96.792                Anadyr2          3024.750
       196   03 Jun 2027 05:13:45.882   03 Jun 2027 05:14:00.428            14.546              Murmansk2           454.562
       197   03 Jun 2027 05:49:06.199   03 Jun 2027 05:49:22.189            15.990            RioGallegos           499.688
       198   03 Jun 2027 05:49:43.505   03 Jun 2027 05:50:53.580            70.075            RioGallegos          2189.844
       199   03 Jun 2027 05:51:44.672   03 Jun 2027 05:52:06.176            21.504            RioGallegos           672.000
       200   03 Jun 2027 06:43:08.115   03 Jun 2027 06:44:03.097            54.982                Norilsk          1718.188
       201   03 Jun 2027 06:44:19.807   03 Jun 2027 06:44:52.211            32.404               Magadan2          1012.625
       202   03 Jun 2027 06:44:52.211   03 Jun 2027 06:45:18.617            26.406               Magadan1           825.187
       203   03 Jun 2027 06:45:22.061   03 Jun 2027 06:47:26.449           124.388                Novosib          3887.125
       204   03 Jun 2027 06:47:30.857   03 Jun 2027 06:48:15.297            44.440               Magadan2          1388.750
       205   03 Jun 2027 06:48:27.638   03 Jun 2027 06:49:55.202            87.564                Novosib          2736.375
       206   03 Jun 2027 06:49:59.656   03 Jun 2027 06:50:09.709            10.053              Murmansk1           314.156
       207   03 Jun 2027 06:50:41.156   03 Jun 2027 06:50:46.760             5.604              Murmansk2           175.125
       208   03 Jun 2027 06:51:41.856   03 Jun 2027 06:52:13.283            31.427              Murmansk2           982.094
       209   03 Jun 2027 06:52:59.243   03 Jun 2027 06:53:29.692            30.449                Norilsk           951.531
       210   03 Jun 2027 07:23:30.252   03 Jun 2027 07:24:20.843            50.591            RioGallegos          1580.969
       211   03 Jun 2027 07:25:21.331   03 Jun 2027 07:25:31.165             9.834            RioGallegos           307.312
       212   03 Jun 2027 07:26:47.812   03 Jun 2027 07:27:19.869            32.057            RioGallegos          1001.781
       213   03 Jun 2027 07:58:43.469   03 Jun 2027 08:00:02.634            79.165                Sumatra          2473.906
       214   03 Jun 2027 08:01:18.605   03 Jun 2027 08:02:36.082            77.477                Sumatra          2421.156
       215   03 Jun 2027 08:10:55.712   03 Jun 2027 08:12:27.867            92.155                  Delhi          2879.844
       216   03 Jun 2027 08:20:34.678   03 Jun 2027 08:22:04.338            89.660                Novosib          2801.875
       217   03 Jun 2027 08:22:20.944   03 Jun 2027 08:26:27.842           246.898                Norilsk          7715.563
       218   03 Jun 2027 08:26:34.730   03 Jun 2027 08:26:58.215            23.485              Murmansk2           733.906
       219   03 Jun 2027 08:27:21.680   03 Jun 2027 08:27:35.728            14.048              Murmansk2           439.000
       220   03 Jun 2027 09:01:45.689   03 Jun 2027 09:02:48.425            62.736            RioGallegos          1960.500
       221   03 Jun 2027 09:36:00.655   03 Jun 2027 09:38:19.110           138.455                Sumatra          4326.719
       222   03 Jun 2027 09:57:47.496   03 Jun 2027 09:58:19.600            32.104                Norilsk          1003.250
       223   03 Jun 2027 09:58:26.570   03 Jun 2027 09:58:57.183            30.613                Irkutsk           956.656
       224   03 Jun 2027 09:58:57.400   03 Jun 2027 09:59:24.031            26.631                Norilsk           832.219
       225   03 Jun 2027 09:59:29.510   03 Jun 2027 10:01:41.306           131.796                Norilsk          4118.625
       226   03 Jun 2027 10:01:42.713   03 Jun 2027 10:02:09.540            26.827                Novosib           838.344
       227   03 Jun 2027 10:02:46.149   03 Jun 2027 10:03:04.163            18.014                 Moscow           562.938
       228   03 Jun 2027 11:21:36.254   03 Jun 2027 11:23:37.595           121.341                  Delhi          3791.906
       229   03 Jun 2027 11:25:02.994   03 Jun 2027 11:25:23.472            20.478                  Delhi           639.938
       230   03 Jun 2027 11:31:57.772   03 Jun 2027 11:32:10.949            13.177                Novosib           411.781
       231   03 Jun 2027 11:32:22.753   03 Jun 2027 11:32:40.062            17.309              Murmansk1           540.906
       232   03 Jun 2027 11:32:40.168   03 Jun 2027 11:32:42.172             2.004              Murmansk2            62.625
       233   03 Jun 2027 11:32:58.456   03 Jun 2027 11:33:39.933            41.477                Norilsk          1296.156
       234   03 Jun 2027 11:33:41.875   03 Jun 2027 11:33:48.069             6.194              Murmansk1           193.562
       235   03 Jun 2027 11:33:48.069   03 Jun 2027 11:34:27.424            39.355              Murmansk2          1229.844
       236   03 Jun 2027 11:34:30.345   03 Jun 2027 11:35:42.369            72.024                 Moscow          2250.750
       237   03 Jun 2027 11:35:48.685   03 Jun 2027 11:36:03.133            14.448                Norilsk           451.500
       238   03 Jun 2027 11:36:18.507   03 Jun 2027 11:36:43.433            24.926                 Moscow           778.938
       239   03 Jun 2027 11:37:04.542   03 Jun 2027 11:38:38.076            93.534                 Moscow          2922.937
       240   03 Jun 2027 12:43:15.072   03 Jun 2027 12:45:36.217           141.145               CapeTown          4410.781
       241   03 Jun 2027 12:49:09.862   03 Jun 2027 12:49:56.345            46.483               CapeTown          1452.594
       242   03 Jun 2027 13:04:13.326   03 Jun 2027 13:04:27.619            14.293                 Moscow           446.656
       243   03 Jun 2027 13:06:58.578   03 Jun 2027 13:08:51.471           112.893              Murmansk1          3527.906
       244   03 Jun 2027 13:08:51.471   03 Jun 2027 13:09:41.446            49.975              Murmansk2          1561.719
       245   03 Jun 2027 13:12:58.386   03 Jun 2027 13:13:06.130             7.744              Murmansk2           242.000
       246   03 Jun 2027 13:13:11.811   03 Jun 2027 13:13:47.044            35.233              Murmansk2          1101.031
       247   03 Jun 2027 13:21:56.340   03 Jun 2027 13:28:44.967           408.627                Anadyr1         12769.594
       248   03 Jun 2027 14:57:07.661   03 Jun 2027 14:59:10.720           123.059                Anadyr2          3845.594
       249   03 Jun 2027 15:01:03.413   03 Jun 2027 15:01:15.452            12.039                Anadyr2           376.219
       250   03 Jun 2027 15:01:57.461   03 Jun 2027 15:04:32.370           154.909               Magadan2          4840.906
       251   03 Jun 2027 15:04:49.298   03 Jun 2027 15:05:28.798            39.500               Magadan1          1234.375
       252   03 Jun 2027 16:32:59.115   03 Jun 2027 16:35:33.867           154.752                Anadyr1          4836.000
       253   03 Jun 2027 16:36:08.467   03 Jun 2027 16:40:04.796           236.329               Magadan2          7385.281
       254   03 Jun 2027 18:08:53.112   03 Jun 2027 18:10:26.493            93.381                Anadyr1          2918.156
       255   03 Jun 2027 18:10:37.824   03 Jun 2027 18:12:17.011            99.187                Anadyr2          3099.594
       256   03 Jun 2027 18:12:25.611   03 Jun 2027 18:15:13.856           168.245                Norilsk          5257.656
       257   03 Jun 2027 19:03:18.613   03 Jun 2027 19:06:57.865           219.252            RioGallegos          6851.625
       258   03 Jun 2027 19:13:16.171   03 Jun 2027 19:14:09.608            53.437            RioGallegos          1669.906
       259   03 Jun 2027 19:46:45.000   03 Jun 2027 19:48:27.662           102.662                Norilsk          3208.188
       260   03 Jun 2027 19:50:53.955   03 Jun 2027 19:51:26.317            32.362                Irkutsk          1011.313
       261   03 Jun 2027 19:52:43.366   03 Jun 2027 19:58:19.774           336.408                Novosib         10512.750
       262   03 Jun 2027 20:05:53.743   03 Jun 2027 20:07:25.433            91.690                Sumatra          2865.313
       263   03 Jun 2027 20:14:05.447   03 Jun 2027 20:15:10.230            64.783                Sumatra          2024.469
       264   03 Jun 2027 21:26:33.796   03 Jun 2027 21:26:44.873            11.077                Irkutsk           346.156
       265   03 Jun 2027 21:26:45.762   03 Jun 2027 21:27:00.492            14.730                Irkutsk           460.313
       266   03 Jun 2027 21:27:11.488   03 Jun 2027 21:28:33.728            82.240                Novosib          2570.000
       267   03 Jun 2027 21:34:24.754   03 Jun 2027 21:38:05.114           220.360                  Delhi          6886.250
       268   03 Jun 2027 21:43:44.338   03 Jun 2027 21:43:48.364             4.026                  Delhi           125.812
       269   03 Jun 2027 22:58:42.887   03 Jun 2027 22:59:19.174            36.287               Magadan2          1133.969
       270   03 Jun 2027 22:59:53.195   03 Jun 2027 23:00:13.430            20.235               Magadan1           632.344
       271   03 Jun 2027 23:01:02.782   03 Jun 2027 23:03:14.256           131.474              Murmansk1          4108.563
       272   03 Jun 2027 23:03:46.810   03 Jun 2027 23:06:39.896           173.086              Murmansk2          5408.937
       273   03 Jun 2027 23:07:00.518   03 Jun 2027 23:11:53.895           293.377                 Moscow          9168.031
       274   04 Jun 2027 00:36:48.855   04 Jun 2027 00:38:22.067            93.212              Murmansk2          2912.875
       275   04 Jun 2027 00:38:39.202   04 Jun 2027 00:38:56.721            17.519              Murmansk2           547.469
       276   04 Jun 2027 00:40:08.964   04 Jun 2027 00:40:23.821            14.857              Murmansk2           464.281
       277   04 Jun 2027 00:40:29.250   04 Jun 2027 00:42:13.215           103.965                 Moscow          3248.906
       278   04 Jun 2027 01:04:24.846   04 Jun 2027 01:05:39.402            74.556               CapeTown          2329.875
       279   04 Jun 2027 01:06:48.289   04 Jun 2027 01:06:55.486             7.197               CapeTown           224.906
       280   04 Jun 2027 01:12:00.093   04 Jun 2027 01:12:09.625             9.532               CapeTown           297.875
       281   04 Jun 2027 01:16:19.055   04 Jun 2027 01:16:37.352            18.297               CapeTown           571.781
       282   04 Jun 2027 02:01:40.027   04 Jun 2027 02:02:06.671            26.644                Anadyr2           832.625
       283   04 Jun 2027 02:03:00.837   04 Jun 2027 02:04:56.635           115.798               Magadan1          3618.687
       284   04 Jun 2027 02:08:58.025   04 Jun 2027 02:09:25.440            27.415               Magadan2           856.719
       285   04 Jun 2027 02:11:44.150   04 Jun 2027 02:11:49.682             5.532                Norilsk           172.875
       286   04 Jun 2027 02:11:53.901   04 Jun 2027 02:13:06.582            72.681                Norilsk          2271.281
       287   04 Jun 2027 02:13:12.882   04 Jun 2027 02:13:22.987            10.105              Murmansk2           315.781
       288   04 Jun 2027 02:13:36.568   04 Jun 2027 02:13:55.000            18.432              Murmansk1           576.000
       289   04 Jun 2027 02:15:59.024   04 Jun 2027 02:16:08.198             9.174              Murmansk1           286.687
       290   04 Jun 2027 02:16:20.167   04 Jun 2027 02:16:35.183            15.016                 Moscow           469.250
       291   04 Jun 2027 02:16:44.240   04 Jun 2027 02:17:16.296            32.056                 Moscow          1001.750
       292   04 Jun 2027 02:20:38.124   04 Jun 2027 02:20:47.360             9.236                 Moscow           288.625
       293   04 Jun 2027 02:21:28.467   04 Jun 2027 02:21:56.810            28.343                 Moscow           885.719
       294   04 Jun 2027 02:26:18.535   04 Jun 2027 02:27:03.408            44.873                 Moscow          1402.281
       295   04 Jun 2027 02:45:22.185   04 Jun 2027 02:46:02.531            40.346               CapeTown          1260.813
       296   04 Jun 2027 02:51:24.300   04 Jun 2027 02:51:50.651            26.351               CapeTown           823.469
       297   04 Jun 2027 03:41:52.366   04 Jun 2027 03:42:31.082            38.716               Magadan1          1209.875
       298   04 Jun 2027 03:43:18.048   04 Jun 2027 03:43:48.061            30.013                Anadyr1           937.906
       299   04 Jun 2027 03:43:51.004   04 Jun 2027 03:44:00.438             9.434                Anadyr1           294.812
       300   04 Jun 2027 03:44:10.587   04 Jun 2027 03:45:44.070            93.483                Anadyr1          2921.344
       301   04 Jun 2027 03:45:44.070   04 Jun 2027 03:48:53.110           189.040                Anadyr2          5907.500
       302   04 Jun 2027 05:19:32.955   04 Jun 2027 05:20:08.000            35.045               Magadan1          1095.156
       303   04 Jun 2027 05:20:09.866   04 Jun 2027 05:20:43.201            33.335                Anadyr1          1041.719
       304   04 Jun 2027 05:20:43.201   04 Jun 2027 05:21:53.083            69.882                Anadyr2          2183.813
       305   04 Jun 2027 05:22:06.232   04 Jun 2027 05:22:17.803            11.571                Norilsk           361.594
       306   04 Jun 2027 05:22:18.772   04 Jun 2027 05:22:49.950            31.178               Magadan2           974.312
       307   04 Jun 2027 05:22:49.950   04 Jun 2027 05:23:08.473            18.523               Magadan1           578.844
       308   04 Jun 2027 05:23:22.961   04 Jun 2027 05:24:50.659            87.698                Anadyr1          2740.562
       309   04 Jun 2027 06:00:44.757   04 Jun 2027 06:01:46.177            61.420            RioGallegos          1919.375
       310   04 Jun 2027 06:02:35.917   04 Jun 2027 06:02:42.082             6.165            RioGallegos           192.656
       311   04 Jun 2027 06:54:28.753   04 Jun 2027 06:54:48.657            19.904                Irkutsk           622.000
       312   04 Jun 2027 06:55:08.400   04 Jun 2027 06:56:01.275            52.875               Magadan1          1652.344
       313   04 Jun 2027 06:56:35.233   04 Jun 2027 06:57:57.944            82.711                Irkutsk          2584.719
       314   04 Jun 2027 06:58:16.253   04 Jun 2027 06:58:50.976            34.723                Novosib          1085.094
       315   04 Jun 2027 06:58:54.002   04 Jun 2027 07:02:20.032           206.030              Murmansk2          6438.438
       316   04 Jun 2027 07:03:32.729   04 Jun 2027 07:03:51.463            18.734              Murmansk2           585.437
       317   04 Jun 2027 07:05:37.452   04 Jun 2027 07:05:41.875             4.423              Murmansk2           138.219
       318   04 Jun 2027 07:35:34.689   04 Jun 2027 07:35:48.466            13.777            RioGallegos           430.531
       319   04 Jun 2027 07:36:12.260   04 Jun 2027 07:37:13.894            61.634            RioGallegos          1926.062
       320   04 Jun 2027 08:10:32.929   04 Jun 2027 08:11:43.037            70.108                Sumatra          2190.875
       321   04 Jun 2027 08:12:52.704   04 Jun 2027 08:13:30.672            37.968                Sumatra          1186.500
       322   04 Jun 2027 08:13:43.933   04 Jun 2027 08:14:08.162            24.229                Sumatra           757.156
       323   04 Jun 2027 08:21:47.950   04 Jun 2027 08:22:01.189            13.239                  Delhi           413.719
       324   04 Jun 2027 08:22:53.799   04 Jun 2027 08:23:57.610            63.811                  Delhi          1994.094
       325   04 Jun 2027 08:31:53.536   04 Jun 2027 08:32:03.707            10.171                Novosib           317.844
       326   04 Jun 2027 08:32:06.045   04 Jun 2027 08:32:45.417            39.372                Irkutsk          1230.375
       327   04 Jun 2027 08:32:55.780   04 Jun 2027 08:32:59.656             3.876                Novosib           121.125
       328   04 Jun 2027 08:33:03.285   04 Jun 2027 08:33:29.996            26.711              Murmansk1           834.719
       329   04 Jun 2027 08:33:29.996   04 Jun 2027 08:33:52.691            22.695              Murmansk2           709.219
       330   04 Jun 2027 08:34:00.175   04 Jun 2027 08:34:21.930            21.755                Norilsk           679.844
       331   04 Jun 2027 08:34:24.358   04 Jun 2027 08:34:25.684             1.326                Irkutsk            41.437
       332   04 Jun 2027 08:34:33.465   04 Jun 2027 08:35:23.119            49.654              Murmansk1          1551.687
       333   04 Jun 2027 08:35:33.773   04 Jun 2027 08:36:41.453            67.680                Irkutsk          2115.000
       334   04 Jun 2027 08:38:06.249   04 Jun 2027 08:38:20.119            13.870                 Moscow           433.437
       335   04 Jun 2027 08:40:10.996   04 Jun 2027 08:40:21.162            10.166              Murmansk2           317.687
       336   04 Jun 2027 09:14:30.482   04 Jun 2027 09:14:49.639            19.157            RioGallegos           598.656
       337   04 Jun 2027 09:15:32.792   04 Jun 2027 09:16:01.226            28.434            RioGallegos           888.562
       338   04 Jun 2027 09:49:00.770   04 Jun 2027 09:50:02.397            61.627                Sumatra          1925.844
       339   04 Jun 2027 09:50:52.406   04 Jun 2027 09:52:26.172            93.766                Sumatra          2930.187
       340   04 Jun 2027 10:08:41.561   04 Jun 2027 10:09:21.300            39.739                Norilsk          1241.844
       341   04 Jun 2027 10:09:41.570   04 Jun 2027 10:09:45.172             3.602              Murmansk1           112.562
       342   04 Jun 2027 10:09:53.732   04 Jun 2027 10:10:11.836            18.104                Novosib           565.750
       343   04 Jun 2027 10:10:13.477   04 Jun 2027 10:10:16.923             3.446                Norilsk           107.688
       344   04 Jun 2027 10:10:31.786   04 Jun 2027 10:11:02.660            30.874              Murmansk1           964.813
       345   04 Jun 2027 10:11:09.822   04 Jun 2027 10:11:21.075            11.253                Norilsk           351.656
       346   04 Jun 2027 10:11:22.025   04 Jun 2027 10:11:31.184             9.159                Norilsk           286.219
       347   04 Jun 2027 10:11:39.278   04 Jun 2027 10:11:55.783            16.505                Novosib           515.781
       348   04 Jun 2027 10:11:56.957   04 Jun 2027 10:12:43.967            47.010                 Moscow          1469.063
       349   04 Jun 2027 11:35:19.383   04 Jun 2027 11:37:53.781           154.398                  Delhi          4824.938
       350   04 Jun 2027 11:42:27.895   04 Jun 2027 11:42:57.784            29.889              Murmansk2           934.031
       351   04 Jun 2027 11:43:17.965   04 Jun 2027 11:43:25.929             7.964                 Moscow           248.875
       352   04 Jun 2027 11:43:27.332   04 Jun 2027 11:43:31.523             4.191              Murmansk2           130.969
       353   04 Jun 2027 11:43:31.523   04 Jun 2027 11:44:05.147            33.624              Murmansk1          1050.750
       354   04 Jun 2027 11:44:16.832   04 Jun 2027 11:44:33.732            16.900              Murmansk1           528.125
       355   04 Jun 2027 11:44:43.843   04 Jun 2027 11:45:39.556            55.713              Murmansk1          1741.031
       356   04 Jun 2027 11:45:49.360   04 Jun 2027 11:46:26.306            36.946              Murmansk2          1154.563
       357   04 Jun 2027 11:46:31.312   04 Jun 2027 11:47:31.911            60.599                 Moscow          1893.719
       358   04 Jun 2027 11:47:47.174   04 Jun 2027 11:48:39.681            52.507                 Moscow          1640.844
       359   04 Jun 2027 11:49:09.145   04 Jun 2027 11:49:31.920            22.775                Norilsk           711.719
       360   04 Jun 2027 11:49:50.455   04 Jun 2027 11:50:00.952            10.497              Murmansk2           328.031
       361   04 Jun 2027 11:51:07.034   04 Jun 2027 11:51:22.588            15.554                Norilsk           486.062
       362   04 Jun 2027 12:54:25.599   04 Jun 2027 12:57:18.536           172.937               CapeTown          5404.281
       363   04 Jun 2027 13:00:47.347   04 Jun 2027 13:02:24.423            97.076               CapeTown          3033.625
       364   04 Jun 2027 13:19:12.178   04 Jun 2027 13:20:01.952            49.774              Murmansk1          1555.437
       365   04 Jun 2027 13:20:07.689   04 Jun 2027 13:21:20.706            73.017              Murmansk2          2281.781
       366   04 Jun 2027 13:23:32.008   04 Jun 2027 13:24:20.066            48.058              Murmansk2          1501.813
       367   04 Jun 2027 13:29:40.807   04 Jun 2027 13:30:11.265            30.458              Murmansk1           951.813
       368   04 Jun 2027 13:33:45.964   04 Jun 2027 13:37:36.314           230.350                Anadyr2          7198.437
       369   04 Jun 2027 13:38:41.769   04 Jun 2027 13:39:06.464            24.695                Anadyr1           771.719
       370   04 Jun 2027 13:39:21.889   04 Jun 2027 13:40:46.257            84.368                Anadyr1          2636.500
       371   04 Jun 2027 15:03:11.797   04 Jun 2027 15:03:27.348            15.551              Murmansk1           485.969
       372   04 Jun 2027 15:05:12.488   04 Jun 2027 15:06:53.143           100.655              Murmansk2          3145.469
       373   04 Jun 2027 15:09:07.532   04 Jun 2027 15:10:17.801            70.269                Anadyr2          2195.906
       374   04 Jun 2027 15:12:22.400   04 Jun 2027 15:13:16.245            53.845                Anadyr1          1682.656
       375   04 Jun 2027 15:14:12.774   04 Jun 2027 15:18:53.562           280.788               Magadan2          8774.625
       376   04 Jun 2027 16:45:00.491   04 Jun 2027 16:45:19.327            18.836                Anadyr2           588.625
       377   04 Jun 2027 16:45:46.976   04 Jun 2027 16:46:01.271            14.295                Anadyr1           446.719
       378   04 Jun 2027 16:46:38.146   04 Jun 2027 16:47:09.609            31.463                Anadyr1           983.219
       379   04 Jun 2027 16:47:26.859   04 Jun 2027 16:49:37.045           130.186               Magadan2          4068.312
       380   04 Jun 2027 16:50:15.367   04 Jun 2027 16:51:30.201            74.834               Magadan2          2338.562
       381   04 Jun 2027 18:20:53.403   04 Jun 2027 18:22:27.788            94.385                Anadyr1          2949.531
       382   04 Jun 2027 18:22:38.316   04 Jun 2027 18:24:49.846           131.530                Anadyr2          4110.313
       383   04 Jun 2027 18:25:08.234   04 Jun 2027 18:27:10.385           122.151                Norilsk          3817.219
       384   04 Jun 2027 18:29:32.412   04 Jun 2027 18:31:58.992           146.580                Irkutsk          4580.625
       385   04 Jun 2027 19:15:09.167   04 Jun 2027 19:15:38.956            29.789            RioGallegos           930.906
       386   04 Jun 2027 19:16:40.833   04 Jun 2027 19:18:01.420            80.587            RioGallegos          2518.344
       387   04 Jun 2027 19:58:45.675   04 Jun 2027 20:00:24.821            99.146                Norilsk          3098.313
       388   04 Jun 2027 20:02:49.210   04 Jun 2027 20:04:33.525           104.315                Irkutsk          3259.844
       389   04 Jun 2027 20:05:30.286   04 Jun 2027 20:08:36.747           186.461                Novosib          5826.906
       390   04 Jun 2027 20:08:54.539   04 Jun 2027 20:10:24.052            89.513                Novosib          2797.281
       391   04 Jun 2027 20:16:29.869   04 Jun 2027 20:17:30.320            60.451                Sumatra          1889.094
       392   04 Jun 2027 20:19:20.987   04 Jun 2027 20:19:21.637             0.650                Sumatra            20.313
       393   04 Jun 2027 21:38:37.163   04 Jun 2027 21:38:47.738            10.575                Irkutsk           330.469
       394   04 Jun 2027 21:38:50.177   04 Jun 2027 21:39:02.235            12.058                Irkutsk           376.812
       395   04 Jun 2027 21:39:06.006   04 Jun 2027 21:40:42.054            96.048                Novosib          3001.500
       396   04 Jun 2027 21:41:12.255   04 Jun 2027 21:41:25.856            13.601                Novosib           425.031
       397   04 Jun 2027 21:42:06.451   04 Jun 2027 21:43:21.204            74.753                Novosib          2336.031
       398   04 Jun 2027 21:46:11.575   04 Jun 2027 21:48:37.945           146.370                  Delhi          4574.062
       399   04 Jun 2027 21:54:33.414   04 Jun 2027 21:55:38.777            65.363                  Delhi          2042.594
       400   04 Jun 2027 23:10:29.152   04 Jun 2027 23:11:06.932            37.780               Magadan1          1180.625
       401   04 Jun 2027 23:12:10.117   04 Jun 2027 23:12:20.615            10.498               Magadan2           328.063
       402   04 Jun 2027 23:12:59.784   04 Jun 2027 23:13:24.499            24.715               Magadan2           772.344
       403   04 Jun 2027 23:13:39.015   04 Jun 2027 23:18:06.913           267.898              Murmansk1          8371.812
       404   04 Jun 2027 23:18:18.294   04 Jun 2027 23:21:43.128           204.834                 Moscow          6401.062
       405   04 Jun 2027 23:46:12.828   04 Jun 2027 23:46:41.262            28.434               CapeTown           888.563
       406   04 Jun 2027 23:47:57.049   04 Jun 2027 23:48:28.499            31.450               CapeTown           982.812
       407   05 Jun 2027 00:48:45.496   05 Jun 2027 00:49:07.095            21.599               Magadan1           674.969
       408   05 Jun 2027 00:49:11.359   05 Jun 2027 00:51:18.057           126.698              Murmansk2          3959.313
       409   05 Jun 2027 00:51:30.958   05 Jun 2027 00:51:40.334             9.376              Murmansk2           293.000
       410   05 Jun 2027 00:52:07.946   05 Jun 2027 00:53:46.588            98.642                 Moscow          3082.562
       411   05 Jun 2027 01:16:11.570   05 Jun 2027 01:17:50.015            98.445               CapeTown          3076.406
       412   05 Jun 2027 02:12:41.611   05 Jun 2027 02:13:40.390            58.779                Anadyr1          1836.844
       413   05 Jun 2027 02:14:05.167   05 Jun 2027 02:14:19.473            14.306                Anadyr1           447.063
       414   05 Jun 2027 02:14:38.044   05 Jun 2027 02:15:48.336            70.292               Magadan1          2196.625
       415   05 Jun 2027 02:16:58.464   05 Jun 2027 02:17:25.507            27.043               Magadan1           845.094
       416   05 Jun 2027 02:20:13.987   05 Jun 2027 02:20:59.361            45.374               Magadan2          1417.938
       417   05 Jun 2027 02:24:48.402   05 Jun 2027 02:25:59.644            71.242              Murmansk1          2226.313
       418   05 Jun 2027 02:27:58.284   05 Jun 2027 02:28:49.288            51.004              Murmansk2          1593.875
       419   05 Jun 2027 02:31:28.656   05 Jun 2027 02:32:03.449            34.793                 Moscow          1087.281
       420   05 Jun 2027 02:34:52.048   05 Jun 2027 02:35:42.027            49.979                 Moscow          1561.844
       421   05 Jun 2027 02:56:36.544   05 Jun 2027 02:57:57.129            80.585               CapeTown          2518.281
       422   05 Jun 2027 03:54:19.830   05 Jun 2027 03:56:43.783           143.953               Magadan2          4498.531
       423   05 Jun 2027 03:56:57.850   05 Jun 2027 04:01:28.672           270.822                Anadyr1          8463.187
       424   05 Jun 2027 05:30:01.706   05 Jun 2027 05:31:13.833            72.127                Anadyr1          2253.969
       425   05 Jun 2027 05:31:13.833   05 Jun 2027 05:32:07.182            53.349                Anadyr2          1667.156
       426   05 Jun 2027 05:32:35.707   05 Jun 2027 05:37:02.983           267.276               Magadan2          8352.375
       427   05 Jun 2027 06:12:26.636   05 Jun 2027 06:12:49.216            22.580            RioGallegos           705.625
       428   05 Jun 2027 06:13:47.971   05 Jun 2027 06:14:42.437            54.466            RioGallegos          1702.062
       429   05 Jun 2027 06:15:38.153   05 Jun 2027 06:15:51.886            13.733            RioGallegos           429.156
       430   05 Jun 2027 06:19:03.414   05 Jun 2027 06:20:01.509            58.095            RioGallegos          1815.469
       431   05 Jun 2027 07:07:44.331   05 Jun 2027 07:09:09.158            84.827                Norilsk          2650.844
       432   05 Jun 2027 07:09:28.434   05 Jun 2027 07:11:00.212            91.778               Magadan1          2868.062
       433   05 Jun 2027 07:11:06.699   05 Jun 2027 07:12:29.569            82.870                Norilsk          2589.687
       434   05 Jun 2027 07:12:33.648   05 Jun 2027 07:13:23.245            49.597              Murmansk1          1549.906
       435   05 Jun 2027 07:13:23.245   05 Jun 2027 07:13:50.285            27.040              Murmansk2           845.000
       436   05 Jun 2027 07:16:20.343   05 Jun 2027 07:16:45.202            24.859              Murmansk1           776.844
       437   05 Jun 2027 07:17:06.473   05 Jun 2027 07:17:39.249            32.776              Murmansk1          1024.250
       438   05 Jun 2027 07:47:42.628   05 Jun 2027 07:49:12.722            90.094            RioGallegos          2815.437
       439   05 Jun 2027 08:22:28.224   05 Jun 2027 08:23:15.342            47.118                Sumatra          1472.437
       440   05 Jun 2027 08:24:00.259   05 Jun 2027 08:24:10.389            10.130                Sumatra           316.562
       441   05 Jun 2027 08:32:58.062   05 Jun 2027 08:34:09.264            71.202                  Delhi          2225.063
       442   05 Jun 2027 08:37:44.839   05 Jun 2027 08:39:13.519            88.680                  Delhi          2771.250
       443   05 Jun 2027 08:43:12.909   05 Jun 2027 08:43:17.620             4.711                Irkutsk           147.219
       444   05 Jun 2027 08:43:49.048   05 Jun 2027 08:45:00.659            71.611                Novosib          2237.844
       445   05 Jun 2027 08:45:05.284   05 Jun 2027 08:45:32.698            27.414                Norilsk           856.687
       446   05 Jun 2027 08:45:38.103   05 Jun 2027 08:45:41.441             3.338                Irkutsk           104.312
       447   05 Jun 2027 08:45:45.786   05 Jun 2027 08:46:02.884            17.098                Norilsk           534.312
       448   05 Jun 2027 08:46:03.885   05 Jun 2027 08:46:25.680            21.795              Murmansk2           681.094
       449   05 Jun 2027 08:46:28.864   05 Jun 2027 08:47:06.900            38.036                Irkutsk          1188.625
       450   05 Jun 2027 08:47:15.110   05 Jun 2027 08:47:44.611            29.501              Murmansk2           921.906
       451   05 Jun 2027 08:47:56.385   05 Jun 2027 08:48:18.187            21.802              Murmansk1           681.312
       452   05 Jun 2027 08:48:22.152   05 Jun 2027 08:49:12.061            49.909                Novosib          1559.656
       453   05 Jun 2027 09:27:26.876   05 Jun 2027 09:28:17.274            50.398            RioGallegos          1574.938
       454   05 Jun 2027 09:29:18.965   05 Jun 2027 09:29:57.710            38.745            RioGallegos          1210.781
       455   05 Jun 2027 10:03:03.743   05 Jun 2027 10:04:08.526            64.783                Sumatra          2024.469
       456   05 Jun 2027 10:06:42.784   05 Jun 2027 10:07:12.677            29.893                  Delhi           934.156
       457   05 Jun 2027 10:20:36.514   05 Jun 2027 10:20:39.950             3.436                Novosib           107.375
       458   05 Jun 2027 10:20:48.175   05 Jun 2027 10:21:28.902            40.727              Murmansk2          1272.719
       459   05 Jun 2027 10:21:43.811   05 Jun 2027 10:22:26.998            43.187                 Moscow          1349.594
       460   05 Jun 2027 10:22:57.499   05 Jun 2027 10:23:43.310            45.811              Murmansk2          1431.594
       461   05 Jun 2027 10:23:47.011   05 Jun 2027 10:24:01.870            14.859                Norilsk           464.344
       462   05 Jun 2027 10:24:17.719   05 Jun 2027 10:24:25.530             7.811                Norilsk           244.094
       463   05 Jun 2027 10:24:26.572   05 Jun 2027 10:25:18.522            51.950                 Moscow          1623.437
       464   05 Jun 2027 11:54:21.724   05 Jun 2027 11:54:30.518             8.794                 Moscow           274.812
       465   05 Jun 2027 11:54:45.920   05 Jun 2027 11:55:31.378            45.458              Murmansk1          1420.563
       466   05 Jun 2027 11:55:31.378   05 Jun 2027 11:55:37.393             6.015              Murmansk2           187.969
       467   05 Jun 2027 11:55:45.085   05 Jun 2027 11:55:51.553             6.468                 Moscow           202.125
       468   05 Jun 2027 11:56:03.937   05 Jun 2027 11:56:28.158            24.221              Murmansk1           756.906
       469   05 Jun 2027 11:56:43.655   05 Jun 2027 11:56:47.485             3.830                 Moscow           119.687
       470   05 Jun 2027 11:57:15.146   05 Jun 2027 11:57:18.546             3.400                 Moscow           106.250
       471   05 Jun 2027 11:57:37.773   05 Jun 2027 11:57:50.792            13.019              Murmansk1           406.844
       472   05 Jun 2027 11:58:00.152   05 Jun 2027 11:58:00.177             0.025              Murmansk2             0.781
       473   05 Jun 2027 11:58:14.992   05 Jun 2027 11:59:33.327            78.335                Norilsk          2447.969
       474   05 Jun 2027 11:59:47.671   05 Jun 2027 12:01:34.112           106.441                Norilsk          3326.281
       475   05 Jun 2027 12:02:56.915   05 Jun 2027 12:03:19.356            22.441                 Moscow           701.281
       476   05 Jun 2027 12:04:06.450   05 Jun 2027 12:04:26.579            20.129              Murmansk1           629.031
       477   05 Jun 2027 12:04:40.085   05 Jun 2027 12:05:03.973            23.888              Murmansk1           746.500
       478   05 Jun 2027 12:05:40.881   05 Jun 2027 12:05:43.670             2.789              Murmansk1            87.156
       479   05 Jun 2027 12:05:58.562   05 Jun 2027 12:06:21.329            22.767              Murmansk1           711.469
       480   05 Jun 2027 12:07:11.103   05 Jun 2027 12:07:24.921            13.818              Murmansk2           431.812
       481   05 Jun 2027 13:06:36.696   05 Jun 2027 13:07:27.300            50.604               CapeTown          1581.375
       482   05 Jun 2027 13:07:55.694   05 Jun 2027 13:09:05.806            70.112               CapeTown          2191.000
