uniorb/output/strategy_1/Drop/Drop_KinoSat_110109.txt

KinoSat_110109
-------------------------
    Access    *     Start Time (UTCG)     *     Stop Time (UTCG)  *   Duration (s)        *       Station  *  Data (Mbytes)
         1   01 Jun 2027 03:30:25.765   01 Jun 2027 03:30:28.821             3.056                Norilsk           382.000
         2   01 Jun 2027 03:30:32.299   01 Jun 2027 03:31:39.081            66.782                Norilsk          8347.750
         3   01 Jun 2027 03:32:01.655   01 Jun 2027 03:32:26.875            25.220                Norilsk          3152.500
         4   01 Jun 2027 03:32:42.347   01 Jun 2027 03:33:50.972            68.625                Novosib          8578.125
         5   01 Jun 2027 03:33:57.976   01 Jun 2027 03:35:32.475            94.499              Murmansk1         11812.375
         6   01 Jun 2027 03:36:08.136   01 Jun 2027 03:36:20.440            12.304              Murmansk1          1538.000
         7   01 Jun 2027 03:38:37.592   01 Jun 2027 03:39:07.148            29.556                Norilsk          3694.500
         8   01 Jun 2027 04:14:04.648   01 Jun 2027 04:14:35.938            31.290            RioGallegos          3911.250
         9   01 Jun 2027 04:44:56.291   01 Jun 2027 04:46:56.786           120.495                Sumatra         15061.875
        10   01 Jun 2027 05:07:46.528   01 Jun 2027 05:08:03.676            17.148                Irkutsk          2143.500
        11   01 Jun 2027 05:08:14.968   01 Jun 2027 05:08:51.497            36.529              Murmansk2          4566.125
        12   01 Jun 2027 05:08:56.710   01 Jun 2027 05:09:45.104            48.394                Norilsk          6049.250
        13   01 Jun 2027 05:10:06.426   01 Jun 2027 05:10:11.540             5.114                Irkutsk           639.250
        14   01 Jun 2027 05:10:15.030   01 Jun 2027 05:10:34.074            19.044              Murmansk1          2380.500
        15   01 Jun 2027 05:11:40.632   01 Jun 2027 05:12:20.329            39.697                Novosib          4962.125
        16   01 Jun 2027 05:12:28.197   01 Jun 2027 05:12:31.209             3.012                Novosib           376.500
        17   01 Jun 2027 06:29:45.465   01 Jun 2027 06:33:11.994           206.529                  Delhi         25816.125
        18   01 Jun 2027 06:44:14.557   01 Jun 2027 06:44:45.557            31.000              Murmansk1          3875.000
        19   01 Jun 2027 06:44:56.497   01 Jun 2027 06:45:24.125            27.628                Norilsk          3453.500
        20   01 Jun 2027 06:45:45.287   01 Jun 2027 06:47:33.925           108.638                Novosib         13579.750
        21   01 Jun 2027 09:29:27.495   01 Jun 2027 09:32:38.274           190.779               CapeTown         23847.375
        22   01 Jun 2027 10:16:58.748   01 Jun 2027 10:17:53.055            54.307                Anadyr2          6788.375
        23   01 Jun 2027 11:52:19.450   01 Jun 2027 11:52:34.621            15.171               Magadan2          1896.375
        24   01 Jun 2027 13:21:26.071   01 Jun 2027 13:21:48.139            22.068               Magadan2          2758.500
        25   01 Jun 2027 13:25:58.870   01 Jun 2027 13:26:15.894            17.024               Magadan2          2128.000
        26   01 Jun 2027 13:28:50.175   01 Jun 2027 13:31:01.049           130.874               Magadan1         16359.250
        27   01 Jun 2027 15:05:00.369   01 Jun 2027 15:05:17.197            16.828                Irkutsk          2103.500
        28   01 Jun 2027 15:15:48.055   01 Jun 2027 15:23:30.791           462.736                Sumatra         57842.000
        29   01 Jun 2027 16:41:11.534   01 Jun 2027 16:43:37.096           145.562                Novosib         18195.250
        30   01 Jun 2027 16:45:49.836   01 Jun 2027 16:46:00.875            11.039                  Delhi          1379.875
        31   01 Jun 2027 16:50:32.786   01 Jun 2027 16:54:57.539           264.753                  Delhi         23120.501
        32   02 Jun 2027 04:24:58.476   02 Jun 2027 04:25:05.882             7.406            RioGallegos           925.750
        33   02 Jun 2027 04:25:27.908   02 Jun 2027 04:26:48.318            80.410            RioGallegos         10051.250
        34   02 Jun 2027 04:58:59.540   02 Jun 2027 05:01:21.270           141.730                Sumatra         17716.250
        35   02 Jun 2027 05:05:08.960   02 Jun 2027 05:07:56.154           167.194                  Delhi         20899.250
        36   02 Jun 2027 05:21:11.516   02 Jun 2027 05:21:30.804            19.288                Novosib          2411.000
        37   02 Jun 2027 05:22:01.444   02 Jun 2027 05:22:59.806            58.362                Novosib          7295.250
        38   02 Jun 2027 05:23:19.276   02 Jun 2027 05:23:56.105            36.829                Norilsk          4603.625
        39   02 Jun 2027 06:42:21.022   02 Jun 2027 06:44:08.302           107.280                  Delhi         13410.000
        40   02 Jun 2027 06:56:19.138   02 Jun 2027 06:56:32.611            13.473                Norilsk          1684.125
        41   02 Jun 2027 06:56:33.841   02 Jun 2027 06:57:03.822            29.981                 Moscow          3747.625
        42   02 Jun 2027 06:57:17.240   02 Jun 2027 06:57:27.516            10.276              Murmansk2          1284.500
        43   02 Jun 2027 06:57:38.978   02 Jun 2027 06:59:17.263            98.285                Novosib         12285.625
        44   02 Jun 2027 12:07:10.491   02 Jun 2027 12:07:25.550            15.059               Magadan1          1882.375
        45   02 Jun 2027 13:33:26.710   02 Jun 2027 13:33:43.236            16.526               Magadan1          2065.750
        46   02 Jun 2027 13:35:12.193   02 Jun 2027 13:35:34.839            22.646               Magadan1          2830.750
        47   02 Jun 2027 13:36:43.988   02 Jun 2027 13:38:14.810            90.822               Magadan2         11352.750
        48   02 Jun 2027 13:45:06.261   02 Jun 2027 13:46:21.425            75.164               Magadan1          9395.500
        49   02 Jun 2027 15:17:04.736   02 Jun 2027 15:18:30.727            85.991                Irkutsk         10748.875
        50   02 Jun 2027 15:27:22.044   02 Jun 2027 15:34:09.339           407.295                Sumatra         50911.875
        51   02 Jun 2027 16:53:58.573   02 Jun 2027 16:54:20.670            22.097                Novosib          2762.125
        52   02 Jun 2027 16:57:17.661   02 Jun 2027 17:04:56.576           458.915                  Delhi         57364.375
        53   02 Jun 2027 20:10:26.789   02 Jun 2027 20:12:04.107            97.318                 Moscow         12164.750
        54   02 Jun 2027 21:46:15.427   02 Jun 2027 21:47:51.426            95.999                 Moscow         11999.875
        55   02 Jun 2027 22:02:28.794   02 Jun 2027 22:02:45.848            17.054               CapeTown          2131.750
        56   02 Jun 2027 22:05:00.320   02 Jun 2027 22:06:51.437           111.117               CapeTown         13889.625
        57   03 Jun 2027 03:33:12.056   03 Jun 2027 03:35:24.270           132.214                Sumatra         16526.750
        58   03 Jun 2027 03:38:16.119   03 Jun 2027 03:39:40.764            84.645                Sumatra         10580.625
        59   03 Jun 2027 05:24:16.622   03 Jun 2027 05:26:30.360           133.738                  Delhi         16717.250
        60   03 Jun 2027 05:34:30.569   03 Jun 2027 05:35:23.939            53.370              Murmansk2          6671.250
        61   03 Jun 2027 05:36:17.610   03 Jun 2027 05:36:29.023            11.413                Novosib          1426.625
        62   03 Jun 2027 05:38:03.701   03 Jun 2027 05:38:26.390            22.689                Norilsk          2836.125
        63   03 Jun 2027 06:55:09.493   03 Jun 2027 06:57:29.237           139.744                  Delhi         17468.000
        64   03 Jun 2027 07:09:01.031   03 Jun 2027 07:10:36.683            95.652              Murmansk2         11956.500
        65   03 Jun 2027 07:10:56.259   03 Jun 2027 07:11:19.155            22.896                Norilsk          2862.000
        66   03 Jun 2027 07:11:28.562   03 Jun 2027 07:12:20.498            51.936              Murmansk2          6492.000
        67   03 Jun 2027 08:18:26.200   03 Jun 2027 08:23:08.755           282.555               CapeTown         35319.375
        68   03 Jun 2027 13:45:27.745   03 Jun 2027 13:45:39.641            11.896               Magadan1          1487.000
        69   03 Jun 2027 13:47:36.280   03 Jun 2027 13:48:47.409            71.129               Magadan1          8891.125
        70   03 Jun 2027 13:56:33.769   03 Jun 2027 13:57:27.416            53.647               Magadan1          6705.875
        71   03 Jun 2027 14:40:04.927   03 Jun 2027 14:40:58.317            53.390            RioGallegos          6673.750
        72   03 Jun 2027 15:26:59.500   03 Jun 2027 15:28:39.587           100.087                Irkutsk         12510.875
        73   03 Jun 2027 15:30:57.775   03 Jun 2027 15:32:51.019           113.244                Irkutsk         14155.500
        74   03 Jun 2027 15:41:33.471   03 Jun 2027 15:45:16.960           223.489                Sumatra         27936.125
        75   03 Jun 2027 17:03:00.236   03 Jun 2027 17:03:14.723            14.487                Novosib          1810.875
        76   03 Jun 2027 17:06:09.379   03 Jun 2027 17:09:09.984           180.605                Novosib         22575.625
        77   03 Jun 2027 17:10:11.718   03 Jun 2027 17:15:31.178           319.460                  Delhi         39932.500
        78   03 Jun 2027 20:14:29.007   03 Jun 2027 20:15:46.464            77.457                 Moscow          9682.125
        79   03 Jun 2027 20:23:27.771   03 Jun 2027 20:24:01.598            33.827                 Moscow          4228.375
        80   03 Jun 2027 21:50:58.122   03 Jun 2027 21:53:10.969           132.847                 Moscow         16605.875
        81   03 Jun 2027 22:22:05.018   03 Jun 2027 22:23:54.900           109.882               CapeTown         13735.250
        82   04 Jun 2027 03:44:57.245   04 Jun 2027 03:47:40.919           163.674                Sumatra         20459.250
        83   04 Jun 2027 05:22:34.764   04 Jun 2027 05:23:45.222            70.458                Sumatra          8807.250
        84   04 Jun 2027 05:28:55.462   04 Jun 2027 05:30:19.703            84.241                  Delhi         10530.125
        85   04 Jun 2027 05:31:26.941   04 Jun 2027 05:31:35.616             8.675                  Delhi          1084.375
        86   04 Jun 2027 05:36:32.279   04 Jun 2027 05:38:30.502           118.223                  Delhi         14777.875
        87   04 Jun 2027 05:46:36.927   04 Jun 2027 05:47:21.720            44.793                Norilsk          5599.125
        88   04 Jun 2027 05:47:41.707   04 Jun 2027 05:48:04.572            22.865                Norilsk          2858.125
        89   04 Jun 2027 07:08:19.737   04 Jun 2027 07:10:30.779           131.042                  Delhi         16380.250
        90   04 Jun 2027 07:12:53.137   04 Jun 2027 07:13:50.637            57.500                  Delhi          7187.500
        91   04 Jun 2027 07:18:50.750   04 Jun 2027 07:19:29.625            38.875                 Moscow          4859.375
        92   04 Jun 2027 07:19:39.295   04 Jun 2027 07:19:57.611            18.316                Norilsk          2289.500
        93   04 Jun 2027 07:19:59.939   04 Jun 2027 07:20:53.998            54.059                 Moscow          6757.375
        94   04 Jun 2027 07:21:05.520   04 Jun 2027 07:21:13.238             7.718                 Moscow           964.750
        95   04 Jun 2027 07:21:17.309   04 Jun 2027 07:21:31.839            14.530              Murmansk1          1816.250
        96   04 Jun 2027 07:21:37.960   04 Jun 2027 07:22:11.644            33.684                Norilsk          4210.500
        97   04 Jun 2027 07:22:16.582   04 Jun 2027 07:22:18.730             2.148                Novosib           268.500
        98   04 Jun 2027 07:22:28.733   04 Jun 2027 07:22:52.461            23.728              Murmansk1          2966.000
        99   04 Jun 2027 07:22:56.954   04 Jun 2027 07:23:29.319            32.365              Murmansk2          4045.625
       100   04 Jun 2027 07:23:48.272   04 Jun 2027 07:24:41.577            53.305              Murmansk2          6663.125
       101   04 Jun 2027 07:28:14.205   04 Jun 2027 07:28:30.368            16.163              Murmansk2          2020.375
       102   04 Jun 2027 08:29:14.460   04 Jun 2027 08:30:03.191            48.731               CapeTown          6091.375
       103   04 Jun 2027 10:02:45.230   04 Jun 2027 10:04:20.836            95.606               CapeTown         11950.750
       104   04 Jun 2027 10:12:20.706   04 Jun 2027 10:13:31.669            70.963               CapeTown          8870.375
       105   04 Jun 2027 10:46:20.584   04 Jun 2027 10:48:17.073           116.489                Anadyr2         14561.125
       106   04 Jun 2027 10:55:27.196   04 Jun 2027 10:55:30.605             3.409                Anadyr2           426.125
       107   04 Jun 2027 12:19:17.364   04 Jun 2027 12:19:18.823             1.459                Anadyr2           182.375
       108   04 Jun 2027 12:21:46.469   04 Jun 2027 12:23:07.970            81.501               Magadan2         10187.625
       109   04 Jun 2027 12:26:51.263   04 Jun 2027 12:32:23.806           332.543               Magadan2         41567.875
       110   04 Jun 2027 13:57:29.109   04 Jun 2027 13:57:37.105             7.996               Magadan1           999.500
       111   04 Jun 2027 14:50:14.916   04 Jun 2027 14:54:16.790           241.874            RioGallegos         30234.250
       112   04 Jun 2027 15:44:52.301   04 Jun 2027 15:46:41.025           108.724                Irkutsk         13590.500
       113   04 Jun 2027 15:50:52.200   04 Jun 2027 15:53:46.737           174.537                Sumatra         21817.125
       114   04 Jun 2027 17:12:57.691   04 Jun 2027 17:15:33.228           155.537                Novosib         19442.125
       115   04 Jun 2027 17:20:37.787   04 Jun 2027 17:26:42.399           364.612                  Delhi         45576.500
       116   04 Jun 2027 20:26:26.717   04 Jun 2027 20:27:25.907            59.190                 Moscow          7398.750
       117   04 Jun 2027 20:33:03.370   04 Jun 2027 20:33:55.608            52.238                 Moscow          6529.750
       118   04 Jun 2027 22:03:48.659   04 Jun 2027 22:03:59.153            10.494              Murmansk1          1311.750
       119   04 Jun 2027 22:06:55.321   04 Jun 2027 22:07:25.592            30.271                 Moscow          3783.875
       120   04 Jun 2027 22:09:41.792   04 Jun 2027 22:10:18.566            36.774                 Moscow          4596.750
       121   04 Jun 2027 22:27:16.585   04 Jun 2027 22:28:42.707            86.122               CapeTown         10765.250
       122   04 Jun 2027 22:29:18.524   04 Jun 2027 22:29:42.693            24.169               CapeTown          3021.125
       123   04 Jun 2027 22:37:56.971   04 Jun 2027 22:38:02.070             5.099               CapeTown           637.375
       124   05 Jun 2027 03:56:48.629   05 Jun 2027 04:01:22.282           273.653                Sumatra         34206.625
       125   05 Jun 2027 05:35:45.582   05 Jun 2027 05:38:00.916           135.334                Sumatra         16916.750
       126   05 Jun 2027 05:40:56.678   05 Jun 2027 05:42:51.195           114.517                  Delhi         14314.625
       127   05 Jun 2027 05:48:43.622   05 Jun 2027 05:50:36.050           112.428                  Delhi         14053.500
       128   05 Jun 2027 05:58:20.446   05 Jun 2027 05:58:49.553            29.107                Novosib          3638.375
       129   05 Jun 2027 07:22:47.603   05 Jun 2027 07:23:05.212            17.609                  Delhi          2201.125
       130   05 Jun 2027 07:30:09.728   05 Jun 2027 07:30:37.361            27.633                 Moscow          3454.125
       131   05 Jun 2027 07:30:37.855   05 Jun 2027 07:31:12.739            34.884              Murmansk2          4360.500
       132   05 Jun 2027 07:31:33.252   05 Jun 2027 07:32:33.081            59.829                Novosib          7478.625
       133   05 Jun 2027 07:32:41.482   05 Jun 2027 07:33:16.208            34.726              Murmansk2          4340.750
       134   05 Jun 2027 07:33:29.948   05 Jun 2027 07:34:48.305            78.357                 Moscow          9794.625
       135   05 Jun 2027 07:35:06.448   05 Jun 2027 07:35:27.551            21.103                Norilsk          2637.875
       136   05 Jun 2027 07:35:38.098   05 Jun 2027 07:36:38.719            60.621              Murmansk2          7577.625
       137   05 Jun 2027 07:36:39.117   05 Jun 2027 07:37:45.419            66.302                 Moscow          8287.750
       138   05 Jun 2027 08:40:31.359   05 Jun 2027 08:43:35.381           184.022               CapeTown         23002.750
       139   05 Jun 2027 08:48:08.976   05 Jun 2027 08:49:35.448            86.472               CapeTown         10809.000
       140   05 Jun 2027 10:57:42.170   05 Jun 2027 11:00:15.316           153.146                Anadyr1         19143.250
       141   05 Jun 2027 11:04:21.316   05 Jun 2027 11:05:00.116            38.800                Anadyr2          4850.000
       142   05 Jun 2027 12:33:43.872   05 Jun 2027 12:34:45.389            61.517               Magadan2          7689.625
       143   05 Jun 2027 12:34:45.389   05 Jun 2027 12:36:01.188            75.799               Magadan1          9474.875
       144   05 Jun 2027 12:39:04.451   05 Jun 2027 12:42:28.835           204.384               Magadan2         25548.000
       145   05 Jun 2027 15:03:07.322   05 Jun 2027 15:05:34.385           147.063            RioGallegos         18382.875
       146   05 Jun 2027 15:06:21.154   05 Jun 2027 15:06:50.123            28.969            RioGallegos          3621.125
       147   05 Jun 2027 15:49:05.792   05 Jun 2027 15:50:39.168            93.376                Irkutsk         11672.000
       148   05 Jun 2027 16:02:46.483   05 Jun 2027 16:05:53.863           187.380                Sumatra         23422.500
       149   05 Jun 2027 17:25:51.654   05 Jun 2027 17:27:48.034           116.380                Novosib         14547.500
       150   05 Jun 2027 17:32:26.129   05 Jun 2027 17:41:54.372           568.243                  Delhi         71030.375
       151   05 Jun 2027 22:39:53.159   05 Jun 2027 22:40:40.264            47.105               CapeTown          5888.125
       152   06 Jun 2027 04:08:45.739   06 Jun 2027 04:11:46.426           180.687                Sumatra         22585.875
       153   06 Jun 2027 04:34:53.147   06 Jun 2027 04:35:19.043            25.896              Murmansk1          3237.000
       154   06 Jun 2027 05:53:03.347   06 Jun 2027 05:57:48.655           285.308                  Delhi         35663.500
       155   06 Jun 2027 06:09:45.767   06 Jun 2027 06:10:11.519            25.752              Murmansk1          3219.000
       156   06 Jun 2027 06:10:33.480   06 Jun 2027 06:11:55.800            82.320                Novosib         10290.000
       157   06 Jun 2027 07:41:59.838   06 Jun 2027 07:42:08.217             8.379                 Moscow          1047.375
       158   06 Jun 2027 07:42:26.620   06 Jun 2027 07:43:58.556            91.936                 Moscow         11492.000
       159   06 Jun 2027 07:44:09.125   06 Jun 2027 07:44:50.971            41.846              Murmansk2          5230.750
       160   06 Jun 2027 07:44:53.564   06 Jun 2027 07:45:34.778            41.214              Murmansk1          5151.750
       161   06 Jun 2027 07:45:48.861   06 Jun 2027 07:46:04.484            15.623                 Moscow          1952.875
       162   06 Jun 2027 07:46:15.091   06 Jun 2027 07:47:27.211            72.120              Murmansk2          9015.000
       163   06 Jun 2027 08:52:01.495   06 Jun 2027 08:59:26.146           444.651               CapeTown         55581.375
       164   06 Jun 2027 12:45:42.167   06 Jun 2027 12:48:18.711           156.544               Magadan2         19568.000
       165   06 Jun 2027 12:50:00.617   06 Jun 2027 12:52:01.214           120.597               Magadan1         15074.625
       166   06 Jun 2027 15:13:18.080   06 Jun 2027 15:18:34.349           316.269            RioGallegos         39533.625
       167   06 Jun 2027 16:01:02.994   06 Jun 2027 16:02:13.448            70.454                Irkutsk          8806.750
       168   06 Jun 2027 16:14:46.388   06 Jun 2027 16:17:14.712           148.324                Sumatra         18540.500
       169   06 Jun 2027 16:22:20.084   06 Jun 2027 16:24:24.843           124.759                Sumatra         15594.875
       170   06 Jun 2027 17:44:00.886   06 Jun 2027 17:46:28.712           147.826                Novosib         18478.250
       171   06 Jun 2027 17:47:15.996   06 Jun 2027 17:47:49.291            33.295                  Delhi          4161.875
       172   06 Jun 2027 17:52:51.981   06 Jun 2027 17:53:49.891            57.910                  Delhi          7238.750
       173   06 Jun 2027 19:21:15.748   06 Jun 2027 19:21:31.481            15.733                  Delhi          1966.625
       174   06 Jun 2027 20:47:15.683   06 Jun 2027 20:47:57.143            41.460              Murmansk1          5182.500
       175   06 Jun 2027 20:50:24.962   06 Jun 2027 20:50:59.717            34.755                 Moscow          4344.375
       176   06 Jun 2027 20:51:31.416   06 Jun 2027 20:51:53.933            22.517              Murmansk1          2814.625
       177   06 Jun 2027 20:53:36.842   06 Jun 2027 20:55:17.739           100.897                 Moscow         12612.125
       178   07 Jun 2027 03:07:25.581   07 Jun 2027 03:07:56.580            30.999               Magadan1          3874.875
       179   07 Jun 2027 03:08:13.710   07 Jun 2027 03:09:19.621            65.911               Magadan1          8238.875
       180   07 Jun 2027 03:10:08.846   07 Jun 2027 03:10:50.803            41.957                Irkutsk          5244.625
       181   07 Jun 2027 03:10:53.218   07 Jun 2027 03:11:22.480            29.262                Novosib          3657.750
       182   07 Jun 2027 03:46:16.622   07 Jun 2027 03:50:08.389           231.767            RioGallegos         28970.875
       183   07 Jun 2027 04:20:48.437   07 Jun 2027 04:22:48.613           120.176                Sumatra         15022.000
       184   07 Jun 2027 04:43:09.668   07 Jun 2027 04:43:25.181            15.513                Novosib          1939.125
       185   07 Jun 2027 04:43:33.292   07 Jun 2027 04:44:42.123            68.831              Murmansk1          8603.875
       186   07 Jun 2027 04:45:14.868   07 Jun 2027 04:46:46.821            91.953                Irkutsk         11494.125
       187   07 Jun 2027 04:47:12.119   07 Jun 2027 04:47:41.548            29.429              Murmansk2          3678.625
       188   07 Jun 2027 04:48:22.650   07 Jun 2027 04:48:31.863             9.213                 Moscow          1151.625
       189   07 Jun 2027 04:48:33.544   07 Jun 2027 04:48:45.294            11.750                Novosib          1468.750
       190   07 Jun 2027 05:27:34.187   07 Jun 2027 05:27:47.693            13.506            RioGallegos          1688.250
       191   07 Jun 2027 06:05:15.802   07 Jun 2027 06:07:40.695           144.893                  Delhi         18111.625
       192   07 Jun 2027 06:11:27.225   07 Jun 2027 06:12:26.797            59.572                  Delhi          7446.500
       193   07 Jun 2027 06:20:09.994   07 Jun 2027 06:20:49.459            39.465                Norilsk          4933.125
       194   07 Jun 2027 06:21:08.224   07 Jun 2027 06:22:03.086            54.862              Murmansk1          6857.750
       195   07 Jun 2027 06:22:11.714   07 Jun 2027 06:22:21.516             9.802                 Moscow          1225.250
       196   07 Jun 2027 06:22:29.171   07 Jun 2027 06:22:54.300            25.129                Norilsk          3141.125
       197   07 Jun 2027 06:24:24.497   07 Jun 2027 06:24:53.413            28.916                 Moscow          3614.500
       198   07 Jun 2027 07:55:08.093   07 Jun 2027 07:56:10.713            62.620              Murmansk1          7827.500
       199   07 Jun 2027 07:56:16.049   07 Jun 2027 07:56:39.608            23.559              Murmansk1          2944.875
       200   07 Jun 2027 07:56:48.752   07 Jun 2027 07:57:33.816            45.064              Murmansk1          5633.000
       201   07 Jun 2027 07:57:37.451   07 Jun 2027 07:58:09.367            31.916              Murmansk1          3989.500
       202   07 Jun 2027 09:03:39.885   07 Jun 2027 09:10:08.704           388.819               CapeTown         48602.375
       203   07 Jun 2027 09:47:33.613   07 Jun 2027 09:47:44.015            10.402                Anadyr1          1300.250
       204   07 Jun 2027 11:19:26.400   07 Jun 2027 11:21:13.941           107.541                Anadyr1         13442.625
       205   07 Jun 2027 12:57:41.203   07 Jun 2027 13:00:18.747           157.544               Magadan2         19693.000
       206   07 Jun 2027 14:33:34.799   07 Jun 2027 14:34:23.354            48.555               Magadan1          6069.375
       207   07 Jun 2027 14:43:08.827   07 Jun 2027 14:43:53.539            44.712               Magadan1          5589.000
       208   07 Jun 2027 14:53:54.338   07 Jun 2027 14:54:59.761            65.423                Sumatra          8177.875
       209   07 Jun 2027 15:25:13.549   07 Jun 2027 15:26:53.737           100.188            RioGallegos         12523.500
       210   07 Jun 2027 15:34:04.559   07 Jun 2027 15:34:45.535            40.976            RioGallegos          5122.000
       211   07 Jun 2027 16:15:20.540   07 Jun 2027 16:16:07.729            47.189                Irkutsk          5898.625
       212   07 Jun 2027 16:17:58.966   07 Jun 2027 16:20:09.011           130.045                Irkutsk         16255.625
       213   07 Jun 2027 16:26:51.922   07 Jun 2027 16:28:26.690            94.768                Sumatra         11846.000
       214   07 Jun 2027 16:34:34.006   07 Jun 2027 16:36:35.099           121.093                Sumatra         15136.625
       215   07 Jun 2027 17:52:07.516   07 Jun 2027 17:53:46.380            98.864                Novosib         12358.000
       216   07 Jun 2027 17:56:14.909   07 Jun 2027 17:58:37.335           142.426                  Delhi         17803.250
       217   07 Jun 2027 21:02:25.259   07 Jun 2027 21:02:51.256            25.997                 Moscow          3249.625
       218   07 Jun 2027 21:03:55.313   07 Jun 2027 21:04:12.300            16.987              Murmansk1          2123.375
       219   07 Jun 2027 21:04:29.792   07 Jun 2027 21:04:56.497            26.705              Murmansk2          3338.125
       220   07 Jun 2027 21:05:42.503   07 Jun 2027 21:06:03.517            21.014                 Moscow          2626.750
       221   07 Jun 2027 21:07:14.334   07 Jun 2027 21:07:15.306             0.972                 Moscow           121.500
       222   07 Jun 2027 21:12:00.480   07 Jun 2027 21:13:58.669           118.189                 Moscow         14773.625
       223   07 Jun 2027 21:29:31.805   07 Jun 2027 21:30:30.078            58.273               CapeTown          7284.125
       224   08 Jun 2027 02:59:27.510   08 Jun 2027 03:01:34.818           127.308                Sumatra         15913.500
       225   08 Jun 2027 03:21:40.246   08 Jun 2027 03:22:24.719            44.473              Murmansk2          5559.125
       226   08 Jun 2027 03:22:44.816   08 Jun 2027 03:23:38.336            53.520                Novosib          6690.000
       227   08 Jun 2027 03:25:39.667   08 Jun 2027 03:26:41.480            61.813                Norilsk          7726.625
       228   08 Jun 2027 03:58:33.549   08 Jun 2027 04:00:30.819           117.270            RioGallegos         14658.750
       229   08 Jun 2027 04:01:31.996   08 Jun 2027 04:02:42.234            70.238            RioGallegos          8779.750
       230   08 Jun 2027 04:32:56.895   08 Jun 2027 04:34:08.084            71.189                Sumatra          8898.625
       231   08 Jun 2027 04:35:46.909   08 Jun 2027 04:37:37.617           110.708                Sumatra         13838.500
       232   08 Jun 2027 04:55:54.681   08 Jun 2027 04:56:36.723            42.042              Murmansk2          5255.250
       233   08 Jun 2027 04:57:00.492   08 Jun 2027 04:57:40.082            39.590              Murmansk2          4948.750
       234   08 Jun 2027 04:57:40.082   08 Jun 2027 04:57:44.290             4.208              Murmansk1           526.000
       235   08 Jun 2027 04:57:45.353   08 Jun 2027 04:58:18.984            33.631                Irkutsk          4203.875
       236   08 Jun 2027 04:58:38.980   08 Jun 2027 04:59:19.942            40.962                Norilsk          5120.250
       237   08 Jun 2027 06:17:34.691   08 Jun 2027 06:23:04.394           329.703                  Delhi         41212.875
       238   08 Jun 2027 06:33:05.843   08 Jun 2027 06:34:21.629            75.786              Murmansk2          9473.250
       239   08 Jun 2027 06:34:30.836   08 Jun 2027 06:35:00.267            29.431                 Moscow          3678.875
       240   08 Jun 2027 06:35:15.311   08 Jun 2027 06:35:19.478             4.167              Murmansk2           520.875
       241   08 Jun 2027 08:08:03.203   08 Jun 2027 08:08:26.714            23.511              Murmansk1          2938.875
       242   08 Jun 2027 08:08:31.297   08 Jun 2027 08:09:21.471            50.174                 Moscow          6271.750
       243   08 Jun 2027 08:09:34.277   08 Jun 2027 08:09:38.977             4.700              Murmansk2           587.500
       244   08 Jun 2027 08:09:38.977   08 Jun 2027 08:10:04.359            25.382              Murmansk1          3172.750
       245   08 Jun 2027 09:15:24.161   08 Jun 2027 09:21:23.632           359.471               CapeTown         44933.875
       246   08 Jun 2027 11:31:27.318   08 Jun 2027 11:31:36.451             9.133                Anadyr1          1141.625
       247   08 Jun 2027 11:32:47.144   08 Jun 2027 11:32:53.161             6.017                Anadyr2           752.125
       248   08 Jun 2027 11:34:35.288   08 Jun 2027 11:36:13.705            98.417                Anadyr1         12302.125
       249   08 Jun 2027 13:09:40.865   08 Jun 2027 13:14:32.512           291.647               Magadan1         36455.875
       250   08 Jun 2027 15:04:54.643   08 Jun 2027 15:08:22.864           208.221                Sumatra         26027.625
       251   08 Jun 2027 15:13:14.839   08 Jun 2027 15:13:43.223            28.384                Sumatra          3548.000
       252   08 Jun 2027 16:28:15.207   08 Jun 2027 16:29:54.556            99.349                Irkutsk         12418.625
       253   08 Jun 2027 16:39:03.439   08 Jun 2027 16:39:04.085             0.646                Sumatra            80.750
       254   08 Jun 2027 16:39:52.235   08 Jun 2027 16:40:56.781            64.546                Sumatra          8068.250
       255   08 Jun 2027 16:42:55.487   08 Jun 2027 16:43:35.160            39.673                Sumatra          4959.125
       256   08 Jun 2027 16:50:54.260   08 Jun 2027 16:51:03.219             8.959                Sumatra          1119.875
       257   08 Jun 2027 18:00:54.654   08 Jun 2027 18:04:12.550           197.896                Novosib         24737.000
       258   08 Jun 2027 18:08:14.553   08 Jun 2027 18:09:53.159            98.606                  Delhi         12325.750
       259   08 Jun 2027 18:15:48.123   08 Jun 2027 18:17:51.121           122.998                  Delhi         15374.750
       260   08 Jun 2027 19:42:26.899   08 Jun 2027 19:44:24.776           117.877                 Moscow         14734.625
       261   08 Jun 2027 21:38:21.398   08 Jun 2027 21:39:50.151            88.753               CapeTown         11094.125
       262   08 Jun 2027 21:44:05.608   08 Jun 2027 21:46:12.041           126.433               CapeTown         15804.125
       263   09 Jun 2027 03:10:18.832   09 Jun 2027 03:15:52.480           333.648                Sumatra         41706.000
       264   09 Jun 2027 03:17:42.006   09 Jun 2027 03:18:54.025            72.019                Sumatra          9002.375
       265   09 Jun 2027 04:14:15.639   09 Jun 2027 04:14:50.936            35.297            RioGallegos          4412.125
       266   09 Jun 2027 04:45:11.656   09 Jun 2027 04:47:11.892           120.236                Sumatra         15029.500
       267   09 Jun 2027 04:52:34.089   09 Jun 2027 04:54:55.996           141.907                Sumatra         17738.375
       268   09 Jun 2027 05:08:15.680   09 Jun 2027 05:08:51.789            36.109                Irkutsk          4513.625
       269   09 Jun 2027 05:09:29.113   09 Jun 2027 05:09:41.989            12.876              Murmansk1          1609.500
       270   09 Jun 2027 05:09:57.991   09 Jun 2027 05:11:36.447            98.456                Novosib         12307.000
       271   09 Jun 2027 06:30:01.086   09 Jun 2027 06:33:25.706           204.620                  Delhi         25577.500
       272   09 Jun 2027 06:44:29.237   09 Jun 2027 06:45:02.152            32.915              Murmansk1          4114.375
       273   09 Jun 2027 06:45:13.232   09 Jun 2027 06:46:27.437            74.205                 Moscow          9275.625
       274   09 Jun 2027 06:47:09.379   09 Jun 2027 06:48:21.821            72.442              Murmansk2          9055.250
       275   09 Jun 2027 09:27:13.002   09 Jun 2027 09:32:52.644           339.642               CapeTown         42455.250
       276   09 Jun 2027 11:43:28.419   09 Jun 2027 11:43:34.851             6.432                Anadyr1           804.000
       277   09 Jun 2027 11:44:25.813   09 Jun 2027 11:45:11.973            46.160                Anadyr2          5770.000
       278   09 Jun 2027 11:52:36.506   09 Jun 2027 11:55:51.526           195.020               Magadan2         24377.500
       279   09 Jun 2027 13:21:41.059   09 Jun 2027 13:22:02.761            21.702               Magadan2          2712.750
       280   09 Jun 2027 13:22:59.233   09 Jun 2027 13:24:30.954            91.721               Magadan1         11465.125
       281   09 Jun 2027 15:05:05.132   09 Jun 2027 15:05:41.062            35.930                Irkutsk          4491.250
       282   09 Jun 2027 15:16:02.397   09 Jun 2027 15:23:43.769           461.372                Sumatra         57671.500
       283   09 Jun 2027 16:41:27.257   09 Jun 2027 16:44:01.835           154.578                Novosib         19322.250
       284   09 Jun 2027 16:46:04.009   09 Jun 2027 16:46:31.629            27.620                  Delhi          3452.500
       285   09 Jun 2027 16:50:39.288   09 Jun 2027 16:55:12.190           272.902                  Delhi         34112.750
       286   09 Jun 2027 19:55:35.925   09 Jun 2027 19:57:17.617           101.692                 Moscow         12711.500
       287   09 Jun 2027 21:50:29.972   09 Jun 2027 21:53:00.966           150.994               CapeTown         18874.250
       288   09 Jun 2027 22:00:15.292   09 Jun 2027 22:02:47.175           151.883               CapeTown         18985.375
       289   10 Jun 2027 03:23:15.373   10 Jun 2027 03:28:58.094           342.721                Sumatra         42840.125
       290   10 Jun 2027 04:59:35.129   10 Jun 2027 05:01:36.182           121.053                Sumatra         15131.625
       291   10 Jun 2027 05:20:40.964   10 Jun 2027 05:20:51.273            10.309                Irkutsk          1288.625
       292   10 Jun 2027 05:21:12.070   10 Jun 2027 05:21:25.711            13.641                Novosib          1705.125
       293   10 Jun 2027 05:21:46.019   10 Jun 2027 05:23:13.811            87.792                Novosib         10974.000
       294   10 Jun 2027 06:42:36.867   10 Jun 2027 06:44:22.269           105.402                  Delhi         13175.250
       295   10 Jun 2027 06:56:38.391   10 Jun 2027 06:57:02.033            23.642                Novosib          2955.250
       296   10 Jun 2027 06:57:18.727   10 Jun 2027 06:58:15.864            57.137                 Moscow          7142.125
       297   10 Jun 2027 06:58:17.270   10 Jun 2027 06:59:31.867            74.597                Novosib          9324.625
       298   10 Jun 2027 09:39:05.601   10 Jun 2027 09:41:58.746           173.145               CapeTown         21643.125
       299   10 Jun 2027 10:19:41.632   10 Jun 2027 10:20:09.393            27.761                Anadyr1          3470.125
       300   10 Jun 2027 10:28:50.652   10 Jun 2027 10:29:53.995            63.343                Anadyr1          7917.875
       301   10 Jun 2027 11:55:29.653   10 Jun 2027 11:55:33.911             4.258                Anadyr1           532.250
       302   10 Jun 2027 11:57:52.736   10 Jun 2027 11:58:48.186            55.450                Anadyr1          6931.250
       303   10 Jun 2027 11:59:02.681   10 Jun 2027 12:01:38.470           155.789               Magadan2         19473.625
       304   10 Jun 2027 12:07:25.270   10 Jun 2027 12:07:40.423            15.153               Magadan1          1894.125
       305   10 Jun 2027 13:33:41.713   10 Jun 2027 13:33:57.880            16.167               Magadan1          2020.875
       306   10 Jun 2027 13:35:27.279   10 Jun 2027 13:36:59.069            91.790               Magadan2         11473.750
       307   10 Jun 2027 13:38:29.617   10 Jun 2027 13:38:57.179            27.562               Magadan2          3445.250
       308   10 Jun 2027 13:38:57.179   10 Jun 2027 13:41:19.967           142.788               Magadan1         17848.500
       309   10 Jun 2027 15:17:20.595   10 Jun 2027 15:18:57.136            96.541                Irkutsk         12067.625
       310   10 Jun 2027 15:27:36.568   10 Jun 2027 15:29:28.613           112.045                Sumatra         14005.625
       311   10 Jun 2027 15:31:54.703   10 Jun 2027 15:34:23.090           148.387                Sumatra         18548.375
       312   10 Jun 2027 16:54:14.134   10 Jun 2027 16:54:35.262            21.128                Novosib          2641.000
       313   10 Jun 2027 16:56:07.873   10 Jun 2027 16:57:34.188            86.315                Novosib         10789.375
       314   10 Jun 2027 16:57:48.466   10 Jun 2027 17:05:09.188           440.722                  Delhi         55090.250
       315   10 Jun 2027 20:10:42.500   10 Jun 2027 20:12:19.017            96.517                 Moscow         12064.625
       316   10 Jun 2027 21:41:10.831   10 Jun 2027 21:41:41.925            31.094                 Moscow          3886.750
       317   10 Jun 2027 21:46:30.328   10 Jun 2027 21:48:06.471            96.143                 Moscow         12017.875
       318   10 Jun 2027 22:05:21.661   10 Jun 2027 22:07:06.266           104.605               CapeTown         13075.625
       319   11 Jun 2027 03:33:26.657   11 Jun 2027 03:39:54.703           388.046                Sumatra         48505.750
       320   11 Jun 2027 05:10:05.433   11 Jun 2027 05:10:46.016            40.583                Sumatra          5072.875
       321   11 Jun 2027 05:11:50.777   11 Jun 2027 05:13:43.973           113.196                Sumatra         14149.500
       322   11 Jun 2027 05:17:14.385   11 Jun 2027 05:17:37.526            23.141                  Delhi          2892.625
       323   11 Jun 2027 05:32:25.664   11 Jun 2027 05:32:52.541            26.877                Novosib          3359.625
       324   11 Jun 2027 05:34:22.140   11 Jun 2027 05:35:14.969            52.829                 Moscow          6603.625
       325   11 Jun 2027 05:35:21.222   11 Jun 2027 05:35:35.098            13.876                Norilsk          1734.500
       326   11 Jun 2027 05:36:32.768   11 Jun 2027 05:37:06.667            33.899              Murmansk1          4237.375
       327   11 Jun 2027 06:55:25.669   11 Jun 2027 06:57:46.624           140.955                  Delhi         17619.375
       328   11 Jun 2027 07:08:51.121   11 Jun 2027 07:09:15.600            24.479              Murmansk2          3059.875
       329   11 Jun 2027 07:09:23.681   11 Jun 2027 07:09:49.530            25.849                 Moscow          3231.125
       330   11 Jun 2027 07:09:53.008   11 Jun 2027 07:10:10.813            17.805                Novosib          2225.625
       331   11 Jun 2027 07:10:26.318   11 Jun 2027 07:11:11.637            45.319                Norilsk          5664.875
       332   11 Jun 2027 07:11:16.566   11 Jun 2027 07:11:45.786            29.220              Murmansk1          3652.500
       333   11 Jun 2027 07:12:18.492   11 Jun 2027 07:12:25.422             6.930                 Moscow           866.250
       334   11 Jun 2027 08:18:39.037   11 Jun 2027 08:18:57.117            18.080               CapeTown          2260.000
       335   11 Jun 2027 09:51:01.443   11 Jun 2027 09:53:15.969           134.526               CapeTown         16815.750
       336   11 Jun 2027 10:31:45.810   11 Jun 2027 10:33:38.419           112.609                Anadyr2         14076.125
       337   11 Jun 2027 10:37:07.430   11 Jun 2027 10:40:12.725           185.295                Anadyr1         23161.875
       338   11 Jun 2027 12:07:30.988   11 Jun 2027 12:07:33.509             2.521                Anadyr1           315.125
       339   11 Jun 2027 12:10:05.030   11 Jun 2027 12:11:31.252            86.222               Magadan1         10777.750
       340   11 Jun 2027 12:18:38.937   11 Jun 2027 12:19:36.523            57.586               Magadan1          7198.250
       341   11 Jun 2027 13:45:42.752   11 Jun 2027 13:45:54.303            11.551               Magadan2          1443.875
       342   11 Jun 2027 13:49:02.437   11 Jun 2027 13:50:29.188            86.751               Magadan1         10843.875
       343   11 Jun 2027 13:57:42.403   11 Jun 2027 13:58:37.842            55.439               Magadan2          6929.875
       344   11 Jun 2027 14:39:01.971   11 Jun 2027 14:39:12.804            10.833            RioGallegos          1354.125
       345   11 Jun 2027 14:39:52.658   11 Jun 2027 14:41:22.475            89.817            RioGallegos         11227.125
       346   11 Jun 2027 15:26:11.095   11 Jun 2027 15:27:15.030            63.935                Irkutsk          7991.875
       347   11 Jun 2027 15:31:15.211   11 Jun 2027 15:35:00.419           225.208                Irkutsk         28151.000
       348   11 Jun 2027 15:41:48.796   11 Jun 2027 15:45:31.040           222.244                Sumatra         27780.500
       349   11 Jun 2027 17:09:09.057   11 Jun 2027 17:15:44.961           395.904                  Delhi         49488.000
       350   11 Jun 2027 20:14:43.923   11 Jun 2027 20:16:00.817            76.894                 Moscow          9611.750
       351   11 Jun 2027 20:17:15.806   11 Jun 2027 20:19:47.878           152.072                 Moscow         19009.000
       352   11 Jun 2027 20:23:43.252   11 Jun 2027 20:24:16.533            33.281                 Moscow          4160.125
       353   11 Jun 2027 22:15:04.533   11 Jun 2027 22:17:11.652           127.119               CapeTown         15889.875
       354   12 Jun 2027 03:45:11.985   12 Jun 2027 03:47:56.176           164.191                Sumatra         20523.875
       355   12 Jun 2027 04:11:13.649   12 Jun 2027 04:11:16.336             2.687                Irkutsk           335.875
       356   12 Jun 2027 04:12:04.532   12 Jun 2027 04:12:40.468            35.936              Murmansk2          4492.000
       357   12 Jun 2027 04:13:23.918   12 Jun 2027 04:14:27.163            63.245                Norilsk          7905.625
       358   12 Jun 2027 04:49:03.005   12 Jun 2027 04:49:33.783            30.778            RioGallegos          3847.250
       359   12 Jun 2027 05:22:50.903   12 Jun 2027 05:24:38.818           107.915                Sumatra         13489.375
       360   12 Jun 2027 05:29:10.416   12 Jun 2027 05:31:49.611           159.195                  Delhi         19899.375
       361   12 Jun 2027 05:36:47.327   12 Jun 2027 05:38:45.545           118.218                  Delhi         14777.250
       362   12 Jun 2027 05:50:54.462   12 Jun 2027 05:51:00.184             5.722                Norilsk           715.250
       363   12 Jun 2027 05:51:33.129   12 Jun 2027 05:52:16.025            42.896                Norilsk          5362.000
       364   12 Jun 2027 07:08:36.561   12 Jun 2027 07:10:14.129            97.568                  Delhi         12196.000
       365   12 Jun 2027 07:18:27.838   12 Jun 2027 07:19:05.328            37.490                 Moscow          4686.250
       366   12 Jun 2027 07:19:06.547   12 Jun 2027 07:20:05.262            58.715                Novosib          7339.375
       367   12 Jun 2027 07:20:21.279   12 Jun 2027 07:20:43.923            22.644              Murmansk1          2830.500
       368   12 Jun 2027 07:20:58.339   12 Jun 2027 07:21:53.974            55.635                Norilsk          6954.375
       369   12 Jun 2027 07:22:31.614   12 Jun 2027 07:22:32.808             1.194                Novosib           149.250
       370   12 Jun 2027 07:22:43.352   12 Jun 2027 07:24:56.358           133.006              Murmansk2         16625.750
       371   12 Jun 2027 07:26:35.338   12 Jun 2027 07:26:36.925             1.587              Murmansk1           198.375
       372   12 Jun 2027 07:27:07.441   12 Jun 2027 07:27:20.251            12.810              Murmansk1          1601.250
       373   12 Jun 2027 08:29:28.319   12 Jun 2027 08:30:27.867            59.548               CapeTown          7443.500
       374   12 Jun 2027 10:03:00.217   12 Jun 2027 10:04:35.059            94.842               CapeTown         11855.250
       375   12 Jun 2027 10:10:29.043   12 Jun 2027 10:12:35.739           126.696               CapeTown         15837.000
       376   12 Jun 2027 10:45:15.819   12 Jun 2027 10:45:57.832            42.013                Anadyr1          5251.625
       377   12 Jun 2027 10:46:35.757   12 Jun 2027 10:49:36.259           180.502                Anadyr2         22562.750
       378   12 Jun 2027 10:52:53.974   12 Jun 2027 10:53:14.772            20.798                Anadyr1          2599.750
       379   12 Jun 2027 12:22:01.377   12 Jun 2027 12:23:22.276            80.899               Magadan2         10112.375
       380   12 Jun 2027 12:27:50.898   12 Jun 2027 12:32:38.217           287.319               Magadan1         35914.875
       381   12 Jun 2027 14:53:23.805   12 Jun 2027 14:54:44.033            80.228            RioGallegos         10028.500
       382   12 Jun 2027 15:45:08.180   12 Jun 2027 15:46:55.922           107.742                Irkutsk         13467.750
       383   12 Jun 2027 15:51:07.004   12 Jun 2027 15:56:54.008           347.004                Sumatra         43375.500
       384   12 Jun 2027 17:13:12.613   12 Jun 2027 17:15:48.562           155.949                Novosib         19493.625
       385   12 Jun 2027 17:20:52.471   12 Jun 2027 17:22:56.183           123.712                  Delhi         15464.000
       386   12 Jun 2027 17:25:36.019   12 Jun 2027 17:26:56.541            80.522                  Delhi         10065.250
       387   12 Jun 2027 20:26:58.079   12 Jun 2027 20:27:40.362            42.283                 Moscow          5285.375
       388   12 Jun 2027 20:29:31.280   12 Jun 2027 20:31:41.115           129.835                 Moscow         16229.375
       389   12 Jun 2027 22:09:56.681   12 Jun 2027 22:10:33.373            36.692                 Moscow          4586.500
       390   12 Jun 2027 22:27:32.229   12 Jun 2027 22:28:57.350            85.121               CapeTown         10640.125
       391   13 Jun 2027 03:57:03.493   13 Jun 2027 04:01:35.027           271.534                Sumatra         33941.750
       392   13 Jun 2027 05:01:20.706   13 Jun 2027 05:01:27.897             7.191            RioGallegos           898.875
       393   13 Jun 2027 05:02:56.123   13 Jun 2027 05:04:06.454            70.331            RioGallegos          8791.375
       394   13 Jun 2027 05:38:15.355   13 Jun 2027 05:38:19.220             3.865                Sumatra           483.125
       395   13 Jun 2027 05:40:04.760   13 Jun 2027 05:40:39.392            34.632                Sumatra          4329.000
       396   13 Jun 2027 05:41:11.745   13 Jun 2027 05:43:05.351           113.606                  Delhi         14200.750
       397   13 Jun 2027 05:43:09.944   13 Jun 2027 05:43:17.215             7.271                  Delhi           908.875
       398   13 Jun 2027 05:48:58.605   13 Jun 2027 05:50:51.209           112.604                  Delhi         14075.500
       399   13 Jun 2027 05:58:34.638   13 Jun 2027 05:59:15.676            41.038              Murmansk2          5129.750
       400   13 Jun 2027 05:59:17.543   13 Jun 2027 05:59:37.820            20.277                Norilsk          2534.625
       401   13 Jun 2027 05:59:50.780   13 Jun 2027 06:00:19.312            28.532                Norilsk          3566.500
       402   13 Jun 2027 07:23:11.458   13 Jun 2027 07:24:27.332            75.874                  Delhi          9484.250
       403   13 Jun 2027 07:30:26.833   13 Jun 2027 07:30:51.983            25.150                 Moscow          3143.750
       404   13 Jun 2027 07:31:01.091   13 Jun 2027 07:32:36.312            95.221                 Moscow         11902.625
       405   13 Jun 2027 07:32:56.911   13 Jun 2027 07:33:20.115            23.204              Murmansk1          2900.500
       406   13 Jun 2027 07:33:32.103   13 Jun 2027 07:35:02.428            90.325                 Moscow         11290.625
       407   13 Jun 2027 07:35:34.473   13 Jun 2027 07:37:09.209            94.736                 Moscow         11842.000
       408   13 Jun 2027 07:38:00.180   13 Jun 2027 07:38:03.360             3.180                 Moscow           397.500
       409   13 Jun 2027 07:38:13.231   13 Jun 2027 07:38:29.289            16.058                 Moscow          2007.250
       410   13 Jun 2027 08:40:45.591   13 Jun 2027 08:44:05.677           200.086               CapeTown         25010.750
       411   13 Jun 2027 08:48:16.321   13 Jun 2027 08:49:51.455            95.134               CapeTown         11891.750
       412   13 Jun 2027 10:58:18.990   13 Jun 2027 10:58:29.332            10.342                Anadyr1          1292.750
       413   13 Jun 2027 11:02:54.135   13 Jun 2027 11:03:30.844            36.709               Magadan1          4588.625
       414   13 Jun 2027 11:05:30.397   13 Jun 2027 11:08:00.715           150.318                Anadyr2         18789.750
       415   13 Jun 2027 12:33:58.803   13 Jun 2027 12:34:20.746            21.943               Magadan1          2742.875
       416   13 Jun 2027 12:39:18.419   13 Jun 2027 12:41:57.746           159.327               Magadan1         19915.875
       417   13 Jun 2027 14:09:45.795   13 Jun 2027 14:09:50.129             4.334               Magadan1           541.750
       418   13 Jun 2027 14:13:11.306   13 Jun 2027 14:14:29.872            78.566               Magadan2          9820.750
       419   13 Jun 2027 15:03:22.859   13 Jun 2027 15:05:42.571           139.712            RioGallegos         17464.000
       420   13 Jun 2027 15:06:42.874   13 Jun 2027 15:07:04.626            21.752            RioGallegos          2719.000
       421   13 Jun 2027 15:49:20.697   13 Jun 2027 15:50:53.432            92.735                Irkutsk         11591.875
       422   13 Jun 2027 15:55:31.337   13 Jun 2027 15:58:16.917           165.580                Irkutsk         20697.500
       423   13 Jun 2027 16:06:08.934   13 Jun 2027 16:06:39.932            30.998                Sumatra          3874.750
       424   13 Jun 2027 16:15:15.058   13 Jun 2027 16:15:44.941            29.883                Sumatra          3735.375
       425   13 Jun 2027 17:26:19.601   13 Jun 2027 17:28:03.294           103.693                Novosib         12961.625
       426   13 Jun 2027 17:31:53.170   13 Jun 2027 17:34:44.122           170.952                Novosib         21369.000
       427   13 Jun 2027 17:35:17.033   13 Jun 2027 17:38:23.365           186.332                  Delhi         23291.500
       428   13 Jun 2027 20:35:23.619   13 Jun 2027 20:35:25.657             2.038              Murmansk1           254.750
       429   13 Jun 2027 20:37:47.988   13 Jun 2027 20:39:09.923            81.935              Murmansk1         10241.875
       430   13 Jun 2027 20:41:21.709   13 Jun 2027 20:43:36.107           134.398                 Moscow         16799.750
       431   13 Jun 2027 22:40:09.022   13 Jun 2027 22:40:52.505            43.483               CapeTown          5435.375
