uniorb/output/strategy_1/Drop/Drop_KinoSat_110904.txt

KinoSat_110904
-------------------------
    Access    *     Start Time (UTCG)     *     Stop Time (UTCG)  *   Duration (s)        *       Station  *  Data (Mbytes)
         1   01 Jun 2027 03:41:48.622   01 Jun 2027 03:42:28.074            39.452                Anadyr1          1232.875
         2   01 Jun 2027 03:42:48.276   01 Jun 2027 03:43:19.873            31.597               Magadan1           987.406
         3   01 Jun 2027 03:43:45.719   01 Jun 2027 03:47:39.106           233.387                Anadyr2          7293.344
         4   01 Jun 2027 03:47:39.106   01 Jun 2027 03:47:44.407             5.301                Anadyr1           165.656
         5   01 Jun 2027 05:18:56.787   01 Jun 2027 05:21:09.431           132.644                Anadyr2          4145.125
         6   01 Jun 2027 06:54:15.642   01 Jun 2027 06:54:37.938            22.296                Norilsk           696.750
         7   01 Jun 2027 06:54:49.992   01 Jun 2027 06:57:46.877           176.885                Norilsk          5527.656
         8   01 Jun 2027 06:58:05.536   01 Jun 2027 06:58:28.109            22.573                Novosib           705.406
         9   01 Jun 2027 06:58:28.189   01 Jun 2027 06:58:47.529            19.340               Magadan2           604.375
        10   01 Jun 2027 06:58:53.664   01 Jun 2027 06:59:13.249            19.585                Norilsk           612.031
        11   01 Jun 2027 06:59:55.964   01 Jun 2027 07:00:10.264            14.300              Murmansk1           446.875
        12   01 Jun 2027 07:00:10.264   01 Jun 2027 07:00:45.716            35.452              Murmansk2          1107.875
        13   01 Jun 2027 07:01:02.514   01 Jun 2027 07:01:25.816            23.302              Murmansk2           728.187
        14   01 Jun 2027 07:33:47.119   01 Jun 2027 07:36:18.398           151.279            RioGallegos          4727.469
        15   01 Jun 2027 08:09:31.668   01 Jun 2027 08:12:24.289           172.621                Sumatra          5394.406
        16   01 Jun 2027 08:30:33.921   01 Jun 2027 08:31:05.452            31.531                Irkutsk           985.344
        17   01 Jun 2027 08:31:13.803   01 Jun 2027 08:32:09.899            56.096                Norilsk          1753.000
        18   01 Jun 2027 08:32:14.467   01 Jun 2027 08:34:31.637           137.170              Murmansk2          4286.563
        19   01 Jun 2027 08:34:31.637   01 Jun 2027 08:34:34.926             3.289              Murmansk1           102.781
        20   01 Jun 2027 08:34:49.884   01 Jun 2027 08:36:12.703            82.819              Murmansk2          2588.094
        21   01 Jun 2027 08:38:12.098   01 Jun 2027 08:38:48.674            36.576              Murmansk2          1143.000
        22   01 Jun 2027 08:39:08.389   01 Jun 2027 08:39:39.073            30.684              Murmansk1           958.875
        23   01 Jun 2027 09:11:06.479   01 Jun 2027 09:12:29.459            82.980            RioGallegos          2593.125
        24   01 Jun 2027 09:45:18.911   01 Jun 2027 09:46:18.223            59.312                Sumatra          1853.500
        25   01 Jun 2027 09:49:07.037   01 Jun 2027 09:49:23.397            16.360                Sumatra           511.250
        26   01 Jun 2027 09:53:07.433   01 Jun 2027 09:54:31.397            83.964                  Delhi          2623.875
        27   01 Jun 2027 09:55:55.764   01 Jun 2027 09:56:52.877            57.113                  Delhi          1784.781
        28   01 Jun 2027 10:07:22.978   01 Jun 2027 10:07:36.050            13.072                Irkutsk           408.500
        29   01 Jun 2027 10:07:37.505   01 Jun 2027 10:08:18.936            41.431                 Moscow          1294.719
        30   01 Jun 2027 10:08:48.173   01 Jun 2027 10:08:53.071             4.898                Irkutsk           153.063
        31   01 Jun 2027 10:08:53.815   01 Jun 2027 10:11:25.931           152.116                 Moscow          4753.625
        32   01 Jun 2027 10:11:57.783   01 Jun 2027 10:12:42.525            44.742                 Moscow          1398.188
        33   01 Jun 2027 11:30:22.512   01 Jun 2027 11:30:31.750             9.238                  Delhi           288.687
        34   01 Jun 2027 11:44:18.168   01 Jun 2027 11:46:00.678           102.510                Norilsk          3203.437
        35   01 Jun 2027 11:46:13.851   01 Jun 2027 11:47:15.306            61.455                Novosib          1920.469
        36   01 Jun 2027 11:47:23.362   01 Jun 2027 11:48:49.538            86.176                 Moscow          2693.000
        37   01 Jun 2027 11:49:01.906   01 Jun 2027 11:49:26.354            24.448              Murmansk2           764.000
        38   01 Jun 2027 11:51:49.807   01 Jun 2027 11:51:55.908             6.101                Norilsk           190.656
        39   01 Jun 2027 13:13:26.778   01 Jun 2027 13:15:50.526           143.748                 Moscow          4492.125
        40   01 Jun 2027 13:16:25.899   01 Jun 2027 13:17:29.453            63.554                 Moscow          1986.062
        41   01 Jun 2027 13:17:41.514   01 Jun 2027 13:21:33.089           231.575              Murmansk1          7236.719
        42   01 Jun 2027 13:24:05.776   01 Jun 2027 13:24:23.046            17.270              Murmansk2           539.688
        43   01 Jun 2027 13:24:30.905   01 Jun 2027 13:25:41.697            70.792                Norilsk          2212.250
        44   01 Jun 2027 13:32:40.525   01 Jun 2027 13:36:02.376           201.851                Anadyr1          6307.844
        45   01 Jun 2027 13:36:06.017   01 Jun 2027 13:38:16.333           130.316                Anadyr2          4072.375
        46   01 Jun 2027 14:55:02.627   01 Jun 2027 14:55:15.538            12.911              Murmansk1           403.469
        47   01 Jun 2027 14:55:48.766   01 Jun 2027 14:56:24.153            35.387              Murmansk2          1105.844
        48   01 Jun 2027 14:57:54.460   01 Jun 2027 14:58:08.393            13.933              Murmansk1           435.406
        49   01 Jun 2027 15:01:54.139   01 Jun 2027 15:02:08.729            14.590              Murmansk2           455.938
        50   01 Jun 2027 15:03:19.268   01 Jun 2027 15:03:51.853            32.585              Murmansk1          1018.281
        51   01 Jun 2027 15:03:51.853   01 Jun 2027 15:04:09.273            17.420              Murmansk2           544.375
        52   01 Jun 2027 15:05:03.746   01 Jun 2027 15:05:24.648            20.902              Murmansk1           653.188
        53   01 Jun 2027 15:07:25.763   01 Jun 2027 15:10:16.184           170.421                Anadyr1          5325.656
        54   01 Jun 2027 15:11:03.570   01 Jun 2027 15:12:29.390            85.820                Anadyr1          2681.875
        55   01 Jun 2027 15:16:38.787   01 Jun 2027 15:16:59.474            20.687                Anadyr1           646.469
        56   01 Jun 2027 15:17:16.254   01 Jun 2027 15:17:58.244            41.990                Anadyr1          1312.187
        57   01 Jun 2027 15:18:41.139   01 Jun 2027 15:18:52.672            11.533                Anadyr1           360.406
        58   01 Jun 2027 16:36:08.172   01 Jun 2027 16:38:14.665           126.493              Murmansk2          3952.906
        59   01 Jun 2027 16:38:14.665   01 Jun 2027 16:39:15.110            60.445              Murmansk1          1888.906
        60   01 Jun 2027 16:43:13.864   01 Jun 2027 16:44:25.121            71.257                Anadyr2          2226.781
        61   01 Jun 2027 16:44:38.353   01 Jun 2027 16:45:03.997            25.644                Anadyr2           801.375
        62   01 Jun 2027 16:45:53.994   01 Jun 2027 16:48:34.093           160.099               Magadan2          5003.094
        63   01 Jun 2027 16:48:34.315   01 Jun 2027 16:50:41.744           127.429               Magadan1          3982.156
        64   01 Jun 2027 18:19:09.036   01 Jun 2027 18:22:04.696           175.660                Anadyr2          5489.375
        65   01 Jun 2027 18:22:12.347   01 Jun 2027 18:23:47.054            94.707               Magadan2          2959.594
        66   01 Jun 2027 18:24:04.096   01 Jun 2027 18:24:08.938             4.842                Norilsk           151.312
        67   01 Jun 2027 18:24:43.394   01 Jun 2027 18:25:16.678            33.284               Magadan2          1040.125
        68   01 Jun 2027 18:28:57.667   01 Jun 2027 18:29:43.945            46.278               Magadan2          1446.188
        69   01 Jun 2027 18:31:00.054   01 Jun 2027 18:31:37.556            37.502               Magadan2          1171.937
        70   01 Jun 2027 18:33:33.675   01 Jun 2027 18:34:05.279            31.604               Magadan2           987.625
        71   01 Jun 2027 19:13:57.871   01 Jun 2027 19:15:23.722            85.851            RioGallegos          2682.844
        72   01 Jun 2027 19:16:01.067   01 Jun 2027 19:16:05.161             4.094            RioGallegos           127.937
        73   01 Jun 2027 19:17:06.439   01 Jun 2027 19:20:21.779           195.340            RioGallegos          6104.375
        74   01 Jun 2027 19:57:01.650   01 Jun 2027 19:59:09.261           127.611                Norilsk          3987.844
        75   01 Jun 2027 19:59:58.140   01 Jun 2027 20:01:03.909            65.769                Norilsk          2055.281
        76   01 Jun 2027 20:01:22.547   01 Jun 2027 20:01:39.394            16.847                Irkutsk           526.469
        77   01 Jun 2027 20:02:31.848   01 Jun 2027 20:03:26.182            54.334                Irkutsk          1697.938
        78   01 Jun 2027 20:03:49.210   01 Jun 2027 20:04:20.606            31.396                Irkutsk           981.125
        79   01 Jun 2027 20:11:05.844   01 Jun 2027 20:12:21.514            75.670                Irkutsk          2364.688
        80   01 Jun 2027 20:15:19.970   01 Jun 2027 20:17:13.635           113.665                Sumatra          3552.031
        81   01 Jun 2027 20:18:47.131   01 Jun 2027 20:19:42.909            55.778                Sumatra          1743.062
        82   01 Jun 2027 21:36:46.883   01 Jun 2027 21:37:55.448            68.565                Irkutsk          2142.656
        83   01 Jun 2027 21:38:40.555   01 Jun 2027 21:39:35.247            54.692                Novosib          1709.125
        84   01 Jun 2027 21:43:36.745   01 Jun 2027 21:43:46.584             9.839                Novosib           307.469
        85   01 Jun 2027 21:44:12.473   01 Jun 2027 21:45:47.234            94.761                Novosib          2961.281
        86   01 Jun 2027 21:45:57.364   01 Jun 2027 21:49:01.695           184.331                  Delhi          5760.344
        87   01 Jun 2027 23:07:22.825   01 Jun 2027 23:08:38.404            75.579                Anadyr2          2361.844
        88   01 Jun 2027 23:10:11.110   01 Jun 2027 23:11:02.190            51.080               Magadan2          1596.250
        89   01 Jun 2027 23:11:25.062   01 Jun 2027 23:16:34.740           309.678              Murmansk2          9677.437
        90   01 Jun 2027 23:16:59.207   01 Jun 2027 23:18:05.130            65.923              Murmansk2          2060.094
        91   01 Jun 2027 23:19:46.029   01 Jun 2027 23:21:00.449            74.420                 Moscow          2325.625
        92   02 Jun 2027 00:42:15.365   02 Jun 2027 00:43:23.259            67.894               Magadan2          2121.688
        93   02 Jun 2027 00:44:15.818   02 Jun 2027 00:44:46.258            30.440               Magadan1           951.250
        94   02 Jun 2027 00:45:14.035   02 Jun 2027 00:46:00.218            46.183               Magadan1          1443.219
        95   02 Jun 2027 00:47:03.599   02 Jun 2027 00:48:56.673           113.074              Murmansk2          3533.563
        96   02 Jun 2027 00:48:56.673   02 Jun 2027 00:49:23.817            27.144              Murmansk1           848.250
        97   02 Jun 2027 00:50:31.381   02 Jun 2027 00:50:52.905            21.524                 Moscow           672.625
        98   02 Jun 2027 00:52:05.392   02 Jun 2027 00:52:15.455            10.063                 Moscow           314.469
        99   02 Jun 2027 00:52:41.488   02 Jun 2027 00:52:56.459            14.971                 Moscow           467.844
       100   02 Jun 2027 00:53:24.101   02 Jun 2027 00:54:24.663            60.562                 Moscow          1892.562
       101   02 Jun 2027 01:00:17.388   02 Jun 2027 01:01:52.238            94.850                 Moscow          2964.062
       102   02 Jun 2027 01:23:35.060   02 Jun 2027 01:23:49.294            14.234               CapeTown           444.812
       103   02 Jun 2027 01:24:31.358   02 Jun 2027 01:25:38.915            67.557               CapeTown          2111.156
       104   02 Jun 2027 02:12:10.732   02 Jun 2027 02:12:55.375            44.643                Anadyr1          1395.094
       105   02 Jun 2027 02:13:58.500   02 Jun 2027 02:15:03.962            65.462               Magadan2          2045.688
       106   02 Jun 2027 02:17:51.115   02 Jun 2027 02:17:54.583             3.468               Magadan2           108.375
       107   02 Jun 2027 02:19:16.756   02 Jun 2027 02:20:16.858            60.102               Magadan1          1878.187
       108   02 Jun 2027 02:23:01.328   02 Jun 2027 02:24:16.216            74.888              Murmansk2          2340.250
       109   02 Jun 2027 02:24:58.785   02 Jun 2027 02:25:04.544             5.759              Murmansk2           179.969
       110   02 Jun 2027 02:26:14.153   02 Jun 2027 02:26:43.127            28.974                 Moscow           905.437
       111   02 Jun 2027 02:26:57.877   02 Jun 2027 02:27:38.375            40.498                Novosib          1265.563
       112   02 Jun 2027 02:32:48.509   02 Jun 2027 02:32:54.211             5.702                 Moscow           178.187
       113   02 Jun 2027 02:33:03.592   02 Jun 2027 02:33:46.033            42.441                 Moscow          1326.281
       114   02 Jun 2027 02:36:33.459   02 Jun 2027 02:37:15.197            41.738                 Moscow          1304.312
       115   02 Jun 2027 02:57:58.854   02 Jun 2027 02:58:37.436            38.582               CapeTown          1205.688
       116   02 Jun 2027 03:01:53.767   02 Jun 2027 03:02:32.250            38.483               CapeTown          1202.594
       117   02 Jun 2027 03:53:56.443   02 Jun 2027 03:54:38.837            42.394               Magadan2          1324.813
       118   02 Jun 2027 03:54:48.696   02 Jun 2027 03:55:18.445            29.749               Magadan1           929.656
       119   02 Jun 2027 03:55:22.641   02 Jun 2027 03:55:31.776             9.135               Magadan1           285.469
       120   02 Jun 2027 03:55:46.998   02 Jun 2027 03:59:40.253           233.255                Anadyr1          7289.219
       121   02 Jun 2027 03:59:40.253   02 Jun 2027 03:59:45.181             4.928                Anadyr2           154.000
       122   02 Jun 2027 05:31:14.094   02 Jun 2027 05:32:29.460            75.366                Irkutsk          2355.188
       123   02 Jun 2027 05:32:42.685   02 Jun 2027 05:35:18.776           156.091                Anadyr2          4877.844
       124   02 Jun 2027 06:17:58.448   02 Jun 2027 06:18:11.830            13.382            RioGallegos           418.187
       125   02 Jun 2027 06:18:15.648   02 Jun 2027 06:18:19.095             3.447            RioGallegos           107.719
       126   02 Jun 2027 06:18:57.710   02 Jun 2027 06:19:52.545            54.835            RioGallegos          1713.594
       127   02 Jun 2027 07:06:01.155   02 Jun 2027 07:07:26.672            85.517                Novosib          2672.406
       128   02 Jun 2027 07:07:28.342   02 Jun 2027 07:10:39.090           190.748               Magadan1          5960.875
       129   02 Jun 2027 07:10:52.000   02 Jun 2027 07:11:54.601            62.601              Murmansk1          1956.281
       130   02 Jun 2027 07:14:19.810   02 Jun 2027 07:15:14.763            54.953              Murmansk1          1717.281
       131   02 Jun 2027 07:45:46.138   02 Jun 2027 07:47:05.255            79.117            RioGallegos          2472.406
       132   02 Jun 2027 08:21:10.189   02 Jun 2027 08:22:19.275            69.086                Sumatra          2158.937
       133   02 Jun 2027 08:23:24.551   02 Jun 2027 08:24:46.024            81.473                Sumatra          2546.031
       134   02 Jun 2027 08:42:50.749   02 Jun 2027 08:47:02.437           251.688                Irkutsk          7865.250
       135   02 Jun 2027 08:47:20.738   02 Jun 2027 08:47:24.799             4.061              Murmansk2           126.906
       136   02 Jun 2027 08:47:52.987   02 Jun 2027 08:48:03.933            10.946                Norilsk           342.062
       137   02 Jun 2027 08:48:24.254   02 Jun 2027 08:48:42.432            18.178              Murmansk2           568.062
       138   02 Jun 2027 09:23:38.823   02 Jun 2027 09:24:19.376            40.553            RioGallegos          1267.281
       139   02 Jun 2027 09:24:49.793   02 Jun 2027 09:25:01.850            12.057            RioGallegos           376.781
       140   02 Jun 2027 09:28:01.921   02 Jun 2027 09:28:02.407             0.486            RioGallegos            15.187
       141   02 Jun 2027 09:57:50.934   02 Jun 2027 09:58:18.607            27.673                Sumatra           864.781
       142   02 Jun 2027 09:58:29.003   02 Jun 2027 09:58:33.289             4.286                Sumatra           133.938
       143   02 Jun 2027 09:59:46.643   02 Jun 2027 10:00:43.431            56.788                Sumatra          1774.625
       144   02 Jun 2027 10:08:02.906   02 Jun 2027 10:08:46.007            43.101                  Delhi          1346.906
       145   02 Jun 2027 10:20:18.664   02 Jun 2027 10:23:06.530           167.866              Murmansk1          5245.813
       146   02 Jun 2027 10:23:08.871   02 Jun 2027 10:25:29.406           140.535                 Moscow          4391.719
       147   02 Jun 2027 11:43:24.512   02 Jun 2027 11:44:38.885            74.373                  Delhi          2324.156
       148   02 Jun 2027 11:55:34.872   02 Jun 2027 11:56:21.751            46.879                 Moscow          1464.969
       149   02 Jun 2027 11:56:34.391   02 Jun 2027 11:58:03.794            89.403                 Moscow          2793.844
       150   02 Jun 2027 11:58:11.334   02 Jun 2027 11:58:51.554            40.220                Novosib          1256.875
       151   02 Jun 2027 11:59:03.961   02 Jun 2027 12:04:21.042           317.081              Murmansk2          9908.781
       152   02 Jun 2027 12:04:45.275   02 Jun 2027 12:05:39.733            54.458              Murmansk2          1701.813
       153   02 Jun 2027 13:06:19.761   02 Jun 2027 13:08:56.213           156.452               CapeTown          4889.125
       154   02 Jun 2027 13:09:34.510   02 Jun 2027 13:10:15.124            40.614               CapeTown          1269.188
       155   02 Jun 2027 13:25:39.856   02 Jun 2027 13:26:54.125            74.269                 Moscow          2320.906
       156   02 Jun 2027 13:29:07.936   02 Jun 2027 13:33:42.070           274.134              Murmansk2          8566.687
       157   02 Jun 2027 13:33:48.849   02 Jun 2027 13:33:49.048             0.199              Murmansk2             6.219
       158   02 Jun 2027 13:34:07.051   02 Jun 2027 13:34:19.124            12.073              Murmansk2           377.281
       159   02 Jun 2027 13:34:28.298   02 Jun 2027 13:34:36.178             7.880              Murmansk2           246.250
       160   02 Jun 2027 13:34:57.020   02 Jun 2027 13:35:39.574            42.554              Murmansk2          1329.812
       161   02 Jun 2027 13:35:57.202   02 Jun 2027 13:36:22.843            25.641                 Moscow           801.281
       162   02 Jun 2027 13:36:49.131   02 Jun 2027 13:37:51.742            62.611                 Moscow          1956.594
       163   02 Jun 2027 13:38:52.196   02 Jun 2027 13:39:11.939            19.743              Murmansk1           616.969
       164   02 Jun 2027 13:39:26.857   02 Jun 2027 13:40:00.148            33.291              Murmansk1          1040.344
       165   02 Jun 2027 13:40:00.443   02 Jun 2027 13:40:17.531            17.088              Murmansk1           534.000
       166   02 Jun 2027 13:40:26.636   02 Jun 2027 13:40:48.795            22.159              Murmansk1           692.469
       167   02 Jun 2027 13:40:48.795   02 Jun 2027 13:41:37.610            48.815              Murmansk2          1525.469
       168   02 Jun 2027 13:44:21.593   02 Jun 2027 13:46:27.033           125.440                Anadyr1          3920.000
       169   02 Jun 2027 13:47:09.507   02 Jun 2027 13:50:19.946           190.439                Anadyr1          5951.219
       170   02 Jun 2027 13:50:45.744   02 Jun 2027 13:51:12.780            27.036                Anadyr1           844.875
       171   02 Jun 2027 14:50:39.761   02 Jun 2027 14:51:31.922            52.161               CapeTown          1630.031
       172   02 Jun 2027 15:11:58.738   02 Jun 2027 15:12:18.839            20.101              Murmansk1           628.156
       173   02 Jun 2027 15:13:04.961   02 Jun 2027 15:13:33.783            28.822              Murmansk1           900.687
       174   02 Jun 2027 15:14:15.686   02 Jun 2027 15:14:48.970            33.284              Murmansk2          1040.125
       175   02 Jun 2027 15:15:25.296   02 Jun 2027 15:15:44.763            19.467              Murmansk2           608.344
       176   02 Jun 2027 15:15:44.763   02 Jun 2027 15:17:22.900            98.137              Murmansk1          3066.781
       177   02 Jun 2027 15:17:26.590   02 Jun 2027 15:17:29.396             2.806              Murmansk1            87.687
       178   02 Jun 2027 15:21:37.706   02 Jun 2027 15:22:17.468            39.762                Anadyr1          1242.563
       179   02 Jun 2027 15:23:04.367   02 Jun 2027 15:23:25.930            21.563                Anadyr2           673.844
       180   02 Jun 2027 15:24:05.411   02 Jun 2027 15:25:05.848            60.437                Anadyr1          1888.656
       181   02 Jun 2027 15:25:38.164   02 Jun 2027 15:27:35.557           117.393                Anadyr1          3668.531
       182   02 Jun 2027 15:28:26.172   02 Jun 2027 15:29:55.171            88.999                Anadyr1          2781.219
       183   02 Jun 2027 15:29:55.171   02 Jun 2027 15:30:19.559            24.388                Anadyr2           762.125
       184   02 Jun 2027 15:30:41.663   02 Jun 2027 15:31:13.447            31.784                Anadyr2           993.250
       185   02 Jun 2027 16:51:14.761   02 Jun 2027 16:51:56.192            41.431              Murmansk2          1294.719
       186   02 Jun 2027 16:56:57.974   02 Jun 2027 16:57:21.559            23.585                Anadyr1           737.031
       187   02 Jun 2027 16:57:49.061   02 Jun 2027 16:58:16.021            26.960               Magadan1           842.500
       188   02 Jun 2027 16:58:16.021   02 Jun 2027 16:58:31.575            15.554               Magadan2           486.062
       189   02 Jun 2027 16:59:16.346   02 Jun 2027 16:59:50.352            34.006               Magadan2          1062.688
       190   02 Jun 2027 16:59:53.492   02 Jun 2027 17:00:10.987            17.495               Magadan1           546.719
       191   02 Jun 2027 17:00:29.206   02 Jun 2027 17:01:42.623            73.417               Magadan2          2294.281
       192   02 Jun 2027 17:03:11.240   02 Jun 2027 17:03:38.452            27.212               Magadan2           850.375
       193   02 Jun 2027 17:03:57.771   02 Jun 2027 17:04:16.863            19.092               Magadan2           596.625
       194   02 Jun 2027 17:04:36.694   02 Jun 2027 17:06:09.360            92.666               Magadan2          2895.812
       195   02 Jun 2027 17:06:33.136   02 Jun 2027 17:06:54.341            21.205                Anadyr2           662.656
       196   02 Jun 2027 17:07:20.587   02 Jun 2027 17:08:02.048            41.461               Magadan1          1295.656
       197   02 Jun 2027 17:08:30.135   02 Jun 2027 17:08:59.158            29.023               Magadan2           906.969
       198   02 Jun 2027 18:31:09.785   02 Jun 2027 18:32:22.915            73.130                Anadyr1          2285.313
       199   02 Jun 2027 18:33:26.963   02 Jun 2027 18:33:34.256             7.293               Magadan1           227.906
       200   02 Jun 2027 18:33:34.256   02 Jun 2027 18:34:01.164            26.908               Magadan2           840.875
       201   02 Jun 2027 18:34:02.276   02 Jun 2027 18:37:28.543           206.267                Norilsk          6445.844
       202   02 Jun 2027 18:41:46.318   02 Jun 2027 18:41:52.761             6.443               Magadan2           201.344
       203   02 Jun 2027 18:41:57.072   02 Jun 2027 18:42:48.638            51.566                Anadyr2          1611.437
       204   02 Jun 2027 18:43:39.369   02 Jun 2027 18:44:04.641            25.272               Magadan2           789.750
       205   02 Jun 2027 18:44:27.464   02 Jun 2027 18:44:54.035            26.571               Magadan2           830.344
       206   02 Jun 2027 18:45:35.985   02 Jun 2027 18:46:07.934            31.949               Magadan2           998.406
       207   02 Jun 2027 19:27:29.510   02 Jun 2027 19:28:23.176            53.666            RioGallegos          1677.062
       208   02 Jun 2027 19:29:38.536   02 Jun 2027 19:29:53.356            14.820            RioGallegos           463.125
       209   02 Jun 2027 19:31:28.471   02 Jun 2027 19:31:54.235            25.764            RioGallegos           805.125
       210   02 Jun 2027 19:32:23.613   02 Jun 2027 19:32:47.331            23.718            RioGallegos           741.188
       211   02 Jun 2027 19:33:16.363   02 Jun 2027 19:35:02.181           105.818            RioGallegos          3306.813
       212   02 Jun 2027 20:11:59.999   02 Jun 2027 20:12:31.117            31.118                Norilsk           972.438
       213   02 Jun 2027 20:13:04.994   02 Jun 2027 20:13:39.826            34.832                Norilsk          1088.500
       214   02 Jun 2027 20:14:17.080   02 Jun 2027 20:14:20.054             2.974                Norilsk            92.938
       215   02 Jun 2027 20:15:32.138   02 Jun 2027 20:18:19.407           167.269                Novosib          5227.156
       216   02 Jun 2027 20:21:32.866   02 Jun 2027 20:22:52.994            80.128                Irkutsk          2504.000
       217   02 Jun 2027 20:30:46.307   02 Jun 2027 20:31:28.117            41.810                Sumatra          1306.563
       218   02 Jun 2027 20:33:21.030   02 Jun 2027 20:33:55.636            34.606                Sumatra          1081.438
       219   02 Jun 2027 20:35:25.431   02 Jun 2027 20:36:27.166            61.735                Sumatra          1929.219
       220   02 Jun 2027 21:46:02.779   02 Jun 2027 21:46:50.395            47.616               Magadan1          1488.000
       221   02 Jun 2027 21:47:53.316   02 Jun 2027 21:48:00.283             6.967               Magadan2           217.719
       222   02 Jun 2027 21:48:05.403   02 Jun 2027 21:48:06.785             1.382               Magadan2            43.188
       223   02 Jun 2027 21:48:08.221   02 Jun 2027 21:48:22.203            13.982                Norilsk           436.938
       224   02 Jun 2027 21:48:59.823   02 Jun 2027 21:49:09.771             9.948                Novosib           310.875
       225   02 Jun 2027 21:49:19.684   02 Jun 2027 21:50:22.355            62.671                Novosib          1958.469
       226   02 Jun 2027 21:51:15.021   02 Jun 2027 21:51:22.742             7.721                Novosib           241.281
       227   02 Jun 2027 21:52:49.571   02 Jun 2027 21:54:48.294           118.723                Novosib          3710.094
       228   02 Jun 2027 21:56:52.542   02 Jun 2027 21:57:59.954            67.412                  Delhi          2106.625
       229   02 Jun 2027 22:00:19.645   02 Jun 2027 22:01:47.305            87.660                  Delhi          2739.375
       230   02 Jun 2027 22:03:14.749   02 Jun 2027 22:03:21.498             6.749                  Delhi           210.906
       231   02 Jun 2027 22:04:24.022   02 Jun 2027 22:04:35.063            11.041                  Delhi           345.031
       232   02 Jun 2027 22:05:04.586   02 Jun 2027 22:06:13.529            68.943                  Delhi          2154.469
       233   02 Jun 2027 23:20:54.812   02 Jun 2027 23:21:01.742             6.930                Anadyr2           216.562
       234   02 Jun 2027 23:21:06.879   02 Jun 2027 23:22:22.812            75.933               Magadan2          2372.906
       235   02 Jun 2027 23:23:17.845   02 Jun 2027 23:24:08.675            50.830               Magadan2          1588.437
       236   02 Jun 2027 23:24:43.915   02 Jun 2027 23:25:10.579            26.664                Novosib           833.250
       237   02 Jun 2027 23:25:17.614   02 Jun 2027 23:26:07.261            49.647              Murmansk1          1551.469
       238   02 Jun 2027 23:26:07.261   02 Jun 2027 23:27:28.547            81.286              Murmansk2          2540.187
       239   02 Jun 2027 23:28:19.788   02 Jun 2027 23:28:32.172            12.384              Murmansk2           387.000
       240   02 Jun 2027 23:28:41.752   02 Jun 2027 23:29:29.879            48.127                 Moscow          1503.969
       241   02 Jun 2027 23:30:08.695   02 Jun 2027 23:30:14.202             5.507              Murmansk2           172.094
       242   02 Jun 2027 23:30:27.155   02 Jun 2027 23:31:20.973            53.818                 Moscow          1681.813
       243   02 Jun 2027 23:33:25.474   02 Jun 2027 23:34:28.395            62.921                 Moscow          1966.281
       244   03 Jun 2027 00:48:32.985   03 Jun 2027 00:48:36.150             3.165                Anadyr2            98.906
       245   03 Jun 2027 00:48:42.055   03 Jun 2027 00:48:55.945            13.890                Anadyr1           434.062
       246   03 Jun 2027 00:50:03.373   03 Jun 2027 00:50:25.439            22.066                Anadyr2           689.563
       247   03 Jun 2027 00:50:51.840   03 Jun 2027 00:51:09.348            17.508                Anadyr1           547.125
       248   03 Jun 2027 00:51:56.756   03 Jun 2027 00:52:17.940            21.184                Anadyr1           662.000
       249   03 Jun 2027 00:53:18.532   03 Jun 2027 00:54:15.133            56.601                Anadyr1          1768.781
       250   03 Jun 2027 00:54:56.331   03 Jun 2027 00:56:14.796            78.465               Magadan1          2452.031
       251   03 Jun 2027 00:56:45.012   03 Jun 2027 00:56:56.215            11.203                Norilsk           350.094
       252   03 Jun 2027 00:56:57.220   03 Jun 2027 00:57:16.720            19.500               Magadan1           609.375
       253   03 Jun 2027 00:57:30.199   03 Jun 2027 00:57:43.231            13.032               Magadan2           407.250
       254   03 Jun 2027 00:59:04.859   03 Jun 2027 00:59:46.436            41.577              Murmansk2          1299.281
       255   03 Jun 2027 01:00:14.831   03 Jun 2027 01:00:48.985            34.154              Murmansk1          1067.312
       256   03 Jun 2027 01:04:11.592   03 Jun 2027 01:04:52.467            40.875                Novosib          1277.344
       257   03 Jun 2027 01:05:57.877   03 Jun 2027 01:06:16.852            18.975              Murmansk1           592.969
       258   03 Jun 2027 01:07:22.456   03 Jun 2027 01:08:40.495            78.039              Murmansk1          2438.719
       259   03 Jun 2027 01:14:37.112   03 Jun 2027 01:14:47.619            10.507                 Moscow           328.344
       260   03 Jun 2027 01:29:54.584   03 Jun 2027 01:30:20.443            25.859               CapeTown           808.094
       261   03 Jun 2027 01:33:19.069   03 Jun 2027 01:34:12.462            53.393               CapeTown          1668.531
       262   03 Jun 2027 01:37:36.049   03 Jun 2027 01:38:48.663            72.614               CapeTown          2269.188
       263   03 Jun 2027 02:23:58.709   03 Jun 2027 02:24:10.701            11.992                Anadyr2           374.750
       264   03 Jun 2027 02:24:42.189   03 Jun 2027 02:24:56.576            14.387                Anadyr2           449.594
       265   03 Jun 2027 02:25:15.197   03 Jun 2027 02:25:21.088             5.891                Anadyr2           184.094
       266   03 Jun 2027 02:25:33.027   03 Jun 2027 02:26:00.394            27.367               Magadan1           855.219
       267   03 Jun 2027 02:26:32.301   03 Jun 2027 02:27:22.712            50.411               Magadan2          1575.344
       268   03 Jun 2027 02:29:08.409   03 Jun 2027 02:29:25.302            16.893               Magadan2           527.906
       269   03 Jun 2027 02:30:02.787   03 Jun 2027 02:30:07.952             5.165               Magadan1           161.406
       270   03 Jun 2027 02:30:45.491   03 Jun 2027 02:31:10.977            25.486               Magadan1           796.438
       271   03 Jun 2027 02:32:07.340   03 Jun 2027 02:32:12.882             5.542                Norilsk           173.187
       272   03 Jun 2027 02:32:40.092   03 Jun 2027 02:32:56.705            16.613                Norilsk           519.156
       273   03 Jun 2027 02:33:44.859   03 Jun 2027 02:33:51.308             6.449                Norilsk           201.531
       274   03 Jun 2027 02:34:43.640   03 Jun 2027 02:34:48.907             5.267                Norilsk           164.594
       275   03 Jun 2027 02:35:02.956   03 Jun 2027 02:35:16.596            13.640              Murmansk1           426.250
       276   03 Jun 2027 02:35:16.596   03 Jun 2027 02:35:19.233             2.637              Murmansk2            82.406
       277   03 Jun 2027 02:35:44.531   03 Jun 2027 02:36:08.273            23.742              Murmansk2           741.937
       278   03 Jun 2027 02:37:02.023   03 Jun 2027 02:37:22.376            20.353              Murmansk2           636.031
       279   03 Jun 2027 02:39:06.230   03 Jun 2027 02:39:29.768            23.538              Murmansk1           735.562
       280   03 Jun 2027 02:40:14.447   03 Jun 2027 02:40:16.807             2.360                Novosib            73.750
       281   03 Jun 2027 02:41:21.210   03 Jun 2027 02:41:21.801             0.591              Murmansk2            18.469
       282   03 Jun 2027 02:41:22.236   03 Jun 2027 02:42:15.021            52.785              Murmansk2          1649.531
       283   03 Jun 2027 02:45:37.896   03 Jun 2027 02:45:59.169            21.273              Murmansk2           664.781
       284   03 Jun 2027 02:47:53.785   03 Jun 2027 02:48:02.074             8.289                 Moscow           259.031
       285   03 Jun 2027 02:48:46.450   03 Jun 2027 02:49:32.064            45.614                 Moscow          1425.437
       286   03 Jun 2027 03:10:50.403   03 Jun 2027 03:11:18.297            27.894               CapeTown           871.687
       287   03 Jun 2027 03:13:16.483   03 Jun 2027 03:13:25.239             8.756               CapeTown           273.625
       288   03 Jun 2027 03:13:55.955   03 Jun 2027 03:14:18.724            22.769               CapeTown           711.531
       289   03 Jun 2027 04:04:39.899   03 Jun 2027 04:04:44.234             4.335                Anadyr2           135.469
       290   03 Jun 2027 04:04:49.449   03 Jun 2027 04:05:58.356            68.907               Magadan1          2153.344
       291   03 Jun 2027 04:06:12.046   03 Jun 2027 04:10:06.672           234.626                Anadyr1          7332.062
       292   03 Jun 2027 04:10:14.684   03 Jun 2027 04:11:31.361            76.677                Anadyr1          2396.156
       293   03 Jun 2027 04:56:30.951   03 Jun 2027 04:56:33.877             2.926            RioGallegos            91.438
       294   03 Jun 2027 05:43:08.861   03 Jun 2027 05:46:23.604           194.743                Anadyr1          6085.719
       295   03 Jun 2027 05:46:23.604   03 Jun 2027 05:47:12.726            49.122                Anadyr2          1535.063
       296   03 Jun 2027 07:17:23.732   03 Jun 2027 07:17:40.506            16.774               Magadan1           524.187
       297   03 Jun 2027 07:17:40.506   03 Jun 2027 07:18:08.363            27.857               Magadan2           870.531
       298   03 Jun 2027 07:18:27.488   03 Jun 2027 07:18:50.087            22.599               Magadan2           706.219
       299   03 Jun 2027 07:18:54.827   03 Jun 2027 07:18:55.991             1.164                Irkutsk            36.375
       300   03 Jun 2027 07:18:56.571   03 Jun 2027 07:19:22.163            25.592               Magadan2           799.750
       301   03 Jun 2027 07:19:46.603   03 Jun 2027 07:24:00.940           254.337                Novosib          7948.031
       302   03 Jun 2027 07:27:28.408   03 Jun 2027 07:27:49.778            21.370                Norilsk           667.813
       303   03 Jun 2027 07:59:51.163   03 Jun 2027 08:00:11.962            20.799            RioGallegos           649.969
       304   03 Jun 2027 08:01:04.990   03 Jun 2027 08:02:15.018            70.028            RioGallegos          2188.375
       305   03 Jun 2027 08:34:05.954   03 Jun 2027 08:34:52.995            47.041                Sumatra          1470.031
       306   03 Jun 2027 08:36:46.190   03 Jun 2027 08:36:47.993             1.803                Sumatra            56.344
       307   03 Jun 2027 08:46:11.911   03 Jun 2027 08:46:31.206            19.295                  Delhi           602.969
       308   03 Jun 2027 08:54:02.925   03 Jun 2027 08:54:06.041             3.116                Novosib            97.375
       309   03 Jun 2027 08:54:20.151   03 Jun 2027 08:54:40.844            20.693                Irkutsk           646.656
       310   03 Jun 2027 08:55:07.787   03 Jun 2027 08:55:53.079            45.292                Irkutsk          1415.375
       311   03 Jun 2027 08:56:06.416   03 Jun 2027 08:58:01.051           114.635                Norilsk          3582.344
       312   03 Jun 2027 08:58:08.179   03 Jun 2027 08:59:18.881            70.702                Novosib          2209.438
       313   03 Jun 2027 08:59:19.610   03 Jun 2027 08:59:49.855            30.245              Murmansk1           945.156
       314   03 Jun 2027 09:00:44.790   03 Jun 2027 09:01:21.510            36.720              Murmansk1          1147.500
       315   03 Jun 2027 09:04:33.185   03 Jun 2027 09:04:42.901             9.716              Murmansk1           303.625
       316   03 Jun 2027 09:36:18.221   03 Jun 2027 09:36:42.266            24.045            RioGallegos           751.406
       317   03 Jun 2027 09:38:16.191   03 Jun 2027 09:38:46.233            30.042            RioGallegos           938.813
       318   03 Jun 2027 09:40:16.138   03 Jun 2027 09:40:48.563            32.425            RioGallegos          1013.281
       319   03 Jun 2027 10:10:37.038   03 Jun 2027 10:12:39.143           122.105                Sumatra          3815.781
       320   03 Jun 2027 10:20:39.961   03 Jun 2027 10:21:09.219            29.258                  Delhi           914.312
       321   03 Jun 2027 10:31:12.301   03 Jun 2027 10:31:40.422            28.121                Irkutsk           878.781
       322   03 Jun 2027 10:32:17.545   03 Jun 2027 10:33:08.482            50.937              Murmansk2          1591.781
       323   03 Jun 2027 10:33:13.556   03 Jun 2027 10:33:22.025             8.469                Norilsk           264.656
       324   03 Jun 2027 10:33:25.093   03 Jun 2027 10:34:04.587            39.494                Norilsk          1234.187
       325   03 Jun 2027 10:34:11.638   03 Jun 2027 10:35:17.647            66.009                 Moscow          2062.781
       326   03 Jun 2027 10:36:50.948   03 Jun 2027 10:37:41.953            51.005                 Moscow          1593.906
       327   03 Jun 2027 11:56:23.947   03 Jun 2027 11:59:40.993           197.046                  Delhi          6157.687
       328   03 Jun 2027 12:09:15.246   03 Jun 2027 12:10:07.581            52.335                Novosib          1635.469
       329   03 Jun 2027 12:13:10.324   03 Jun 2027 12:13:39.714            29.390              Murmansk1           918.438
       330   03 Jun 2027 12:15:16.917   03 Jun 2027 12:15:30.278            13.361              Murmansk2           417.531
       331   03 Jun 2027 12:16:22.726   03 Jun 2027 12:16:39.451            16.725              Murmansk1           522.656
       332   03 Jun 2027 13:17:10.667   03 Jun 2027 13:19:42.549           151.882               CapeTown          4746.313
       333   03 Jun 2027 13:22:23.434   03 Jun 2027 13:24:40.610           137.176               CapeTown          4286.750
       334   03 Jun 2027 13:43:22.339   03 Jun 2027 13:43:56.164            33.825              Murmansk2          1057.031
       335   03 Jun 2027 13:44:37.209   03 Jun 2027 13:45:36.842            59.633              Murmansk2          1863.531
       336   03 Jun 2027 13:50:27.084   03 Jun 2027 13:50:42.586            15.502              Murmansk1           484.437
       337   03 Jun 2027 13:51:59.508   03 Jun 2027 13:52:14.390            14.882              Murmansk2           465.062
       338   03 Jun 2027 13:56:08.773   03 Jun 2027 13:59:46.190           217.417                Anadyr1          6794.281
       339   03 Jun 2027 15:20:00.762   03 Jun 2027 15:20:57.811            57.049              Murmansk2          1782.781
       340   03 Jun 2027 15:21:57.768   03 Jun 2027 15:23:38.973           101.205              Murmansk1          3162.656
       341   03 Jun 2027 15:31:24.453   03 Jun 2027 15:32:19.809            55.356                Anadyr1          1729.875
       342   03 Jun 2027 15:32:56.548   03 Jun 2027 15:33:18.805            22.257                Anadyr2           695.531
       343   03 Jun 2027 15:33:41.672   03 Jun 2027 15:34:18.798            37.126                Anadyr1          1160.187
       344   03 Jun 2027 15:35:51.949   03 Jun 2027 15:36:47.321            55.372               Magadan1          1730.375
       345   03 Jun 2027 15:36:59.197   03 Jun 2027 15:38:39.742           100.545               Magadan2          3142.031
       346   03 Jun 2027 15:38:45.286   03 Jun 2027 15:39:13.262            27.976               Magadan1           874.250
       347   03 Jun 2027 17:07:16.595   03 Jun 2027 17:10:11.614           175.019                Anadyr2          5469.344
       348   03 Jun 2027 17:10:26.259   03 Jun 2027 17:11:40.712            74.453               Magadan2          2326.656
       349   03 Jun 2027 17:11:40.712   03 Jun 2027 17:11:46.006             5.294               Magadan1           165.438
       350   03 Jun 2027 17:11:52.902   03 Jun 2027 17:13:41.544           108.642               Magadan1          3395.063
       351   03 Jun 2027 18:43:10.288   03 Jun 2027 18:47:10.358           240.070                Anadyr2          7502.188
       352   03 Jun 2027 18:47:13.930   03 Jun 2027 18:47:44.016            30.086               Magadan1           940.188
       353   03 Jun 2027 18:48:04.437   03 Jun 2027 18:48:37.295            32.858                Norilsk          1026.812
       354   03 Jun 2027 18:52:54.818   03 Jun 2027 18:54:51.694           116.876                Irkutsk          3652.375
       355   03 Jun 2027 19:37:31.621   03 Jun 2027 19:38:48.717            77.096            RioGallegos          2409.250
       356   03 Jun 2027 19:39:36.293   03 Jun 2027 19:40:47.141            70.848            RioGallegos          2214.000
       357   03 Jun 2027 19:47:07.689   03 Jun 2027 19:47:10.361             2.672            RioGallegos            83.500
       358   03 Jun 2027 19:48:29.167   03 Jun 2027 19:48:37.105             7.938            RioGallegos           248.063
       359   03 Jun 2027 20:21:02.039   03 Jun 2027 20:22:52.439           110.400                Norilsk          3450.000
       360   03 Jun 2027 20:24:32.141   03 Jun 2027 20:25:23.833            51.692               Magadan1          1615.375
       361   03 Jun 2027 20:26:11.617   03 Jun 2027 20:26:40.279            28.662                Norilsk           895.688
       362   03 Jun 2027 20:26:42.242   03 Jun 2027 20:27:41.137            58.895                Irkutsk          1840.469
       363   03 Jun 2027 20:27:58.564   03 Jun 2027 20:29:25.205            86.641                Novosib          2707.531
       364   03 Jun 2027 20:31:55.464   03 Jun 2027 20:32:15.714            20.250                Novosib           632.812
       365   03 Jun 2027 20:38:50.877   03 Jun 2027 20:41:26.961           156.084                Sumatra          4877.625
       366   03 Jun 2027 20:49:12.815   03 Jun 2027 20:50:14.609            61.794                Sumatra          1931.063
       367   03 Jun 2027 21:58:20.837   03 Jun 2027 21:58:54.336            33.499               Magadan1          1046.844
       368   03 Jun 2027 22:00:51.966   03 Jun 2027 22:01:16.863            24.897                Irkutsk           778.031
       369   03 Jun 2027 22:01:28.593   03 Jun 2027 22:01:55.132            26.539                Irkutsk           829.344
       370   03 Jun 2027 22:02:47.370   03 Jun 2027 22:04:10.840            83.470                Novosib          2608.437
       371   03 Jun 2027 22:08:36.159   03 Jun 2027 22:12:15.408           219.249                  Delhi          6851.531
       372   03 Jun 2027 23:32:55.715   03 Jun 2027 23:34:47.704           111.989               Magadan1          3499.656
       373   03 Jun 2027 23:35:11.715   03 Jun 2027 23:35:14.959             3.244               Magadan2           101.375
       374   03 Jun 2027 23:35:18.761   03 Jun 2027 23:39:57.476           278.715              Murmansk1          8709.844
       375   03 Jun 2027 23:40:43.853   03 Jun 2027 23:42:06.342            82.489                 Moscow          2577.781
       376   03 Jun 2027 23:44:19.491   03 Jun 2027 23:45:05.173            45.682                 Moscow          1427.562
       377   04 Jun 2027 01:00:18.668   04 Jun 2027 01:00:21.651             2.983                Anadyr1            93.219
       378   04 Jun 2027 01:02:48.587   04 Jun 2027 01:03:04.072            15.485                Anadyr1           483.906
       379   04 Jun 2027 01:03:09.084   04 Jun 2027 01:03:23.244            14.160                Anadyr1           442.500
       380   04 Jun 2027 01:05:11.522   04 Jun 2027 01:07:16.739           125.217               Magadan2          3913.031
       381   04 Jun 2027 01:07:30.958   04 Jun 2027 01:07:44.093            13.135               Magadan2           410.469
       382   04 Jun 2027 01:08:56.549   04 Jun 2027 01:09:00.244             3.695               Magadan1           115.469
       383   04 Jun 2027 01:11:06.300   04 Jun 2027 01:12:13.634            67.334              Murmansk2          2104.188
       384   04 Jun 2027 01:12:13.634   04 Jun 2027 01:13:24.720            71.086              Murmansk1          2221.437
       385   04 Jun 2027 01:16:17.633   04 Jun 2027 01:16:33.867            16.234                 Moscow           507.313
       386   04 Jun 2027 01:17:22.294   04 Jun 2027 01:17:38.138            15.844                 Moscow           495.125
       387   04 Jun 2027 01:17:56.975   04 Jun 2027 01:18:10.702            13.727              Murmansk2           428.969
       388   04 Jun 2027 01:22:22.741   04 Jun 2027 01:22:39.132            16.391                 Moscow           512.219
       389   04 Jun 2027 01:38:36.248   04 Jun 2027 01:39:11.296            35.048               CapeTown          1095.250
       390   04 Jun 2027 01:40:00.582   04 Jun 2027 01:41:16.110            75.528               CapeTown          2360.250
       391   04 Jun 2027 02:34:59.238   04 Jun 2027 02:36:11.018            71.780                Anadyr1          2243.125
       392   04 Jun 2027 02:36:27.306   04 Jun 2027 02:36:57.646            30.340                Anadyr2           948.125
       393   04 Jun 2027 02:37:09.165   04 Jun 2027 02:37:12.870             3.705               Magadan1           115.781
       394   04 Jun 2027 02:37:47.640   04 Jun 2027 02:38:25.248            37.608               Magadan2          1175.250
       395   04 Jun 2027 02:39:24.454   04 Jun 2027 02:39:43.203            18.749               Magadan2           585.906
       396   04 Jun 2027 02:41:56.571   04 Jun 2027 02:42:02.266             5.695               Magadan2           177.969
       397   04 Jun 2027 02:42:02.266   04 Jun 2027 02:42:13.203            10.937               Magadan1           341.781
       398   04 Jun 2027 02:42:24.396   04 Jun 2027 02:43:21.437            57.041               Magadan1          1782.531
       399   04 Jun 2027 02:47:04.488   04 Jun 2027 02:48:01.789            57.301              Murmansk2          1790.656
       400   04 Jun 2027 02:48:58.943   04 Jun 2027 02:49:09.930            10.987              Murmansk1           343.344
       401   04 Jun 2027 02:50:19.961   04 Jun 2027 02:51:14.155            54.194                 Moscow          1693.563
       402   04 Jun 2027 02:55:30.368   04 Jun 2027 02:55:53.329            22.961                 Moscow           717.531
       403   04 Jun 2027 03:15:17.546   04 Jun 2027 03:15:51.449            33.903               CapeTown          1059.469
       404   04 Jun 2027 04:16:15.427   04 Jun 2027 04:18:22.995           127.568                Anadyr2          3986.500
       405   04 Jun 2027 04:18:27.158   04 Jun 2027 04:18:57.014            29.856               Magadan1           933.000
       406   04 Jun 2027 04:19:15.042   04 Jun 2027 04:20:03.885            48.843                Norilsk          1526.344
       407   04 Jun 2027 04:20:07.302   04 Jun 2027 04:21:58.100           110.798                Anadyr2          3462.437
       408   04 Jun 2027 05:03:58.332   04 Jun 2027 05:04:18.338            20.006            RioGallegos           625.188
       409   04 Jun 2027 05:53:01.786   04 Jun 2027 05:56:36.558           214.772                Anadyr2          6711.625
       410   04 Jun 2027 05:56:40.146   04 Jun 2027 05:57:01.827            21.681               Magadan1           677.531
       411   04 Jun 2027 05:57:04.388   04 Jun 2027 05:57:13.275             8.887                Irkutsk           277.719
       412   04 Jun 2027 05:57:17.634   04 Jun 2027 05:57:27.414             9.780               Magadan2           305.625
       413   04 Jun 2027 05:57:27.414   04 Jun 2027 05:57:35.835             8.421               Magadan1           263.156
       414   04 Jun 2027 05:57:35.835   04 Jun 2027 05:57:49.251            13.416               Magadan2           419.250
       415   04 Jun 2027 05:57:59.526   04 Jun 2027 05:58:24.957            25.431                Anadyr2           794.719
       416   04 Jun 2027 05:59:16.593   04 Jun 2027 05:59:17.731             1.138               Magadan2            35.563
       417   04 Jun 2027 06:36:36.120   04 Jun 2027 06:36:55.373            19.253            RioGallegos           601.656
       418   04 Jun 2027 07:30:07.128   04 Jun 2027 07:32:56.775           169.647                Novosib          5301.469
       419   04 Jun 2027 07:33:05.465   04 Jun 2027 07:34:12.417            66.952               Magadan1          2092.250
       420   04 Jun 2027 07:34:15.840   04 Jun 2027 07:36:47.410           151.570              Murmansk1          4736.562
       421   04 Jun 2027 08:09:54.206   04 Jun 2027 08:11:42.331           108.125            RioGallegos          3378.906
       422   04 Jun 2027 08:44:47.469   04 Jun 2027 08:47:16.672           149.203                Sumatra          4662.594
       423   04 Jun 2027 08:55:44.677   04 Jun 2027 08:55:58.608            13.931                  Delhi           435.344
       424   04 Jun 2027 09:05:11.817   04 Jun 2027 09:05:49.982            38.165                Irkutsk          1192.656
       425   04 Jun 2027 09:05:53.185   04 Jun 2027 09:06:50.352            57.167                Irkutsk          1786.469
       426   04 Jun 2027 09:07:07.597   04 Jun 2027 09:07:09.117             1.520                Irkutsk            47.500
       427   04 Jun 2027 09:07:10.812   04 Jun 2027 09:07:35.669            24.857                Norilsk           776.781
       428   04 Jun 2027 09:07:38.353   04 Jun 2027 09:07:50.762            12.409                Norilsk           387.781
       429   04 Jun 2027 09:08:13.208   04 Jun 2027 09:08:24.888            11.680                Irkutsk           365.000
       430   04 Jun 2027 09:08:29.533   04 Jun 2027 09:08:42.318            12.785                Irkutsk           399.531
       431   04 Jun 2027 09:08:44.320   04 Jun 2027 09:08:58.885            14.565                Irkutsk           455.156
       432   04 Jun 2027 09:09:23.336   04 Jun 2027 09:09:51.122            27.786                Novosib           868.313
       433   04 Jun 2027 09:09:58.913   04 Jun 2027 09:10:09.311            10.398                 Moscow           324.937
       434   04 Jun 2027 09:10:10.963   04 Jun 2027 09:10:48.893            37.930                Irkutsk          1185.313
       435   04 Jun 2027 09:10:56.435   04 Jun 2027 09:11:25.061            28.626                 Moscow           894.563
       436   04 Jun 2027 09:11:53.064   04 Jun 2027 09:12:07.872            14.808              Murmansk2           462.750
       437   04 Jun 2027 09:49:06.835   04 Jun 2027 09:49:26.739            19.904            RioGallegos           622.000
       438   04 Jun 2027 09:49:34.123   04 Jun 2027 09:49:54.049            19.926            RioGallegos           622.687
       439   04 Jun 2027 09:52:41.426   04 Jun 2027 09:53:10.308            28.882            RioGallegos           902.562
       440   04 Jun 2027 10:23:50.178   04 Jun 2027 10:24:27.587            37.409                Sumatra          1169.031
       441   04 Jun 2027 10:28:56.062   04 Jun 2027 10:29:11.179            15.117                  Delhi           472.406
       442   04 Jun 2027 10:31:18.787   04 Jun 2027 10:31:28.367             9.580                  Delhi           299.375
       443   04 Jun 2027 10:32:07.084   04 Jun 2027 10:33:26.543            79.459                  Delhi          2483.094
       444   04 Jun 2027 10:42:51.820   04 Jun 2027 10:43:38.255            46.435              Murmansk2          1451.094
       445   04 Jun 2027 10:43:47.499   04 Jun 2027 10:44:16.836            29.337              Murmansk2           916.781
       446   04 Jun 2027 10:44:26.852   04 Jun 2027 10:45:01.379            34.527              Murmansk2          1078.969
       447   04 Jun 2027 10:45:12.367   04 Jun 2027 10:45:17.073             4.706              Murmansk2           147.063
       448   04 Jun 2027 10:45:20.119   04 Jun 2027 10:45:37.757            17.638                Norilsk           551.187
       449   04 Jun 2027 10:45:39.803   04 Jun 2027 10:46:06.414            26.611                Norilsk           831.594
       450   04 Jun 2027 10:46:11.183   04 Jun 2027 10:46:18.749             7.566              Murmansk2           236.438
       451   04 Jun 2027 10:46:20.875   04 Jun 2027 10:46:20.893             0.018                Novosib             0.562
       452   04 Jun 2027 10:46:29.073   04 Jun 2027 10:47:05.355            36.282                Novosib          1133.813
       453   04 Jun 2027 10:48:03.729   04 Jun 2027 10:48:47.473            43.744                 Moscow          1367.000
       454   04 Jun 2027 12:11:21.399   04 Jun 2027 12:11:46.255            24.856                  Delhi           776.750
       455   04 Jun 2027 12:13:23.404   04 Jun 2027 12:13:47.418            24.014                 Moscow           750.437
       456   04 Jun 2027 12:14:10.592   04 Jun 2027 12:14:37.120            26.528                 Moscow           829.000
       457   04 Jun 2027 12:15:14.375   04 Jun 2027 12:17:25.724           131.349                 Moscow          4104.656
       458   04 Jun 2027 12:17:39.980   04 Jun 2027 12:18:34.314            54.334              Murmansk1          1697.938
       459   04 Jun 2027 12:20:06.864   04 Jun 2027 12:20:38.632            31.768              Murmansk1           992.750
       460   04 Jun 2027 12:23:53.109   04 Jun 2027 12:24:04.661            11.552              Murmansk2           361.000
       461   04 Jun 2027 12:26:01.147   04 Jun 2027 12:26:09.788             8.641              Murmansk1           270.031
       462   04 Jun 2027 13:28:28.551   04 Jun 2027 13:31:26.140           177.589               CapeTown          5549.656
       463   04 Jun 2027 13:34:34.971   04 Jun 2027 13:35:48.061            73.090               CapeTown          2284.062
       464   04 Jun 2027 13:53:34.712   04 Jun 2027 13:55:57.228           142.516              Murmansk1          4453.625
       465   04 Jun 2027 14:03:01.691   04 Jun 2027 14:03:30.171            28.480              Murmansk2           890.000
       466   04 Jun 2027 14:07:59.655   04 Jun 2027 14:11:46.448           226.793                Anadyr1          7087.281
       467   04 Jun 2027 15:32:34.101   04 Jun 2027 15:33:42.641            68.540              Murmansk1          2141.875
       468   04 Jun 2027 15:33:42.641   04 Jun 2027 15:33:59.628            16.987              Murmansk2           530.844
       469   04 Jun 2027 15:36:01.089   04 Jun 2027 15:36:27.614            26.525              Murmansk2           828.906
       470   04 Jun 2027 15:43:24.503   04 Jun 2027 15:45:39.268           134.765                Anadyr1          4211.406
       471   04 Jun 2027 15:45:59.328   04 Jun 2027 15:46:11.683            12.355                Anadyr1           386.094
       472   04 Jun 2027 15:47:15.013   04 Jun 2027 15:52:36.481           321.468               Magadan2         10045.875
       473   04 Jun 2027 17:19:18.000   04 Jun 2027 17:19:30.935            12.935                Anadyr1           404.219
       474   04 Jun 2027 17:20:07.031   04 Jun 2027 17:20:12.988             5.957                Anadyr1           186.156
       475   04 Jun 2027 17:20:41.956   04 Jun 2027 17:20:59.997            18.041                Anadyr1           563.781
       476   04 Jun 2027 17:21:15.328   04 Jun 2027 17:21:40.846            25.518                Anadyr1           797.437
       477   04 Jun 2027 17:21:42.916   04 Jun 2027 17:22:18.709            35.793               Magadan2          1118.531
       478   04 Jun 2027 17:23:19.496   04 Jun 2027 17:23:31.934            12.438               Magadan1           388.688
       479   04 Jun 2027 17:23:46.256   04 Jun 2027 17:24:01.417            15.161               Magadan2           473.781
       480   04 Jun 2027 17:28:20.607   04 Jun 2027 17:28:42.088            21.481               Magadan2           671.281
       481   04 Jun 2027 17:29:27.840   04 Jun 2027 17:31:16.033           108.193               Magadan1          3381.031
       482   04 Jun 2027 18:55:10.496   04 Jun 2027 18:57:15.303           124.807                Anadyr2          3900.219
