uniorb/output/strategy_1/Drop/Drop_KinoSat_111308.txt

KinoSat_111308
-------------------------
    Access    *     Start Time (UTCG)     *     Stop Time (UTCG)  *   Duration (s)        *       Station  *  Data (Mbytes)
         1   01 Jun 2027 03:00:09.650   01 Jun 2027 03:00:12.057             2.407                Norilsk            75.219
         2   01 Jun 2027 03:00:39.709   01 Jun 2027 03:01:48.740            69.031                Novosib          2157.219
         3   01 Jun 2027 03:01:51.327   01 Jun 2027 03:02:16.045            24.718                 Moscow           772.437
         4   01 Jun 2027 03:02:19.613   01 Jun 2027 03:03:02.562            42.949              Murmansk2          1342.156
         5   01 Jun 2027 03:03:02.562   01 Jun 2027 03:03:09.986             7.424              Murmansk1           232.000
         6   01 Jun 2027 03:03:26.731   01 Jun 2027 03:04:21.230            54.499                Novosib          1703.094
         7   01 Jun 2027 03:04:28.110   01 Jun 2027 03:05:07.676            39.566              Murmansk2          1236.438
         8   01 Jun 2027 03:05:53.130   01 Jun 2027 03:08:08.183           135.053                 Moscow          4220.406
         9   01 Jun 2027 03:20:35.886   01 Jun 2027 03:23:56.629           200.743               CapeTown          6273.219
        10   01 Jun 2027 03:24:36.533   01 Jun 2027 03:24:59.739            23.206               CapeTown           725.187
        11   01 Jun 2027 04:24:22.622   01 Jun 2027 04:27:48.975           206.353                Anadyr1          6448.531
        12   01 Jun 2027 04:35:53.877   01 Jun 2027 04:37:04.579            70.702                Norilsk          2209.437
        13   01 Jun 2027 04:37:26.968   01 Jun 2027 04:38:05.490            38.522              Murmansk1          1203.813
        14   01 Jun 2027 05:59:49.449   01 Jun 2027 06:00:03.018            13.569                Anadyr1           424.031
        15   01 Jun 2027 06:00:16.963   01 Jun 2027 06:01:56.497            99.534                Anadyr1          3110.437
        16   01 Jun 2027 06:02:06.920   01 Jun 2027 06:04:01.692           114.772               Magadan2          3586.625
        17   01 Jun 2027 06:04:01.692   01 Jun 2027 06:05:08.761            67.069               Magadan1          2095.906
        18   01 Jun 2027 06:46:04.886   01 Jun 2027 06:46:30.371            25.485            RioGallegos           796.406
        19   01 Jun 2027 06:47:43.470   01 Jun 2027 06:48:45.117            61.647            RioGallegos          1926.469
        20   01 Jun 2027 07:35:52.443   01 Jun 2027 07:38:57.762           185.319               Magadan2          5791.219
        21   01 Jun 2027 07:39:00.466   01 Jun 2027 07:39:54.459            53.993                Anadyr2          1687.281
        22   01 Jun 2027 07:39:54.459   01 Jun 2027 07:40:28.436            33.977                Anadyr1          1061.781
        23   01 Jun 2027 09:11:17.153   01 Jun 2027 09:13:14.268           117.115                Irkutsk          3659.844
        24   01 Jun 2027 09:13:35.991   01 Jun 2027 09:14:59.604            83.613                Novosib          2612.906
        25   01 Jun 2027 09:15:26.781   01 Jun 2027 09:16:57.006            90.225              Murmansk2          2819.531
        26   01 Jun 2027 09:16:57.006   01 Jun 2027 09:17:57.514            60.508              Murmansk1          1890.875
        27   01 Jun 2027 09:17:57.514   01 Jun 2027 09:18:46.354            48.840              Murmansk2          1526.250
        28   01 Jun 2027 09:19:25.151   01 Jun 2027 09:20:16.885            51.734              Murmansk1          1616.688
        29   01 Jun 2027 09:23:50.469   01 Jun 2027 09:24:19.033            28.564              Murmansk2           892.625
        30   01 Jun 2027 09:52:44.670   01 Jun 2027 09:53:10.946            26.276            RioGallegos           821.125
        31   01 Jun 2027 09:54:59.042   01 Jun 2027 09:55:31.724            32.682            RioGallegos          1021.312
        32   01 Jun 2027 10:00:12.967   01 Jun 2027 10:00:33.377            20.410            RioGallegos           637.813
        33   01 Jun 2027 10:26:43.745   01 Jun 2027 10:27:27.550            43.805                Sumatra          1368.906
        34   01 Jun 2027 10:28:59.129   01 Jun 2027 10:29:41.361            42.232                Sumatra          1319.750
        35   01 Jun 2027 10:40:01.170   01 Jun 2027 10:40:01.870             0.700                  Delhi            21.875
        36   01 Jun 2027 10:48:47.110   01 Jun 2027 10:52:36.253           229.143                Novosib          7160.719
        37   01 Jun 2027 10:52:50.249   01 Jun 2027 10:55:38.661           168.412              Murmansk2          5262.875
        38   01 Jun 2027 11:31:17.931   01 Jun 2027 11:31:52.508            34.577            RioGallegos          1080.531
        39   01 Jun 2027 11:35:05.141   01 Jun 2027 11:35:26.371            21.230            RioGallegos           663.437
        40   01 Jun 2027 12:05:11.580   01 Jun 2027 12:06:48.342            96.762                Sumatra          3023.812
        41   01 Jun 2027 12:11:27.773   01 Jun 2027 12:13:31.932           124.159                  Delhi          3879.969
        42   01 Jun 2027 12:19:15.828   01 Jun 2027 12:19:43.960            28.132                Novosib           879.125
        43   01 Jun 2027 12:21:49.878   01 Jun 2027 12:22:28.937            39.059                Novosib          1220.594
        44   01 Jun 2027 12:22:31.989   01 Jun 2027 12:24:22.934           110.945                Norilsk          3467.031
        45   01 Jun 2027 13:51:27.882   01 Jun 2027 13:54:07.243           159.361                  Delhi          4980.031
        46   01 Jun 2027 13:56:32.511   01 Jun 2027 13:57:41.261            68.750                 Moscow          2148.438
        47   01 Jun 2027 13:58:38.769   01 Jun 2027 14:00:49.449           130.680              Murmansk1          4083.750
        48   01 Jun 2027 14:00:51.719   01 Jun 2027 14:01:23.237            31.518                Novosib           984.937
        49   01 Jun 2027 14:01:44.282   01 Jun 2027 14:02:55.287            71.005                Norilsk          2218.906
        50   01 Jun 2027 14:02:57.445   01 Jun 2027 14:03:03.272             5.827                Novosib           182.094
        51   01 Jun 2027 14:03:50.661   01 Jun 2027 14:04:31.794            41.133                Norilsk          1285.406
        52   01 Jun 2027 14:06:08.788   01 Jun 2027 14:06:25.323            16.535                Norilsk           516.719
        53   01 Jun 2027 15:10:35.692   01 Jun 2027 15:13:15.344           159.652               CapeTown          4989.125
        54   01 Jun 2027 15:32:02.341   01 Jun 2027 15:32:48.054            45.713                 Moscow          1428.531
        55   01 Jun 2027 15:35:22.634   01 Jun 2027 15:36:17.209            54.575              Murmansk2          1705.469
        56   01 Jun 2027 15:37:17.651   01 Jun 2027 15:37:58.732            41.081              Murmansk2          1283.781
        57   01 Jun 2027 15:49:55.381   01 Jun 2027 15:51:56.264           120.883                Anadyr1          3777.594
        58   01 Jun 2027 16:44:39.023   01 Jun 2027 16:47:03.639           144.616               CapeTown          4519.250
        59   01 Jun 2027 17:14:14.057   01 Jun 2027 17:16:00.300           106.243              Murmansk2          3320.094
        60   01 Jun 2027 17:17:26.996   01 Jun 2027 17:18:05.531            38.535              Murmansk1          1204.219
        61   01 Jun 2027 17:21:51.721   01 Jun 2027 17:21:54.478             2.757              Murmansk1            86.156
        62   01 Jun 2027 17:25:17.933   01 Jun 2027 17:27:31.459           133.526                Anadyr1          4172.688
        63   01 Jun 2027 17:29:18.527   01 Jun 2027 17:30:05.062            46.535               Magadan1          1454.219
        64   01 Jun 2027 17:30:47.483   01 Jun 2027 17:31:17.989            30.506               Magadan2           953.312
        65   01 Jun 2027 17:31:41.544   01 Jun 2027 17:32:12.896            31.352               Magadan2           979.750
        66   01 Jun 2027 19:01:11.433   01 Jun 2027 19:03:06.862           115.429                Anadyr2          3607.156
        67   01 Jun 2027 19:03:16.260   01 Jun 2027 19:05:21.501           125.241                Anadyr1          3913.781
        68   01 Jun 2027 19:05:48.145   01 Jun 2027 19:07:18.366            90.221               Magadan2          2819.406
        69   01 Jun 2027 19:07:18.366   01 Jun 2027 19:08:43.996            85.630               Magadan1          2675.938
        70   01 Jun 2027 20:37:04.844   01 Jun 2027 20:40:15.082           190.238                Anadyr1          5944.937
        71   01 Jun 2027 20:40:17.470   01 Jun 2027 20:42:40.562           143.092               Magadan1          4471.625
        72   01 Jun 2027 20:43:38.798   01 Jun 2027 20:44:34.026            55.228                Norilsk          1725.875
        73   01 Jun 2027 20:46:21.391   01 Jun 2027 20:47:04.475            43.084                Irkutsk          1346.375
        74   01 Jun 2027 20:47:30.135   01 Jun 2027 20:47:37.944             7.809                Irkutsk           244.031
        75   01 Jun 2027 21:31:19.450   01 Jun 2027 21:32:38.363            78.913            RioGallegos          2466.031
        76   01 Jun 2027 22:12:47.184   01 Jun 2027 22:13:05.835            18.651                Anadyr2           582.844
        77   01 Jun 2027 22:13:19.409   01 Jun 2027 22:13:25.297             5.888                Anadyr2           184.000
        78   01 Jun 2027 22:13:27.498   01 Jun 2027 22:14:58.570            91.072                Anadyr1          2846.000
        79   01 Jun 2027 22:15:09.781   01 Jun 2027 22:15:26.225            16.444                Norilsk           513.875
        80   01 Jun 2027 22:15:28.018   01 Jun 2027 22:15:55.804            27.786               Magadan1           868.313
        81   01 Jun 2027 22:15:55.804   01 Jun 2027 22:16:47.897            52.093               Magadan2          1627.906
        82   01 Jun 2027 22:17:59.498   01 Jun 2027 22:18:41.225            41.727                Norilsk          1303.969
        83   01 Jun 2027 22:19:19.203   01 Jun 2027 22:19:29.421            10.218                Irkutsk           319.312
        84   01 Jun 2027 22:20:08.632   01 Jun 2027 22:20:46.684            38.052                Irkutsk          1189.125
        85   01 Jun 2027 22:20:52.396   01 Jun 2027 22:22:31.013            98.617                Novosib          3081.781
        86   01 Jun 2027 22:26:35.390   01 Jun 2027 22:27:11.058            35.668                Novosib          1114.625
        87   01 Jun 2027 22:41:13.195   01 Jun 2027 22:42:13.326            60.131                Sumatra          1879.094
        88   01 Jun 2027 23:47:08.008   01 Jun 2027 23:49:06.729           118.721                Anadyr1          3710.031
        89   01 Jun 2027 23:49:32.912   01 Jun 2027 23:49:49.179            16.267                Anadyr1           508.344
        90   01 Jun 2027 23:50:54.405   01 Jun 2027 23:51:14.131            19.726                Norilsk           616.438
        91   01 Jun 2027 23:51:32.785   01 Jun 2027 23:53:23.356           110.571               Magadan2          3455.344
        92   01 Jun 2027 23:54:48.336   01 Jun 2027 23:55:32.751            44.415                Irkutsk          1387.969
        93   01 Jun 2027 23:56:00.131   01 Jun 2027 23:57:14.260            74.129                Novosib          2316.531
        94   02 Jun 2027 00:02:22.220   02 Jun 2027 00:03:15.740            53.520                  Delhi          1672.500
        95   02 Jun 2027 00:04:48.792   02 Jun 2027 00:05:04.291            15.499                  Delhi           484.344
        96   02 Jun 2027 00:05:52.030   02 Jun 2027 00:06:01.074             9.044                  Delhi           282.625
        97   02 Jun 2027 00:10:00.937   02 Jun 2027 00:10:40.403            39.466                  Delhi          1233.312
        98   02 Jun 2027 00:46:24.247   02 Jun 2027 00:46:29.873             5.626            RioGallegos           175.812
        99   02 Jun 2027 00:48:54.378   02 Jun 2027 00:49:01.887             7.509            RioGallegos           234.656
       100   02 Jun 2027 00:51:59.201   02 Jun 2027 00:52:12.188            12.987            RioGallegos           405.844
       101   02 Jun 2027 01:20:33.515   02 Jun 2027 01:20:56.820            23.305                Anadyr2           728.281
       102   02 Jun 2027 01:21:42.861   02 Jun 2027 01:22:22.066            39.205                Anadyr2          1225.156
       103   02 Jun 2027 01:22:47.075   02 Jun 2027 01:23:06.879            19.804                Anadyr1           618.875
       104   02 Jun 2027 01:23:06.879   02 Jun 2027 01:23:22.505            15.626                Anadyr2           488.313
       105   02 Jun 2027 01:23:31.401   02 Jun 2027 01:23:46.303            14.902                Anadyr2           465.687
       106   02 Jun 2027 01:25:54.628   02 Jun 2027 01:25:58.191             3.563                Anadyr1           111.344
       107   02 Jun 2027 01:26:18.110   02 Jun 2027 01:26:47.245            29.135                Anadyr1           910.469
       108   02 Jun 2027 01:26:47.359   02 Jun 2027 01:28:15.963            88.604               Magadan2          2768.875
       109   02 Jun 2027 01:28:48.316   02 Jun 2027 01:29:20.108            31.792               Magadan2           993.500
       110   02 Jun 2027 01:30:36.624   02 Jun 2027 01:31:02.006            25.382              Murmansk1           793.187
       111   02 Jun 2027 01:31:38.882   02 Jun 2027 01:31:49.346            10.464                Irkutsk           327.000
       112   02 Jun 2027 01:32:10.793   02 Jun 2027 01:33:03.119            52.326                Novosib          1635.188
       113   02 Jun 2027 01:33:05.431   02 Jun 2027 01:33:17.922            12.491              Murmansk1           390.344
       114   02 Jun 2027 01:33:32.330   02 Jun 2027 01:33:52.054            19.724                 Moscow           616.375
       115   02 Jun 2027 01:36:03.488   02 Jun 2027 01:36:20.675            17.187                 Moscow           537.094
       116   02 Jun 2027 01:39:19.248   02 Jun 2027 01:39:27.658             8.410                  Delhi           262.813
       117   02 Jun 2027 01:39:39.532   02 Jun 2027 01:39:42.163             2.631                Irkutsk            82.219
       118   02 Jun 2027 01:39:44.405   02 Jun 2027 01:40:05.515            21.110                  Delhi           659.687
       119   02 Jun 2027 01:43:14.679   02 Jun 2027 01:43:31.633            16.954                  Delhi           529.813
       120   02 Jun 2027 01:44:58.439   02 Jun 2027 01:45:56.289            57.850                  Delhi          1807.812
       121   02 Jun 2027 02:54:04.688   02 Jun 2027 02:56:18.851           134.163                Anadyr2          4192.594
       122   02 Jun 2027 02:56:18.851   02 Jun 2027 02:56:42.100            23.249                Anadyr1           726.531
       123   02 Jun 2027 02:58:13.478   02 Jun 2027 02:58:21.098             7.620                Anadyr2           238.125
       124   02 Jun 2027 02:58:31.186   02 Jun 2027 02:58:54.055            22.869                Anadyr2           714.656
       125   02 Jun 2027 02:59:03.438   02 Jun 2027 02:59:28.429            24.991               Magadan1           780.969
       126   02 Jun 2027 03:11:50.156   02 Jun 2027 03:12:15.888            25.732              Murmansk1           804.125
       127   02 Jun 2027 03:12:31.938   02 Jun 2027 03:15:41.506           189.568              Murmansk1          5924.000
       128   02 Jun 2027 03:15:53.446   02 Jun 2027 03:17:22.856            89.410                 Moscow          2794.062
       129   02 Jun 2027 03:17:46.548   02 Jun 2027 03:21:00.341           193.793                 Moscow          6056.031
       130   02 Jun 2027 03:32:22.635   02 Jun 2027 03:34:53.978           151.343               CapeTown          4729.469
       131   02 Jun 2027 04:28:52.608   02 Jun 2027 04:30:33.722           101.114                Anadyr2          3159.813
       132   02 Jun 2027 04:30:44.039   02 Jun 2027 04:30:58.492            14.453                Anadyr1           451.656
       133   02 Jun 2027 04:31:03.242   02 Jun 2027 04:31:16.877            13.635                Anadyr1           426.094
       134   02 Jun 2027 04:35:15.359   02 Jun 2027 04:35:33.821            18.462               Magadan1           576.938
       135   02 Jun 2027 04:35:44.972   02 Jun 2027 04:38:24.308           159.336               Magadan1          4979.250
       136   02 Jun 2027 04:48:03.155   02 Jun 2027 04:48:29.359            26.204              Murmansk1           818.875
       137   02 Jun 2027 04:48:29.359   02 Jun 2027 04:48:53.787            24.428              Murmansk2           763.375
       138   02 Jun 2027 04:49:17.449   02 Jun 2027 04:49:46.051            28.602              Murmansk2           893.812
       139   02 Jun 2027 04:50:09.760   02 Jun 2027 04:50:53.585            43.825              Murmansk2          1369.531
       140   02 Jun 2027 06:10:11.134   02 Jun 2027 06:11:16.108            64.974                Anadyr2          2030.438
       141   02 Jun 2027 06:11:19.772   02 Jun 2027 06:13:36.972           137.200               Magadan1          4287.500
       142   02 Jun 2027 06:13:37.271   02 Jun 2027 06:13:37.869             0.598               Magadan1            18.687
       143   02 Jun 2027 06:13:48.775   02 Jun 2027 06:14:11.905            23.130               Magadan1           722.812
       144   02 Jun 2027 06:14:14.377   02 Jun 2027 06:15:06.117            51.740                Anadyr1          1616.875
       145   02 Jun 2027 06:15:06.117   02 Jun 2027 06:15:25.538            19.421                Anadyr2           606.906
       146   02 Jun 2027 07:45:58.040   02 Jun 2027 07:46:15.486            17.446                Anadyr1           545.188
       147   02 Jun 2027 07:46:36.319   02 Jun 2027 07:51:12.843           276.524                Anadyr1          8641.375
       148   02 Jun 2027 07:51:20.666   02 Jun 2027 07:51:40.671            20.005                Norilsk           625.156
       149   02 Jun 2027 07:51:42.278   02 Jun 2027 07:53:14.437            92.159               Magadan2          2879.969
       150   02 Jun 2027 08:28:37.972   02 Jun 2027 08:29:07.464            29.492            RioGallegos           921.625
       151   02 Jun 2027 09:23:47.296   02 Jun 2027 09:27:25.162           217.866               Magadan2          6808.312
       152   02 Jun 2027 09:27:49.984   02 Jun 2027 09:27:55.173             5.189                Novosib           162.156
       153   02 Jun 2027 09:28:05.747   02 Jun 2027 09:30:22.895           137.148                Norilsk          4285.875
       154   02 Jun 2027 09:30:34.242   02 Jun 2027 09:30:42.826             8.584              Murmansk2           268.250
       155   02 Jun 2027 09:30:53.547   02 Jun 2027 09:31:17.070            23.523                Norilsk           735.094
       156   02 Jun 2027 09:32:07.370   02 Jun 2027 09:32:14.048             6.678                Norilsk           208.688
       157   02 Jun 2027 09:32:35.547   02 Jun 2027 09:33:17.730            42.183              Murmansk2          1318.219
       158   02 Jun 2027 09:34:29.101   02 Jun 2027 09:34:45.241            16.140              Murmansk1           504.375
       159   02 Jun 2027 10:03:53.470   02 Jun 2027 10:05:16.304            82.834            RioGallegos          2588.562
       160   02 Jun 2027 10:05:44.867   02 Jun 2027 10:05:52.868             8.001            RioGallegos           250.031
       161   02 Jun 2027 10:07:55.203   02 Jun 2027 10:08:12.393            17.190            RioGallegos           537.187
       162   02 Jun 2027 10:38:39.187   02 Jun 2027 10:39:39.527            60.340                Sumatra          1885.625
       163   02 Jun 2027 10:41:32.028   02 Jun 2027 10:41:43.427            11.399                Sumatra           356.219
       164   02 Jun 2027 11:00:07.798   02 Jun 2027 11:03:24.537           196.739                Irkutsk          6148.094
       165   02 Jun 2027 11:03:54.659   02 Jun 2027 11:04:45.784            51.125                Irkutsk          1597.656
       166   02 Jun 2027 11:05:08.775   02 Jun 2027 11:05:29.896            21.121              Murmansk1           660.031
       167   02 Jun 2027 11:05:54.537   02 Jun 2027 11:06:17.633            23.096              Murmansk1           721.750
       168   02 Jun 2027 11:43:36.429   02 Jun 2027 11:44:01.367            24.938            RioGallegos           779.313
       169   02 Jun 2027 11:47:04.602   02 Jun 2027 11:47:52.410            47.808            RioGallegos          1494.000
       170   02 Jun 2027 12:19:14.714   02 Jun 2027 12:21:33.511           138.797                Sumatra          4337.406
       171   02 Jun 2027 12:22:53.742   02 Jun 2027 12:23:40.937            47.195                  Delhi          1474.844
       172   02 Jun 2027 12:30:36.184   02 Jun 2027 12:31:50.501            74.317                Novosib          2322.406
       173   02 Jun 2027 12:33:27.112   02 Jun 2027 12:34:48.860            81.748                Novosib          2554.625
       174   02 Jun 2027 12:35:14.081   02 Jun 2027 12:35:45.608            31.527                Norilsk           985.219
       175   02 Jun 2027 12:36:08.788   02 Jun 2027 12:36:41.836            33.048              Murmansk2          1032.750
       176   02 Jun 2027 12:39:06.338   02 Jun 2027 12:40:02.445            56.107                Norilsk          1753.344
       177   02 Jun 2027 14:07:15.810   02 Jun 2027 14:09:59.065           163.255                 Moscow          5101.719
       178   02 Jun 2027 14:10:40.510   02 Jun 2027 14:13:21.278           160.768              Murmansk1          5024.000
       179   02 Jun 2027 14:14:01.842   02 Jun 2027 14:14:43.229            41.387              Murmansk2          1293.344
       180   02 Jun 2027 14:15:42.005   02 Jun 2027 14:17:53.903           131.898                Norilsk          4121.813
       181   02 Jun 2027 15:22:02.531   02 Jun 2027 15:23:24.083            81.552               CapeTown          2548.500
       182   02 Jun 2027 15:44:25.555   02 Jun 2027 15:45:28.522            62.967                 Moscow          1967.719
       183   02 Jun 2027 15:47:38.341   02 Jun 2027 15:48:59.453            81.112              Murmansk2          2534.750
       184   02 Jun 2027 15:49:11.034   02 Jun 2027 15:50:47.101            96.067              Murmansk1          3002.094
       185   02 Jun 2027 16:01:48.203   02 Jun 2027 16:03:41.888           113.685                Anadyr1          3552.656
       186   02 Jun 2027 16:56:42.585   02 Jun 2027 16:58:55.711           133.126               CapeTown          4160.187
       187   02 Jun 2027 17:26:49.432   02 Jun 2027 17:27:47.259            57.827              Murmansk2          1807.094
       188   02 Jun 2027 17:28:56.062   02 Jun 2027 17:29:22.063            26.001              Murmansk1           812.531
       189   02 Jun 2027 17:30:07.451   02 Jun 2027 17:31:42.221            94.770              Murmansk2          2961.562
       190   02 Jun 2027 17:37:18.409   02 Jun 2027 17:37:42.124            23.715                Anadyr1           741.094
       191   02 Jun 2027 17:38:08.555   02 Jun 2027 17:39:14.795            66.240                Anadyr2          2070.000
       192   02 Jun 2027 17:40:52.103   02 Jun 2027 17:41:17.329            25.226               Magadan2           788.312
       193   02 Jun 2027 17:41:17.329   02 Jun 2027 17:43:11.814           114.485               Magadan1          3577.656
       194   02 Jun 2027 19:13:13.011   02 Jun 2027 19:15:07.315           114.304                Anadyr1          3572.000
       195   02 Jun 2027 19:15:18.262   02 Jun 2027 19:17:13.814           115.552                Anadyr2          3611.000
       196   02 Jun 2027 19:17:31.674   02 Jun 2027 19:19:26.465           114.791               Magadan1          3587.219
       197   02 Jun 2027 19:22:22.835   02 Jun 2027 19:23:16.172            53.337               Magadan1          1666.781
       198   02 Jun 2027 20:49:05.014   02 Jun 2027 20:51:14.213           129.199                Anadyr2          4037.469
       199   02 Jun 2027 20:51:19.933   02 Jun 2027 20:52:47.440            87.507                Anadyr1          2734.594
       200   02 Jun 2027 20:52:54.785   02 Jun 2027 20:55:09.373           134.588               Magadan1          4205.875
       201   02 Jun 2027 20:55:39.505   02 Jun 2027 20:56:17.139            37.634               Magadan2          1176.062
       202   02 Jun 2027 20:56:51.835   02 Jun 2027 20:59:38.775           166.940                Irkutsk          5216.875
       203   02 Jun 2027 21:13:13.827   02 Jun 2027 21:14:11.909            58.082                Sumatra          1815.062
       204   02 Jun 2027 21:43:12.646   02 Jun 2027 21:43:31.213            18.567            RioGallegos           580.219
       205   02 Jun 2027 21:44:51.883   02 Jun 2027 21:45:14.700            22.817            RioGallegos           713.031
       206   02 Jun 2027 21:45:43.397   02 Jun 2027 21:46:06.037            22.640            RioGallegos           707.500
       207   02 Jun 2027 22:24:30.757   02 Jun 2027 22:25:26.407            55.650                Anadyr2          1739.062
       208   02 Jun 2027 22:25:31.593   02 Jun 2027 22:26:26.972            55.379                Anadyr1          1730.594
       209   02 Jun 2027 22:26:56.945   02 Jun 2027 22:28:56.899           119.954                Norilsk          3748.563
       210   02 Jun 2027 22:29:25.131   02 Jun 2027 22:29:34.025             8.894               Magadan2           277.938
       211   02 Jun 2027 22:30:56.674   02 Jun 2027 22:32:49.887           113.213                Irkutsk          3537.906
       212   02 Jun 2027 22:33:20.901   02 Jun 2027 22:34:51.065            90.164                Novosib          2817.625
       213   02 Jun 2027 22:44:39.026   02 Jun 2027 22:45:11.502            32.476                Sumatra          1014.875
       214   02 Jun 2027 22:47:03.874   02 Jun 2027 22:47:30.673            26.799                Sumatra           837.469
       215   02 Jun 2027 23:58:53.392   03 Jun 2027 00:01:55.107           181.715                Anadyr1          5678.594
       216   03 Jun 2027 00:02:56.527   03 Jun 2027 00:03:14.862            18.335                Norilsk           572.969
       217   03 Jun 2027 00:03:34.058   03 Jun 2027 00:05:42.571           128.513               Magadan1          4016.031
       218   03 Jun 2027 00:06:32.839   03 Jun 2027 00:07:14.848            42.009              Murmansk1          1312.781
       219   03 Jun 2027 00:07:24.141   03 Jun 2027 00:08:55.951            91.810              Murmansk2          2869.062
       220   03 Jun 2027 00:14:13.673   03 Jun 2027 00:15:33.193            79.520                  Delhi          2485.000
       221   03 Jun 2027 00:55:37.220   03 Jun 2027 00:55:56.488            19.268            RioGallegos           602.125
       222   03 Jun 2027 01:32:14.656   03 Jun 2027 01:33:40.338            85.682                Anadyr1          2677.562
       223   03 Jun 2027 01:34:14.956   03 Jun 2027 01:34:51.157            36.201                Anadyr1          1131.281
       224   03 Jun 2027 01:35:14.629   03 Jun 2027 01:35:29.909            15.280                Anadyr1           477.500
       225   03 Jun 2027 01:38:26.047   03 Jun 2027 01:40:18.004           111.957               Magadan1          3498.656
       226   03 Jun 2027 01:40:48.494   03 Jun 2027 01:41:38.717            50.223               Magadan1          1569.469
       227   03 Jun 2027 01:42:28.670   03 Jun 2027 01:43:28.895            60.225              Murmansk2          1882.031
       228   03 Jun 2027 01:44:17.771   03 Jun 2027 01:45:11.301            53.530                Novosib          1672.813
       229   03 Jun 2027 01:45:15.577   03 Jun 2027 01:46:01.655            46.078                 Moscow          1439.938
       230   03 Jun 2027 01:48:03.066   03 Jun 2027 01:48:26.586            23.520                 Moscow           735.000
       231   03 Jun 2027 02:12:40.369   03 Jun 2027 02:13:58.435            78.066               CapeTown          2439.562
       232   03 Jun 2027 03:05:52.378   03 Jun 2027 03:06:52.040            59.662                Anadyr2          1864.437
       233   03 Jun 2027 03:23:59.461   03 Jun 2027 03:24:42.547            43.086              Murmansk2          1346.437
       234   03 Jun 2027 03:24:43.264   03 Jun 2027 03:24:49.517             6.253                Novosib           195.406
       235   03 Jun 2027 03:24:58.609   03 Jun 2027 03:25:17.343            18.734              Murmansk2           585.437
       236   03 Jun 2027 03:25:17.919   03 Jun 2027 03:25:29.691            11.772                 Moscow           367.875
       237   03 Jun 2027 03:25:41.814   03 Jun 2027 03:26:27.359            45.545                Norilsk          1423.281
       238   03 Jun 2027 03:26:36.681   03 Jun 2027 03:27:14.368            37.687                Novosib          1177.719
       239   03 Jun 2027 03:27:14.844   03 Jun 2027 03:28:37.901            83.057                 Moscow          2595.531
       240   03 Jun 2027 03:28:42.882   03 Jun 2027 03:29:34.171            51.289              Murmansk1          1602.781
       241   03 Jun 2027 03:30:41.477   03 Jun 2027 03:31:22.886            41.409                 Moscow          1294.031
       242   03 Jun 2027 03:32:34.490   03 Jun 2027 03:33:07.724            33.234                 Moscow          1038.563
       243   03 Jun 2027 03:44:14.519   03 Jun 2027 03:47:21.290           186.771               CapeTown          5836.594
       244   03 Jun 2027 04:40:53.182   03 Jun 2027 04:42:15.845            82.663                Anadyr2          2583.219
       245   03 Jun 2027 04:42:29.952   03 Jun 2027 04:42:43.577            13.625                Anadyr1           425.781
       246   03 Jun 2027 04:47:36.694   03 Jun 2027 04:47:46.340             9.646               Magadan2           301.437
       247   03 Jun 2027 04:48:01.453   03 Jun 2027 04:51:51.014           229.561                Anadyr2          7173.781
       248   03 Jun 2027 04:52:35.864   03 Jun 2027 04:53:22.353            46.489               Magadan2          1452.781
       249   03 Jun 2027 04:53:44.436   03 Jun 2027 04:53:49.672             5.236                Anadyr2           163.625
       250   03 Jun 2027 06:21:42.302   03 Jun 2027 06:23:31.448           109.146               Magadan1          3410.813
       251   03 Jun 2027 06:23:33.091   03 Jun 2027 06:25:04.644            91.553               Magadan1          2861.031
       252   03 Jun 2027 06:25:04.644   03 Jun 2027 06:25:32.610            27.966               Magadan2           873.938
       253   03 Jun 2027 06:25:34.368   03 Jun 2027 06:26:09.197            34.829               Magadan1          1088.406
       254   03 Jun 2027 06:26:16.075   03 Jun 2027 06:27:39.754            83.679                Anadyr1          2614.969
       255   03 Jun 2027 07:57:49.763   03 Jun 2027 07:58:35.735            45.972               Magadan1          1436.625
       256   03 Jun 2027 07:58:35.735   03 Jun 2027 07:59:57.409            81.674               Magadan2          2552.313
       257   03 Jun 2027 08:00:12.564   03 Jun 2027 08:04:36.928           264.364                Anadyr1          8261.375
       258   03 Jun 2027 08:04:59.791   03 Jun 2027 08:06:31.395            91.604                Norilsk          2862.625
       259   03 Jun 2027 08:06:48.395   03 Jun 2027 08:07:14.392            25.997                Norilsk           812.406
       260   03 Jun 2027 08:07:32.511   03 Jun 2027 08:07:44.834            12.323              Murmansk1           385.094
       261   03 Jun 2027 08:40:23.107   03 Jun 2027 08:41:53.481            90.374            RioGallegos          2824.187
       262   03 Jun 2027 08:42:58.714   03 Jun 2027 08:43:44.395            45.681            RioGallegos          1427.531
       263   03 Jun 2027 09:18:20.574   03 Jun 2027 09:19:35.765            75.191                Sumatra          2349.719
       264   03 Jun 2027 09:19:49.215   03 Jun 2027 09:19:53.133             3.918                Sumatra           122.437
       265   03 Jun 2027 09:35:36.677   03 Jun 2027 09:35:44.189             7.512                Novosib           234.750
       266   03 Jun 2027 09:35:46.169   03 Jun 2027 09:39:27.689           221.520               Magadan1          6922.500
       267   03 Jun 2027 09:39:44.679   03 Jun 2027 09:42:21.794           157.115              Murmansk1          4909.844
       268   03 Jun 2027 09:42:21.794   03 Jun 2027 09:42:58.016            36.222              Murmansk2          1131.937
       269   03 Jun 2027 09:43:08.493   03 Jun 2027 09:43:45.473            36.980              Murmansk2          1155.625
       270   03 Jun 2027 10:16:05.228   03 Jun 2027 10:17:51.144           105.916            RioGallegos          3309.875
       271   03 Jun 2027 10:18:56.720   03 Jun 2027 10:19:05.356             8.636            RioGallegos           269.875
       272   03 Jun 2027 10:19:38.352   03 Jun 2027 10:20:13.199            34.847            RioGallegos          1088.969
       273   03 Jun 2027 10:50:40.271   03 Jun 2027 10:50:48.167             7.896                Sumatra           246.750
       274   03 Jun 2027 10:52:29.210   03 Jun 2027 10:53:19.969            50.759                Sumatra          1586.219
       275   03 Jun 2027 11:00:30.885   03 Jun 2027 11:00:54.448            23.563                  Delhi           736.344
       276   03 Jun 2027 11:11:38.588   03 Jun 2027 11:12:08.157            29.569                Irkutsk           924.031
       277   03 Jun 2027 11:12:26.188   03 Jun 2027 11:13:11.960            45.772                Irkutsk          1430.375
       278   03 Jun 2027 11:13:20.726   03 Jun 2027 11:14:59.289            98.563                Irkutsk          3080.094
       279   03 Jun 2027 11:15:18.524   03 Jun 2027 11:15:26.045             7.521                 Moscow           235.031
       280   03 Jun 2027 11:15:26.413   03 Jun 2027 11:15:38.741            12.328                Irkutsk           385.250
       281   03 Jun 2027 11:15:39.769   03 Jun 2027 11:16:42.964            63.195                Irkutsk          1974.844
       282   03 Jun 2027 11:16:48.455   03 Jun 2027 11:17:47.419            58.964                Novosib          1842.625
       283   03 Jun 2027 11:21:58.263   03 Jun 2027 11:22:10.205            11.942              Murmansk1           373.187
       284   03 Jun 2027 11:56:52.666   03 Jun 2027 11:57:48.262            55.596            RioGallegos          1737.375
       285   03 Jun 2027 12:37:05.308   03 Jun 2027 12:38:34.874            89.566                  Delhi          2798.937
       286   03 Jun 2027 12:43:00.308   03 Jun 2027 12:44:00.219            59.911                Novosib          1872.219
       287   03 Jun 2027 12:44:37.538   03 Jun 2027 12:45:07.080            29.542                Novosib           923.187
       288   03 Jun 2027 12:46:54.838   03 Jun 2027 12:48:01.420            66.582                Novosib          2080.688
       289   03 Jun 2027 12:48:09.843   03 Jun 2027 12:48:46.436            36.593              Murmansk1          1143.531
       290   03 Jun 2027 12:50:32.690   03 Jun 2027 12:51:07.736            35.046                Norilsk          1095.188
       291   03 Jun 2027 12:53:14.616   03 Jun 2027 12:53:31.224            16.608              Murmansk2           519.000
       292   03 Jun 2027 14:19:15.512   03 Jun 2027 14:23:10.717           235.205                 Moscow          7350.156
       293   03 Jun 2027 14:24:07.347   03 Jun 2027 14:26:03.586           116.239              Murmansk1          3632.469
       294   03 Jun 2027 14:26:29.142   03 Jun 2027 14:26:31.943             2.801              Murmansk1            87.531
       295   03 Jun 2027 14:27:08.107   03 Jun 2027 14:28:35.740            87.633                Norilsk          2738.531
       296   03 Jun 2027 14:30:30.218   03 Jun 2027 14:30:44.514            14.296                Norilsk           446.750
       297   03 Jun 2027 14:31:54.996   03 Jun 2027 14:32:20.895            25.899                Norilsk           809.344
       298   03 Jun 2027 15:33:38.809   03 Jun 2027 15:36:49.502           190.693               CapeTown          5959.156
       299   03 Jun 2027 15:56:53.352   03 Jun 2027 15:57:40.873            47.521                 Moscow          1485.031
       300   03 Jun 2027 15:59:56.102   03 Jun 2027 16:00:21.204            25.102              Murmansk2           784.437
       301   03 Jun 2027 16:01:05.555   03 Jun 2027 16:01:09.724             4.169              Murmansk1           130.281
       302   03 Jun 2027 16:01:42.117   03 Jun 2027 16:02:21.604            39.487              Murmansk2          1233.969
       303   03 Jun 2027 16:03:50.052   03 Jun 2027 16:04:06.857            16.805              Murmansk2           525.156
       304   03 Jun 2027 16:04:11.595   03 Jun 2027 16:04:31.613            20.018              Murmansk2           625.562
       305   03 Jun 2027 16:13:43.030   03 Jun 2027 16:13:47.964             4.934                Anadyr2           154.187
       306   03 Jun 2027 16:14:01.775   03 Jun 2027 16:15:23.326            81.551                Anadyr1          2548.469
       307   03 Jun 2027 16:15:48.704   03 Jun 2027 16:16:27.970            39.266                Anadyr1          1227.062
       308   03 Jun 2027 17:08:48.955   03 Jun 2027 17:09:46.819            57.864               CapeTown          1808.250
       309   03 Jun 2027 17:13:40.667   03 Jun 2027 17:13:56.322            15.655               CapeTown           489.219
       310   03 Jun 2027 17:39:28.262   03 Jun 2027 17:41:05.136            96.874              Murmansk2          3027.312
       311   03 Jun 2027 17:41:14.638   03 Jun 2027 17:43:41.251           146.613              Murmansk1          4581.656
       312   03 Jun 2027 17:49:19.198   03 Jun 2027 17:50:16.969            57.771                Anadyr2          1805.344
       313   03 Jun 2027 17:52:34.237   03 Jun 2027 17:54:52.480           138.243               Magadan2          4320.094
       314   03 Jun 2027 19:25:14.553   03 Jun 2027 19:27:07.455           112.902                Anadyr1          3528.188
       315   03 Jun 2027 19:27:19.867   03 Jun 2027 19:28:06.072            46.205                Anadyr1          1443.906
       316   03 Jun 2027 19:28:06.072   03 Jun 2027 19:28:23.791            17.719                Anadyr2           553.719
       317   03 Jun 2027 19:28:26.022   03 Jun 2027 19:28:54.827            28.805                Anadyr1           900.156
       318   03 Jun 2027 19:29:05.471   03 Jun 2027 19:31:15.011           129.540               Magadan2          4048.125
       319   03 Jun 2027 19:31:15.011   03 Jun 2027 19:32:36.216            81.205               Magadan1          2537.656
       320   03 Jun 2027 20:22:03.695   03 Jun 2027 20:24:09.521           125.826            RioGallegos          3932.062
       321   03 Jun 2027 21:01:04.796   03 Jun 2027 21:02:34.554            89.758                Anadyr1          2804.937
       322   03 Jun 2027 21:03:15.753   03 Jun 2027 21:04:59.934           104.181                Norilsk          3255.656
       323   03 Jun 2027 21:05:54.561   03 Jun 2027 21:07:04.379            69.818               Magadan1          2181.812
       324   03 Jun 2027 21:08:21.978   03 Jun 2027 21:09:53.062            91.084                Irkutsk          2846.375
       325   03 Jun 2027 21:10:38.307   03 Jun 2027 21:11:25.207            46.900                Irkutsk          1465.625
       326   03 Jun 2027 21:23:41.684   03 Jun 2027 21:25:37.169           115.485                Sumatra          3608.906
       327   03 Jun 2027 21:29:32.235   03 Jun 2027 21:29:34.006             1.771                Sumatra            55.344
       328   03 Jun 2027 22:36:24.773   03 Jun 2027 22:38:15.167           110.394                Anadyr2          3449.813
       329   03 Jun 2027 22:38:58.485   03 Jun 2027 22:40:32.189            93.704                Norilsk          2928.250
       330   03 Jun 2027 22:42:54.929   03 Jun 2027 22:44:08.738            73.809                Irkutsk          2306.531
       331   03 Jun 2027 22:44:27.506   03 Jun 2027 22:44:51.093            23.587                Novosib           737.094
       332   03 Jun 2027 22:50:19.834   03 Jun 2027 22:50:22.613             2.779                Novosib            86.844
       333   03 Jun 2027 22:51:57.433   03 Jun 2027 22:52:04.370             6.937                Novosib           216.781
       334   03 Jun 2027 22:53:05.700   03 Jun 2027 22:53:18.023            12.323                Novosib           385.094
       335   03 Jun 2027 22:54:43.276   03 Jun 2027 22:55:37.789            54.513                  Delhi          1703.531
       336   03 Jun 2027 22:56:06.277   03 Jun 2027 22:56:43.355            37.078                  Delhi          1158.687
       337   03 Jun 2027 23:01:33.908   03 Jun 2027 23:02:31.747            57.839                Sumatra          1807.469
       338   04 Jun 2027 00:10:37.655   04 Jun 2027 00:11:36.899            59.244                Anadyr2          1851.375
       339   04 Jun 2027 00:11:45.172   04 Jun 2027 00:12:10.952            25.780                Anadyr1           805.625
       340   04 Jun 2027 00:12:52.302   04 Jun 2027 00:13:21.971            29.669                Anadyr2           927.156
       341   04 Jun 2027 00:14:58.614   04 Jun 2027 00:16:09.871            71.257                Norilsk          2226.781
       342   04 Jun 2027 00:16:11.251   04 Jun 2027 00:16:32.443            21.192               Magadan2           662.250
       343   04 Jun 2027 00:16:47.077   04 Jun 2027 00:17:01.601            14.524                Norilsk           453.875
       344   04 Jun 2027 00:17:20.044   04 Jun 2027 00:17:44.856            24.812               Magadan1           775.375
       345   04 Jun 2027 00:18:05.350   04 Jun 2027 00:20:18.516           133.166              Murmansk2          4161.437
       346   04 Jun 2027 00:21:49.017   04 Jun 2027 00:22:34.381            45.364              Murmansk1          1417.625
       347   04 Jun 2027 00:26:08.967   04 Jun 2027 00:26:33.844            24.877                  Delhi           777.406
       348   04 Jun 2027 00:28:55.026   04 Jun 2027 00:29:02.223             7.197                  Delhi           224.906
       349   04 Jun 2027 00:29:49.562   04 Jun 2027 00:29:55.467             5.905                  Delhi           184.531
       350   04 Jun 2027 00:30:08.957   04 Jun 2027 00:31:42.128            93.171                  Delhi          2911.594
       351   04 Jun 2027 01:10:39.437   04 Jun 2027 01:11:04.351            24.914            RioGallegos           778.562
       352   04 Jun 2027 01:12:31.645   04 Jun 2027 01:12:54.878            23.233            RioGallegos           726.031
       353   04 Jun 2027 01:43:56.101   04 Jun 2027 01:44:23.031            26.930                Anadyr1           841.563
       354   04 Jun 2027 01:44:40.342   04 Jun 2027 01:45:11.551            31.209                Anadyr2           975.281
       355   04 Jun 2027 01:45:39.620   04 Jun 2027 01:46:04.930            25.310                Anadyr1           790.937
       356   04 Jun 2027 01:46:22.354   04 Jun 2027 01:46:36.574            14.220                Anadyr1           444.375
       357   04 Jun 2027 01:46:42.493   04 Jun 2027 01:46:57.599            15.106                Anadyr1           472.062
       358   04 Jun 2027 01:49:51.217   04 Jun 2027 01:50:16.968            25.751                Anadyr2           804.719
       359   04 Jun 2027 01:50:45.969   04 Jun 2027 01:51:29.041            43.072               Magadan1          1346.000
       360   04 Jun 2027 01:52:02.836   04 Jun 2027 01:52:16.256            13.420               Magadan1           419.375
       361   04 Jun 2027 01:52:16.256   04 Jun 2027 01:52:53.646            37.390               Magadan2          1168.437
       362   04 Jun 2027 01:53:09.854   04 Jun 2027 01:55:27.707           137.853              Murmansk1          4307.906
       363   04 Jun 2027 01:57:44.300   04 Jun 2027 01:58:21.153            36.853                 Moscow          1151.656
       364   04 Jun 2027 02:03:32.106   04 Jun 2027 02:03:47.039            14.933                  Delhi           466.656
       365   04 Jun 2027 02:05:06.318   04 Jun 2027 02:06:14.683            68.365                  Delhi          2136.406
       366   04 Jun 2027 02:29:22.960   04 Jun 2027 02:30:51.676            88.716               CapeTown          2772.375
       367   04 Jun 2027 03:36:18.626   04 Jun 2027 03:36:45.918            27.292                Novosib           852.875
       368   04 Jun 2027 03:36:59.801   04 Jun 2027 03:37:35.306            35.505              Murmansk1          1109.531
       369   04 Jun 2027 03:37:48.257   04 Jun 2027 03:38:16.804            28.547                Norilsk           892.094
       370   04 Jun 2027 03:38:29.827   04 Jun 2027 03:42:48.264           258.437                 Moscow          8076.156
       371   04 Jun 2027 03:42:56.190   04 Jun 2027 03:42:56.244             0.054                 Moscow             1.687
       372   04 Jun 2027 03:56:11.404   04 Jun 2027 03:59:03.496           172.092               CapeTown          5377.875
       373   04 Jun 2027 04:59:48.293   04 Jun 2027 05:01:46.378           118.085               Magadan2          3690.156
       374   04 Jun 2027 05:02:01.077   04 Jun 2027 05:05:44.131           223.054                Anadyr2          6970.437
       375   04 Jun 2027 06:36:59.857   04 Jun 2027 06:38:48.996           109.139                Anadyr2          3410.594
       376   04 Jun 2027 06:38:48.996   04 Jun 2027 06:41:07.690           138.694                Anadyr1          4334.187
       377   04 Jun 2027 08:09:53.035   04 Jun 2027 08:10:57.249            64.214               Magadan1          2006.687
       378   04 Jun 2027 08:11:00.797   04 Jun 2027 08:11:41.169            40.372                Norilsk          1261.625
       379   04 Jun 2027 08:11:57.223   04 Jun 2027 08:12:49.981            52.758                Norilsk          1648.687
       380   04 Jun 2027 08:13:01.801   04 Jun 2027 08:13:14.994            13.193                Norilsk           412.281
       381   04 Jun 2027 08:13:15.546   04 Jun 2027 08:15:44.944           149.398                Anadyr1          4668.687
       382   04 Jun 2027 08:15:50.495   04 Jun 2027 08:16:17.715            27.220                Anadyr1           850.625
       383   04 Jun 2027 08:16:25.207   04 Jun 2027 08:17:51.044            85.837              Murmansk2          2682.406
       384   04 Jun 2027 08:52:11.461   04 Jun 2027 08:53:10.826            59.365            RioGallegos          1855.156
       385   04 Jun 2027 09:29:10.781   04 Jun 2027 09:30:06.665            55.884                Sumatra          1746.375
       386   04 Jun 2027 09:46:34.874   04 Jun 2027 09:47:01.659            26.785                Norilsk           837.031
       387   04 Jun 2027 09:47:04.608   04 Jun 2027 09:47:16.886            12.278                Novosib           383.687
       388   04 Jun 2027 09:47:18.596   04 Jun 2027 09:47:44.245            25.649                Norilsk           801.531
       389   04 Jun 2027 09:48:11.038   04 Jun 2027 09:48:14.379             3.341                Irkutsk           104.406
       390   04 Jun 2027 09:48:15.285   04 Jun 2027 09:48:52.525            37.240                Irkutsk          1163.750
       391   04 Jun 2027 09:48:58.111   04 Jun 2027 09:49:01.502             3.391                Norilsk           105.969
       392   04 Jun 2027 09:49:16.240   04 Jun 2027 09:50:30.361            74.121                Norilsk          2316.281
       393   04 Jun 2027 09:50:32.886   04 Jun 2027 09:50:52.696            19.810              Murmansk2           619.062
       394   04 Jun 2027 09:50:57.534   04 Jun 2027 09:51:12.989            15.455                Norilsk           482.969
       395   04 Jun 2027 09:51:13.939   04 Jun 2027 09:52:05.479            51.540                Irkutsk          1610.625
       396   04 Jun 2027 09:52:14.403   04 Jun 2027 09:53:35.973            81.570              Murmansk1          2549.062
       397   04 Jun 2027 10:28:20.965   04 Jun 2027 10:29:03.760            42.795            RioGallegos          1337.344
       398   04 Jun 2027 11:02:47.058   04 Jun 2027 11:05:03.965           136.907                Sumatra          4278.344
       399   04 Jun 2027 11:23:20.556   04 Jun 2027 11:24:30.472            69.916                Norilsk          2184.875
       400   04 Jun 2027 11:24:36.956   04 Jun 2027 11:24:50.040            13.084                 Moscow           408.875
       401   04 Jun 2027 11:24:54.273   04 Jun 2027 11:24:56.733             2.460              Murmansk2            76.875
       402   04 Jun 2027 11:24:59.163   04 Jun 2027 11:26:01.382            62.219                Novosib          1944.344
       403   04 Jun 2027 11:26:06.536   04 Jun 2027 11:26:17.881            11.345                 Moscow           354.531
       404   04 Jun 2027 11:26:21.526   04 Jun 2027 11:26:32.926            11.400                Novosib           356.250
       405   04 Jun 2027 11:26:34.252   04 Jun 2027 11:26:48.381            14.129                Norilsk           441.531
       406   04 Jun 2027 11:26:51.215   04 Jun 2027 11:27:01.515            10.300                 Moscow           321.875
       407   04 Jun 2027 11:27:06.482   04 Jun 2027 11:28:02.852            56.370                Norilsk          1761.563
       408   04 Jun 2027 11:28:13.308   04 Jun 2027 11:28:17.337             4.029              Murmansk1           125.906
       409   04 Jun 2027 11:28:17.337   04 Jun 2027 11:28:35.603            18.266              Murmansk2           570.812
       410   04 Jun 2027 11:28:39.184   04 Jun 2027 11:28:56.620            17.436                Norilsk           544.875
       411   04 Jun 2027 11:28:58.286   04 Jun 2027 11:29:02.039             3.753              Murmansk2           117.281
       412   04 Jun 2027 11:30:37.787   04 Jun 2027 11:30:49.390            11.603              Murmansk1           362.594
       413   04 Jun 2027 11:31:39.601   04 Jun 2027 11:31:59.184            19.583              Murmansk1           611.969
       414   04 Jun 2027 12:47:21.356   04 Jun 2027 12:48:51.730            90.374                  Delhi          2824.187
       415   04 Jun 2027 12:49:41.266   04 Jun 2027 12:52:02.420           141.154                  Delhi          4411.063
       416   04 Jun 2027 12:55:29.143   04 Jun 2027 12:56:13.293            44.150                Novosib          1379.688
       417   04 Jun 2027 12:59:06.844   04 Jun 2027 12:59:57.070            50.226              Murmansk2          1569.562
       418   04 Jun 2027 13:00:15.853   04 Jun 2027 13:00:48.028            32.175                Norilsk          1005.469
       419   04 Jun 2027 13:02:34.859   04 Jun 2027 13:03:10.577            35.718                Norilsk          1116.187
       420   04 Jun 2027 14:31:18.118   04 Jun 2027 14:35:20.702           242.584                 Moscow          7580.750
       421   04 Jun 2027 14:36:09.116   04 Jun 2027 14:37:53.248           104.132              Murmansk1          3254.125
       422   04 Jun 2027 14:39:56.870   04 Jun 2027 14:42:04.296           127.426                Norilsk          3982.062
       423   04 Jun 2027 14:44:21.647   04 Jun 2027 14:44:25.035             3.388                Norilsk           105.875
       424   04 Jun 2027 15:45:21.587   04 Jun 2027 15:46:49.238            87.651               CapeTown          2739.094
       425   04 Jun 2027 15:47:35.544   04 Jun 2027 15:48:42.542            66.998               CapeTown          2093.687
       426   04 Jun 2027 16:09:26.420   04 Jun 2027 16:09:54.828            28.408                 Moscow           887.750
       427   04 Jun 2027 16:12:16.008   04 Jun 2027 16:13:01.290            45.282              Murmansk2          1415.063
       428   04 Jun 2027 16:15:47.607   04 Jun 2027 16:16:08.841            21.234              Murmansk2           663.563
       429   04 Jun 2027 16:21:35.107   04 Jun 2027 16:21:58.148            23.041              Murmansk2           720.031
       430   04 Jun 2027 16:25:39.337   04 Jun 2027 16:27:40.850           121.513                Anadyr1          3797.281
       431   04 Jun 2027 16:29:05.120   04 Jun 2027 16:29:09.906             4.786                Anadyr2           149.562
       432   04 Jun 2027 16:30:14.301   04 Jun 2027 16:30:56.149            41.848                Anadyr2          1307.750
       433   04 Jun 2027 17:20:58.320   04 Jun 2027 17:21:58.750            60.430               CapeTown          1888.438
       434   04 Jun 2027 17:26:02.534   04 Jun 2027 17:26:15.217            12.683               CapeTown           396.344
       435   04 Jun 2027 17:29:25.062   04 Jun 2027 17:29:38.194            13.132               CapeTown           410.375
       436   04 Jun 2027 17:32:12.428   04 Jun 2027 17:32:24.756            12.328               CapeTown           385.250
       437   04 Jun 2027 17:52:11.131   04 Jun 2027 17:56:06.465           235.334              Murmansk2          7354.188
       438   04 Jun 2027 18:01:20.236   04 Jun 2027 18:01:43.765            23.529                Anadyr2           735.281
       439   04 Jun 2027 18:02:39.532   04 Jun 2027 18:02:42.968             3.436                Anadyr1           107.375
       440   04 Jun 2027 18:04:21.400   04 Jun 2027 18:06:25.638           124.238               Magadan2          3882.438
       441   04 Jun 2027 18:07:03.095   04 Jun 2027 18:07:08.140             5.045               Magadan1           157.656
       442   04 Jun 2027 18:07:20.757   04 Jun 2027 18:08:05.874            45.117               Magadan1          1409.906
       443   04 Jun 2027 19:37:16.016   04 Jun 2027 19:39:21.543           125.527                Anadyr2          3922.719
       444   04 Jun 2027 19:39:34.124   04 Jun 2027 19:43:30.421           236.297               Magadan1          7384.281
       445   04 Jun 2027 19:46:37.090   04 Jun 2027 19:46:44.406             7.316               Magadan2           228.625
       446   04 Jun 2027 19:47:16.280   04 Jun 2027 19:47:49.874            33.594               Magadan1          1049.812
       447   04 Jun 2027 20:33:07.905   04 Jun 2027 20:35:49.720           161.815            RioGallegos          5056.719
       448   04 Jun 2027 20:38:42.475   04 Jun 2027 20:39:07.059            24.584            RioGallegos           768.250
       449   04 Jun 2027 21:13:04.128   04 Jun 2027 21:14:14.170            70.042                Anadyr2          2188.812
       450   04 Jun 2027 21:14:44.065   04 Jun 2027 21:15:23.128            39.063                Anadyr2          1220.719
       451   04 Jun 2027 21:15:30.070   04 Jun 2027 21:15:57.089            27.019               Magadan2           844.344
       452   04 Jun 2027 21:16:05.963   04 Jun 2027 21:16:53.380            47.417               Magadan1          1481.781
       453   04 Jun 2027 21:17:01.232   04 Jun 2027 21:17:46.301            45.069                Norilsk          1408.406
       454   04 Jun 2027 21:18:00.151   04 Jun 2027 21:18:21.881            21.730                Norilsk           679.063
       455   04 Jun 2027 21:18:52.749   04 Jun 2027 21:18:54.335             1.586                Norilsk            49.562
       456   04 Jun 2027 21:20:01.210   04 Jun 2027 21:20:58.303            57.093                Irkutsk          1784.156
       457   04 Jun 2027 21:23:13.575   04 Jun 2027 21:23:57.163            43.588                Irkutsk          1362.125
       458   04 Jun 2027 21:34:45.295   04 Jun 2027 21:37:12.151           146.856                Sumatra          4589.250
       459   04 Jun 2027 21:43:31.247   04 Jun 2027 21:43:42.326            11.079                Sumatra           346.219
       460   04 Jun 2027 22:49:15.354   04 Jun 2027 22:50:04.742            49.388                Anadyr1          1543.375
       461   04 Jun 2027 22:51:00.225   04 Jun 2027 22:52:53.245           113.020                Norilsk          3531.875
       462   04 Jun 2027 22:53:02.734   04 Jun 2027 22:53:35.789            33.055               Magadan1          1032.969
       463   04 Jun 2027 22:54:54.295   04 Jun 2027 22:56:04.073            69.778                Irkutsk          2180.563
       464   04 Jun 2027 22:56:09.607   04 Jun 2027 22:58:28.071           138.464                Novosib          4327.000
       465   04 Jun 2027 23:08:09.352   04 Jun 2027 23:09:11.514            62.162                  Delhi          1942.563
       466   05 Jun 2027 00:22:20.928   05 Jun 2027 00:22:34.745            13.817                Anadyr2           431.781
       467   05 Jun 2027 00:22:44.599   05 Jun 2027 00:23:46.096            61.497                Anadyr2          1921.781
       468   05 Jun 2027 00:24:12.251   05 Jun 2027 00:24:36.907            24.656                Anadyr2           770.500
       469   05 Jun 2027 00:24:52.882   05 Jun 2027 00:25:01.686             8.804                Anadyr2           275.125
       470   05 Jun 2027 00:25:12.065   05 Jun 2027 00:25:21.381             9.316                Anadyr2           291.125
       471   05 Jun 2027 00:27:00.636   05 Jun 2027 00:27:17.571            16.935                Norilsk           529.219
       472   05 Jun 2027 00:27:34.160   05 Jun 2027 00:28:50.257            76.097               Magadan1          2378.031
       473   05 Jun 2027 00:28:50.257   05 Jun 2027 00:29:05.968            15.711               Magadan2           490.969
       474   05 Jun 2027 00:29:31.124   05 Jun 2027 00:29:43.577            12.453               Magadan2           389.156
       475   05 Jun 2027 00:29:50.423   05 Jun 2027 00:31:13.237            82.814              Murmansk2          2587.937
       476   05 Jun 2027 00:31:14.075   05 Jun 2027 00:31:50.192            36.117              Murmansk1          1128.656
       477   05 Jun 2027 00:32:16.214   05 Jun 2027 00:32:59.039            42.825              Murmansk1          1338.281
       478   05 Jun 2027 00:33:50.620   05 Jun 2027 00:34:22.921            32.301              Murmansk2          1009.406
       479   05 Jun 2027 00:35:34.334   05 Jun 2027 00:35:40.480             6.146              Murmansk2           192.062
       480   05 Jun 2027 00:38:07.763   05 Jun 2027 00:38:39.603            31.840                  Delhi           995.000
       481   05 Jun 2027 00:42:40.088   05 Jun 2027 00:44:03.574            83.486                  Delhi          2608.937
       482   05 Jun 2027 01:23:09.612   05 Jun 2027 01:24:01.576            51.964            RioGallegos          1623.875
