uniorb/output/strategy_1/Drop/Drop_KinoSat_110503.txt

KinoSat_110503
-------------------------
    Access    *     Start Time (UTCG)     *     Stop Time (UTCG)  *   Duration (s)        *       Station  *  Data (Mbytes)
         1   01 Jun 2027 04:06:14.357   01 Jun 2027 04:07:18.878            64.521               Magadan2          8065.125
         2   01 Jun 2027 04:07:18.878   01 Jun 2027 04:07:25.521             6.643               Magadan1           830.375
         3   01 Jun 2027 04:07:54.083   01 Jun 2027 04:10:33.298           159.215               Magadan2         19901.875
         4   01 Jun 2027 04:10:42.595   01 Jun 2027 04:11:30.003            47.408               Magadan2          5926.000
         5   01 Jun 2027 04:11:37.005   01 Jun 2027 04:11:49.704            12.699               Magadan1          1587.375
         6   01 Jun 2027 04:12:03.810   01 Jun 2027 04:13:07.901            64.091               Magadan1          8011.375
         7   01 Jun 2027 04:13:07.901   01 Jun 2027 04:13:31.568            23.667               Magadan2          2958.375
         8   01 Jun 2027 04:56:37.842   01 Jun 2027 04:56:51.675            13.833            RioGallegos          1729.125
         9   01 Jun 2027 05:26:28.408   01 Jun 2027 05:28:04.396            95.988                Sumatra         11998.500
        10   01 Jun 2027 05:44:42.113   01 Jun 2027 05:45:46.569            64.456               Magadan1          8057.000
        11   01 Jun 2027 05:46:06.713   01 Jun 2027 05:46:31.458            24.745                Irkutsk          3093.125
        12   01 Jun 2027 05:46:39.963   01 Jun 2027 05:47:29.728            49.765                Novosib          6220.625
        13   01 Jun 2027 05:47:38.634   01 Jun 2027 05:48:21.745            43.111                Novosib          5388.875
        14   01 Jun 2027 05:48:34.774   01 Jun 2027 05:49:46.870            72.096                Irkutsk          9012.000
        15   01 Jun 2027 07:09:56.812   01 Jun 2027 07:10:18.966            22.154                  Delhi          2769.250
        16   01 Jun 2027 07:21:39.107   01 Jun 2027 07:22:07.356            28.249                 Moscow          3531.125
        17   01 Jun 2027 07:22:13.162   01 Jun 2027 07:22:49.137            35.975                Novosib          4496.875
        18   01 Jun 2027 07:23:09.211   01 Jun 2027 07:23:14.526             5.315              Murmansk1           664.375
        19   01 Jun 2027 07:23:17.453   01 Jun 2027 07:23:32.117            14.664                 Moscow          1833.000
        20   01 Jun 2027 07:23:40.846   01 Jun 2027 07:25:16.666            95.820                Irkutsk         11977.500
        21   01 Jun 2027 07:25:53.568   01 Jun 2027 07:26:09.793            16.225                Norilsk          2028.125
        22   01 Jun 2027 07:26:32.562   01 Jun 2027 07:27:15.790            43.228                Novosib          5403.500
        23   01 Jun 2027 08:43:47.061   01 Jun 2027 08:44:47.718            60.657                  Delhi          7582.125
        24   01 Jun 2027 08:58:27.707   01 Jun 2027 08:58:37.308             9.601                Novosib          1200.125
        25   01 Jun 2027 08:58:52.488   01 Jun 2027 08:59:15.657            23.169                Novosib          2896.125
        26   01 Jun 2027 08:59:29.768   01 Jun 2027 09:02:08.856           159.088                 Moscow         19886.000
        27   01 Jun 2027 10:34:23.946   01 Jun 2027 10:34:26.300             2.354              Murmansk2           294.250
        28   01 Jun 2027 10:34:35.291   01 Jun 2027 10:35:28.071            52.780                 Moscow          6597.500
        29   01 Jun 2027 10:36:04.965   01 Jun 2027 10:38:05.004           120.039                Norilsk         15004.875
        30   01 Jun 2027 10:38:56.184   01 Jun 2027 10:39:01.989             5.805              Murmansk1           725.625
        31   01 Jun 2027 10:39:51.821   01 Jun 2027 10:40:08.897            17.076              Murmansk1          2134.500
        32   01 Jun 2027 11:42:09.618   01 Jun 2027 11:43:22.563            72.945               CapeTown          9118.125
        33   01 Jun 2027 11:46:00.620   01 Jun 2027 11:46:14.261            13.641               CapeTown          1705.125
        34   01 Jun 2027 11:46:31.370   01 Jun 2027 11:48:32.871           121.501               CapeTown         15187.625
        35   01 Jun 2027 12:22:19.856   01 Jun 2027 12:24:30.116           130.260                Anadyr1         16282.500
        36   01 Jun 2027 12:25:58.495   01 Jun 2027 12:28:24.679           146.184                Anadyr2         18273.000
        37   01 Jun 2027 12:29:07.372   01 Jun 2027 12:31:51.458           164.086                Anadyr2         20510.750
        38   01 Jun 2027 14:01:07.755   01 Jun 2027 14:05:05.014           237.259               Magadan2         29657.375
        39   01 Jun 2027 14:06:14.427   01 Jun 2027 14:07:45.103            90.676               Magadan1         11334.500
        40   01 Jun 2027 14:09:23.260   01 Jun 2027 14:09:49.091            25.831               Magadan1          3228.875
        41   01 Jun 2027 16:30:18.709   01 Jun 2027 16:35:07.751           289.042            RioGallegos         36130.250
        42   01 Jun 2027 17:16:52.181   01 Jun 2027 17:20:32.099           219.918                Irkutsk         27489.750
        43   01 Jun 2027 17:23:10.964   01 Jun 2027 17:23:43.571            32.607                Irkutsk          4075.875
        44   01 Jun 2027 17:31:55.781   01 Jun 2027 17:36:14.969           259.188                Sumatra         32398.500
        45   01 Jun 2027 17:38:15.176   01 Jun 2027 17:40:15.480           120.304                Sumatra         15038.000
        46   01 Jun 2027 18:55:02.783   01 Jun 2027 18:56:15.442            72.659                Novosib          9082.375
        47   01 Jun 2027 19:02:33.516   01 Jun 2027 19:04:17.437           103.921                  Delhi         12990.125
        48   01 Jun 2027 19:06:15.825   01 Jun 2027 19:07:21.197            65.372                  Delhi          8171.500
        49   01 Jun 2027 20:27:49.430   01 Jun 2027 20:30:10.030           140.600              Murmansk2          8663.626
        50   02 Jun 2027 04:23:43.475   02 Jun 2027 04:24:06.044            22.569               Magadan1          2821.125
        51   02 Jun 2027 04:24:06.044   02 Jun 2027 04:24:12.357             6.313               Magadan2           789.125
        52   02 Jun 2027 04:24:19.275   02 Jun 2027 04:25:26.035            66.760                Irkutsk          8345.000
        53   02 Jun 2027 04:25:30.403   02 Jun 2027 04:25:58.431            28.028                Novosib          3503.500
        54   02 Jun 2027 05:02:03.896   02 Jun 2027 05:03:15.401            71.505            RioGallegos          8938.125
        55   02 Jun 2027 05:37:29.031   02 Jun 2027 05:38:23.110            54.079                Sumatra          6759.875
        56   02 Jun 2027 05:42:46.013   02 Jun 2027 05:43:26.068            40.055                Sumatra          5006.875
        57   02 Jun 2027 05:57:02.638   02 Jun 2027 05:58:08.955            66.317               Magadan2          8289.625
        58   02 Jun 2027 05:58:52.566   02 Jun 2027 05:59:45.108            52.542                Norilsk          6567.750
        59   02 Jun 2027 05:59:49.339   02 Jun 2027 06:00:10.502            21.163              Murmansk2          2645.375
        60   02 Jun 2027 06:00:16.537   02 Jun 2027 06:01:48.586            92.049                Irkutsk         11506.125
        61   02 Jun 2027 07:20:28.614   02 Jun 2027 07:22:15.105           106.491                  Delhi         13311.375
        62   02 Jun 2027 07:32:36.471   02 Jun 2027 07:33:01.401            24.930                Novosib          3116.250
        63   02 Jun 2027 07:35:07.681   02 Jun 2027 07:35:46.378            38.697                Novosib          4837.125
        64   02 Jun 2027 07:35:46.834   02 Jun 2027 07:36:17.595            30.761                Irkutsk          3845.125
        65   02 Jun 2027 07:36:51.763   02 Jun 2027 07:37:07.627            15.864                Irkutsk          1983.000
        66   02 Jun 2027 07:37:10.277   02 Jun 2027 07:38:17.530            67.253                Norilsk          8406.625
        67   02 Jun 2027 07:38:26.749   02 Jun 2027 07:39:16.479            49.730                Novosib          6216.250
        68   02 Jun 2027 08:56:06.233   02 Jun 2027 08:56:35.282            29.049                  Delhi          3631.125
        69   02 Jun 2027 08:58:18.312   02 Jun 2027 08:59:20.903            62.591                  Delhi          7823.875
        70   02 Jun 2027 09:11:00.253   02 Jun 2027 09:11:26.813            26.560                Novosib          3320.000
        71   02 Jun 2027 09:11:44.716   02 Jun 2027 09:13:12.404            87.688              Murmansk2         10961.000
        72   02 Jun 2027 10:48:08.182   02 Jun 2027 10:48:24.114            15.932                 Moscow          1991.500
        73   02 Jun 2027 10:48:26.584   02 Jun 2027 10:49:00.165            33.581              Murmansk2          4197.625
        74   02 Jun 2027 11:53:54.075   02 Jun 2027 11:55:36.452           102.377               CapeTown         12797.125
        75   02 Jun 2027 12:21:01.324   02 Jun 2027 12:21:19.585            18.261              Murmansk2          2282.625
        76   02 Jun 2027 12:34:16.297   02 Jun 2027 12:36:04.708           108.411                Anadyr2         13551.375
        77   02 Jun 2027 12:38:21.236   02 Jun 2027 12:38:37.936            16.700                Anadyr1          2087.500
        78   02 Jun 2027 12:38:41.753   02 Jun 2027 12:40:45.462           123.709                Anadyr1         15463.625
        79   02 Jun 2027 12:42:11.697   02 Jun 2027 12:43:12.500            60.803                Anadyr1          7600.375
        80   02 Jun 2027 14:12:55.897   02 Jun 2027 14:18:48.214           352.317               Magadan2         44039.625
        81   02 Jun 2027 14:19:50.846   02 Jun 2027 14:22:23.152           152.306               Magadan1         19038.250
        82   02 Jun 2027 16:41:33.356   02 Jun 2027 16:48:37.373           424.017            RioGallegos         53002.125
        83   02 Jun 2027 17:30:38.240   02 Jun 2027 17:32:25.151           106.911                Irkutsk         13363.875
        84   02 Jun 2027 17:34:24.262   02 Jun 2027 17:36:47.293           143.031                Irkutsk         17878.875
        85   02 Jun 2027 17:43:06.603   02 Jun 2027 17:46:09.481           182.878                Sumatra         22859.750
        86   02 Jun 2027 17:47:50.700   02 Jun 2027 17:50:38.799           168.099                Sumatra         21012.375
        87   02 Jun 2027 19:13:18.269   02 Jun 2027 19:15:57.730           159.461                  Delhi         19932.625
        88   02 Jun 2027 19:20:00.660   02 Jun 2027 19:20:49.546            48.886                  Delhi          6110.750
        89   02 Jun 2027 20:39:46.756   02 Jun 2027 20:40:08.254            21.498              Murmansk1          2687.250
        90   02 Jun 2027 20:41:20.358   02 Jun 2027 20:42:11.034            50.676              Murmansk1          6334.500
        91   02 Jun 2027 20:44:04.562   02 Jun 2027 20:44:33.471            28.909              Murmansk1          3613.625
        92   02 Jun 2027 22:16:42.510   02 Jun 2027 22:19:02.746           140.236              Murmansk2         17529.500
        93   02 Jun 2027 22:45:57.723   02 Jun 2027 22:48:12.525           134.802               CapeTown         16850.250
        94   03 Jun 2027 04:37:28.351   03 Jun 2027 04:37:34.935             6.584                Irkutsk           823.000
        95   03 Jun 2027 04:37:36.997   03 Jun 2027 04:37:57.016            20.019              Murmansk2          2502.375
        96   03 Jun 2027 05:12:37.436   03 Jun 2027 05:13:37.670            60.234            RioGallegos          7529.250
        97   03 Jun 2027 05:16:33.757   03 Jun 2027 05:16:38.033             4.276            RioGallegos           534.500
        98   03 Jun 2027 05:48:47.581   03 Jun 2027 05:50:03.747            76.166                Sumatra          9520.750
        99   03 Jun 2027 05:50:58.331   03 Jun 2027 05:52:04.441            66.110                Sumatra          8263.750
       100   03 Jun 2027 06:09:11.219   03 Jun 2027 06:10:14.305            63.086                Norilsk          7885.750
       101   03 Jun 2027 06:10:24.154   03 Jun 2027 06:11:07.077            42.923                Norilsk          5365.375
       102   03 Jun 2027 06:11:09.280   03 Jun 2027 06:12:48.802            99.522                Novosib         12440.250
       103   03 Jun 2027 06:13:23.430   03 Jun 2027 06:14:14.294            50.864                Novosib          6358.000
       104   03 Jun 2027 06:50:39.103   03 Jun 2027 06:51:15.442            36.339            RioGallegos          4542.375
       105   03 Jun 2027 07:23:42.854   03 Jun 2027 07:24:35.816            52.962                Sumatra          6620.250
       106   03 Jun 2027 07:34:31.529   03 Jun 2027 07:36:07.700            96.171                  Delhi         12021.375
       107   03 Jun 2027 07:47:37.233   03 Jun 2027 07:47:51.986            14.753                Irkutsk          1844.125
       108   03 Jun 2027 07:48:07.180   03 Jun 2027 07:50:14.279           127.099                Novosib         15887.375
       109   03 Jun 2027 07:50:18.982   03 Jun 2027 07:51:16.476            57.494                Novosib          7186.750
       110   03 Jun 2027 09:23:07.204   03 Jun 2027 09:23:55.406            48.202                Novosib          6025.250
       111   03 Jun 2027 09:24:12.655   03 Jun 2027 09:25:04.932            52.277              Murmansk2          6534.625
       112   03 Jun 2027 09:25:12.608   03 Jun 2027 09:26:24.852            72.244                 Moscow          9030.500
       113   03 Jun 2027 09:27:02.515   03 Jun 2027 09:27:32.449            29.934                 Moscow          3741.750
       114   03 Jun 2027 11:11:59.082   03 Jun 2027 11:15:50.815           231.733                Anadyr2         28966.625
       115   03 Jun 2027 12:47:31.267   03 Jun 2027 12:48:40.216            68.949                Anadyr2          8618.625
       116   03 Jun 2027 12:51:19.820   03 Jun 2027 12:51:36.250            16.430                Anadyr2          2053.750
       117   03 Jun 2027 14:24:47.026   03 Jun 2027 14:34:16.080           569.054               Magadan1         71131.750
       118   03 Jun 2027 16:53:04.545   03 Jun 2027 16:56:40.815           216.270            RioGallegos         27033.750
       119   03 Jun 2027 16:58:05.940   03 Jun 2027 16:59:18.224            72.284            RioGallegos          9035.500
       120   03 Jun 2027 17:38:17.574   03 Jun 2027 17:38:31.497            13.923                Norilsk          1740.375
       121   03 Jun 2027 17:43:56.540   03 Jun 2027 17:46:17.909           141.369                Irkutsk         17671.125
       122   03 Jun 2027 17:58:19.437   03 Jun 2027 18:01:41.317           201.880                Sumatra         25235.000
       123   03 Jun 2027 19:24:32.855   03 Jun 2027 19:27:43.663           190.808                  Delhi         23851.000
       124   03 Jun 2027 19:32:42.060   03 Jun 2027 19:33:01.835            19.775                  Delhi          2471.875
       125   03 Jun 2027 20:50:17.516   03 Jun 2027 20:50:23.509             5.993              Murmansk1           749.125
       126   03 Jun 2027 20:51:42.431   03 Jun 2027 20:54:31.394           168.963              Murmansk2         21120.375
       127   03 Jun 2027 22:59:10.413   03 Jun 2027 23:01:31.078           140.665               CapeTown         17583.125
       128   04 Jun 2027 04:45:56.622   04 Jun 2027 04:47:42.779           106.157               Magadan2         13269.625
       129   04 Jun 2027 04:48:32.071   04 Jun 2027 04:49:13.586            41.515               Magadan1          5189.375
       130   04 Jun 2027 04:49:29.877   04 Jun 2027 04:49:41.395            11.518                Irkutsk          1439.750
       131   04 Jun 2027 04:51:06.180   04 Jun 2027 04:51:29.100            22.920                Norilsk          2865.000
       132   04 Jun 2027 05:24:33.233   04 Jun 2027 05:24:51.135            17.902            RioGallegos          2237.750
       133   04 Jun 2027 05:26:38.380   04 Jun 2027 05:27:48.517            70.137            RioGallegos          8767.125
       134   04 Jun 2027 06:00:17.600   04 Jun 2027 06:01:47.139            89.539                Sumatra         11192.375
       135   04 Jun 2027 06:21:38.602   04 Jun 2027 06:22:15.219            36.617                Irkutsk          4577.125
       136   04 Jun 2027 06:22:39.855   04 Jun 2027 06:23:51.370            71.515              Murmansk1          8939.375
       137   04 Jun 2027 06:24:15.040   04 Jun 2027 06:25:49.459            94.419                Irkutsk         11802.375
       138   04 Jun 2027 06:26:53.588   04 Jun 2027 06:27:24.845            31.257              Murmansk1          3907.125
       139   04 Jun 2027 07:36:05.307   04 Jun 2027 07:36:23.855            18.548                Sumatra          2318.500
       140   04 Jun 2027 07:45:21.850   04 Jun 2027 07:46:42.142            80.292                  Delhi         10036.500
       141   04 Jun 2027 07:58:55.185   04 Jun 2027 07:59:55.205            60.020                Novosib          7502.500
       142   04 Jun 2027 08:00:03.354   04 Jun 2027 08:00:30.927            27.573                Novosib          3446.625
       143   04 Jun 2027 08:00:35.521   04 Jun 2027 08:01:08.652            33.131                Norilsk          4141.375
       144   04 Jun 2027 08:01:18.586   04 Jun 2027 08:03:17.974           119.388                 Moscow         14923.500
       145   04 Jun 2027 09:33:29.606   04 Jun 2027 09:33:57.070            27.464                Novosib          3433.000
       146   04 Jun 2027 09:34:22.147   04 Jun 2027 09:35:55.129            92.982                Novosib         11622.750
       147   04 Jun 2027 09:36:04.255   04 Jun 2027 09:36:58.537            54.282              Murmansk2          6785.250
       148   04 Jun 2027 09:37:14.699   04 Jun 2027 09:38:15.279            60.580                Norilsk          7572.500
       149   04 Jun 2027 11:23:27.247   04 Jun 2027 11:29:02.507           335.260                Anadyr1         41907.500
       150   04 Jun 2027 14:36:40.347   04 Jun 2027 14:40:35.659           235.312               Magadan1         29414.000
       151   04 Jun 2027 14:41:16.536   04 Jun 2027 14:42:15.390            58.854               Magadan2          7356.750
       152   04 Jun 2027 14:44:25.777   04 Jun 2027 14:45:29.581            63.804               Magadan1          7975.500
       153   04 Jun 2027 17:06:33.881   04 Jun 2027 17:11:06.373           272.492            RioGallegos         34061.500
       154   04 Jun 2027 17:49:55.172   04 Jun 2027 17:53:06.139           190.967                Norilsk         23870.875
       155   04 Jun 2027 18:11:39.419   04 Jun 2027 18:12:42.372            62.953                Sumatra          7869.125
       156   04 Jun 2027 19:38:21.531   04 Jun 2027 19:41:34.438           192.907                  Delhi         24113.375
       157   04 Jun 2027 19:42:21.937   04 Jun 2027 19:43:02.868            40.931                  Delhi          5116.375
       158   04 Jun 2027 21:03:02.537   04 Jun 2027 21:03:33.903            31.366              Murmansk1          3920.750
       159   04 Jun 2027 21:03:35.685   04 Jun 2027 21:06:13.669           157.984              Murmansk2         19748.000
       160   04 Jun 2027 21:06:29.093   04 Jun 2027 21:06:30.274             1.181              Murmansk2           147.625
       161   04 Jun 2027 21:06:41.048   04 Jun 2027 21:07:46.049            65.001              Murmansk1          8125.125
       162   04 Jun 2027 21:08:04.097   04 Jun 2027 21:09:33.028            88.931                 Moscow         11116.375
       163   04 Jun 2027 23:11:51.948   04 Jun 2027 23:12:40.055            48.107               CapeTown          6013.375
       164   05 Jun 2027 03:23:09.739   05 Jun 2027 03:23:19.658             9.919                Anadyr1          1239.875
       165   05 Jun 2027 03:23:29.251   05 Jun 2027 03:23:33.535             4.284                Anadyr2           535.500
       166   05 Jun 2027 03:24:14.090   05 Jun 2027 03:25:19.282            65.192               Magadan1          8149.000
       167   05 Jun 2027 04:57:25.368   05 Jun 2027 04:58:46.862            81.494               Magadan2         10186.750
       168   05 Jun 2027 04:59:01.056   05 Jun 2027 05:00:06.421            65.365               Magadan2          8170.625
       169   05 Jun 2027 05:00:19.624   05 Jun 2027 05:00:59.456            39.832               Magadan2          4979.000
       170   05 Jun 2027 05:01:30.557   05 Jun 2027 05:01:46.980            16.423                Irkutsk          2052.875
       171   05 Jun 2027 05:01:48.596   05 Jun 2027 05:02:38.071            49.475                Novosib          6184.375
       172   05 Jun 2027 05:36:32.258   05 Jun 2027 05:38:19.502           107.244            RioGallegos         13405.500
       173   05 Jun 2027 06:18:06.258   05 Jun 2027 06:18:20.080            13.822                Sumatra          1727.750
       174   05 Jun 2027 06:24:57.748   05 Jun 2027 06:25:55.604            57.856                  Delhi          7232.000
       175   05 Jun 2027 06:26:24.928   05 Jun 2027 06:27:14.290            49.362                  Delhi          6170.250
       176   05 Jun 2027 06:33:24.647   05 Jun 2027 06:34:02.267            37.620                Norilsk          4702.500
       177   05 Jun 2027 06:34:09.228   05 Jun 2027 06:35:05.337            56.109                Norilsk          7013.625
       178   05 Jun 2027 06:35:22.543   05 Jun 2027 06:35:48.442            25.899              Murmansk2          3237.375
       179   05 Jun 2027 06:35:58.328   05 Jun 2027 06:36:38.056            39.728              Murmansk1          4966.000
       180   05 Jun 2027 06:36:41.590   05 Jun 2027 06:37:06.754            25.164                Norilsk          3145.500
       181   05 Jun 2027 06:37:32.760   05 Jun 2027 06:38:09.944            37.184              Murmansk1          4648.000
       182   05 Jun 2027 06:38:52.536   05 Jun 2027 06:39:04.062            11.526              Murmansk2          1440.750
       183   05 Jun 2027 06:43:13.662   05 Jun 2027 06:43:26.660            12.998              Murmansk1          1624.750
       184   05 Jun 2027 07:14:25.471   05 Jun 2027 07:14:53.768            28.297            RioGallegos          3537.125
       185   05 Jun 2027 07:48:37.338   05 Jun 2027 07:49:14.682            37.344                Sumatra          4668.000
       186   05 Jun 2027 07:55:44.357   05 Jun 2027 07:56:22.412            38.055                  Delhi          4756.875
       187   05 Jun 2027 07:57:38.988   05 Jun 2027 07:58:09.719            30.731                  Delhi          3841.375
       188   05 Jun 2027 08:10:18.472   05 Jun 2027 08:10:29.829            11.357              Murmansk2          1419.625
       189   05 Jun 2027 08:10:37.391   05 Jun 2027 08:11:22.817            45.426                Norilsk          5678.250
       190   05 Jun 2027 08:11:26.485   05 Jun 2027 08:11:52.610            26.125              Murmansk1          3265.625
       191   05 Jun 2027 08:12:06.275   05 Jun 2027 08:12:17.284            11.009                Norilsk          1376.125
       192   05 Jun 2027 08:12:21.574   05 Jun 2027 08:13:18.955            57.381              Murmansk1          7172.625
       193   05 Jun 2027 09:33:58.693   05 Jun 2027 09:34:31.898            33.205                  Delhi          4150.625
       194   05 Jun 2027 09:35:38.341   05 Jun 2027 09:35:47.783             9.442                  Delhi          1180.250
       195   05 Jun 2027 09:45:24.992   05 Jun 2027 09:47:22.661           117.669                 Moscow         14708.625
       196   05 Jun 2027 09:47:40.875   05 Jun 2027 09:49:00.768            79.893                Norilsk          9986.625
       197   05 Jun 2027 09:49:06.179   05 Jun 2027 09:49:19.562            13.383                 Moscow          1672.875
       198   05 Jun 2027 09:49:26.631   05 Jun 2027 09:49:40.450            13.819                Norilsk          1727.375
       199   05 Jun 2027 09:49:45.627   05 Jun 2027 09:50:08.610            22.983                Norilsk          2872.875
       200   05 Jun 2027 10:57:05.497   05 Jun 2027 10:59:02.096           116.599               CapeTown         14574.875
       201   05 Jun 2027 11:01:04.722   05 Jun 2027 11:02:01.466            56.744               CapeTown          7093.000
       202   05 Jun 2027 11:35:08.185   05 Jun 2027 11:38:31.814           203.629                Anadyr2         25453.625
       203   05 Jun 2027 11:38:45.067   05 Jun 2027 11:39:04.034            18.967                Anadyr1          2370.875
       204   05 Jun 2027 14:48:35.345   05 Jun 2027 14:50:37.308           121.963               Magadan1         15245.375
       205   05 Jun 2027 14:53:57.859   05 Jun 2027 14:55:38.489           100.630               Magadan2         12578.750
       206   05 Jun 2027 14:57:30.851   05 Jun 2027 14:57:51.900            21.049               Magadan1          2631.125
       207   05 Jun 2027 14:59:51.749   05 Jun 2027 14:59:56.800             5.051               Magadan1           631.375
       208   05 Jun 2027 17:19:58.590   05 Jun 2027 17:22:31.282           152.692            RioGallegos         19086.500
       209   05 Jun 2027 18:01:37.744   05 Jun 2027 18:03:39.650           121.906                Norilsk         15238.250
       210   05 Jun 2027 18:06:18.615   05 Jun 2027 18:10:38.086           259.471                Novosib         32433.875
       211   05 Jun 2027 19:52:09.047   05 Jun 2027 19:54:06.693           117.646                  Delhi         14705.750
       212   05 Jun 2027 21:15:25.122   05 Jun 2027 21:19:35.458           250.336              Murmansk2         31292.000
       213   05 Jun 2027 21:20:03.362   05 Jun 2027 21:22:25.131           141.769                 Moscow         17721.125
       214   05 Jun 2027 21:24:35.336   05 Jun 2027 21:25:14.662            39.326                 Moscow          4915.750
       215   06 Jun 2027 03:34:27.724   06 Jun 2027 03:34:39.589            11.865               Magadan1          1483.125
       216   06 Jun 2027 03:34:49.768   06 Jun 2027 03:34:51.375             1.607               Magadan1           200.875
       217   06 Jun 2027 03:35:03.461   06 Jun 2027 03:35:10.372             6.911                Anadyr2           863.875
       218   06 Jun 2027 03:35:13.666   06 Jun 2027 03:35:33.993            20.327               Magadan1          2540.875
       219   06 Jun 2027 03:35:47.457   06 Jun 2027 03:36:16.900            29.443               Magadan1          3680.375
       220   06 Jun 2027 03:36:18.018   06 Jun 2027 03:36:55.565            37.547                Anadyr2          4693.375
       221   06 Jun 2027 03:37:12.365   06 Jun 2027 03:37:52.584            40.219               Magadan1          5027.375
       222   06 Jun 2027 05:08:53.279   06 Jun 2027 05:10:21.665            88.386                Irkutsk         11048.250
       223   06 Jun 2027 05:10:27.216   06 Jun 2027 05:10:38.406            11.190               Magadan1          1398.750
       224   06 Jun 2027 05:10:46.902   06 Jun 2027 05:11:26.202            39.300               Magadan1          4912.500
       225   06 Jun 2027 05:11:42.409   06 Jun 2027 05:12:17.343            34.934               Magadan1          4366.750
       226   06 Jun 2027 05:12:20.909   06 Jun 2027 05:13:03.407            42.498               Magadan2          5312.250
       227   06 Jun 2027 05:13:30.309   06 Jun 2027 05:13:51.762            21.453                Irkutsk          2681.625
       228   06 Jun 2027 05:14:01.654   06 Jun 2027 05:14:35.716            34.062                Norilsk          4257.750
       229   06 Jun 2027 05:48:34.576   06 Jun 2027 05:49:41.947            67.371            RioGallegos          8421.375
       230   06 Jun 2027 06:23:41.749   06 Jun 2027 06:25:17.586            95.837                Sumatra         11979.625
       231   06 Jun 2027 06:35:29.737   06 Jun 2027 06:36:10.583            40.846                  Delhi          5105.750
       232   06 Jun 2027 06:45:53.161   06 Jun 2027 06:46:53.290            60.129                Novosib          7516.125
       233   06 Jun 2027 06:46:59.370   06 Jun 2027 06:47:10.153            10.783                Irkutsk          1347.875
       234   06 Jun 2027 06:47:18.636   06 Jun 2027 06:47:42.566            23.930              Murmansk1          2991.250
       235   06 Jun 2027 06:47:52.311   06 Jun 2027 06:48:24.014            31.703              Murmansk2          3962.875
       236   06 Jun 2027 06:48:24.098   06 Jun 2027 06:49:46.328            82.230                Irkutsk         10278.750
       237   06 Jun 2027 08:07:40.589   06 Jun 2027 08:08:54.084            73.495                  Delhi          9186.875
       238   06 Jun 2027 08:22:18.772   06 Jun 2027 08:23:45.793            87.021                 Moscow         10877.625
       239   06 Jun 2027 08:24:09.566   06 Jun 2027 08:24:40.648            31.082                Norilsk          3885.250
       240   06 Jun 2027 08:24:46.661   06 Jun 2027 08:24:56.933            10.272                Novosib          1284.000
       241   06 Jun 2027 08:24:58.926   06 Jun 2027 08:25:15.045            16.119                 Moscow          2014.875
       242   06 Jun 2027 08:25:20.201   06 Jun 2027 08:25:44.731            24.530              Murmansk1          3066.250
       243   06 Jun 2027 08:27:57.151   06 Jun 2027 08:28:33.906            36.755                 Moscow          4594.375
       244   06 Jun 2027 09:47:11.020   06 Jun 2027 09:47:33.987            22.967                  Delhi          2870.875
       245   06 Jun 2027 09:55:21.099   06 Jun 2027 09:57:13.818           112.719                 Moscow         14089.875
       246   06 Jun 2027 09:57:31.879   06 Jun 2027 09:58:28.687            56.808              Murmansk2          7101.000
       247   06 Jun 2027 09:58:30.687   06 Jun 2027 09:59:24.239            53.552                Novosib          6694.000
       248   06 Jun 2027 09:59:37.565   06 Jun 2027 09:59:48.533            10.968              Murmansk2          1371.000
       249   06 Jun 2027 09:59:49.731   06 Jun 2027 10:00:06.544            16.813              Murmansk2          2101.625
       250   06 Jun 2027 10:00:27.267   06 Jun 2027 10:01:42.605            75.338                 Moscow          9417.250
       251   06 Jun 2027 10:01:44.671   06 Jun 2027 10:02:05.636            20.965                 Moscow          2620.625
       252   06 Jun 2027 10:02:21.408   06 Jun 2027 10:02:59.754            38.346                Norilsk          4793.250
       253   06 Jun 2027 10:03:13.718   06 Jun 2027 10:03:21.201             7.483              Murmansk2           935.375
       254   06 Jun 2027 11:07:56.652   06 Jun 2027 11:10:43.612           166.960               CapeTown         20870.000
       255   06 Jun 2027 11:14:47.009   06 Jun 2027 11:15:27.130            40.121               CapeTown          5015.125
       256   06 Jun 2027 11:46:55.258   06 Jun 2027 11:50:59.783           244.525                Anadyr1         30565.625
       257   06 Jun 2027 13:26:38.570   06 Jun 2027 13:31:08.428           269.858               Magadan2         33732.250
       258   06 Jun 2027 16:43:41.352   06 Jun 2027 16:45:37.787           116.435                Irkutsk         14554.375
       259   06 Jun 2027 18:17:32.193   06 Jun 2027 18:23:58.072           385.879                Novosib         48234.875
       260   06 Jun 2027 20:05:11.906   06 Jun 2027 20:05:29.438            17.532                  Delhi          2191.500
       261   06 Jun 2027 21:27:07.476   06 Jun 2027 21:27:51.959            44.483              Murmansk1          5560.375
       262   06 Jun 2027 21:28:47.640   06 Jun 2027 21:31:28.425           160.785              Murmansk2         20098.125
       263   06 Jun 2027 21:32:02.595   06 Jun 2027 21:38:16.533           373.938                 Moscow         46742.250
       264   07 Jun 2027 03:45:47.380   07 Jun 2027 03:47:05.380            78.000               Magadan1          9750.000
       265   07 Jun 2027 03:47:09.638   07 Jun 2027 03:47:27.461            17.823               Magadan2          2227.875
       266   07 Jun 2027 03:47:38.549   07 Jun 2027 03:47:46.458             7.909               Magadan2           988.625
       267   07 Jun 2027 03:48:17.481   07 Jun 2027 03:50:06.794           109.313               Magadan1         13664.125
       268   07 Jun 2027 04:37:06.602   07 Jun 2027 04:37:21.106            14.504            RioGallegos          1813.000
       269   07 Jun 2027 05:20:23.484   07 Jun 2027 05:20:53.805            30.321                Irkutsk          3790.125
       270   07 Jun 2027 05:20:55.270   07 Jun 2027 05:22:57.359           122.089                Irkutsk         15261.125
       271   07 Jun 2027 05:24:04.363   07 Jun 2027 05:24:38.444            34.081                Novosib          4260.125
       272   07 Jun 2027 05:24:43.798   07 Jun 2027 05:25:30.940            47.142                Norilsk          5892.750
       273   07 Jun 2027 05:25:35.008   07 Jun 2027 05:25:55.770            20.762                Irkutsk          2595.250
       274   07 Jun 2027 05:25:56.974   07 Jun 2027 05:27:01.172            64.198              Murmansk2          8024.750
       275   07 Jun 2027 06:00:40.314   07 Jun 2027 06:01:03.097            22.783            RioGallegos          2847.875
       276   07 Jun 2027 06:35:33.463   07 Jun 2027 06:36:28.841            55.378                Sumatra          6922.250
       277   07 Jun 2027 06:46:30.152   07 Jun 2027 06:48:23.540           113.388                  Delhi         14173.500
       278   07 Jun 2027 06:57:29.266   07 Jun 2027 06:58:32.421            63.155                Irkutsk          7894.375
       279   07 Jun 2027 06:59:15.771   07 Jun 2027 06:59:31.335            15.564                Irkutsk          1945.500
       280   07 Jun 2027 06:59:37.410   07 Jun 2027 06:59:48.291            10.881              Murmansk2          1360.125
       281   07 Jun 2027 06:59:49.147   07 Jun 2027 07:00:28.750            39.603                 Moscow          4950.375
       282   07 Jun 2027 07:00:37.797   07 Jun 2027 07:02:15.664            97.867                Novosib         12233.375
       283   07 Jun 2027 08:34:06.460   07 Jun 2027 08:35:47.992           101.532                 Moscow         12691.500
       284   07 Jun 2027 08:36:13.794   07 Jun 2027 08:36:33.446            19.652              Murmansk1          2456.500
       285   07 Jun 2027 08:36:33.446   07 Jun 2027 08:36:53.868            20.422              Murmansk2          2552.750
       286   07 Jun 2027 08:36:58.753   07 Jun 2027 08:37:07.173             8.420                Novosib          1052.500
       287   07 Jun 2027 08:37:08.570   07 Jun 2027 08:37:54.888            46.318              Murmansk1          5789.750
       288   07 Jun 2027 10:07:13.944   07 Jun 2027 10:07:23.494             9.550                 Moscow          1193.750
       289   07 Jun 2027 10:07:26.148   07 Jun 2027 10:08:41.135            74.987                 Moscow          9373.375
       290   07 Jun 2027 10:08:45.684   07 Jun 2027 10:09:28.570            42.886              Murmansk1          5360.750
       291   07 Jun 2027 10:09:40.621   07 Jun 2027 10:10:29.106            48.485              Murmansk2          6060.625
       292   07 Jun 2027 10:10:39.322   07 Jun 2027 10:11:18.844            39.522                Novosib          4940.250
       293   07 Jun 2027 10:11:39.697   07 Jun 2027 10:13:04.452            84.755                Norilsk         10594.375
       294   07 Jun 2027 10:13:17.324   07 Jun 2027 10:13:31.689            14.365              Murmansk2          1795.625
       295   07 Jun 2027 10:13:35.364   07 Jun 2027 10:13:56.706            21.342              Murmansk2          2667.750
       296   07 Jun 2027 10:14:04.176   07 Jun 2027 10:15:01.181            57.005                Norilsk          7125.625
       297   07 Jun 2027 11:19:14.581   07 Jun 2027 11:22:30.254           195.673               CapeTown         24459.125
       298   07 Jun 2027 11:24:44.745   07 Jun 2027 11:26:46.025           121.280               CapeTown         15160.000
       299   07 Jun 2027 11:58:46.043   07 Jun 2027 11:59:55.857            69.814                Anadyr2          8726.750
       300   07 Jun 2027 12:01:06.994   07 Jun 2027 12:02:56.742           109.748                Anadyr1         13718.500
       301   07 Jun 2027 13:38:01.478   07 Jun 2027 13:41:22.953           201.475               Magadan1         25184.375
       302   07 Jun 2027 16:54:13.038   07 Jun 2027 16:59:39.416           326.378                Irkutsk         40797.250
       303   07 Jun 2027 18:29:04.023   07 Jun 2027 18:36:13.906           429.883                Novosib         53735.375
       304   07 Jun 2027 21:38:29.648   07 Jun 2027 21:39:33.938            64.290              Murmansk1          8036.250
       305   07 Jun 2027 21:41:31.070   07 Jun 2027 21:43:23.672           112.602              Murmansk2         14075.250
       306   07 Jun 2027 21:43:32.154   07 Jun 2027 21:47:31.938           239.784                 Moscow         29973.000
       307   07 Jun 2027 21:48:49.203   07 Jun 2027 21:50:25.020            95.817                 Moscow         11977.125
       308   07 Jun 2027 22:10:26.635   07 Jun 2027 22:11:29.667            63.032               CapeTown          7879.000
       309   08 Jun 2027 03:57:33.942   08 Jun 2027 03:57:45.598            11.656                Anadyr2          1457.000
       310   08 Jun 2027 03:57:45.598   08 Jun 2027 03:59:10.660            85.062                Anadyr1         10632.750
       311   08 Jun 2027 03:59:44.363   08 Jun 2027 04:01:22.793            98.430               Magadan2         12303.750
       312   08 Jun 2027 04:01:30.465   08 Jun 2027 04:01:38.072             7.607                Anadyr1           950.875
       313   08 Jun 2027 04:01:41.730   08 Jun 2027 04:02:05.159            23.429               Magadan2          2928.625
       314   08 Jun 2027 05:18:11.904   08 Jun 2027 05:18:52.367            40.463                Sumatra          5057.875
       315   08 Jun 2027 05:33:04.909   08 Jun 2027 05:33:19.729            14.820               Magadan1          1852.500
       316   08 Jun 2027 05:33:25.205   08 Jun 2027 05:34:26.538            61.333                Irkutsk          7666.625
       317   08 Jun 2027 05:34:36.301   08 Jun 2027 05:36:19.879           103.578                Novosib         12947.250
       318   08 Jun 2027 05:37:03.079   08 Jun 2027 05:37:44.777            41.698              Murmansk1          5212.250
       319   08 Jun 2027 05:37:53.478   08 Jun 2027 05:39:15.580            82.102                Norilsk         10262.750
       320   08 Jun 2027 05:40:35.078   08 Jun 2027 05:40:57.808            22.730                Norilsk          2841.250
       321   08 Jun 2027 06:12:49.610   08 Jun 2027 06:13:17.774            28.164            RioGallegos          3520.500
       322   08 Jun 2027 06:47:30.875   08 Jun 2027 06:48:03.693            32.818                Sumatra          4102.250
       323   08 Jun 2027 06:49:46.816   08 Jun 2027 06:50:11.462            24.646                Sumatra          3080.750
       324   08 Jun 2027 07:00:36.311   08 Jun 2027 07:00:42.408             6.097                  Delhi           762.125
       325   08 Jun 2027 07:03:18.557   08 Jun 2027 07:05:20.959           122.402                  Delhi         15300.250
       326   08 Jun 2027 07:10:11.252   08 Jun 2027 07:10:40.205            28.953                Norilsk          3619.125
       327   08 Jun 2027 07:10:44.469   08 Jun 2027 07:11:07.201            22.732              Murmansk2          2841.500
       328   08 Jun 2027 07:11:16.496   08 Jun 2027 07:11:31.555            15.059                Irkutsk          1882.375
       329   08 Jun 2027 07:11:32.932   08 Jun 2027 07:12:00.183            27.251              Murmansk2          3406.375
       330   08 Jun 2027 07:12:05.019   08 Jun 2027 07:13:07.798            62.779              Murmansk1          7847.375
       331   08 Jun 2027 07:13:20.824   08 Jun 2027 07:14:50.502            89.678                Novosib         11209.750
       332   08 Jun 2027 08:45:55.450   08 Jun 2027 08:46:54.301            58.851                Novosib          7356.375
       333   08 Jun 2027 08:47:09.821   08 Jun 2027 08:48:01.981            52.160                Novosib          6520.000
       334   08 Jun 2027 08:48:10.814   08 Jun 2027 08:48:16.936             6.122              Murmansk1           765.250
       335   08 Jun 2027 08:48:21.864   08 Jun 2027 08:49:24.715            62.851                 Moscow          7856.375
       336   08 Jun 2027 10:19:25.358   08 Jun 2027 10:19:55.875            30.517                 Moscow          3814.625
       337   08 Jun 2027 10:20:08.395   08 Jun 2027 10:20:40.294            31.899              Murmansk2          3987.375
       338   08 Jun 2027 10:20:49.136   08 Jun 2027 10:21:31.852            42.716                 Moscow          5339.500
       339   08 Jun 2027 10:21:44.237   08 Jun 2027 10:22:54.853            70.616                 Moscow          8827.000
       340   08 Jun 2027 10:23:02.647   08 Jun 2027 10:23:54.196            51.549                 Moscow          6443.625
       341   08 Jun 2027 10:24:20.440   08 Jun 2027 10:25:37.959            77.519              Murmansk2          9689.875
       342   08 Jun 2027 10:25:44.640   08 Jun 2027 10:26:12.230            27.590              Murmansk1          3448.750
       343   08 Jun 2027 11:30:45.275   08 Jun 2027 11:32:25.396           100.121               CapeTown         12515.125
       344   08 Jun 2027 11:33:04.772   08 Jun 2027 11:36:33.000           208.228               CapeTown         26028.500
       345   08 Jun 2027 12:10:39.330   08 Jun 2027 12:12:14.408            95.078                Anadyr1         11884.750
       346   08 Jun 2027 12:13:09.995   08 Jun 2027 12:14:33.781            83.786                Anadyr1         10473.250
       347   08 Jun 2027 12:19:24.870   08 Jun 2027 12:19:26.177             1.307                Anadyr1           163.375
       348   08 Jun 2027 13:49:38.359   08 Jun 2027 13:52:47.240           188.881               Magadan2         23610.125
       349   08 Jun 2027 13:53:58.679   08 Jun 2027 13:55:51.682           113.003               Magadan2         14125.375
       350   08 Jun 2027 17:05:32.818   08 Jun 2027 17:12:49.765           436.947                Irkutsk         54618.375
       351   08 Jun 2027 17:21:23.468   08 Jun 2027 17:23:00.446            96.978                Sumatra         12122.250
       352   08 Jun 2027 17:24:27.603   08 Jun 2027 17:26:46.880           139.277                Sumatra         17409.625
       353   08 Jun 2027 18:41:47.076   08 Jun 2027 18:44:01.071           133.995                Novosib         16749.375
       354   08 Jun 2027 18:47:19.176   08 Jun 2027 18:48:54.879            95.703                Novosib         11962.875
       355   08 Jun 2027 20:16:46.519   08 Jun 2027 20:18:02.129            75.610              Murmansk1          9451.250
       356   08 Jun 2027 21:50:39.928   08 Jun 2027 21:52:03.842            83.914              Murmansk1         10489.250
       357   08 Jun 2027 21:54:03.522   08 Jun 2027 21:55:46.495           102.973                 Moscow         12871.625
       358   08 Jun 2027 21:56:33.556   08 Jun 2027 21:57:32.669            59.113                 Moscow          7389.125
       359   08 Jun 2027 22:02:26.073   08 Jun 2027 22:02:28.150             2.077                 Moscow           259.625
       360   08 Jun 2027 22:21:03.127   08 Jun 2027 22:22:57.291           114.164               CapeTown         14270.500
       361   09 Jun 2027 04:10:38.205   09 Jun 2027 04:12:47.209           129.004                Anadyr1         16125.500
       362   09 Jun 2027 04:13:21.247   09 Jun 2027 04:13:47.312            26.065               Magadan2          3258.125
       363   09 Jun 2027 04:49:09.825   09 Jun 2027 04:49:55.559            45.734            RioGallegos          5716.750
       364   09 Jun 2027 04:53:14.113   09 Jun 2027 04:54:03.339            49.226            RioGallegos          6153.250
       365   09 Jun 2027 05:26:42.155   09 Jun 2027 05:28:19.544            97.389                Sumatra         12173.625
       366   09 Jun 2027 05:45:30.205   09 Jun 2027 05:46:46.047            75.842                Irkutsk          9480.250
       367   09 Jun 2027 05:47:01.783   09 Jun 2027 05:49:22.840           141.057                Irkutsk         17632.125
       368   09 Jun 2027 06:25:02.690   09 Jun 2027 06:25:36.065            33.375            RioGallegos          4171.875
       369   09 Jun 2027 06:30:48.794   09 Jun 2027 06:30:50.242             1.448            RioGallegos           181.000
       370   09 Jun 2027 06:59:33.859   09 Jun 2027 07:00:09.724            35.865                Sumatra          4483.125
       371   09 Jun 2027 07:07:47.037   09 Jun 2027 07:08:40.235            53.198                Sumatra          6649.750
       372   09 Jun 2027 07:15:27.473   09 Jun 2027 07:16:10.810            43.337                  Delhi          5417.125
       373   09 Jun 2027 07:21:59.318   09 Jun 2027 07:22:11.612            12.294                Irkutsk          1536.750
       374   09 Jun 2027 07:22:23.102   09 Jun 2027 07:23:28.546            65.444                 Moscow          8180.500
       375   09 Jun 2027 07:23:32.265   09 Jun 2027 07:23:47.005            14.740                 Moscow          1842.500
       376   09 Jun 2027 07:23:47.797   09 Jun 2027 07:24:07.113            19.316              Murmansk1          2414.500
       377   09 Jun 2027 07:24:41.481   09 Jun 2027 07:26:47.206           125.725                Novosib         15715.625
       378   09 Jun 2027 08:44:01.869   09 Jun 2027 08:45:02.216            60.347                  Delhi          7543.375
       379   09 Jun 2027 08:57:08.890   09 Jun 2027 08:57:40.413            31.523                 Moscow          3940.375
       380   09 Jun 2027 08:57:52.483   09 Jun 2027 08:58:11.211            18.728                Norilsk          2341.000
       381   09 Jun 2027 08:58:13.510   09 Jun 2027 08:58:34.280            20.770              Murmansk1          2596.250
       382   09 Jun 2027 08:58:43.002   09 Jun 2027 08:58:56.174            13.172                Novosib          1646.500
       383   09 Jun 2027 08:59:02.524   09 Jun 2027 09:00:08.399            65.875              Murmansk2          8234.375
       384   09 Jun 2027 09:00:20.111   09 Jun 2027 09:01:22.744            62.633                 Moscow          7829.125
       385   09 Jun 2027 10:32:02.004   09 Jun 2027 10:33:23.672            81.668              Murmansk2         10208.500
       386   09 Jun 2027 10:33:25.636   09 Jun 2027 10:34:20.417            54.781                 Moscow          6847.625
       387   09 Jun 2027 10:34:34.688   09 Jun 2027 10:34:39.581             4.893              Murmansk2           611.625
       388   09 Jun 2027 10:34:40.328   09 Jun 2027 10:34:49.883             9.555                 Moscow          1194.375
       389   09 Jun 2027 10:34:55.846   09 Jun 2027 10:35:33.507            37.661              Murmansk2          4707.625
       390   09 Jun 2027 10:35:42.573   09 Jun 2027 10:36:36.650            54.077                 Moscow          6759.625
       391   09 Jun 2027 11:42:24.021   09 Jun 2027 11:43:00.874            36.853               CapeTown          4606.625
       392   09 Jun 2027 11:44:23.629   09 Jun 2027 11:46:15.206           111.577               CapeTown         13947.125
       393   09 Jun 2027 11:46:46.964   09 Jun 2027 11:48:47.000           120.036               CapeTown         15004.500
       394   09 Jun 2027 12:22:34.431   09 Jun 2027 12:24:30.376           115.945                Anadyr2         14493.125
       395   09 Jun 2027 12:26:13.717   09 Jun 2027 12:26:53.303            39.586                Anadyr1          4948.250
       396   09 Jun 2027 12:31:26.276   09 Jun 2027 12:31:26.555             0.279                Anadyr2            34.875
       397   09 Jun 2027 14:01:22.215   09 Jun 2027 14:08:00.049           397.834               Magadan1         49729.250
       398   09 Jun 2027 16:30:32.615   09 Jun 2027 16:33:18.470           165.855            RioGallegos         20731.875
       399   09 Jun 2027 17:17:06.540   09 Jun 2027 17:20:46.636           220.096                Irkutsk         27512.000
       400   09 Jun 2027 17:22:13.440   09 Jun 2027 17:23:25.827            72.387                Irkutsk          9048.375
       401   09 Jun 2027 17:32:09.697   09 Jun 2027 17:34:38.681           148.984                Sumatra         18623.000
       402   09 Jun 2027 17:36:29.450   09 Jun 2027 17:38:28.410           118.960                Sumatra         14870.000
       403   09 Jun 2027 18:55:18.333   09 Jun 2027 18:56:02.189            43.856                Novosib          5482.000
       404   09 Jun 2027 18:58:31.390   09 Jun 2027 18:59:20.972            49.582                Novosib          6197.750
       405   09 Jun 2027 19:02:46.871   09 Jun 2027 19:04:31.787           104.916                  Delhi         13114.500
       406   09 Jun 2027 20:28:07.101   09 Jun 2027 20:29:27.205            80.104              Murmansk2         10013.000
       407   09 Jun 2027 22:03:58.969   09 Jun 2027 22:06:21.905           142.936              Murmansk1         17867.000
       408   09 Jun 2027 22:09:40.490   09 Jun 2027 22:09:57.625            17.135                 Moscow          2141.875
       409   09 Jun 2027 22:12:18.637   09 Jun 2027 22:12:51.126            32.489                 Moscow          4061.125
       410   09 Jun 2027 22:32:04.636   09 Jun 2027 22:33:37.269            92.633               CapeTown         11579.125
       411   09 Jun 2027 22:36:25.834   09 Jun 2027 22:36:33.956             8.122               CapeTown          1015.250
       412   10 Jun 2027 04:21:51.701   10 Jun 2027 04:22:29.836            38.135                Irkutsk          4766.875
       413   10 Jun 2027 04:23:58.308   10 Jun 2027 04:24:09.430            11.122               Magadan2          1390.250
       414   10 Jun 2027 04:24:14.049   10 Jun 2027 04:25:33.090            79.041                Novosib          9880.125
       415   10 Jun 2027 04:25:51.434   10 Jun 2027 04:26:07.327            15.893              Murmansk2          1986.625
       416   10 Jun 2027 04:26:12.447   10 Jun 2027 04:27:01.908            49.461              Murmansk2          6182.625
       417   10 Jun 2027 05:00:59.320   10 Jun 2027 05:01:12.615            13.295            RioGallegos          1661.875
       418   10 Jun 2027 05:02:18.446   10 Jun 2027 05:03:30.077            71.631            RioGallegos          8953.875
       419   10 Jun 2027 05:37:43.065   10 Jun 2027 05:38:40.442            57.377                Sumatra          7172.125
       420   10 Jun 2027 05:57:20.569   10 Jun 2027 05:58:24.580            64.011               Magadan1          8001.375
       421   10 Jun 2027 05:58:45.032   10 Jun 2027 06:00:31.010           105.978                Irkutsk         13247.250
       422   10 Jun 2027 06:01:17.472   10 Jun 2027 06:02:03.219            45.747                Irkutsk          5718.375
       423   10 Jun 2027 06:02:23.470   10 Jun 2027 06:02:54.721            31.251                Novosib          3906.375
       424   10 Jun 2027 06:37:19.839   10 Jun 2027 06:37:33.160            13.321            RioGallegos          1665.125
       425   10 Jun 2027 06:39:43.083   10 Jun 2027 06:39:45.693             2.610            RioGallegos           326.250
       426   10 Jun 2027 06:41:56.570   10 Jun 2027 06:41:58.933             2.363            RioGallegos           295.375
       427   10 Jun 2027 07:11:42.608   10 Jun 2027 07:13:08.789            86.181                Sumatra         10772.625
       428   10 Jun 2027 07:25:46.760   10 Jun 2027 07:26:16.666            29.906                  Delhi          3738.250
       429   10 Jun 2027 07:26:42.962   10 Jun 2027 07:27:19.599            36.637                  Delhi          4579.625
       430   10 Jun 2027 07:33:15.976   10 Jun 2027 07:34:07.953            51.977                Novosib          6497.125
       431   10 Jun 2027 07:35:25.885   10 Jun 2027 07:36:09.094            43.209              Murmansk2          5401.125
       432   10 Jun 2027 07:36:32.619   10 Jun 2027 07:37:22.116            49.497                Irkutsk          6187.125
       433   10 Jun 2027 07:37:29.639   10 Jun 2027 07:38:47.698            78.059                 Moscow          9757.375
       434   10 Jun 2027 08:56:21.124   10 Jun 2027 08:58:32.776           131.652                  Delhi         16456.500
       435   10 Jun 2027 09:09:42.617   10 Jun 2027 09:10:06.769            24.152              Murmansk1          3019.000
       436   10 Jun 2027 09:10:12.519   10 Jun 2027 09:11:30.297            77.778                Norilsk          9722.250
       437   10 Jun 2027 09:12:01.222   10 Jun 2027 09:13:26.944            85.722              Murmansk1         10715.250
       438   10 Jun 2027 10:46:32.253   10 Jun 2027 10:47:11.544            39.291                 Moscow          4911.375
       439   10 Jun 2027 10:47:24.994   10 Jun 2027 10:47:50.925            25.931                 Moscow          3241.375
       440   10 Jun 2027 10:48:22.406   10 Jun 2027 10:50:46.146           143.740                 Moscow         17967.500
       441   10 Jun 2027 11:54:08.537   10 Jun 2027 11:55:52.891           104.354               CapeTown         13044.250
       442   10 Jun 2027 12:34:30.886   10 Jun 2027 12:36:43.895           133.009                Anadyr1         16626.125
       443   10 Jun 2027 12:38:56.899   10 Jun 2027 12:39:56.540            59.641                Anadyr1          7455.125
       444   10 Jun 2027 12:42:27.216   10 Jun 2027 12:43:21.990            54.774                Anadyr2          6846.750
       445   10 Jun 2027 14:13:10.396   10 Jun 2027 14:20:05.747           415.351               Magadan1         51918.875
       446   10 Jun 2027 16:41:47.563   10 Jun 2027 16:45:05.274           197.711            RioGallegos         24713.875
       447   10 Jun 2027 17:30:54.083   10 Jun 2027 17:35:26.382           272.299                Irkutsk         34037.375
       448   10 Jun 2027 17:43:20.728   10 Jun 2027 17:46:23.976           183.248                Sumatra         22906.000
       449   10 Jun 2027 17:48:05.040   10 Jun 2027 17:49:08.194            63.154                Sumatra          7894.250
       450   10 Jun 2027 17:50:53.638   10 Jun 2027 17:51:33.450            39.812                Sumatra          4976.500
       451   10 Jun 2027 19:13:32.228   10 Jun 2027 19:16:12.161           159.933                  Delhi         19991.625
       452   10 Jun 2027 20:40:04.287   10 Jun 2027 20:41:35.470            91.183              Murmansk1         11397.875
       453   10 Jun 2027 22:16:58.245   10 Jun 2027 22:18:23.561            85.316              Murmansk2         10664.500
       454   10 Jun 2027 22:46:13.800   10 Jun 2027 22:48:27.211           133.411               CapeTown         16676.375
       455   11 Jun 2027 04:35:22.632   11 Jun 2027 04:35:51.331            28.699                Anadyr1          3587.375
       456   11 Jun 2027 04:35:57.984   11 Jun 2027 04:36:51.197            53.213                Norilsk          6651.625
       457   11 Jun 2027 04:37:07.715   11 Jun 2027 04:37:54.280            46.565               Magadan2          5820.625
       458   11 Jun 2027 05:12:51.984   11 Jun 2027 05:13:52.024            60.040            RioGallegos          7505.000
       459   11 Jun 2027 05:49:28.363   11 Jun 2027 05:50:18.374            50.011                Sumatra          6251.375
       460   11 Jun 2027 05:51:16.377   11 Jun 2027 05:52:18.972            62.595                Sumatra          7824.375
       461   11 Jun 2027 06:08:54.390   11 Jun 2027 06:09:02.676             8.286                Irkutsk          1035.750
       462   11 Jun 2027 06:09:37.905   11 Jun 2027 06:10:24.417            46.512                Irkutsk          5814.000
       463   11 Jun 2027 06:10:53.058   11 Jun 2027 06:13:16.838           143.780                Novosib         17972.500
       464   11 Jun 2027 06:13:37.575   11 Jun 2027 06:13:46.865             9.290                Novosib          1161.250
       465   11 Jun 2027 07:23:57.692   11 Jun 2027 07:24:50.317            52.625                Sumatra          6578.125
       466   11 Jun 2027 07:34:22.129   11 Jun 2027 07:34:46.298            24.169                  Delhi          3021.125
       467   11 Jun 2027 07:46:43.592   11 Jun 2027 07:46:59.548            15.956              Murmansk1          1994.500
       468   11 Jun 2027 07:47:08.373   11 Jun 2027 07:48:05.962            57.589                Novosib          7198.625
       469   11 Jun 2027 07:48:18.802   11 Jun 2027 07:49:02.985            44.183                Norilsk          5522.875
       470   11 Jun 2027 07:49:12.368   11 Jun 2027 07:50:30.611            78.243                Novosib          9780.375
       471   11 Jun 2027 07:50:33.570   11 Jun 2027 07:51:31.087            57.517                Novosib          7189.625
       472   11 Jun 2027 09:21:32.377   11 Jun 2027 09:22:37.331            64.954              Murmansk2          8119.250
       473   11 Jun 2027 09:22:52.964   11 Jun 2027 09:23:46.289            53.325                 Moscow          6665.625
       474   11 Jun 2027 09:23:59.135   11 Jun 2027 09:24:28.040            28.905              Murmansk2          3613.125
       475   11 Jun 2027 09:24:28.249   11 Jun 2027 09:24:56.410            28.161                 Moscow          3520.125
       476   11 Jun 2027 09:25:03.658   11 Jun 2027 09:25:27.391            23.733                 Moscow          2966.625
       477   11 Jun 2027 09:25:36.945   11 Jun 2027 09:26:01.723            24.778                Novosib          3097.250
       478   11 Jun 2027 09:26:19.369   11 Jun 2027 09:26:23.582             4.213                 Moscow           526.625
       479   11 Jun 2027 10:59:46.804   11 Jun 2027 10:59:47.702             0.898                 Moscow           112.250
       480   11 Jun 2027 10:59:50.463   11 Jun 2027 11:00:41.655            51.192              Murmansk2          6399.000
       481   11 Jun 2027 11:12:13.194   11 Jun 2027 11:16:06.433           233.239                Anadyr1         29154.875
       482   11 Jun 2027 12:47:48.233   11 Jun 2027 12:48:03.048            14.815                Anadyr1          1851.875
