uniorb/output/strategy_1/Drop/Drop_KinoSat_111102.txt

KinoSat_111102
-------------------------
    Access    *     Start Time (UTCG)     *     Stop Time (UTCG)  *   Duration (s)        *       Station  *  Data (Mbytes)
         1   01 Jun 2027 03:54:12.440   01 Jun 2027 03:58:07.571           235.131               Magadan2          7347.844
         2   01 Jun 2027 04:04:58.196   01 Jun 2027 04:05:20.719            22.523              Murmansk1           703.844
         3   01 Jun 2027 04:05:28.537   01 Jun 2027 04:05:33.103             4.566                Norilsk           142.688
         4   01 Jun 2027 04:05:59.554   01 Jun 2027 04:06:15.914            16.360              Murmansk2           511.250
         5   01 Jun 2027 04:07:49.102   01 Jun 2027 04:08:04.106            15.004              Murmansk2           468.875
         6   01 Jun 2027 04:09:02.507   01 Jun 2027 04:09:05.450             2.943              Murmansk1            91.969
         7   01 Jun 2027 04:09:11.214   01 Jun 2027 04:09:25.971            14.757                 Moscow           461.156
         8   01 Jun 2027 04:10:05.757   01 Jun 2027 04:10:27.471            21.714              Murmansk1           678.562
         9   01 Jun 2027 04:10:28.513   01 Jun 2027 04:11:08.430            39.917              Murmansk2          1247.406
        10   01 Jun 2027 05:27:48.740   01 Jun 2027 05:28:54.730            65.990               Magadan2          2062.187
        11   01 Jun 2027 05:28:58.808   01 Jun 2027 05:29:26.431            27.623               Magadan1           863.219
        12   01 Jun 2027 05:29:34.787   01 Jun 2027 05:29:53.416            18.629                Anadyr2           582.156
        13   01 Jun 2027 05:30:23.870   01 Jun 2027 05:34:52.929           269.059                Anadyr2          8408.094
        14   01 Jun 2027 06:15:42.887   01 Jun 2027 06:15:51.541             8.654            RioGallegos           270.438
        15   01 Jun 2027 07:02:57.300   01 Jun 2027 07:07:45.395           288.095               Magadan1          9002.969
        16   01 Jun 2027 07:07:52.272   01 Jun 2027 07:08:11.282            19.010               Magadan1           594.062
        17   01 Jun 2027 07:08:30.301   01 Jun 2027 07:09:56.324            86.023                Anadyr1          2688.219
        18   01 Jun 2027 07:10:11.416   01 Jun 2027 07:10:33.658            22.242                Novosib           695.062
        19   01 Jun 2027 07:10:48.629   01 Jun 2027 07:10:58.613             9.984                Norilsk           312.000
        20   01 Jun 2027 07:11:36.794   01 Jun 2027 07:13:43.001           126.207              Murmansk1          3943.969
        21   01 Jun 2027 07:45:40.470   01 Jun 2027 07:47:35.122           114.652            RioGallegos          3582.875
        22   01 Jun 2027 08:40:34.416   01 Jun 2027 08:40:41.885             7.469                Novosib           233.406
        23   01 Jun 2027 08:40:51.699   01 Jun 2027 08:44:06.887           195.188                Irkutsk          6099.625
        24   01 Jun 2027 08:44:22.662   01 Jun 2027 08:45:22.554            59.892              Murmansk1          1871.625
        25   01 Jun 2027 08:45:31.711   01 Jun 2027 08:46:21.097            49.386                Irkutsk          1543.312
        26   01 Jun 2027 08:46:24.089   01 Jun 2027 08:47:06.629            42.540              Murmansk2          1329.375
        27   01 Jun 2027 08:47:06.629   01 Jun 2027 08:47:36.584            29.955              Murmansk1           936.094
        28   01 Jun 2027 08:48:29.926   01 Jun 2027 08:49:13.382            43.456              Murmansk1          1358.000
        29   01 Jun 2027 09:21:56.152   01 Jun 2027 09:22:40.637            44.485            RioGallegos          1390.156
        30   01 Jun 2027 09:55:52.532   01 Jun 2027 09:57:41.243           108.711                Sumatra          3397.219
        31   01 Jun 2027 10:05:54.947   01 Jun 2027 10:06:35.294            40.347                  Delhi          1260.844
        32   01 Jun 2027 10:16:08.878   01 Jun 2027 10:16:09.511             0.633                  Delhi            19.781
        33   01 Jun 2027 10:17:12.184   01 Jun 2027 10:18:20.949            68.765                Irkutsk          2148.906
        34   01 Jun 2027 10:18:44.290   01 Jun 2027 10:20:06.376            82.086                Norilsk          2565.187
        35   01 Jun 2027 10:20:07.577   01 Jun 2027 10:21:05.045            57.468                Norilsk          1795.875
        36   01 Jun 2027 10:21:11.830   01 Jun 2027 10:21:57.866            46.036                Irkutsk          1438.625
        37   01 Jun 2027 10:22:02.958   01 Jun 2027 10:22:57.945            54.987                Novosib          1718.344
        38   01 Jun 2027 10:23:35.729   01 Jun 2027 10:24:24.652            48.923              Murmansk1          1528.844
        39   01 Jun 2027 11:40:13.694   01 Jun 2027 11:42:15.330           121.636                  Delhi          3801.125
        40   01 Jun 2027 11:55:28.969   01 Jun 2027 11:57:29.808           120.839              Murmansk1          3776.219
        41   01 Jun 2027 11:57:43.359   01 Jun 2027 11:58:43.275            59.916              Murmansk2          1872.375
        42   01 Jun 2027 11:58:43.275   01 Jun 2027 11:58:51.420             8.145              Murmansk1           254.531
        43   01 Jun 2027 12:00:31.817   01 Jun 2027 12:01:03.401            31.584              Murmansk1           987.000
        44   01 Jun 2027 12:01:11.448   01 Jun 2027 12:01:55.234            43.786              Murmansk1          1368.313
        45   01 Jun 2027 12:01:55.234   01 Jun 2027 12:01:57.380             2.146              Murmansk2            67.062
        46   01 Jun 2027 12:02:10.708   01 Jun 2027 12:02:44.163            33.455                Norilsk          1045.469
        47   01 Jun 2027 12:03:25.065   01 Jun 2027 12:03:58.998            33.933              Murmansk1          1060.406
        48   01 Jun 2027 12:04:18.583   01 Jun 2027 12:04:55.526            36.943              Murmansk2          1154.469
        49   01 Jun 2027 13:24:28.482   01 Jun 2027 13:28:29.604           241.122                 Moscow          7535.062
        50   01 Jun 2027 13:28:39.179   01 Jun 2027 13:32:04.869           205.690              Murmansk1          6427.812
        51   01 Jun 2027 13:32:08.083   01 Jun 2027 13:33:40.041            91.958                Norilsk          2873.687
        52   01 Jun 2027 13:34:24.222   01 Jun 2027 13:35:15.155            50.933                Norilsk          1591.656
        53   01 Jun 2027 13:35:43.594   01 Jun 2027 13:36:45.083            61.489                Norilsk          1921.531
        54   01 Jun 2027 13:37:24.437   01 Jun 2027 13:38:53.351            88.914                Norilsk          2778.563
        55   01 Jun 2027 13:39:11.775   01 Jun 2027 13:39:47.078            35.303              Murmansk1          1103.219
        56   01 Jun 2027 13:40:51.402   01 Jun 2027 13:40:51.993             0.591              Murmansk1            18.469
        57   01 Jun 2027 14:39:26.225   01 Jun 2027 14:40:22.593            56.368               CapeTown          1761.500
        58   01 Jun 2027 14:43:30.443   01 Jun 2027 14:43:49.504            19.061               CapeTown           595.656
        59   01 Jun 2027 14:44:39.278   01 Jun 2027 14:49:37.109           297.831               CapeTown          9307.219
        60   01 Jun 2027 15:09:37.587   01 Jun 2027 15:11:27.727           110.140                 Moscow          3441.875
        61   01 Jun 2027 15:13:19.796   01 Jun 2027 15:14:53.291            93.495              Murmansk2          2921.719
        62   01 Jun 2027 15:15:00.562   01 Jun 2027 15:15:52.892            52.330              Murmansk1          1635.312
        63   01 Jun 2027 15:16:35.093   01 Jun 2027 15:16:50.003            14.910              Murmansk2           465.938
        64   01 Jun 2027 15:21:43.811   01 Jun 2027 15:22:40.717            56.906                Anadyr2          1778.313
        65   01 Jun 2027 15:23:14.077   01 Jun 2027 15:23:30.432            16.355                Anadyr1           511.094
        66   01 Jun 2027 15:23:47.037   01 Jun 2027 15:24:02.554            15.517                Anadyr1           484.906
        67   01 Jun 2027 15:24:02.554   01 Jun 2027 15:24:16.400            13.846                Anadyr2           432.688
        68   01 Jun 2027 15:24:56.385   01 Jun 2027 15:26:03.344            66.959                Anadyr2          2092.469
        69   01 Jun 2027 15:26:03.344   01 Jun 2027 15:26:33.544            30.200                Anadyr1           943.750
        70   01 Jun 2027 15:27:30.468   01 Jun 2027 15:28:22.081            51.613                Anadyr1          1612.906
        71   01 Jun 2027 16:46:34.941   01 Jun 2027 16:46:41.106             6.165              Murmansk2           192.656
        72   01 Jun 2027 16:47:13.924   01 Jun 2027 16:47:51.345            37.421              Murmansk1          1169.406
        73   01 Jun 2027 16:48:49.449   01 Jun 2027 16:50:17.616            88.167              Murmansk2          2755.219
        74   01 Jun 2027 16:50:57.949   01 Jun 2027 16:51:12.011            14.062              Murmansk1           439.438
        75   01 Jun 2027 16:51:52.717   01 Jun 2027 16:52:29.916            37.199              Murmansk2          1162.469
        76   01 Jun 2027 16:57:23.755   01 Jun 2027 16:57:37.747            13.992                Anadyr2           437.250
        77   01 Jun 2027 16:57:53.080   01 Jun 2027 16:59:17.448            84.368               Magadan2          2636.500
        78   01 Jun 2027 17:00:07.923   01 Jun 2027 17:00:51.717            43.794               Magadan1          1368.562
        79   01 Jun 2027 17:02:10.678   01 Jun 2027 17:02:19.643             8.965               Magadan1           280.156
        80   01 Jun 2027 17:02:19.643   01 Jun 2027 17:02:29.074             9.431               Magadan2           294.719
        81   01 Jun 2027 17:03:30.255   01 Jun 2027 17:04:03.080            32.825                Anadyr1          1025.781
        82   01 Jun 2027 17:04:19.444   01 Jun 2027 17:05:37.744            78.300               Magadan2          2446.875
        83   01 Jun 2027 18:30:27.189   01 Jun 2027 18:33:07.412           160.223                Anadyr1          5006.969
        84   01 Jun 2027 18:33:20.855   01 Jun 2027 18:33:33.675            12.820               Magadan1           400.625
        85   01 Jun 2027 18:33:40.485   01 Jun 2027 18:33:52.743            12.258                Anadyr1           383.063
        86   01 Jun 2027 18:34:05.279   01 Jun 2027 18:34:20.719            15.440               Magadan1           482.500
        87   01 Jun 2027 18:35:02.466   01 Jun 2027 18:35:12.476            10.010               Magadan2           312.812
        88   01 Jun 2027 18:35:28.816   01 Jun 2027 18:36:40.447            71.631                Anadyr2          2238.469
        89   01 Jun 2027 18:38:52.935   01 Jun 2027 18:39:31.708            38.773               Magadan1          1211.656
        90   01 Jun 2027 18:41:04.717   01 Jun 2027 18:41:44.091            39.374               Magadan2          1230.437
        91   01 Jun 2027 18:42:54.126   01 Jun 2027 18:43:10.068            15.942               Magadan1           498.187
        92   01 Jun 2027 18:43:41.928   01 Jun 2027 18:43:56.448            14.520               Magadan1           453.750
        93   01 Jun 2027 18:44:17.009   01 Jun 2027 18:45:16.247            59.238               Magadan2          1851.187
        94   01 Jun 2027 19:27:49.670   01 Jun 2027 19:29:33.509           103.839            RioGallegos          3244.969
        95   01 Jun 2027 19:30:27.833   01 Jun 2027 19:30:40.370            12.537            RioGallegos           391.781
        96   01 Jun 2027 20:08:06.452   01 Jun 2027 20:08:19.986            13.534                Anadyr2           422.938
        97   01 Jun 2027 20:08:31.123   01 Jun 2027 20:10:39.266           128.143                Norilsk          4004.469
        98   01 Jun 2027 20:11:07.018   01 Jun 2027 20:11:49.744            42.726                Norilsk          1335.187
        99   01 Jun 2027 20:13:43.963   01 Jun 2027 20:16:38.823           174.860                Irkutsk          5464.375
       100   01 Jun 2027 20:18:42.909   01 Jun 2027 20:19:19.688            36.779                Irkutsk          1149.344
       101   01 Jun 2027 20:29:17.970   01 Jun 2027 20:31:01.556           103.586                Sumatra          3237.063
       102   01 Jun 2027 20:31:30.180   01 Jun 2027 20:31:55.080            24.900                Sumatra           778.125
       103   01 Jun 2027 20:34:03.700   01 Jun 2027 20:35:13.373            69.673                Sumatra          2177.281
       104   01 Jun 2027 21:45:10.882   01 Jun 2027 21:45:32.283            21.401                Norilsk           668.781
       105   01 Jun 2027 21:47:11.455   01 Jun 2027 21:47:33.878            22.423               Magadan2           700.719
       106   01 Jun 2027 21:48:08.649   01 Jun 2027 21:49:37.110            88.461                Irkutsk          2764.406
       107   01 Jun 2027 21:52:31.243   01 Jun 2027 21:53:30.279            59.036                Novosib          1844.875
       108   01 Jun 2027 21:55:01.904   01 Jun 2027 21:55:53.854            51.950                Novosib          1623.437
       109   01 Jun 2027 22:07:41.437   01 Jun 2027 22:08:23.484            42.047                Sumatra          1313.969
       110   01 Jun 2027 22:10:46.064   01 Jun 2027 22:10:54.329             8.265                Sumatra           258.281
       111   01 Jun 2027 22:11:34.434   01 Jun 2027 22:13:46.634           132.200                Sumatra          4131.250
       112   01 Jun 2027 23:18:06.553   01 Jun 2027 23:18:10.029             3.476                Anadyr1           108.625
       113   01 Jun 2027 23:20:11.243   01 Jun 2027 23:20:46.451            35.208                Norilsk          1100.250
       114   01 Jun 2027 23:20:46.674   01 Jun 2027 23:22:03.896            77.222               Magadan2          2413.188
       115   01 Jun 2027 23:22:48.086   01 Jun 2027 23:22:53.636             5.550               Magadan1           173.438
       116   01 Jun 2027 23:23:26.865   01 Jun 2027 23:24:52.507            85.642              Murmansk2          2676.312
       117   01 Jun 2027 23:24:56.894   01 Jun 2027 23:25:50.725            53.831              Murmansk1          1682.219
       118   01 Jun 2027 23:26:07.313   01 Jun 2027 23:26:44.400            37.087              Murmansk1          1158.969
       119   01 Jun 2027 23:31:23.287   01 Jun 2027 23:32:06.869            43.582                  Delhi          1361.937
       120   01 Jun 2027 23:37:22.890   01 Jun 2027 23:38:22.453            59.563                  Delhi          1861.344
       121   01 Jun 2027 23:39:34.968   01 Jun 2027 23:39:49.764            14.796                  Delhi           462.375
       122   01 Jun 2027 23:40:55.567   01 Jun 2027 23:41:01.705             6.138                  Delhi           191.812
       123   01 Jun 2027 23:41:45.423   01 Jun 2027 23:43:36.575           111.152                  Delhi          3473.500
       124   02 Jun 2027 00:49:33.606   02 Jun 2027 00:49:52.774            19.168                Anadyr2           599.000
       125   02 Jun 2027 00:51:52.421   02 Jun 2027 00:52:03.825            11.404                Anadyr1           356.375
       126   02 Jun 2027 00:52:03.825   02 Jun 2027 00:52:17.191            13.366                Anadyr2           417.688
       127   02 Jun 2027 00:54:49.011   02 Jun 2027 00:55:14.351            25.340                Anadyr2           791.875
       128   02 Jun 2027 00:55:17.463   02 Jun 2027 00:55:33.318            15.855                Anadyr1           495.469
       129   02 Jun 2027 00:55:37.171   02 Jun 2027 00:57:39.403           122.232               Magadan1          3819.750
       130   02 Jun 2027 00:58:23.451   02 Jun 2027 00:59:39.466            76.015              Murmansk1          2375.469
       131   02 Jun 2027 01:02:07.736   02 Jun 2027 01:02:59.636            51.900              Murmansk1          1621.875
       132   02 Jun 2027 01:07:09.037   02 Jun 2027 01:07:25.161            16.124                 Moscow           503.875
       133   02 Jun 2027 01:07:29.334   02 Jun 2027 01:08:33.163            63.829                 Moscow          1994.656
       134   02 Jun 2027 01:29:05.230   02 Jun 2027 01:29:32.839            27.609               CapeTown           862.781
       135   02 Jun 2027 01:31:02.865   02 Jun 2027 01:31:42.487            39.622               CapeTown          1238.188
       136   02 Jun 2027 01:36:21.082   02 Jun 2027 01:36:32.774            11.692               CapeTown           365.375
       137   02 Jun 2027 02:22:57.693   02 Jun 2027 02:24:34.653            96.960                Anadyr2          3030.000
       138   02 Jun 2027 02:25:10.111   02 Jun 2027 02:25:55.572            45.461                Anadyr1          1420.656
       139   02 Jun 2027 02:27:06.488   02 Jun 2027 02:28:26.377            79.889               Magadan2          2496.531
       140   02 Jun 2027 02:28:52.984   02 Jun 2027 02:29:41.562            48.578               Magadan2          1518.062
       141   02 Jun 2027 02:34:17.244   02 Jun 2027 02:35:57.100            99.856              Murmansk1          3120.500
       142   02 Jun 2027 02:37:56.629   02 Jun 2027 02:38:11.003            14.374                Novosib           449.187
       143   02 Jun 2027 02:39:45.668   02 Jun 2027 02:40:01.808            16.140                Novosib           504.375
       144   02 Jun 2027 02:41:28.521   02 Jun 2027 02:41:41.088            12.567                Novosib           392.719
       145   02 Jun 2027 02:42:40.113   02 Jun 2027 02:43:54.284            74.171                Novosib          2317.844
       146   02 Jun 2027 03:07:23.205   02 Jun 2027 03:08:25.877            62.672               CapeTown          1958.500
       147   02 Jun 2027 04:04:54.014   02 Jun 2027 04:05:21.155            27.141               Magadan2           848.156
       148   02 Jun 2027 04:05:21.155   02 Jun 2027 04:05:50.035            28.880               Magadan1           902.500
       149   02 Jun 2027 04:05:59.441   02 Jun 2027 04:11:03.810           304.369                Anadyr2          9511.531
       150   02 Jun 2027 05:42:11.919   02 Jun 2027 05:42:49.529            37.610               Magadan2          1175.313
       151   02 Jun 2027 05:42:54.456   02 Jun 2027 05:45:11.698           137.242                Anadyr2          4288.812
       152   02 Jun 2027 05:45:11.698   02 Jun 2027 05:45:16.891             5.193                Anadyr1           162.281
       153   02 Jun 2027 05:45:28.289   02 Jun 2027 05:45:49.333            21.044                Anadyr1           657.625
       154   02 Jun 2027 07:16:02.217   02 Jun 2027 07:17:17.961            75.744                Anadyr2          2367.000
       155   02 Jun 2027 07:17:28.255   02 Jun 2027 07:20:02.190           153.935                Anadyr2          4810.469
       156   02 Jun 2027 07:20:13.346   02 Jun 2027 07:21:02.065            48.719                Norilsk          1522.469
       157   02 Jun 2027 07:21:13.321   02 Jun 2027 07:22:23.565            70.244               Magadan1          2195.125
       158   02 Jun 2027 07:22:37.155   02 Jun 2027 07:23:26.989            49.834              Murmansk2          1557.312
       159   02 Jun 2027 07:57:27.805   02 Jun 2027 07:58:09.911            42.106            RioGallegos          1315.813
       160   02 Jun 2027 08:52:50.834   02 Jun 2027 08:53:03.545            12.711               Magadan2           397.219
       161   02 Jun 2027 08:53:19.168   02 Jun 2027 08:53:43.208            24.040                Norilsk           751.250
       162   02 Jun 2027 08:53:44.162   02 Jun 2027 08:55:18.243            94.081               Magadan1          2940.031
       163   02 Jun 2027 08:55:18.243   02 Jun 2027 08:55:50.865            32.622               Magadan2          1019.437
       164   02 Jun 2027 08:56:05.296   02 Jun 2027 08:56:08.953             3.657               Magadan2           114.281
       165   02 Jun 2027 08:56:10.871   02 Jun 2027 08:58:20.041           129.170              Murmansk1          4036.563
       166   02 Jun 2027 08:58:35.512   02 Jun 2027 08:59:42.837            67.325                Novosib          2103.906
       167   02 Jun 2027 09:33:28.840   02 Jun 2027 09:34:20.352            51.512            RioGallegos          1609.750
       168   02 Jun 2027 10:07:57.415   02 Jun 2027 10:08:00.692             3.277                Sumatra           102.406
       169   02 Jun 2027 10:10:58.533   02 Jun 2027 10:12:08.971            70.438                Sumatra          2201.187
       170   02 Jun 2027 10:17:22.487   02 Jun 2027 10:18:24.846            62.359                  Delhi          1948.719
       171   02 Jun 2027 10:28:46.059   02 Jun 2027 10:29:14.014            27.955                Irkutsk           873.594
       172   02 Jun 2027 10:29:37.337   02 Jun 2027 10:30:18.198            40.861                Irkutsk          1276.906
       173   02 Jun 2027 10:30:43.076   02 Jun 2027 10:31:36.704            53.628                Irkutsk          1675.875
       174   02 Jun 2027 10:32:11.872   02 Jun 2027 10:33:38.800            86.928                Norilsk          2716.500
       175   02 Jun 2027 10:33:44.428   02 Jun 2027 10:34:07.217            22.789                Norilsk           712.156
       176   02 Jun 2027 10:34:10.651   02 Jun 2027 10:34:19.807             9.156              Murmansk2           286.125
       177   02 Jun 2027 10:34:24.716   02 Jun 2027 10:36:32.666           127.950                 Moscow          3998.438
       178   02 Jun 2027 11:16:07.101   02 Jun 2027 11:16:28.762            21.661            RioGallegos           676.906
       179   02 Jun 2027 11:52:28.515   02 Jun 2027 11:53:41.071            72.556                  Delhi          2267.375
       180   02 Jun 2027 12:01:00.452   02 Jun 2027 12:02:19.576            79.124                  Delhi          2472.625
       181   02 Jun 2027 12:08:31.375   02 Jun 2027 12:08:52.170            20.795                Novosib           649.844
       182   02 Jun 2027 12:15:23.026   02 Jun 2027 12:15:41.619            18.593              Murmansk1           581.031
       183   02 Jun 2027 13:43:39.378   02 Jun 2027 13:44:10.713            31.335                 Moscow           979.219
       184   02 Jun 2027 13:44:53.253   02 Jun 2027 13:45:16.387            23.134                 Moscow           722.937
       185   02 Jun 2027 13:46:32.594   02 Jun 2027 13:49:39.263           186.669                Norilsk          5833.406
       186   02 Jun 2027 14:56:55.530   02 Jun 2027 14:57:54.048            58.518               CapeTown          1828.688
       187   02 Jun 2027 14:58:32.923   02 Jun 2027 15:00:02.836            89.913               CapeTown          2809.781
       188   02 Jun 2027 15:00:49.808   02 Jun 2027 15:01:07.314            17.506               CapeTown           547.062
       189   02 Jun 2027 15:24:32.419   02 Jun 2027 15:24:36.899             4.480                 Moscow           140.000
       190   02 Jun 2027 15:25:01.039   02 Jun 2027 15:27:02.529           121.490              Murmansk1          3796.562
       191   02 Jun 2027 15:34:25.796   02 Jun 2027 15:35:13.723            47.927                Anadyr2          1497.719
       192   02 Jun 2027 15:35:43.711   02 Jun 2027 15:35:56.630            12.919                Anadyr1           403.719
       193   02 Jun 2027 15:35:56.699   02 Jun 2027 15:36:12.457            15.758                Anadyr1           492.437
       194   02 Jun 2027 15:36:49.152   02 Jun 2027 15:37:49.743            60.591                Anadyr2          1893.469
       195   02 Jun 2027 15:39:26.022   02 Jun 2027 15:39:48.496            22.474                Anadyr2           702.312
       196   02 Jun 2027 15:40:24.501   02 Jun 2027 15:40:25.935             1.434                Anadyr2            44.813
       197   02 Jun 2027 15:40:28.216   02 Jun 2027 15:40:48.094            19.878                Anadyr1           621.187
       198   02 Jun 2027 15:41:01.889   02 Jun 2027 15:41:08.827             6.938                Anadyr1           216.812
       199   02 Jun 2027 16:37:29.405   02 Jun 2027 16:38:06.067            36.662               CapeTown          1145.688
       200   02 Jun 2027 16:59:15.488   02 Jun 2027 17:00:47.834            92.346              Murmansk1          2885.813
       201   02 Jun 2027 17:01:19.870   02 Jun 2027 17:02:45.997            86.127              Murmansk1          2691.469
       202   02 Jun 2027 17:13:06.202   02 Jun 2027 17:13:28.780            22.578                Anadyr1           705.563
       203   02 Jun 2027 17:13:56.260   02 Jun 2027 17:13:58.551             2.291               Magadan2            71.594
       204   02 Jun 2027 17:13:58.551   02 Jun 2027 17:14:21.292            22.741               Magadan1           710.656
       205   02 Jun 2027 17:14:31.167   02 Jun 2027 17:15:23.237            52.070               Magadan2          1627.188
       206   02 Jun 2027 17:16:51.592   02 Jun 2027 17:17:09.753            18.161                Anadyr2           567.531
       207   02 Jun 2027 17:17:31.083   02 Jun 2027 17:18:38.959            67.876               Magadan2          2121.125
       208   02 Jun 2027 18:42:28.578   02 Jun 2027 18:42:48.638            20.060                Anadyr1           626.875
       209   02 Jun 2027 18:43:08.244   02 Jun 2027 18:43:28.512            20.268                Anadyr1           633.375
       210   02 Jun 2027 18:43:39.820   02 Jun 2027 18:43:54.728            14.908                Anadyr2           465.875
       211   02 Jun 2027 18:44:26.036   02 Jun 2027 18:44:45.533            19.497                Anadyr2           609.281
       212   02 Jun 2027 18:44:47.422   02 Jun 2027 18:44:54.035             6.613               Magadan1           206.656
       213   02 Jun 2027 18:44:57.435   02 Jun 2027 18:45:24.397            26.962                Anadyr2           842.562
       214   02 Jun 2027 18:46:09.301   02 Jun 2027 18:46:30.333            21.032                Anadyr1           657.250
       215   02 Jun 2027 18:46:36.802   02 Jun 2027 18:47:40.837            64.035               Magadan2          2001.094
       216   02 Jun 2027 18:49:07.529   02 Jun 2027 18:49:15.116             7.587                Anadyr1           237.094
       217   02 Jun 2027 18:49:35.263   02 Jun 2027 18:49:47.841            12.578                Anadyr1           393.063
       218   02 Jun 2027 18:50:13.991   02 Jun 2027 18:51:09.106            55.115               Magadan1          1722.344
       219   02 Jun 2027 18:52:57.747   02 Jun 2027 18:53:37.642            39.895               Magadan1          1246.719
       220   02 Jun 2027 18:53:52.396   02 Jun 2027 18:54:06.150            13.754               Magadan2           429.812
       221   02 Jun 2027 18:55:12.192   02 Jun 2027 18:55:44.613            32.421               Magadan2          1013.156
       222   02 Jun 2027 18:56:46.587   02 Jun 2027 18:56:50.139             3.552               Magadan1           111.000
       223   02 Jun 2027 18:57:16.149   02 Jun 2027 18:57:27.241            11.092               Magadan1           346.625
       224   02 Jun 2027 19:38:35.816   02 Jun 2027 19:40:30.894           115.078            RioGallegos          3596.187
       225   02 Jun 2027 19:42:50.175   02 Jun 2027 19:43:54.280            64.105            RioGallegos          2003.281
       226   02 Jun 2027 20:20:27.444   02 Jun 2027 20:21:36.042            68.598                Norilsk          2143.687
       227   02 Jun 2027 20:23:41.814   02 Jun 2027 20:24:14.820            33.006                Norilsk          1031.437
       228   02 Jun 2027 20:24:27.206   02 Jun 2027 20:25:27.819            60.613                Norilsk          1894.156
       229   02 Jun 2027 20:26:36.567   02 Jun 2027 20:28:00.546            83.979                Irkutsk          2624.344
       230   02 Jun 2027 20:29:39.214   02 Jun 2027 20:30:28.539            49.325                Irkutsk          1541.406
       231   02 Jun 2027 20:32:15.070   02 Jun 2027 20:32:15.241             0.171                Irkutsk             5.344
       232   02 Jun 2027 20:34:01.992   02 Jun 2027 20:34:19.357            17.365                Irkutsk           542.656
       233   02 Jun 2027 20:40:13.917   02 Jun 2027 20:41:39.223            85.306                Sumatra          2665.812
       234   02 Jun 2027 20:45:55.979   02 Jun 2027 20:46:52.502            56.523                Sumatra          1766.344
       235   02 Jun 2027 21:55:42.407   02 Jun 2027 21:55:57.827            15.420                Anadyr2           481.875
       236   02 Jun 2027 21:56:13.081   02 Jun 2027 21:56:36.432            23.351                Norilsk           729.719
       237   02 Jun 2027 21:56:48.611   02 Jun 2027 21:57:02.612            14.001               Magadan1           437.531
       238   02 Jun 2027 21:57:23.782   02 Jun 2027 21:57:34.571            10.789                Norilsk           337.156
       239   02 Jun 2027 21:57:55.637   02 Jun 2027 21:58:35.172            39.535               Magadan2          1235.469
       240   02 Jun 2027 22:00:07.573   02 Jun 2027 22:01:32.209            84.636                Irkutsk          2644.875
       241   02 Jun 2027 22:04:58.407   02 Jun 2027 22:05:39.909            41.502                Novosib          1296.938
       242   02 Jun 2027 22:06:58.519   02 Jun 2027 22:07:08.320             9.801                Novosib           306.281
       243   02 Jun 2027 22:08:46.535   02 Jun 2027 22:09:24.589            38.054                Irkutsk          1189.187
       244   02 Jun 2027 22:09:25.669   02 Jun 2027 22:09:56.207            30.538                Novosib           954.313
       245   02 Jun 2027 22:11:06.296   02 Jun 2027 22:12:30.979            84.683                  Delhi          2646.344
       246   02 Jun 2027 22:24:07.767   02 Jun 2027 22:25:08.987            61.220                Sumatra          1913.125
       247   02 Jun 2027 23:27:38.789   02 Jun 2027 23:28:22.614            43.825                Anadyr1          1369.531
       248   02 Jun 2027 23:29:50.582   02 Jun 2027 23:30:10.546            19.964                Anadyr1           623.875
       249   02 Jun 2027 23:30:43.019   02 Jun 2027 23:30:43.537             0.518                Anadyr1            16.188
       250   02 Jun 2027 23:31:23.665   02 Jun 2027 23:32:24.172            60.507                Anadyr1          1890.844
       251   02 Jun 2027 23:32:46.378   02 Jun 2027 23:33:20.072            33.694               Magadan1          1052.937
       252   02 Jun 2027 23:33:53.063   02 Jun 2027 23:34:08.231            15.168                Norilsk           474.000
       253   02 Jun 2027 23:35:08.731   02 Jun 2027 23:39:39.254           270.523              Murmansk2          8453.844
       254   02 Jun 2027 23:53:22.299   02 Jun 2027 23:55:20.512           118.213                  Delhi          3694.156
       255   03 Jun 2027 01:02:54.122   03 Jun 2027 01:03:38.499            44.377                Anadyr1          1386.781
       256   03 Jun 2027 01:04:01.963   03 Jun 2027 01:04:02.144             0.181                Anadyr2             5.656
       257   03 Jun 2027 01:06:47.350   03 Jun 2027 01:07:14.914            27.564                Anadyr1           861.375
       258   03 Jun 2027 01:07:39.396   03 Jun 2027 01:09:32.010           112.614               Magadan1          3519.188
       259   03 Jun 2027 01:10:23.607   03 Jun 2027 01:10:59.214            35.607              Murmansk1          1112.719
       260   03 Jun 2027 01:11:17.614   03 Jun 2027 01:11:40.940            23.326              Murmansk2           728.938
       261   03 Jun 2027 01:13:27.017   03 Jun 2027 01:14:14.548            47.531                Novosib          1485.344
       262   03 Jun 2027 01:16:08.263   03 Jun 2027 01:16:10.884             2.621              Murmansk1            81.906
       263   03 Jun 2027 01:16:39.899   03 Jun 2027 01:16:58.303            18.404              Murmansk1           575.125
       264   03 Jun 2027 01:18:07.959   03 Jun 2027 01:18:16.217             8.258              Murmansk1           258.062
       265   03 Jun 2027 01:19:29.761   03 Jun 2027 01:19:33.044             3.283                 Moscow           102.594
       266   03 Jun 2027 01:19:39.761   03 Jun 2027 01:19:52.953            13.192                 Moscow           412.250
       267   03 Jun 2027 01:20:37.279   03 Jun 2027 01:20:50.753            13.474              Murmansk2           421.062
       268   03 Jun 2027 01:21:33.921   03 Jun 2027 01:23:25.140           111.219                 Moscow          3475.594
       269   03 Jun 2027 02:34:47.696   03 Jun 2027 02:37:22.670           154.974                Anadyr2          4842.937
       270   03 Jun 2027 02:38:36.171   03 Jun 2027 02:38:58.321            22.150               Magadan1           692.187
       271   03 Jun 2027 02:39:17.638   03 Jun 2027 02:39:30.537            12.899               Magadan2           403.094
       272   03 Jun 2027 02:39:54.211   03 Jun 2027 02:40:21.765            27.554               Magadan1           861.063
       273   03 Jun 2027 02:42:21.640   03 Jun 2027 02:42:43.091            21.451               Magadan2           670.344
       274   03 Jun 2027 02:44:00.298   03 Jun 2027 02:44:13.915            13.617                Norilsk           425.531
       275   03 Jun 2027 02:45:55.711   03 Jun 2027 02:46:25.562            29.851                Norilsk           932.844
       276   03 Jun 2027 02:46:26.907   03 Jun 2027 02:46:46.933            20.026              Murmansk2           625.812
       277   03 Jun 2027 02:48:00.068   03 Jun 2027 02:48:15.287            15.219              Murmansk2           475.594
       278   03 Jun 2027 02:48:51.702   03 Jun 2027 02:49:19.973            28.271                Novosib           883.469
       279   03 Jun 2027 02:51:03.454   03 Jun 2027 02:52:05.846            62.392                Novosib          1949.750
       280   03 Jun 2027 02:59:37.508   03 Jun 2027 02:59:45.190             7.682                 Moscow           240.062
       281   03 Jun 2027 03:00:00.849   03 Jun 2027 03:00:14.111            13.262                 Moscow           414.437
       282   03 Jun 2027 04:16:49.751   03 Jun 2027 04:19:44.643           174.892               Magadan2          5465.375
       283   03 Jun 2027 04:20:24.376   03 Jun 2027 04:21:16.605            52.229               Magadan2          1632.156
       284   03 Jun 2027 05:54:31.637   03 Jun 2027 05:55:13.656            42.019                Norilsk          1313.094
       285   03 Jun 2027 05:55:21.999   03 Jun 2027 05:58:24.217           182.218                Norilsk          5694.312
       286   03 Jun 2027 05:58:32.765   03 Jun 2027 05:58:50.539            17.774                Anadyr2           555.438
       287   03 Jun 2027 06:38:45.186   03 Jun 2027 06:39:34.416            49.230            RioGallegos          1538.437
       288   03 Jun 2027 07:28:25.725   03 Jun 2027 07:29:06.243            40.518               Magadan2          1266.187
       289   03 Jun 2027 07:29:06.243   03 Jun 2027 07:31:41.715           155.472               Magadan1          4858.500
       290   03 Jun 2027 07:31:50.450   03 Jun 2027 07:32:50.171            59.721               Magadan2          1866.281
       291   03 Jun 2027 07:32:53.125   03 Jun 2027 07:33:05.668            12.543                Anadyr2           391.969
       292   03 Jun 2027 07:33:28.377   03 Jun 2027 07:34:20.158            51.781              Murmansk2          1618.156
       293   03 Jun 2027 07:34:37.333   03 Jun 2027 07:34:45.283             7.950                Norilsk           248.437
       294   03 Jun 2027 07:35:10.917   03 Jun 2027 07:35:10.989             0.072                Norilsk             2.250
       295   03 Jun 2027 07:35:17.895   03 Jun 2027 07:35:54.981            37.086              Murmansk1          1158.938
       296   03 Jun 2027 07:36:43.357   03 Jun 2027 07:37:24.320            40.963                Norilsk          1280.094
       297   03 Jun 2027 07:43:31.382   03 Jun 2027 07:43:48.902            17.520              Murmansk2           547.500
       298   03 Jun 2027 08:09:18.325   03 Jun 2027 08:10:39.487            81.162            RioGallegos          2536.313
       299   03 Jun 2027 08:21:41.613   03 Jun 2027 08:21:44.132             2.519            RioGallegos            78.719
       300   03 Jun 2027 08:45:50.082   03 Jun 2027 08:46:28.162            38.080                Sumatra          1190.000
       301   03 Jun 2027 08:50:36.040   03 Jun 2027 08:51:34.237            58.197                Sumatra          1818.656
       302   03 Jun 2027 09:05:43.732   03 Jun 2027 09:06:20.448            36.716                Irkutsk          1147.375
       303   03 Jun 2027 09:06:22.384   03 Jun 2027 09:10:25.146           242.762                Irkutsk          7586.312
       304   03 Jun 2027 09:17:35.613   03 Jun 2027 09:17:43.064             7.451              Murmansk2           232.844
       305   03 Jun 2027 09:45:47.432   03 Jun 2027 09:46:30.602            43.170            RioGallegos          1349.063
       306   03 Jun 2027 09:47:44.971   03 Jun 2027 09:48:03.426            18.455            RioGallegos           576.719
       307   03 Jun 2027 09:49:38.619   03 Jun 2027 09:49:59.987            21.368            RioGallegos           667.750
       308   03 Jun 2027 10:20:08.221   03 Jun 2027 10:21:06.208            57.987                Sumatra          1812.094
       309   03 Jun 2027 10:24:54.132   03 Jun 2027 10:25:00.954             6.822                Sumatra           213.188
       310   03 Jun 2027 10:29:41.760   03 Jun 2027 10:30:48.114            66.354                  Delhi          2073.562
       311   03 Jun 2027 10:41:41.817   03 Jun 2027 10:41:51.450             9.633              Murmansk2           301.031
       312   03 Jun 2027 10:41:56.976   03 Jun 2027 10:42:45.430            48.454                Irkutsk          1514.188
       313   03 Jun 2027 10:42:46.497   03 Jun 2027 10:43:46.162            59.665              Murmansk1          1864.531
       314   03 Jun 2027 10:43:50.896   03 Jun 2027 10:43:53.528             2.632                Novosib            82.250
       315   03 Jun 2027 10:43:56.172   03 Jun 2027 10:44:03.125             6.953                Novosib           217.281
       316   03 Jun 2027 10:44:05.552   03 Jun 2027 10:44:23.106            17.554              Murmansk2           548.562
       317   03 Jun 2027 10:44:31.963   03 Jun 2027 10:45:04.643            32.680                Irkutsk          1021.250
       318   03 Jun 2027 10:45:11.129   03 Jun 2027 10:45:19.697             8.568                Novosib           267.750
       319   03 Jun 2027 10:45:21.145   03 Jun 2027 10:46:37.056            75.911              Murmansk1          2372.219
       320   03 Jun 2027 10:47:29.021   03 Jun 2027 10:47:32.629             3.608                 Moscow           112.750
       321   03 Jun 2027 10:48:39.448   03 Jun 2027 10:48:44.141             4.693                 Moscow           146.656
       322   03 Jun 2027 10:51:29.039   03 Jun 2027 10:52:06.288            37.249              Murmansk1          1164.031
       323   03 Jun 2027 12:04:50.117   03 Jun 2027 12:07:41.488           171.371                  Delhi          5355.344
       324   03 Jun 2027 12:13:05.370   03 Jun 2027 12:13:37.771            32.401                Novosib          1012.531
       325   03 Jun 2027 12:13:58.052   03 Jun 2027 12:14:31.985            33.933                Novosib          1060.406
       326   03 Jun 2027 12:14:32.745   03 Jun 2027 12:14:59.385            26.640                 Moscow           832.500
       327   03 Jun 2027 12:16:16.260   03 Jun 2027 12:17:41.075            84.815              Murmansk2          2650.469
       328   03 Jun 2027 12:22:39.080   03 Jun 2027 12:23:01.117            22.037              Murmansk1           688.656
       329   03 Jun 2027 13:48:34.728   03 Jun 2027 13:51:48.628           193.900                 Moscow          6059.375
       330   03 Jun 2027 13:52:06.119   03 Jun 2027 13:54:56.504           170.385              Murmansk1          5324.531
       331   03 Jun 2027 13:57:48.631   03 Jun 2027 13:58:42.645            54.014                Norilsk          1687.937
       332   03 Jun 2027 13:59:48.123   03 Jun 2027 14:00:02.161            14.038                Norilsk           438.687
       333   03 Jun 2027 14:01:41.708   03 Jun 2027 14:02:09.785            28.077                Norilsk           877.406
       334   03 Jun 2027 14:09:14.821   03 Jun 2027 14:11:18.708           123.887                Anadyr1          3871.469
       335   03 Jun 2027 15:03:34.181   03 Jun 2027 15:04:36.272            62.091               CapeTown          1940.344
       336   03 Jun 2027 15:13:03.970   03 Jun 2027 15:13:57.763            53.793               CapeTown          1681.031
       337   03 Jun 2027 15:29:44.258   03 Jun 2027 15:30:19.720            35.462              Murmansk1          1108.187
       338   03 Jun 2027 15:34:01.695   03 Jun 2027 15:35:08.808            67.113              Murmansk1          2097.281
       339   03 Jun 2027 15:42:50.957   03 Jun 2027 15:45:01.743           130.786                Anadyr1          4087.062
       340   03 Jun 2027 16:39:10.206   03 Jun 2027 16:39:23.443            13.237               CapeTown           413.656
       341   03 Jun 2027 16:39:37.141   03 Jun 2027 16:39:55.173            18.032               CapeTown           563.500
       342   03 Jun 2027 16:46:41.018   03 Jun 2027 16:48:05.772            84.754               CapeTown          2648.562
       343   03 Jun 2027 17:09:57.329   03 Jun 2027 17:11:16.828            79.499              Murmansk1          2484.344
       344   03 Jun 2027 17:11:16.828   03 Jun 2027 17:12:45.121            88.293              Murmansk2          2759.156
       345   03 Jun 2027 17:18:34.212   03 Jun 2027 17:19:16.181            41.969                Anadyr2          1311.531
       346   03 Jun 2027 17:21:28.173   03 Jun 2027 17:23:15.662           107.489               Magadan1          3359.031
       347   03 Jun 2027 17:26:27.392   03 Jun 2027 17:26:33.435             6.043               Magadan2           188.844
       348   03 Jun 2027 17:26:33.435   03 Jun 2027 17:27:06.875            33.440               Magadan1          1045.000
       349   03 Jun 2027 18:54:29.868   03 Jun 2027 18:56:27.614           117.746                Anadyr2          3679.562
       350   03 Jun 2027 18:56:35.215   03 Jun 2027 18:58:23.167           107.952                Anadyr1          3373.500
       351   03 Jun 2027 18:59:09.198   03 Jun 2027 19:00:40.213            91.015               Magadan2          2844.219
       352   03 Jun 2027 19:00:56.788   03 Jun 2027 19:01:26.201            29.413               Magadan1           919.156
       353   03 Jun 2027 19:07:47.297   03 Jun 2027 19:07:52.825             5.528               Magadan1           172.750
       354   03 Jun 2027 19:08:56.192   03 Jun 2027 19:09:35.445            39.253               Magadan1          1226.656
       355   03 Jun 2027 19:49:57.861   03 Jun 2027 19:52:57.265           179.404            RioGallegos          5606.375
       356   03 Jun 2027 19:56:28.227   03 Jun 2027 19:57:04.270            36.043            RioGallegos          1126.344
       357   03 Jun 2027 20:32:25.220   03 Jun 2027 20:35:34.069           188.849                Norilsk          5901.531
       358   03 Jun 2027 20:36:13.810   03 Jun 2027 20:36:14.748             0.938                Norilsk            29.312
       359   03 Jun 2027 20:37:03.847   03 Jun 2027 20:38:35.690            91.843                Irkutsk          2870.094
       360   03 Jun 2027 20:40:09.352   03 Jun 2027 20:40:28.562            19.210                Irkutsk           600.313
       361   03 Jun 2027 20:46:00.807   03 Jun 2027 20:46:28.024            27.217                Irkutsk           850.531
       362   03 Jun 2027 20:51:29.948   03 Jun 2027 20:54:16.832           166.884                Sumatra          5215.125
       363   03 Jun 2027 20:57:52.215   03 Jun 2027 20:58:23.209            30.994                Sumatra           968.562
       364   03 Jun 2027 22:08:14.830   03 Jun 2027 22:08:47.985            33.155                Norilsk          1036.094
       365   03 Jun 2027 22:10:05.238   03 Jun 2027 22:11:12.929            67.691               Magadan2          2115.344
       366   03 Jun 2027 22:12:07.518   03 Jun 2027 22:13:10.428            62.910                Irkutsk          1965.938
       367   03 Jun 2027 22:13:19.754   03 Jun 2027 22:14:00.814            41.060                Novosib          1283.125
       368   03 Jun 2027 22:21:36.974   03 Jun 2027 22:24:07.594           150.620                  Delhi          4706.875
       369   03 Jun 2027 23:39:38.683   03 Jun 2027 23:40:20.107            41.424                Anadyr2          1294.500
       370   03 Jun 2027 23:41:51.591   03 Jun 2027 23:42:00.661             9.070                Anadyr1           283.437
       371   03 Jun 2027 23:44:15.055   03 Jun 2027 23:45:59.115           104.060                Norilsk          3251.875
       372   03 Jun 2027 23:46:00.614   03 Jun 2027 23:46:55.631            55.017               Magadan2          1719.281
       373   03 Jun 2027 23:46:57.653   03 Jun 2027 23:48:52.321           114.668              Murmansk2          3583.375
       374   03 Jun 2027 23:49:00.147   03 Jun 2027 23:50:34.639            94.492              Murmansk1          2952.875
       375   03 Jun 2027 23:52:10.038   03 Jun 2027 23:53:06.626            56.588              Murmansk2          1768.375
       376   04 Jun 2027 00:37:38.817   04 Jun 2027 00:38:24.282            45.465            RioGallegos          1420.781
       377   04 Jun 2027 01:12:38.725   04 Jun 2027 01:13:11.325            32.600                Anadyr1          1018.750
       378   04 Jun 2027 01:13:12.992   04 Jun 2027 01:13:48.095            35.103                Anadyr2          1096.969
       379   04 Jun 2027 01:14:14.712   04 Jun 2027 01:14:55.466            40.754                Anadyr2          1273.562
       380   04 Jun 2027 01:18:29.563   04 Jun 2027 01:20:32.391           122.828               Magadan1          3838.375
       381   04 Jun 2027 01:20:58.442   04 Jun 2027 01:22:06.509            68.067               Magadan1          2127.094
       382   04 Jun 2027 01:22:24.195   04 Jun 2027 01:23:42.786            78.591              Murmansk1          2455.969
       383   04 Jun 2027 01:23:42.786   04 Jun 2027 01:23:47.504             4.718              Murmansk2           147.438
       384   04 Jun 2027 01:26:11.453   04 Jun 2027 01:26:19.232             7.779                Irkutsk           243.094
       385   04 Jun 2027 01:26:34.674   04 Jun 2027 01:26:43.872             9.198                 Moscow           287.438
       386   04 Jun 2027 01:29:37.883   04 Jun 2027 01:30:17.876            39.993                 Moscow          1249.781
       387   04 Jun 2027 01:34:40.869   04 Jun 2027 01:35:07.420            26.551                  Delhi           829.719
       388   04 Jun 2027 01:51:29.214   04 Jun 2027 01:51:54.437            25.223               CapeTown           788.219
       389   04 Jun 2027 01:55:06.512   04 Jun 2027 01:56:17.298            70.786               CapeTown          2212.063
       390   04 Jun 2027 02:46:39.184   04 Jun 2027 02:49:12.102           152.918                Anadyr1          4778.687
       391   04 Jun 2027 02:51:38.135   04 Jun 2027 02:52:14.402            36.267               Magadan2          1133.344
       392   04 Jun 2027 02:56:01.089   04 Jun 2027 02:56:25.499            24.410                Norilsk           762.813
       393   04 Jun 2027 02:57:51.729   04 Jun 2027 02:57:54.680             2.951                Norilsk            92.219
       394   04 Jun 2027 02:58:20.860   04 Jun 2027 03:00:01.507           100.647              Murmansk1          3145.219
       395   04 Jun 2027 03:05:29.961   04 Jun 2027 03:08:34.056           184.095                 Moscow          5752.969
       396   04 Jun 2027 03:08:51.666   04 Jun 2027 03:10:40.915           109.249                 Moscow          3414.031
       397   04 Jun 2027 03:11:02.613   04 Jun 2027 03:11:11.107             8.494              Murmansk2           265.438
       398   04 Jun 2027 03:25:30.571   04 Jun 2027 03:27:43.929           133.358               CapeTown          4167.438
       399   04 Jun 2027 04:22:17.534   04 Jun 2027 04:23:16.306            58.772                Anadyr2          1836.625
       400   04 Jun 2027 04:23:29.799   04 Jun 2027 04:25:06.770            96.971               Magadan1          3030.344
       401   04 Jun 2027 04:28:32.713   04 Jun 2027 04:32:45.077           252.364               Magadan1          7886.375
       402   04 Jun 2027 04:32:45.077   04 Jun 2027 04:33:12.841            27.764               Magadan2           867.625
       403   04 Jun 2027 04:33:18.639   04 Jun 2027 04:35:06.312           107.673                Anadyr1          3364.781
       404   04 Jun 2027 06:05:51.117   04 Jun 2027 06:06:10.248            19.131                Irkutsk           597.844
       405   04 Jun 2027 06:06:28.978   04 Jun 2027 06:08:53.138           144.160               Magadan1          4505.000
       406   04 Jun 2027 06:09:13.997   04 Jun 2027 06:10:37.113            83.116                Anadyr1          2597.375
       407   04 Jun 2027 07:41:43.764   04 Jun 2027 07:43:39.932           116.168               Magadan2          3630.250
       408   04 Jun 2027 07:43:39.932   04 Jun 2027 07:45:02.124            82.192               Magadan1          2568.500
       409   04 Jun 2027 07:45:10.054   04 Jun 2027 07:45:24.884            14.830                Irkutsk           463.438
       410   04 Jun 2027 07:45:27.112   04 Jun 2027 07:45:55.412            28.300               Magadan2           884.375
       411   04 Jun 2027 07:46:01.513   04 Jun 2027 07:47:20.564            79.051              Murmansk2          2470.344
       412   04 Jun 2027 07:48:49.614   04 Jun 2027 07:48:54.399             4.785              Murmansk1           149.531
       413   04 Jun 2027 07:49:32.572   04 Jun 2027 07:50:17.782            45.210              Murmansk1          1412.812
       414   04 Jun 2027 08:21:12.029   04 Jun 2027 08:22:06.241            54.212            RioGallegos          1694.125
       415   04 Jun 2027 08:22:38.511   04 Jun 2027 08:23:25.085            46.574            RioGallegos          1455.437
       416   04 Jun 2027 08:57:12.836   04 Jun 2027 08:58:01.660            48.824                Sumatra          1525.750
       417   04 Jun 2027 09:02:23.825   04 Jun 2027 09:02:52.982            29.157                Sumatra           911.156
       418   04 Jun 2027 09:16:41.196   04 Jun 2027 09:17:14.986            33.790                Irkutsk          1055.937
       419   04 Jun 2027 09:17:18.502   04 Jun 2027 09:17:29.118            10.616                Norilsk           331.750
       420   04 Jun 2027 09:17:30.008   04 Jun 2027 09:17:56.272            26.264                Novosib           820.750
       421   04 Jun 2027 09:18:00.080   04 Jun 2027 09:18:05.658             5.578                Irkutsk           174.312
       422   04 Jun 2027 09:18:20.166   04 Jun 2027 09:18:35.520            15.354                Irkutsk           479.812
       423   04 Jun 2027 09:19:08.844   04 Jun 2027 09:19:19.024            10.180                Norilsk           318.125
       424   04 Jun 2027 09:19:25.117   04 Jun 2027 09:19:58.844            33.727              Murmansk2          1053.969
       425   04 Jun 2027 09:19:58.844   04 Jun 2027 09:20:21.743            22.899              Murmansk1           715.594
       426   04 Jun 2027 09:20:27.830   04 Jun 2027 09:20:28.037             0.207                Irkutsk             6.469
       427   04 Jun 2027 09:20:35.661   04 Jun 2027 09:21:31.294            55.633              Murmansk2          1738.531
       428   04 Jun 2027 09:21:35.242   04 Jun 2027 09:21:42.578             7.336                Norilsk           229.250
       429   04 Jun 2027 09:21:59.775   04 Jun 2027 09:22:06.433             6.658                Norilsk           208.062
       430   04 Jun 2027 09:22:10.962   04 Jun 2027 09:22:25.917            14.955                Irkutsk           467.344
       431   04 Jun 2027 09:22:37.418   04 Jun 2027 09:22:58.414            20.996              Murmansk2           656.125
       432   04 Jun 2027 09:28:38.711   04 Jun 2027 09:29:10.354            31.643              Murmansk1           988.844
       433   04 Jun 2027 09:58:10.651   04 Jun 2027 09:58:32.464            21.813            RioGallegos           681.656
       434   04 Jun 2027 10:02:10.488   04 Jun 2027 10:03:04.674            54.186            RioGallegos          1693.312
       435   04 Jun 2027 10:32:25.678   04 Jun 2027 10:33:57.070            91.392                Sumatra          2856.000
       436   04 Jun 2027 10:53:46.886   04 Jun 2027 10:54:03.061            16.175                Norilsk           505.469
       437   04 Jun 2027 10:54:06.766   04 Jun 2027 10:54:12.953             6.187                Novosib           193.344
       438   04 Jun 2027 10:54:30.541   04 Jun 2027 10:55:14.149            43.608                 Moscow          1362.750
       439   04 Jun 2027 10:55:19.674   04 Jun 2027 10:55:28.811             9.137                Novosib           285.531
       440   04 Jun 2027 10:55:32.717   04 Jun 2027 10:55:43.814            11.097              Murmansk1           346.781
       441   04 Jun 2027 10:55:43.814   04 Jun 2027 10:55:53.450             9.636              Murmansk2           301.125
       442   04 Jun 2027 10:56:01.126   04 Jun 2027 10:56:04.741             3.615                Novosib           112.969
       443   04 Jun 2027 10:56:07.170   04 Jun 2027 10:56:42.589            35.419              Murmansk1          1106.844
       444   04 Jun 2027 10:56:44.724   04 Jun 2027 10:56:54.285             9.561              Murmansk1           298.781
       445   04 Jun 2027 10:57:11.803   04 Jun 2027 10:57:52.721            40.918              Murmansk2          1278.687
       446   04 Jun 2027 11:02:02.544   04 Jun 2027 11:02:08.103             5.559              Murmansk2           173.719
       447   04 Jun 2027 12:17:19.812   04 Jun 2027 12:20:38.215           198.403                  Delhi          6200.094
       448   04 Jun 2027 12:25:43.958   04 Jun 2027 12:26:34.206            50.248                Novosib          1570.250
       449   04 Jun 2027 12:26:56.985   04 Jun 2027 12:27:04.829             7.844                 Moscow           245.125
       450   04 Jun 2027 12:28:00.635   04 Jun 2027 12:28:27.486            26.851                Novosib           839.094
       451   04 Jun 2027 12:28:34.369   04 Jun 2027 12:29:42.551            68.182              Murmansk1          2130.687
       452   04 Jun 2027 12:29:58.610   04 Jun 2027 12:30:16.498            17.888              Murmansk2           559.000
       453   04 Jun 2027 12:34:32.834   04 Jun 2027 12:35:12.750            39.916              Murmansk1          1247.375
       454   04 Jun 2027 14:00:42.403   04 Jun 2027 14:02:33.478           111.075                 Moscow          3471.094
       455   04 Jun 2027 14:04:13.780   04 Jun 2027 14:06:20.628           126.848              Murmansk1          3964.000
       456   04 Jun 2027 14:06:20.628   04 Jun 2027 14:08:11.452           110.824              Murmansk2          3463.250
       457   04 Jun 2027 14:10:52.854   04 Jun 2027 14:11:50.240            57.386                Norilsk          1793.313
       458   04 Jun 2027 14:13:25.436   04 Jun 2027 14:14:13.977            48.541                Norilsk          1516.906
       459   04 Jun 2027 14:20:20.404   04 Jun 2027 14:22:41.172           140.768                Anadyr1          4399.000
       460   04 Jun 2027 15:15:28.198   04 Jun 2027 15:15:58.367            30.169               CapeTown           942.781
       461   04 Jun 2027 15:42:07.926   04 Jun 2027 15:42:37.484            29.558              Murmansk1           923.688
       462   04 Jun 2027 15:43:17.714   04 Jun 2027 15:43:35.479            17.765              Murmansk2           555.156
       463   04 Jun 2027 15:45:13.741   04 Jun 2027 15:45:36.522            22.781              Murmansk2           711.906
       464   04 Jun 2027 15:47:08.392   04 Jun 2027 15:47:11.143             2.751              Murmansk2            85.969
       465   04 Jun 2027 15:51:21.268   04 Jun 2027 15:52:02.968            41.700              Murmansk1          1303.125
       466   04 Jun 2027 15:54:48.922   04 Jun 2027 15:57:02.756           133.834                Anadyr2          4182.312
       467   04 Jun 2027 16:01:07.619   04 Jun 2027 16:01:13.579             5.960                Anadyr1           186.250
       468   04 Jun 2027 16:50:34.759   04 Jun 2027 16:51:20.992            46.233               CapeTown          1444.781
       469   04 Jun 2027 16:55:46.170   04 Jun 2027 16:55:58.975            12.805               CapeTown           400.156
       470   04 Jun 2027 17:22:49.779   04 Jun 2027 17:26:59.268           249.489              Murmansk2          7796.531
       471   04 Jun 2027 17:30:35.455   04 Jun 2027 17:31:11.832            36.377                Anadyr1          1136.781
       472   04 Jun 2027 17:31:12.788   04 Jun 2027 17:31:46.689            33.901                Anadyr2          1059.406
       473   04 Jun 2027 17:33:20.284   04 Jun 2027 17:35:15.665           115.381               Magadan2          3605.656
       474   04 Jun 2027 19:06:31.020   04 Jun 2027 19:10:26.325           235.305                Anadyr1          7353.281
       475   04 Jun 2027 19:10:37.227   04 Jun 2027 19:12:02.327            85.100               Magadan2          2659.375
       476   04 Jun 2027 19:14:15.089   04 Jun 2027 19:14:18.959             3.870               Magadan2           120.938
       477   04 Jun 2027 19:17:06.709   04 Jun 2027 19:17:22.636            15.927               Magadan2           497.719
       478   04 Jun 2027 19:18:44.936   04 Jun 2027 19:19:15.417            30.481               Magadan2           952.531
       479   04 Jun 2027 20:01:32.592   04 Jun 2027 20:04:39.197           186.605            RioGallegos          5831.406
       480   04 Jun 2027 20:06:48.667   04 Jun 2027 20:06:51.249             2.582            RioGallegos            80.687
       481   04 Jun 2027 20:42:14.372   04 Jun 2027 20:44:27.341           132.969                Anadyr1          4155.281
       482   04 Jun 2027 20:44:43.670   04 Jun 2027 20:47:04.702           141.032                Norilsk          4407.250
