uniorb/output/strategy_1/Drop/Drop_KinoSat_110209.txt

KinoSat_110209
-------------------------
    Access    *     Start Time (UTCG)     *     Stop Time (UTCG)  *   Duration (s)        *       Station  *  Data (Mbytes)
         1   01 Jun 2027 03:24:06.441   01 Jun 2027 03:24:22.641            16.200               Magadan1          2025.000
         2   01 Jun 2027 03:25:11.966   01 Jun 2027 03:27:38.878           146.912               Magadan1         18364.000
         3   01 Jun 2027 03:27:38.878   01 Jun 2027 03:29:11.646            92.768               Magadan2         11596.000
         4   01 Jun 2027 03:35:32.475   01 Jun 2027 03:36:08.136            35.661              Murmansk1          4457.625
         5   01 Jun 2027 04:04:54.228   01 Jun 2027 04:05:04.861            10.633            RioGallegos          1329.125
         6   01 Jun 2027 04:06:47.365   01 Jun 2027 04:08:04.682            77.317            RioGallegos          9664.625
         7   01 Jun 2027 04:39:47.203   01 Jun 2027 04:43:49.323           242.120                Sumatra         30265.000
         8   01 Jun 2027 05:02:27.677   01 Jun 2027 05:03:07.768            40.091                Irkutsk          5011.375
         9   01 Jun 2027 05:03:15.516   01 Jun 2027 05:04:26.894            71.378                Novosib          8922.250
        10   01 Jun 2027 05:04:43.594   01 Jun 2027 05:05:45.840            62.246                Novosib          7780.750
        11   01 Jun 2027 06:18:52.147   01 Jun 2027 06:21:11.440           139.293                Sumatra         17411.625
        12   01 Jun 2027 06:24:51.140   01 Jun 2027 06:25:48.503            57.363                  Delhi          7170.375
        13   01 Jun 2027 06:40:11.594   01 Jun 2027 06:41:12.828            61.234                 Moscow          7654.250
        14   01 Jun 2027 06:41:35.902   01 Jun 2027 06:42:37.194            61.292              Murmansk1          7661.500
        15   01 Jun 2027 06:43:23.875   01 Jun 2027 06:43:26.026             2.151                 Moscow           268.875
        16   01 Jun 2027 06:44:20.584   01 Jun 2027 06:44:58.322            37.738                 Moscow          4717.250
        17   01 Jun 2027 08:13:16.020   01 Jun 2027 08:15:14.290           118.270                 Moscow         14783.750
        18   01 Jun 2027 08:15:37.090   01 Jun 2027 08:16:16.721            39.631                 Moscow          4953.875
        19   01 Jun 2027 08:16:30.502   01 Jun 2027 08:16:52.452            21.950                Norilsk          2743.750
        20   01 Jun 2027 08:17:28.546   01 Jun 2027 08:19:58.247           149.701                Norilsk         18712.625
        21   01 Jun 2027 08:23:35.318   01 Jun 2027 08:23:40.006             4.688              Murmansk2           586.000
        22   01 Jun 2027 09:23:27.749   01 Jun 2027 09:29:27.495           359.746               CapeTown         44968.250
        23   01 Jun 2027 10:07:32.585   01 Jun 2027 10:08:33.945            61.360                Anadyr1          7670.000
        24   01 Jun 2027 11:38:24.402   01 Jun 2027 11:38:37.519            13.117                Anadyr1          1639.625
        25   01 Jun 2027 13:16:42.771   01 Jun 2027 13:22:44.089           361.318               Magadan1         45164.750
        26   01 Jun 2027 15:44:22.933   01 Jun 2027 15:47:35.991           193.058            RioGallegos         24132.250
        27   01 Jun 2027 16:32:04.570   01 Jun 2027 16:33:39.873            95.303                Irkutsk         11912.875
        28   01 Jun 2027 16:40:35.476   01 Jun 2027 16:41:11.534            36.058                Novosib          4507.250
        29   01 Jun 2027 16:45:45.267   01 Jun 2027 16:48:53.169           187.902                Sumatra         23487.750
        30   01 Jun 2027 18:12:40.737   01 Jun 2027 18:12:58.389            17.652                Novosib          2206.500
        31   01 Jun 2027 18:14:48.509   01 Jun 2027 18:15:06.955            18.446                Novosib          2305.750
        32   01 Jun 2027 18:15:24.428   01 Jun 2027 18:18:02.024           157.596                  Delhi         19699.500
        33   01 Jun 2027 18:20:02.397   01 Jun 2027 18:20:43.377            40.980                  Delhi          5122.500
        34   01 Jun 2027 19:46:32.114   01 Jun 2027 19:47:33.110            60.996                 Moscow          6851.875
        35   02 Jun 2027 03:40:34.322   02 Jun 2027 03:40:49.518            15.196               Magadan2          1899.500
        36   02 Jun 2027 03:42:22.568   02 Jun 2027 03:42:55.811            33.243                Norilsk          4155.375
        37   02 Jun 2027 03:49:13.723   02 Jun 2027 03:49:20.392             6.669              Murmansk2           833.625
        38   02 Jun 2027 04:17:03.605   02 Jun 2027 04:17:57.226            53.621            RioGallegos          6702.625
        39   02 Jun 2027 04:19:15.169   02 Jun 2027 04:20:03.426            48.257            RioGallegos          6032.125
        40   02 Jun 2027 04:23:05.688   02 Jun 2027 04:23:11.505             5.817            RioGallegos           727.125
        41   02 Jun 2027 04:23:58.968   02 Jun 2027 04:24:58.476            59.508            RioGallegos          7438.500
        42   02 Jun 2027 04:25:05.882   02 Jun 2027 04:25:27.908            22.026            RioGallegos          2753.250
        43   02 Jun 2027 04:51:44.727   02 Jun 2027 04:54:33.167           168.440                Sumatra         21055.000
        44   02 Jun 2027 05:02:42.768   02 Jun 2027 05:05:08.960           146.192                  Delhi         18274.000
        45   02 Jun 2027 05:13:44.425   02 Jun 2027 05:13:56.015            11.590                Irkutsk          1448.750
        46   02 Jun 2027 05:13:59.421   02 Jun 2027 05:14:06.221             6.800                Irkutsk           850.000
        47   02 Jun 2027 05:15:04.999   02 Jun 2027 05:15:50.560            45.561                Irkutsk          5695.125
        48   02 Jun 2027 05:15:55.085   02 Jun 2027 05:17:48.457           113.372                Novosib         14171.500
        49   02 Jun 2027 05:57:10.776   02 Jun 2027 05:58:06.063            55.287            RioGallegos          6910.875
        50   02 Jun 2027 06:36:03.086   02 Jun 2027 06:37:17.123            74.037                  Delhi          9254.625
        51   02 Jun 2027 06:38:40.878   02 Jun 2027 06:40:52.199           131.321                  Delhi         16415.125
        52   02 Jun 2027 06:52:29.156   02 Jun 2027 06:53:18.014            48.858                 Moscow          6107.250
        53   02 Jun 2027 06:53:26.279   02 Jun 2027 06:54:15.278            48.999                Norilsk          6124.875
        54   02 Jun 2027 06:55:33.828   02 Jun 2027 06:55:59.677            25.849                 Moscow          3231.125
        55   02 Jun 2027 08:25:57.690   02 Jun 2027 08:26:56.282            58.592                 Moscow          7324.000
        56   02 Jun 2027 08:27:08.210   02 Jun 2027 08:27:55.157            46.947              Murmansk1          5868.375
        57   02 Jun 2027 08:28:10.119   02 Jun 2027 08:29:13.304            63.185              Murmansk1          7898.125
        58   02 Jun 2027 08:29:21.364   02 Jun 2027 08:29:30.364             9.000                Norilsk          1125.000
        59   02 Jun 2027 08:29:45.949   02 Jun 2027 08:31:10.594            84.645              Murmansk1         10580.625
        60   02 Jun 2027 09:34:58.628   02 Jun 2027 09:42:08.467           429.839               CapeTown         53729.875
        61   02 Jun 2027 10:19:23.618   02 Jun 2027 10:19:47.925            24.307                Anadyr2          3038.375
        62   02 Jun 2027 11:54:43.367   02 Jun 2027 11:55:08.953            25.586               Magadan2          3198.250
        63   02 Jun 2027 11:57:57.056   02 Jun 2027 11:58:50.540            53.484               Magadan1          6685.500
        64   02 Jun 2027 11:59:06.193   02 Jun 2027 12:01:27.201           141.008               Magadan1         17626.000
        65   02 Jun 2027 13:28:41.097   02 Jun 2027 13:29:36.356            55.259               Magadan2          6907.375
        66   02 Jun 2027 15:14:46.410   02 Jun 2027 15:17:04.736           138.326                Irkutsk         17290.750
        67   02 Jun 2027 15:25:35.861   02 Jun 2027 15:27:22.044           106.183                Sumatra         13272.875
        68   02 Jun 2027 16:00:53.300   02 Jun 2027 16:01:36.531            43.231            RioGallegos          5403.875
        69   02 Jun 2027 16:05:47.555   02 Jun 2027 16:07:34.028           106.473            RioGallegos         13309.125
        70   02 Jun 2027 16:44:57.834   02 Jun 2027 16:46:18.368            80.534                Novosib         10066.750
        71   02 Jun 2027 16:48:47.638   02 Jun 2027 16:49:08.669            21.031                Irkutsk          2628.875
        72   02 Jun 2027 16:57:45.581   02 Jun 2027 17:00:05.909           140.328                Sumatra         17541.000
        73   02 Jun 2027 17:04:46.765   02 Jun 2027 17:05:28.877            42.112                Sumatra          5264.000
        74   02 Jun 2027 18:23:50.363   02 Jun 2027 18:24:53.974            63.611                Novosib          7951.375
        75   02 Jun 2027 18:27:17.248   02 Jun 2027 18:30:15.820           178.572                  Delhi         22321.500
        76   02 Jun 2027 18:35:02.129   02 Jun 2027 18:36:41.567            99.438                  Delhi         12429.750
        77   02 Jun 2027 19:59:47.513   02 Jun 2027 20:01:00.918            73.405                 Moscow          9175.625
        78   02 Jun 2027 21:44:53.261   02 Jun 2027 21:46:15.427            82.166                 Moscow         10270.750
        79   02 Jun 2027 21:59:09.730   02 Jun 2027 22:00:03.342            53.612               CapeTown          6701.500
        80   03 Jun 2027 03:30:54.877   03 Jun 2027 03:33:12.056           137.179                Sumatra         17147.375
        81   03 Jun 2027 03:35:24.270   03 Jun 2027 03:38:16.119           171.849                Sumatra         21481.125
        82   03 Jun 2027 05:03:47.838   03 Jun 2027 05:05:43.095           115.257                Sumatra         14407.125
        83   03 Jun 2027 05:11:35.893   03 Jun 2027 05:13:28.963           113.070                Sumatra         14133.750
        84   03 Jun 2027 05:22:35.900   03 Jun 2027 05:24:16.622           100.722                  Delhi         12590.250
        85   03 Jun 2027 05:28:16.050   03 Jun 2027 05:29:14.699            58.649                Irkutsk          7331.125
        86   03 Jun 2027 05:29:23.317   03 Jun 2027 05:29:43.628            20.311              Murmansk1          2538.875
        87   03 Jun 2027 05:29:46.454   03 Jun 2027 05:31:44.329           117.875                Novosib         14734.375
        88   03 Jun 2027 06:48:15.991   03 Jun 2027 06:48:52.999            37.008                  Delhi          4626.000
        89   03 Jun 2027 06:54:29.192   03 Jun 2027 06:55:09.493            40.301                  Delhi          5037.625
        90   03 Jun 2027 07:03:26.585   03 Jun 2027 07:03:40.313            13.728                 Moscow          1716.000
        91   03 Jun 2027 07:03:44.425   03 Jun 2027 07:04:46.242            61.817              Murmansk1          7727.125
        92   03 Jun 2027 07:05:04.804   03 Jun 2027 07:05:33.583            28.779              Murmansk1          3597.375
        93   03 Jun 2027 07:05:41.719   03 Jun 2027 07:06:15.782            34.063                Novosib          4257.875
        94   03 Jun 2027 07:06:21.238   03 Jun 2027 07:07:06.649            45.411                 Moscow          5676.375
        95   03 Jun 2027 08:38:53.278   03 Jun 2027 08:39:09.778            16.500              Murmansk2          2062.500
        96   03 Jun 2027 08:39:21.631   03 Jun 2027 08:39:57.328            35.697              Murmansk1          4462.125
        97   03 Jun 2027 08:39:57.328   03 Jun 2027 08:40:04.641             7.313              Murmansk2           914.125
        98   03 Jun 2027 08:40:12.551   03 Jun 2027 08:41:08.141            55.590              Murmansk1          6948.750
        99   03 Jun 2027 08:41:59.001   03 Jun 2027 08:42:50.608            51.607                 Moscow          6450.875
       100   03 Jun 2027 09:46:37.512   03 Jun 2027 09:53:01.975           384.463               CapeTown         48057.875
       101   03 Jun 2027 10:31:18.140   03 Jun 2027 10:33:22.992           124.852                Anadyr1         15606.500
       102   03 Jun 2027 12:06:32.519   03 Jun 2027 12:07:53.937            81.418               Magadan1         10177.250
       103   03 Jun 2027 12:11:15.706   03 Jun 2027 12:11:43.836            28.130               Magadan2          3516.250
       104   03 Jun 2027 13:44:13.825   03 Jun 2027 13:45:27.745            73.920               Magadan1          9240.000
       105   03 Jun 2027 13:48:47.409   03 Jun 2027 13:50:14.369            86.960               Magadan1         10870.000
       106   03 Jun 2027 15:25:59.503   03 Jun 2027 15:26:59.500            59.997                Irkutsk          7499.625
       107   03 Jun 2027 15:36:22.623   03 Jun 2027 15:41:33.471           310.848                Sumatra         38856.000
       108   03 Jun 2027 16:56:43.609   03 Jun 2027 16:59:57.186           193.577                Novosib         24197.125
       109   03 Jun 2027 17:06:58.800   03 Jun 2027 17:10:11.718           192.918                  Delhi         24114.750
       110   03 Jun 2027 18:39:13.722   03 Jun 2027 18:42:23.709           189.987                  Delhi         23748.375
       111   03 Jun 2027 20:10:05.677   03 Jun 2027 20:10:33.671            27.994                 Moscow          3499.250
       112   03 Jun 2027 20:13:05.881   03 Jun 2027 20:14:29.007            83.126                 Moscow         10390.750
       113   03 Jun 2027 20:17:00.459   03 Jun 2027 20:19:33.196           152.737                 Moscow         19092.125
       114   03 Jun 2027 22:14:49.054   03 Jun 2027 22:14:52.564             3.510               CapeTown           438.750
       115   03 Jun 2027 22:16:56.909   03 Jun 2027 22:18:44.884           107.975               CapeTown         13496.875
       116   04 Jun 2027 03:41:56.143   04 Jun 2027 03:44:57.245           181.102                Sumatra         22637.750
       117   04 Jun 2027 03:47:40.919   04 Jun 2027 03:50:56.843           195.924                Sumatra         24490.500
       118   04 Jun 2027 05:24:56.495   04 Jun 2027 05:26:45.652           109.157                  Delhi         13644.625
       119   04 Jun 2027 05:39:07.603   04 Jun 2027 05:39:23.639            16.036                Novosib          2004.500
       120   04 Jun 2027 05:40:00.563   04 Jun 2027 05:40:11.807            11.244                 Moscow          1405.500
       121   04 Jun 2027 05:40:12.624   04 Jun 2027 05:40:40.436            27.812                 Moscow          3476.500
       122   04 Jun 2027 05:40:46.974   04 Jun 2027 05:41:36.016            49.042                Irkutsk          6130.250
       123   04 Jun 2027 05:41:47.648   04 Jun 2027 05:42:13.633            25.985                Norilsk          3248.125
       124   04 Jun 2027 05:43:31.912   04 Jun 2027 05:43:45.036            13.124                Novosib          1640.500
       125   04 Jun 2027 07:00:35.390   04 Jun 2027 07:02:46.553           131.163                  Delhi         16395.375
       126   04 Jun 2027 07:15:31.809   04 Jun 2027 07:15:46.563            14.754                 Moscow          1844.250
       127   04 Jun 2027 07:16:05.472   04 Jun 2027 07:17:02.618            57.146                Novosib          7143.250
       128   04 Jun 2027 07:17:24.719   04 Jun 2027 07:18:47.234            82.515              Murmansk1         10314.375
       129   04 Jun 2027 07:18:51.077   04 Jun 2027 07:18:59.016             7.939                Novosib           992.375
       130   04 Jun 2027 07:20:53.998   04 Jun 2027 07:21:05.520            11.522                 Moscow          1440.250
       131   04 Jun 2027 08:51:04.609   04 Jun 2027 08:51:47.965            43.356                 Moscow          5419.500
       132   04 Jun 2027 08:52:11.164   04 Jun 2027 08:53:30.597            79.433              Murmansk2          9929.125
       133   04 Jun 2027 08:53:30.597   04 Jun 2027 08:54:18.459            47.862              Murmansk1          5982.750
       134   04 Jun 2027 09:58:22.150   04 Jun 2027 10:02:45.230           263.080               CapeTown         32885.000
       135   04 Jun 2027 10:38:44.573   04 Jun 2027 10:40:16.648            92.075                Anadyr1         11509.375
       136   04 Jun 2027 10:43:10.398   04 Jun 2027 10:43:25.302            14.904                Anadyr2          1863.000
       137   04 Jun 2027 12:14:26.362   04 Jun 2027 12:14:47.337            20.975                Anadyr1          2621.875
       138   04 Jun 2027 12:15:41.322   04 Jun 2027 12:16:08.485            27.163                Anadyr2          3395.375
       139   04 Jun 2027 12:17:23.923   04 Jun 2027 12:18:17.508            53.585               Magadan1          6698.125
       140   04 Jun 2027 12:18:17.508   04 Jun 2027 12:21:46.469           208.961               Magadan2         26120.125
       141   04 Jun 2027 13:52:39.831   04 Jun 2027 13:53:18.169            38.338               Magadan1          4792.250
       142   04 Jun 2027 13:53:51.151   04 Jun 2027 13:55:44.186           113.035               Magadan2         14129.375
       143   04 Jun 2027 15:33:01.214   04 Jun 2027 15:37:10.003           248.789                Irkutsk         31098.625
       144   04 Jun 2027 15:47:33.928   04 Jun 2027 15:50:52.200           198.272                Sumatra         24784.000
       145   04 Jun 2027 15:53:46.737   04 Jun 2027 15:56:39.726           172.989                Sumatra         21623.625
       146   04 Jun 2027 17:11:48.299   04 Jun 2027 17:12:57.691            69.392                Novosib          8674.000
       147   04 Jun 2027 17:17:45.035   04 Jun 2027 17:20:37.787           172.752                  Delhi         21594.000
       148   04 Jun 2027 18:51:13.588   04 Jun 2027 18:52:28.452            74.864                  Delhi          9358.000
       149   04 Jun 2027 20:21:57.145   04 Jun 2027 20:26:03.432           246.287                 Moscow         30785.875
       150   04 Jun 2027 22:24:01.589   04 Jun 2027 22:26:18.556           136.967               CapeTown         17120.875
       151   05 Jun 2027 03:53:15.084   05 Jun 2027 03:56:48.629           213.545                Sumatra         26693.125
       152   05 Jun 2027 04:17:36.554   05 Jun 2027 04:18:18.055            41.501                Irkutsk          5187.625
       153   05 Jun 2027 04:53:55.723   05 Jun 2027 04:54:56.720            60.997            RioGallegos          7624.625
       154   05 Jun 2027 05:28:11.970   05 Jun 2027 05:28:41.418            29.448                Sumatra          3681.000
       155   05 Jun 2027 05:30:31.495   05 Jun 2027 05:32:39.103           127.608                Sumatra         15951.000
       156   05 Jun 2027 05:36:36.116   05 Jun 2027 05:39:00.372           144.256                  Delhi         18032.000
       157   05 Jun 2027 05:51:47.926   05 Jun 2027 05:52:08.901            20.975                Irkutsk          2621.875
       158   05 Jun 2027 05:52:29.239   05 Jun 2027 05:53:23.984            54.745                Irkutsk          6843.125
       159   05 Jun 2027 07:27:40.135   05 Jun 2027 07:28:46.078            65.943              Murmansk1          8242.875
       160   05 Jun 2027 07:28:53.411   05 Jun 2027 07:30:01.631            68.220                 Moscow          8527.500
       161   05 Jun 2027 10:10:11.273   05 Jun 2027 10:12:43.219           151.946               CapeTown         18993.250
       162   05 Jun 2027 10:50:42.137   05 Jun 2027 10:51:52.011            69.874                Anadyr1          8734.250
       163   05 Jun 2027 10:54:59.372   05 Jun 2027 10:57:42.170           162.798                Anadyr2         20349.750
       164   05 Jun 2027 12:29:15.175   05 Jun 2027 12:33:43.872           268.697               Magadan2         33587.125
       165   05 Jun 2027 14:04:40.031   05 Jun 2027 14:05:12.301            32.270               Magadan2          4033.750
       166   05 Jun 2027 14:06:21.926   05 Jun 2027 14:07:52.576            90.650               Magadan1         11331.250
       167   05 Jun 2027 15:01:21.470   05 Jun 2027 15:03:07.322           105.852            RioGallegos         13231.500
       168   05 Jun 2027 15:44:47.394   05 Jun 2027 15:47:33.604           166.210                Irkutsk         20776.250
       169   05 Jun 2027 16:01:19.081   05 Jun 2027 16:02:46.483            87.402                Sumatra         10925.250
       170   05 Jun 2027 16:05:53.863   05 Jun 2027 16:08:12.789           138.926                Sumatra         17365.750
       171   05 Jun 2027 17:20:24.895   05 Jun 2027 17:21:41.808            76.913                Novosib          9614.125
       172   05 Jun 2027 17:29:00.185   05 Jun 2027 17:32:26.129           205.944                  Delhi         25743.000
       173   05 Jun 2027 19:03:16.727   05 Jun 2027 19:04:24.612            67.885                  Delhi          8485.625
       174   05 Jun 2027 19:05:13.897   05 Jun 2027 19:06:23.190            69.293                  Delhi          8661.625
       175   05 Jun 2027 19:10:04.500   05 Jun 2027 19:11:10.592            66.092                  Delhi          8261.500
       176   05 Jun 2027 20:33:50.733   05 Jun 2027 20:36:09.537           138.804                 Moscow         17350.500
       177   05 Jun 2027 22:06:38.493   05 Jun 2027 22:07:11.193            32.700              Murmansk1          4087.500
       178   05 Jun 2027 22:12:43.730   05 Jun 2027 22:14:18.312            94.582                 Moscow         11822.750
       179   05 Jun 2027 22:33:29.758   05 Jun 2027 22:34:24.581            54.823               CapeTown          6852.875
       180   06 Jun 2027 04:04:45.396   06 Jun 2027 04:08:45.739           240.343                Sumatra         30042.875
       181   06 Jun 2027 05:40:34.719   06 Jun 2027 05:42:11.072            96.353                Sumatra         12044.125
       182   06 Jun 2027 05:48:21.683   06 Jun 2027 05:51:10.928           169.245                  Delhi         21155.625
       183   06 Jun 2027 06:04:03.334   06 Jun 2027 06:05:59.175           115.841                Novosib         14480.125
       184   06 Jun 2027 07:40:13.076   06 Jun 2027 07:41:33.616            80.540                 Moscow         10067.500
       185   06 Jun 2027 07:41:44.830   06 Jun 2027 07:41:59.838            15.008                 Moscow          1876.000
       186   06 Jun 2027 07:42:08.217   06 Jun 2027 07:42:26.620            18.403                 Moscow          2300.375
       187   06 Jun 2027 07:42:28.105   06 Jun 2027 07:42:51.219            23.114                Norilsk          2889.250
       188   06 Jun 2027 07:47:27.211   06 Jun 2027 07:47:29.888             2.677              Murmansk2           334.625
       189   06 Jun 2027 07:48:20.785   06 Jun 2027 07:48:49.263            28.478              Murmansk1          3559.750
       190   06 Jun 2027 09:29:43.012   06 Jun 2027 09:30:08.379            25.367                Anadyr2          3170.875
       191   06 Jun 2027 10:22:04.103   06 Jun 2027 10:25:03.622           179.519               CapeTown         22439.875
       192   06 Jun 2027 10:31:20.008   06 Jun 2027 10:31:35.215            15.207               CapeTown          1900.875
       193   06 Jun 2027 11:02:40.532   06 Jun 2027 11:03:36.162            55.630                Anadyr1          6953.750
       194   06 Jun 2027 11:06:43.098   06 Jun 2027 11:07:42.333            59.235                Anadyr1          7404.375
       195   06 Jun 2027 11:07:47.496   06 Jun 2027 11:09:50.295           122.799                Anadyr2         15349.875
       196   06 Jun 2027 12:41:08.598   06 Jun 2027 12:45:42.167           273.569               Magadan2         34196.125
       197   06 Jun 2027 14:16:40.684   06 Jun 2027 14:18:48.379           127.695               Magadan1         15961.875
       198   06 Jun 2027 15:09:12.035   06 Jun 2027 15:13:18.080           246.045            RioGallegos         30755.625
       199   06 Jun 2027 15:57:47.777   06 Jun 2027 16:00:38.470           170.693                Irkutsk         21336.625
       200   06 Jun 2027 17:32:18.862   06 Jun 2027 17:34:28.509           129.647                Novosib         16205.875
       201   06 Jun 2027 17:40:29.024   06 Jun 2027 17:47:15.996           406.972                  Delhi         50871.500
       202   06 Jun 2027 20:45:46.007   06 Jun 2027 20:47:29.377           103.370                 Moscow         12921.250
       203   06 Jun 2027 22:48:31.177   06 Jun 2027 22:50:11.448           100.271               CapeTown         12533.875
       204   07 Jun 2027 03:04:07.011   07 Jun 2027 03:04:19.252            12.241               Magadan2          1530.125
       205   07 Jun 2027 03:04:55.707   07 Jun 2027 03:05:10.616            14.909                Norilsk          1863.625
       206   07 Jun 2027 03:05:14.007   07 Jun 2027 03:05:38.836            24.829                Irkutsk          3103.625
       207   07 Jun 2027 03:05:47.958   07 Jun 2027 03:06:45.267            57.309                Novosib          7163.625
       208   07 Jun 2027 03:41:00.881   07 Jun 2027 03:43:17.472           136.591            RioGallegos         17073.875
       209   07 Jun 2027 03:43:46.523   07 Jun 2027 03:44:12.244            25.721            RioGallegos          3215.125
       210   07 Jun 2027 03:44:18.873   07 Jun 2027 03:44:53.221            34.348            RioGallegos          4293.500
       211   07 Jun 2027 04:16:24.212   07 Jun 2027 04:20:48.437           264.225                Sumatra         33028.125
       212   07 Jun 2027 04:37:40.723   07 Jun 2027 04:38:47.435            66.712                Irkutsk          8339.000
       213   07 Jun 2027 04:39:15.753   07 Jun 2027 04:39:37.029            21.276                Irkutsk          2659.500
       214   07 Jun 2027 04:40:29.859   07 Jun 2027 04:40:53.965            24.106                Novosib          3013.250
       215   07 Jun 2027 04:41:03.279   07 Jun 2027 04:41:19.167            15.888              Murmansk2          1986.000
       216   07 Jun 2027 04:41:19.167   07 Jun 2027 04:41:33.942            14.775              Murmansk1          1846.875
       217   07 Jun 2027 04:41:51.614   07 Jun 2027 04:43:09.668            78.054                Novosib          9756.750
       218   07 Jun 2027 05:20:25.487   07 Jun 2027 05:20:57.396            31.909            RioGallegos          3988.625
       219   07 Jun 2027 05:53:07.148   07 Jun 2027 05:55:06.527           119.379                Sumatra         14922.375
       220   07 Jun 2027 06:00:12.771   07 Jun 2027 06:03:17.847           185.076                  Delhi         23134.500
       221   07 Jun 2027 06:16:32.795   07 Jun 2027 06:17:17.417            44.622              Murmansk2          5577.750
       222   07 Jun 2027 06:17:26.340   07 Jun 2027 06:17:50.475            24.135              Murmansk1          3016.875
       223   07 Jun 2027 06:17:50.475   07 Jun 2027 06:18:31.274            40.799              Murmansk2          5099.875
       224   07 Jun 2027 07:38:29.007   07 Jun 2027 07:39:06.619            37.612                  Delhi          4701.500
       225   07 Jun 2027 07:51:19.037   07 Jun 2027 07:53:03.847           104.810              Murmansk1         13101.250
       226   07 Jun 2027 07:53:21.114   07 Jun 2027 07:54:21.296            60.182              Murmansk1          7522.750
       227   07 Jun 2027 07:54:29.176   07 Jun 2027 07:55:06.432            37.256                Norilsk          4657.000
       228   07 Jun 2027 09:01:30.895   07 Jun 2027 09:03:39.885           128.990               CapeTown         16123.750
       229   07 Jun 2027 10:34:00.142   07 Jun 2027 10:36:10.032           129.890               CapeTown         16236.250
       230   07 Jun 2027 11:14:39.592   07 Jun 2027 11:15:25.114            45.522                Anadyr2          5690.250
       231   07 Jun 2027 11:15:58.629   07 Jun 2027 11:19:26.400           207.771                Anadyr1         25971.375
       232   07 Jun 2027 12:53:03.686   07 Jun 2027 12:54:53.613           109.927               Magadan2         13740.875
       233   07 Jun 2027 12:57:48.725   07 Jun 2027 12:58:17.973            29.248               Magadan1          3656.000
       234   07 Jun 2027 13:00:18.747   07 Jun 2027 13:04:03.728           224.981               Magadan1         28122.625
       235   07 Jun 2027 15:20:57.167   07 Jun 2027 15:23:33.698           156.531            RioGallegos         19566.375
       236   07 Jun 2027 16:08:29.190   07 Jun 2027 16:11:22.804           173.614                Irkutsk         21701.750
       237   07 Jun 2027 16:22:16.305   07 Jun 2027 16:24:48.912           152.607                Sumatra         19075.875
       238   07 Jun 2027 17:44:14.437   07 Jun 2027 17:46:30.495           136.058                Novosib         17007.250
       239   07 Jun 2027 17:52:06.540   07 Jun 2027 17:56:14.909           248.369                  Delhi         31046.125
       240   07 Jun 2027 20:54:19.679   07 Jun 2027 20:54:38.760            19.081              Murmansk2          2385.125
       241   07 Jun 2027 20:57:42.641   07 Jun 2027 20:59:03.799            81.158                 Moscow         10144.750
       242   07 Jun 2027 21:22:06.752   07 Jun 2027 21:22:58.035            51.283               CapeTown          6410.375
       243   08 Jun 2027 03:14:28.078   08 Jun 2027 03:15:08.016            39.938               Magadan2          4992.250
       244   08 Jun 2027 03:16:06.686   08 Jun 2027 03:17:41.804            95.118               Magadan2         11889.750
       245   08 Jun 2027 03:18:10.456   08 Jun 2027 03:18:45.474            35.018              Murmansk1          4377.250
       246   08 Jun 2027 03:53:03.323   08 Jun 2027 03:54:31.040            87.717            RioGallegos         10964.625
       247   08 Jun 2027 03:56:02.079   08 Jun 2027 03:56:18.887            16.808            RioGallegos          2101.000
       248   08 Jun 2027 03:57:36.929   08 Jun 2027 03:57:49.467            12.538            RioGallegos          1567.250
       249   08 Jun 2027 04:28:10.012   08 Jun 2027 04:32:56.895           286.883                Sumatra         35860.375
       250   08 Jun 2027 04:50:54.078   08 Jun 2027 04:51:55.109            61.031                Novosib          7628.875
       251   08 Jun 2027 04:52:12.984   08 Jun 2027 04:52:46.170            33.186                Norilsk          4148.250
       252   08 Jun 2027 04:53:01.012   08 Jun 2027 04:53:23.351            22.339              Murmansk2          2792.375
       253   08 Jun 2027 04:53:34.433   08 Jun 2027 04:54:39.524            65.091              Murmansk2          8136.375
       254   08 Jun 2027 04:55:10.521   08 Jun 2027 04:55:20.495             9.974              Murmansk2          1246.750
       255   08 Jun 2027 05:31:34.729   08 Jun 2027 05:32:24.820            50.091            RioGallegos          6261.375
       256   08 Jun 2027 05:33:42.039   08 Jun 2027 05:33:56.538            14.499            RioGallegos          1812.375
       257   08 Jun 2027 06:05:53.922   08 Jun 2027 06:07:15.898            81.976                Sumatra         10247.000
       258   08 Jun 2027 06:12:09.187   08 Jun 2027 06:14:00.549           111.362                  Delhi         13920.250
       259   08 Jun 2027 06:28:16.635   08 Jun 2027 06:28:44.113            27.478                Norilsk          3434.750
       260   08 Jun 2027 06:29:11.527   08 Jun 2027 06:30:19.536            68.009              Murmansk2          8501.125
       261   08 Jun 2027 06:30:19.536   08 Jun 2027 06:30:32.362            12.826              Murmansk1          1603.250
       262   08 Jun 2027 06:30:34.243   08 Jun 2027 06:31:06.723            32.480                Novosib          4060.000
       263   08 Jun 2027 07:51:42.355   08 Jun 2027 07:53:27.555           105.200                  Delhi         13150.000
       264   08 Jun 2027 08:00:47.660   08 Jun 2027 08:01:52.350            64.690              Murmansk2          8086.250
       265   08 Jun 2027 08:02:00.744   08 Jun 2027 08:02:07.056             6.312                 Moscow           789.000
       266   08 Jun 2027 08:02:15.971   08 Jun 2027 08:03:22.992            67.021                Novosib          8377.625
       267   08 Jun 2027 08:03:27.165   08 Jun 2027 08:04:09.801            42.636                 Moscow          5329.500
       268   08 Jun 2027 08:04:24.386   08 Jun 2027 08:04:28.640             4.254                Norilsk           531.750
       269   08 Jun 2027 08:04:28.709   08 Jun 2027 08:04:34.079             5.370                 Moscow           671.250
       270   08 Jun 2027 08:04:34.310   08 Jun 2027 08:04:51.311            17.001              Murmansk2          2125.125
       271   08 Jun 2027 08:04:57.189   08 Jun 2027 08:04:59.541             2.352              Murmansk1           294.000
       272   08 Jun 2027 08:05:00.469   08 Jun 2027 08:05:31.904            31.435                 Moscow          3929.375
       273   08 Jun 2027 08:06:04.158   08 Jun 2027 08:06:53.653            49.495                Norilsk          6186.875
       274   08 Jun 2027 08:07:03.818   08 Jun 2027 08:07:31.900            28.082              Murmansk2          3510.250
       275   08 Jun 2027 09:12:23.474   08 Jun 2027 09:15:24.161           180.687               CapeTown         22585.875
       276   08 Jun 2027 09:53:27.933   08 Jun 2027 09:55:01.743            93.810                Anadyr2         11726.250
       277   08 Jun 2027 11:26:39.194   08 Jun 2027 11:27:35.247            56.053                Anadyr2          7006.625
       278   08 Jun 2027 11:29:10.185   08 Jun 2027 11:29:16.096             5.911                Anadyr1           738.875
       279   08 Jun 2027 11:29:16.096   08 Jun 2027 11:32:47.144           211.048                Anadyr2         26381.000
       280   08 Jun 2027 13:05:00.092   08 Jun 2027 13:09:40.865           280.773               Magadan1         35096.625
       281   08 Jun 2027 15:32:46.002   08 Jun 2027 15:36:42.192           236.190            RioGallegos         29523.750
       282   08 Jun 2027 16:34:05.245   08 Jun 2027 16:39:03.439           298.194                Sumatra         37274.250
       283   08 Jun 2027 17:56:11.330   08 Jun 2027 17:57:28.793            77.463                Novosib          9682.875
       284   08 Jun 2027 18:03:50.346   08 Jun 2027 18:08:14.553           264.207                  Delhi         33025.875
       285   08 Jun 2027 21:16:29.267   08 Jun 2027 21:17:45.176            75.909                 Moscow          9488.625
       286   08 Jun 2027 21:33:50.370   08 Jun 2027 21:36:31.184           160.814               CapeTown         20101.750
       287   09 Jun 2027 03:27:53.823   09 Jun 2027 03:29:26.180            92.357               Magadan1         11544.625
       288   09 Jun 2027 03:30:40.772   09 Jun 2027 03:30:45.316             4.544                Norilsk           568.000
       289   09 Jun 2027 03:30:49.186   09 Jun 2027 03:31:37.689            48.503                Novosib          6062.875
       290   09 Jun 2027 03:34:38.085   09 Jun 2027 03:35:02.799            24.714              Murmansk1          3089.250
       291   09 Jun 2027 03:35:20.189   09 Jun 2027 03:35:26.515             6.326                Norilsk           790.750
       292   09 Jun 2027 03:35:54.958   09 Jun 2027 03:36:29.273            34.315              Murmansk1          4289.375
       293   09 Jun 2027 04:05:09.180   09 Jun 2027 04:05:24.382            15.202            RioGallegos          1900.250
       294   09 Jun 2027 04:08:19.498   09 Jun 2027 04:08:59.721            40.223            RioGallegos          5027.875
       295   09 Jun 2027 04:40:01.938   09 Jun 2027 04:44:02.719           240.781                Sumatra         30097.625
       296   09 Jun 2027 05:02:41.900   09 Jun 2027 05:05:28.561           166.661                Irkutsk         20832.625
       297   09 Jun 2027 05:06:03.844   09 Jun 2027 05:07:07.751            63.907              Murmansk2          7988.375
       298   09 Jun 2027 06:19:08.700   09 Jun 2027 06:21:25.909           137.209                Sumatra         17151.125
       299   09 Jun 2027 06:24:10.898   09 Jun 2027 06:25:04.358            53.460                  Delhi          6682.500
       300   09 Jun 2027 06:26:32.417   09 Jun 2027 06:27:21.695            49.278                  Delhi          6159.750
       301   09 Jun 2027 06:40:28.282   09 Jun 2027 06:41:05.141            36.859                 Moscow          4607.375
       302   09 Jun 2027 06:41:26.812   09 Jun 2027 06:42:52.249            85.437              Murmansk1         10679.625
       303   09 Jun 2027 08:11:48.033   09 Jun 2027 08:12:45.876            57.843                 Moscow          7230.375
       304   09 Jun 2027 08:13:26.884   09 Jun 2027 08:15:19.051           112.167              Murmansk2         14020.875
       305   09 Jun 2027 08:15:22.759   09 Jun 2027 08:15:25.028             2.269                Norilsk           283.625
       306   09 Jun 2027 08:15:32.722   09 Jun 2027 08:16:30.999            58.277                 Moscow          7284.625
       307   09 Jun 2027 08:16:38.572   09 Jun 2027 08:16:56.200            17.628              Murmansk1          2203.500
       308   09 Jun 2027 08:17:04.161   09 Jun 2027 08:18:07.738            63.577              Murmansk2          7947.125
       309   09 Jun 2027 08:18:15.295   09 Jun 2027 08:18:35.174            19.879                 Moscow          2484.875
       310   09 Jun 2027 08:18:56.743   09 Jun 2027 08:19:46.410            49.667                Norilsk          6208.375
       311   09 Jun 2027 08:20:12.369   09 Jun 2027 08:20:14.096             1.727              Murmansk1           215.875
       312   09 Jun 2027 08:20:45.769   09 Jun 2027 08:21:36.233            50.464              Murmansk1          6308.000
       313   09 Jun 2027 09:23:41.977   09 Jun 2027 09:27:13.002           211.025               CapeTown         26378.125
       314   09 Jun 2027 11:05:07.415   09 Jun 2027 11:05:49.020            41.605               CapeTown          5200.625
       315   09 Jun 2027 11:38:39.225   09 Jun 2027 11:39:11.321            32.096                Anadyr1          4012.000
       316   09 Jun 2027 11:41:14.559   09 Jun 2027 11:43:28.419           133.860                Anadyr1         16732.500
       317   09 Jun 2027 11:46:31.710   09 Jun 2027 11:48:36.616           124.906               Magadan1         15613.250
       318   09 Jun 2027 13:16:57.553   09 Jun 2027 13:18:04.813            67.260               Magadan2          8407.500
       319   09 Jun 2027 13:19:16.782   09 Jun 2027 13:22:59.233           222.451               Magadan1         27806.375
       320   09 Jun 2027 15:44:37.621   09 Jun 2027 15:46:23.576           105.955            RioGallegos         13244.375
       321   09 Jun 2027 15:54:07.045   09 Jun 2027 15:56:16.993           129.948            RioGallegos         16243.500
       322   09 Jun 2027 16:32:19.331   09 Jun 2027 16:33:54.177            94.846                Irkutsk         11855.750
       323   09 Jun 2027 16:40:50.843   09 Jun 2027 16:41:27.257            36.414                Novosib          4551.750
       324   09 Jun 2027 16:41:49.783   09 Jun 2027 16:41:51.587             1.804                Irkutsk           225.500
       325   09 Jun 2027 16:51:27.361   09 Jun 2027 16:53:24.567           117.206                Sumatra         14650.750
       326   09 Jun 2027 18:10:45.984   09 Jun 2027 18:12:55.750           129.766                Novosib         16220.750
       327   09 Jun 2027 18:15:39.093   09 Jun 2027 18:18:17.137           158.044                  Delhi         19755.500
       328   09 Jun 2027 19:46:46.625   09 Jun 2027 19:47:57.840            71.215                 Moscow          8901.875
       329   09 Jun 2027 21:25:22.392   09 Jun 2027 21:26:27.786            65.394                 Moscow          8174.250
       330   09 Jun 2027 21:26:40.199   09 Jun 2027 21:28:52.083           131.884                 Moscow         16485.500
       331   09 Jun 2027 21:46:42.283   09 Jun 2027 21:48:38.824           116.541               CapeTown         14567.625
       332   10 Jun 2027 03:20:45.975   10 Jun 2027 03:23:15.373           149.398                Sumatra         18674.750
       333   10 Jun 2027 03:40:13.337   10 Jun 2027 03:40:27.366            14.029               Magadan2          1753.625
       334   10 Jun 2027 03:40:49.256   10 Jun 2027 03:41:03.913            14.657               Magadan2          1832.125
       335   10 Jun 2027 03:41:22.270   10 Jun 2027 03:41:32.864            10.594                Irkutsk          1324.250
       336   10 Jun 2027 03:42:08.028   10 Jun 2027 03:42:25.809            17.781                Novosib          2222.625
       337   10 Jun 2027 03:42:40.600   10 Jun 2027 03:43:11.436            30.836              Murmansk1          3854.500
       338   10 Jun 2027 03:45:06.089   10 Jun 2027 03:46:01.691            55.602                Norilsk          6950.250
       339   10 Jun 2027 04:17:18.619   10 Jun 2027 04:17:44.807            26.188            RioGallegos          3273.500
       340   10 Jun 2027 04:24:45.615   10 Jun 2027 04:25:20.885            35.270            RioGallegos          4408.750
       341   10 Jun 2027 04:25:41.418   10 Jun 2027 04:27:03.385            81.967            RioGallegos         10245.875
       342   10 Jun 2027 04:51:59.557   10 Jun 2027 04:52:35.900            36.343                Sumatra          4542.875
       343   10 Jun 2027 04:59:14.035   10 Jun 2027 04:59:35.129            21.094                Sumatra          2636.750
       344   10 Jun 2027 05:02:43.627   10 Jun 2027 05:05:23.691           160.064                  Delhi         20008.000
       345   10 Jun 2027 05:14:54.479   10 Jun 2027 05:15:07.878            13.399                Novosib          1674.875
       346   10 Jun 2027 05:15:09.298   10 Jun 2027 05:15:39.170            29.872                Novosib          3734.000
       347   10 Jun 2027 05:15:52.584   10 Jun 2027 05:16:52.618            60.034              Murmansk2          7504.250
       348   10 Jun 2027 05:17:04.185   10 Jun 2027 05:17:15.411            11.226              Murmansk2          1403.250
       349   10 Jun 2027 05:17:23.739   10 Jun 2027 05:17:25.274             1.535                 Moscow           191.875
       350   10 Jun 2027 05:17:25.708   10 Jun 2027 05:18:14.773            49.065                Norilsk          6133.125
       351   10 Jun 2027 05:18:30.035   10 Jun 2027 05:19:56.925            86.890                Novosib         10861.250
       352   10 Jun 2027 06:36:18.080   10 Jun 2027 06:37:31.414            73.334                  Delhi          9166.750
       353   10 Jun 2027 06:38:55.769   10 Jun 2027 06:41:06.822           131.053                  Delhi         16381.625
       354   10 Jun 2027 06:52:33.553   10 Jun 2027 06:52:44.211            10.658                 Moscow          1332.250
       355   10 Jun 2027 06:52:47.333   10 Jun 2027 06:53:00.615            13.282                Novosib          1660.250
       356   10 Jun 2027 06:53:01.599   10 Jun 2027 06:53:24.918            23.319              Murmansk1          2914.875
       357   10 Jun 2027 06:53:26.299   10 Jun 2027 06:53:41.523            15.224                Norilsk          1903.000
       358   10 Jun 2027 06:53:53.648   10 Jun 2027 06:55:22.690            89.042              Murmansk2         11130.250
       359   10 Jun 2027 08:24:00.069   10 Jun 2027 08:24:58.147            58.078                 Moscow          7259.750
       360   10 Jun 2027 08:25:22.140   10 Jun 2027 08:26:15.911            53.771                 Moscow          6721.375
       361   10 Jun 2027 08:27:10.284   10 Jun 2027 08:30:10.794           180.510                 Moscow         22563.750
       362   10 Jun 2027 08:30:29.575   10 Jun 2027 08:31:38.383            68.808                 Moscow          8601.000
       363   10 Jun 2027 09:35:13.025   10 Jun 2027 09:39:05.601           232.576               CapeTown         29072.000
       364   10 Jun 2027 09:41:58.746   10 Jun 2027 09:42:21.871            23.125               CapeTown          2890.625
       365   10 Jun 2027 10:16:56.330   10 Jun 2027 10:19:41.056           164.726                Anadyr1         20590.750
       366   10 Jun 2027 11:50:39.615   10 Jun 2027 11:53:01.514           141.899                Anadyr2         17737.375
       367   10 Jun 2027 11:55:00.363   10 Jun 2027 11:55:30.793            30.430               Magadan1          3803.750
       368   10 Jun 2027 13:28:55.894   10 Jun 2027 13:31:16.251           140.357               Magadan2         17544.625
       369   10 Jun 2027 13:38:29.617   10 Jun 2027 13:38:57.179            27.562               Magadan1          3445.250
       370   10 Jun 2027 15:15:00.888   10 Jun 2027 15:17:20.595           139.707                Irkutsk         17463.375
       371   10 Jun 2027 15:25:49.083   10 Jun 2027 15:27:36.568           107.485                Sumatra         13435.625
       372   10 Jun 2027 15:29:28.613   10 Jun 2027 15:31:54.703           146.090                Sumatra         18261.250
       373   10 Jun 2027 16:45:12.361   10 Jun 2027 16:46:43.613            91.252                Novosib         11406.500
       374   10 Jun 2027 16:52:16.436   10 Jun 2027 16:54:14.134           117.698                Novosib         14712.250
       375   10 Jun 2027 16:58:00.461   10 Jun 2027 16:59:10.814            70.353                Sumatra          8794.125
       376   10 Jun 2027 18:24:05.775   10 Jun 2027 18:26:50.539           164.764                Novosib         20595.500
       377   10 Jun 2027 18:27:31.981   10 Jun 2027 18:30:30.827           178.846                  Delhi         22355.750
       378   10 Jun 2027 18:36:57.308   10 Jun 2027 18:37:03.453             6.145                  Delhi           768.125
       379   10 Jun 2027 20:00:03.609   10 Jun 2027 20:01:29.994            86.385                 Moscow         10798.125
       380   10 Jun 2027 21:39:52.432   10 Jun 2027 21:41:10.831            78.399                 Moscow          9799.875
       381   10 Jun 2027 21:57:33.091   10 Jun 2027 21:59:24.807           111.716               CapeTown         13964.500
       382   10 Jun 2027 22:07:06.266   10 Jun 2027 22:08:31.050            84.784               CapeTown         10598.000
       383   11 Jun 2027 03:31:08.480   11 Jun 2027 03:33:26.657           138.177                Sumatra         17272.125
       384   11 Jun 2027 03:53:50.232   11 Jun 2027 03:53:51.118             0.886                Novosib           110.750
       385   11 Jun 2027 03:53:51.149   11 Jun 2027 03:54:30.272            39.123                Irkutsk          4890.375
       386   11 Jun 2027 03:56:45.087   11 Jun 2027 03:58:05.268            80.181              Murmansk1         10022.625
       387   11 Jun 2027 04:00:27.283   11 Jun 2027 04:00:53.693            26.410              Murmansk2          3301.250
       388   11 Jun 2027 04:29:31.850   11 Jun 2027 04:30:12.766            40.916            RioGallegos          5114.500
       389   11 Jun 2027 04:35:53.385   11 Jun 2027 04:36:35.639            42.254            RioGallegos          5281.750
       390   11 Jun 2027 04:37:13.959   11 Jun 2027 04:37:37.033            23.074            RioGallegos          2884.250
       391   11 Jun 2027 05:04:02.766   11 Jun 2027 05:05:57.209           114.443                Sumatra         14305.375
       392   11 Jun 2027 05:07:07.281   11 Jun 2027 05:09:03.882           116.601                Sumatra         14575.125
       393   11 Jun 2027 05:14:41.025   11 Jun 2027 05:17:14.385           153.360                  Delhi         19170.000
       394   11 Jun 2027 05:27:54.593   11 Jun 2027 05:28:09.062            14.469                Norilsk          1808.625
       395   11 Jun 2027 05:28:12.722   11 Jun 2027 05:28:44.057            31.335                 Moscow          3916.875
       396   11 Jun 2027 05:28:46.624   11 Jun 2027 05:30:00.640            74.016              Murmansk2          9252.000
       397   11 Jun 2027 05:30:01.556   11 Jun 2027 05:30:19.399            17.843                Novosib          2230.375
       398   11 Jun 2027 06:10:59.772   11 Jun 2027 06:11:25.611            25.839            RioGallegos          3229.875
       399   11 Jun 2027 06:48:31.090   11 Jun 2027 06:51:11.925           160.835                  Delhi         20104.375
       400   11 Jun 2027 06:55:20.550   11 Jun 2027 06:55:25.669             5.119                  Delhi           639.875
       401   11 Jun 2027 07:03:34.583   11 Jun 2027 07:03:58.304            23.721                Novosib          2965.125
       402   11 Jun 2027 07:04:15.622   11 Jun 2027 07:07:10.279           174.657                Novosib         21832.125
       403   11 Jun 2027 08:37:55.161   11 Jun 2027 08:38:24.500            29.339                 Moscow          3667.375
       404   11 Jun 2027 08:39:10.693   11 Jun 2027 08:42:44.015           213.322              Murmansk2         26665.250
       405   11 Jun 2027 09:46:52.024   11 Jun 2027 09:50:17.817           205.793               CapeTown         25724.125
       406   11 Jun 2027 10:36:46.030   11 Jun 2027 10:37:07.430            21.400                Anadyr1          2675.000
       407   11 Jun 2027 11:26:53.383   11 Jun 2027 11:27:29.097            35.714               CapeTown          4464.250
       408   11 Jun 2027 12:02:40.293   11 Jun 2027 12:03:04.046            23.753                Anadyr1          2969.125
       409   11 Jun 2027 12:03:56.707   11 Jun 2027 12:05:40.369           103.662                Anadyr1         12957.750
       410   11 Jun 2027 12:06:49.184   11 Jun 2027 12:08:16.485            87.301               Magadan2         10912.625
       411   11 Jun 2027 12:09:43.752   11 Jun 2027 12:10:05.030            21.278               Magadan1          2659.750
       412   11 Jun 2027 12:11:31.252   11 Jun 2027 12:14:34.504           183.252               Magadan1         22906.500
       413   11 Jun 2027 13:40:54.965   11 Jun 2027 13:41:30.513            35.548               Magadan1          4443.500
       414   11 Jun 2027 13:41:30.513   11 Jun 2027 13:43:48.046           137.533               Magadan2         17191.625
       415   11 Jun 2027 15:21:34.273   11 Jun 2027 15:21:43.422             9.149                Irkutsk          1143.625
       416   11 Jun 2027 15:27:15.030   11 Jun 2027 15:28:52.056            97.026                Irkutsk         12128.250
       417   11 Jun 2027 15:36:36.458   11 Jun 2027 15:41:48.796           312.338                Sumatra         39042.250
       418   11 Jun 2027 16:58:51.618   11 Jun 2027 17:00:29.165            97.547                Novosib         12193.375
       419   11 Jun 2027 17:03:07.620   11 Jun 2027 17:03:30.138            22.518                Novosib          2814.750
       420   11 Jun 2027 17:07:11.855   11 Jun 2027 17:09:09.057           117.202                  Delhi         14650.250
       421   11 Jun 2027 18:39:28.516   11 Jun 2027 18:41:44.023           135.507                  Delhi         16938.375
       422   11 Jun 2027 18:44:33.572   11 Jun 2027 18:46:51.999           138.427                  Delhi         17303.375
       423   11 Jun 2027 20:10:20.324   11 Jun 2027 20:10:49.112            28.788                 Moscow          3598.500
       424   11 Jun 2027 20:13:21.531   11 Jun 2027 20:14:43.923            82.392                 Moscow         10299.000
       425   11 Jun 2027 21:48:56.648   11 Jun 2027 21:50:32.544            95.896                 Moscow         11987.000
       426   11 Jun 2027 22:09:31.909   11 Jun 2027 22:10:33.296            61.387               CapeTown          7673.375
       427   11 Jun 2027 22:17:11.652   11 Jun 2027 22:17:25.818            14.166               CapeTown          1770.750
       428   11 Jun 2027 22:18:58.626   11 Jun 2027 22:19:09.063            10.437               CapeTown          1304.625
       429   12 Jun 2027 03:42:10.143   12 Jun 2027 03:45:11.985           181.842                Sumatra         22730.250
       430   12 Jun 2027 03:47:56.176   12 Jun 2027 03:51:11.030           194.854                Sumatra         24356.750
       431   12 Jun 2027 04:06:48.850   12 Jun 2027 04:07:06.781            17.931                Norilsk          2241.375
       432   12 Jun 2027 04:41:49.164   12 Jun 2027 04:43:00.023            70.859            RioGallegos          8857.375
       433   12 Jun 2027 04:49:33.783   12 Jun 2027 04:49:50.202            16.419            RioGallegos          2052.375
       434   12 Jun 2027 05:16:11.758   12 Jun 2027 05:17:21.562            69.804                Sumatra          8725.500
       435   12 Jun 2027 05:22:07.278   12 Jun 2027 05:22:50.903            43.625                Sumatra          5453.125
       436   12 Jun 2027 05:25:10.921   12 Jun 2027 05:27:00.761           109.840                  Delhi         13730.000
       437   12 Jun 2027 05:39:50.723   12 Jun 2027 05:41:50.674           119.951                Irkutsk         14993.875
       438   12 Jun 2027 05:42:28.484   12 Jun 2027 05:43:46.021            77.537                Novosib          9692.125
       439   12 Jun 2027 07:00:50.607   12 Jun 2027 07:03:01.162           130.555                  Delhi         16319.375
       440   12 Jun 2027 07:15:44.423   12 Jun 2027 07:15:53.461             9.038                Norilsk          1129.750
       441   12 Jun 2027 07:15:56.637   12 Jun 2027 07:16:09.862            13.225              Murmansk2          1653.125
       442   12 Jun 2027 07:16:20.260   12 Jun 2027 07:17:06.215            45.955                Novosib          5744.375
       443   12 Jun 2027 07:17:17.197   12 Jun 2027 07:17:54.366            37.169              Murmansk2          4646.125
       444   12 Jun 2027 07:18:16.137   12 Jun 2027 07:18:27.373            11.236                Norilsk          1404.500
       445   12 Jun 2027 07:19:28.987   12 Jun 2027 07:19:42.651            13.664                 Moscow          1708.000
       446   12 Jun 2027 08:51:18.983   12 Jun 2027 08:52:37.665            78.682                 Moscow          9835.250
       447   12 Jun 2027 09:58:36.749   12 Jun 2027 10:03:00.217           263.468               CapeTown         32933.500
       448   12 Jun 2027 10:43:27.390   12 Jun 2027 10:44:08.291            40.901                Anadyr2          5112.625
       449   12 Jun 2027 10:45:57.832   12 Jun 2027 10:46:35.757            37.925                Anadyr2          4740.625
       450   12 Jun 2027 10:46:35.757   12 Jun 2027 10:48:31.852           116.095                Anadyr1         14511.875
       451   12 Jun 2027 12:17:38.567   12 Jun 2027 12:18:33.680            55.113               Magadan2          6889.125
       452   12 Jun 2027 12:19:19.272   12 Jun 2027 12:22:01.377           162.105               Magadan2         20263.125
       453   12 Jun 2027 13:52:54.652   12 Jun 2027 13:54:06.205            71.553               Magadan2          8944.125
       454   12 Jun 2027 14:02:29.298   12 Jun 2027 14:03:02.458            33.160               Magadan1          4145.000
       455   12 Jun 2027 14:50:29.020   12 Jun 2027 14:53:23.805           174.785            RioGallegos         21848.125
       456   12 Jun 2027 15:34:12.317   12 Jun 2027 15:37:24.873           192.556                Irkutsk         24069.500
       457   12 Jun 2027 15:47:48.053   12 Jun 2027 15:51:07.004           198.951                Sumatra         24868.875
       458   12 Jun 2027 17:08:47.601   12 Jun 2027 17:09:25.588            37.987                Novosib          4748.375
       459   12 Jun 2027 17:12:03.897   12 Jun 2027 17:13:12.613            68.716                Novosib          8589.500
       460   12 Jun 2027 17:17:58.914   12 Jun 2027 17:20:52.471           173.557                  Delhi         21694.625
       461   12 Jun 2027 17:22:56.183   12 Jun 2027 17:25:36.019           159.836                  Delhi         19979.500
       462   12 Jun 2027 20:22:11.839   12 Jun 2027 20:26:11.209           239.370                 Moscow         29921.250
       463   12 Jun 2027 22:24:16.467   12 Jun 2027 22:24:44.935            28.468               CapeTown          3558.500
       464   12 Jun 2027 22:28:57.350   12 Jun 2027 22:29:33.318            35.968               CapeTown          4496.000
       465   13 Jun 2027 03:53:29.316   13 Jun 2027 03:57:03.493           214.177                Sumatra         26772.125
       466   13 Jun 2027 04:18:03.750   13 Jun 2027 04:18:35.150            31.400                Novosib          3925.000
       467   13 Jun 2027 04:18:37.346   13 Jun 2027 04:18:46.370             9.024                Norilsk          1128.000
       468   13 Jun 2027 04:18:53.561   13 Jun 2027 04:19:11.562            18.001              Murmansk2          2250.125
       469   13 Jun 2027 04:19:11.562   13 Jun 2027 04:19:31.825            20.263              Murmansk1          2532.875
       470   13 Jun 2027 04:19:43.244   13 Jun 2027 04:19:58.226            14.982                Novosib          1872.750
       471   13 Jun 2027 04:54:10.957   13 Jun 2027 04:55:11.104            60.147            RioGallegos          7518.375
       472   13 Jun 2027 04:56:06.119   13 Jun 2027 04:56:38.466            32.347            RioGallegos          4043.375
       473   13 Jun 2027 05:28:27.118   13 Jun 2027 05:28:55.786            28.668                Sumatra          3583.500
       474   13 Jun 2027 05:30:46.035   13 Jun 2027 05:32:53.820           127.785                Sumatra         15973.125
       475   13 Jun 2027 05:36:50.647   13 Jun 2027 05:39:15.406           144.759                  Delhi         18094.875
       476   13 Jun 2027 05:52:23.413   13 Jun 2027 05:52:43.411            19.998                Irkutsk          2499.750
       477   13 Jun 2027 05:52:55.558   13 Jun 2027 05:53:16.340            20.782                Novosib          2597.750
       478   13 Jun 2027 05:53:54.469   13 Jun 2027 05:54:38.904            44.435                Novosib          5554.375
       479   13 Jun 2027 05:54:41.860   13 Jun 2027 05:55:06.485            24.625                Norilsk          3078.125
       480   13 Jun 2027 07:13:17.760   13 Jun 2027 07:15:34.837           137.077                  Delhi         17134.625
       481   13 Jun 2027 07:27:54.753   13 Jun 2027 07:29:01.091            66.338              Murmansk2          8292.250
       482   13 Jun 2027 07:29:11.505   13 Jun 2027 07:29:31.401            19.896              Murmansk1          2487.000
