uniorb/output/strategy_1/Drop/Drop_KinoSat_110603.txt

KinoSat_110603
-------------------------
    Access    *     Start Time (UTCG)     *     Stop Time (UTCG)  *   Duration (s)        *       Station  *  Data (Mbytes)
         1   01 Jun 2027 04:05:15.332   01 Jun 2027 04:09:25.399           250.067                Anadyr1          7814.594
         2   01 Jun 2027 04:47:35.529   01 Jun 2027 04:48:08.595            33.066            RioGallegos          1033.313
         3   01 Jun 2027 04:48:39.386   01 Jun 2027 04:48:55.349            15.963            RioGallegos           498.844
         4   01 Jun 2027 04:49:41.547   01 Jun 2027 04:50:43.042            61.495            RioGallegos          1921.719
         5   01 Jun 2027 04:51:55.693   01 Jun 2027 04:52:59.484            63.791            RioGallegos          1993.469
         6   01 Jun 2027 05:39:31.668   01 Jun 2027 05:39:40.690             9.022               Magadan2           281.937
         7   01 Jun 2027 05:40:10.397   01 Jun 2027 05:40:57.331            46.934                Irkutsk          1466.687
         8   01 Jun 2027 05:41:11.655   01 Jun 2027 05:42:48.371            96.716                Novosib          3022.375
         9   01 Jun 2027 05:43:00.149   01 Jun 2027 05:44:42.113           101.964               Magadan1          3186.375
        10   01 Jun 2027 05:44:42.122   01 Jun 2027 05:45:15.502            33.380                Irkutsk          1043.125
        11   01 Jun 2027 05:45:24.412   01 Jun 2027 05:46:36.279            71.867              Murmansk1          2245.844
        12   01 Jun 2027 05:46:39.872   01 Jun 2027 05:47:03.203            23.331                Norilsk           729.094
        13   01 Jun 2027 05:47:19.520   01 Jun 2027 05:47:48.434            28.914                Norilsk           903.562
        14   01 Jun 2027 05:48:41.870   01 Jun 2027 05:49:10.108            28.238              Murmansk1           882.437
        15   01 Jun 2027 05:49:13.451   01 Jun 2027 05:49:18.758             5.307                Norilsk           165.844
        16   01 Jun 2027 05:49:30.982   01 Jun 2027 05:49:58.312            27.330                Norilsk           854.062
        17   01 Jun 2027 05:51:07.191   01 Jun 2027 05:51:29.643            22.452              Murmansk1           701.625
        18   01 Jun 2027 05:51:46.143   01 Jun 2027 05:52:08.355            22.212              Murmansk1           694.125
        19   01 Jun 2027 06:19:58.616   01 Jun 2027 06:21:41.716           103.100            RioGallegos          3221.875
        20   01 Jun 2027 06:22:43.244   01 Jun 2027 06:23:15.965            32.721            RioGallegos          1022.531
        21   01 Jun 2027 06:25:02.150   01 Jun 2027 06:25:14.404            12.254            RioGallegos           382.937
        22   01 Jun 2027 06:28:32.990   01 Jun 2027 06:29:34.625            61.635            RioGallegos          1926.094
        23   01 Jun 2027 06:55:10.372   01 Jun 2027 06:56:43.757            93.385                Sumatra          2918.281
        24   01 Jun 2027 06:58:48.102   01 Jun 2027 06:59:19.172            31.070                Sumatra           970.938
        25   01 Jun 2027 07:07:16.422   01 Jun 2027 07:09:56.812           160.390                  Delhi          5012.187
        26   01 Jun 2027 07:10:18.966   01 Jun 2027 07:10:55.587            36.621                  Delhi          1144.406
        27   01 Jun 2027 07:17:00.654   01 Jun 2027 07:18:12.662            72.008                Irkutsk          2250.250
        28   01 Jun 2027 07:18:36.567   01 Jun 2027 07:18:51.370            14.803                Norilsk           462.594
        29   01 Jun 2027 07:18:52.902   01 Jun 2027 07:19:38.456            45.554                Irkutsk          1423.563
        30   01 Jun 2027 07:19:41.213   01 Jun 2027 07:21:03.425            82.212              Murmansk2          2569.125
        31   01 Jun 2027 07:21:03.425   01 Jun 2027 07:23:09.211           125.786              Murmansk1          3930.813
        32   01 Jun 2027 07:23:14.526   01 Jun 2027 07:23:32.897            18.371              Murmansk1           574.094
        33   01 Jun 2027 07:58:17.577   01 Jun 2027 07:58:35.837            18.260            RioGallegos           570.625
        34   01 Jun 2027 07:59:24.122   01 Jun 2027 08:00:12.878            48.756            RioGallegos          1523.625
        35   01 Jun 2027 08:32:33.123   01 Jun 2027 08:34:27.289           114.166                Sumatra          3567.688
        36   01 Jun 2027 08:39:06.211   01 Jun 2027 08:41:53.963           167.752                  Delhi          5242.250
        37   01 Jun 2027 08:54:58.053   01 Jun 2027 08:55:41.038            42.985              Murmansk2          1343.281
        38   01 Jun 2027 08:55:47.474   01 Jun 2027 08:57:13.684            86.210              Murmansk1          2694.062
        39   01 Jun 2027 08:57:16.243   01 Jun 2027 08:58:27.707            71.464                Novosib          2233.250
        40   01 Jun 2027 08:58:37.952   01 Jun 2027 08:59:29.768            51.816                 Moscow          1619.250
        41   01 Jun 2027 10:20:40.798   01 Jun 2027 10:20:56.952            16.154                  Delhi           504.812
        42   01 Jun 2027 10:28:35.331   01 Jun 2027 10:29:56.903            81.572                 Moscow          2549.125
        43   01 Jun 2027 10:30:07.356   01 Jun 2027 10:32:37.929           150.573                Novosib          4705.406
        44   01 Jun 2027 10:32:42.055   01 Jun 2027 10:33:01.056            19.001                Norilsk           593.781
        45   01 Jun 2027 10:33:06.069   01 Jun 2027 10:35:02.576           116.507                Norilsk          3640.844
        46   01 Jun 2027 10:35:28.071   01 Jun 2027 10:35:38.415            10.344                 Moscow           323.250
        47   01 Jun 2027 11:39:37.858   01 Jun 2027 11:42:09.618           151.760               CapeTown          4742.500
        48   01 Jun 2027 11:43:22.563   01 Jun 2027 11:46:00.620           158.057               CapeTown          4939.281
        49   01 Jun 2027 11:46:14.261   01 Jun 2027 11:46:31.370            17.109               CapeTown           534.656
        50   01 Jun 2027 12:18:23.616   01 Jun 2027 12:25:58.495           454.879                Anadyr2         14214.969
        51   01 Jun 2027 13:58:20.076   01 Jun 2027 14:02:05.950           225.874               Magadan1          7058.562
        52   01 Jun 2027 15:37:34.493   01 Jun 2027 15:38:57.429            82.936               Magadan1          2591.750
        53   01 Jun 2027 15:43:09.018   01 Jun 2027 15:43:17.917             8.899               Magadan2           278.094
        54   01 Jun 2027 17:08:00.084   01 Jun 2027 17:09:24.515            84.431                Norilsk          2638.469
        55   01 Jun 2027 17:11:15.665   01 Jun 2027 17:12:35.565            79.900                Norilsk          2496.875
        56   01 Jun 2027 17:18:56.283   01 Jun 2027 17:20:17.835            81.552               Magadan2          2548.500
        57   01 Jun 2027 17:59:45.852   01 Jun 2027 18:03:09.762           203.910            RioGallegos          6372.188
        58   01 Jun 2027 18:09:12.795   01 Jun 2027 18:10:16.630            63.835            RioGallegos          1994.844
        59   01 Jun 2027 18:47:14.345   01 Jun 2027 18:47:36.963            22.618                Norilsk           706.812
        60   01 Jun 2027 18:47:42.759   01 Jun 2027 18:48:34.467            51.708                Norilsk          1615.875
        61   01 Jun 2027 18:49:08.102   01 Jun 2027 18:55:02.783           354.681                Novosib         11083.781
        62   01 Jun 2027 19:03:54.600   01 Jun 2027 19:05:13.065            78.465                Sumatra          2452.031
        63   01 Jun 2027 19:11:43.643   01 Jun 2027 19:13:36.318           112.675                Sumatra          3521.094
        64   01 Jun 2027 20:29:48.209   01 Jun 2027 20:30:38.250            50.041                Novosib          1563.781
        65   01 Jun 2027 20:30:51.505   01 Jun 2027 20:34:45.279           233.774                  Delhi          7305.438
        66   01 Jun 2027 20:36:36.603   01 Jun 2027 20:37:00.463            23.860                  Delhi           745.625
        67   01 Jun 2027 21:57:30.866   01 Jun 2027 22:03:00.827           329.961              Murmansk2         10311.281
        68   01 Jun 2027 22:03:02.389   01 Jun 2027 22:09:25.120           382.731                 Moscow         11960.344
        69   01 Jun 2027 23:46:10.724   01 Jun 2027 23:46:40.950            30.226                 Moscow           944.563
        70   02 Jun 2027 00:00:51.498   02 Jun 2027 00:02:29.534            98.036               CapeTown          3063.625
        71   02 Jun 2027 00:03:24.556   02 Jun 2027 00:04:48.514            83.958               CapeTown          2623.687
        72   02 Jun 2027 00:12:14.482   02 Jun 2027 00:12:40.074            25.592               CapeTown           799.750
        73   02 Jun 2027 01:06:48.113   02 Jun 2027 01:08:22.171            94.058               Magadan1          2939.312
        74   02 Jun 2027 01:11:38.091   02 Jun 2027 01:12:36.488            58.397              Murmansk1          1824.906
        75   02 Jun 2027 01:15:44.388   02 Jun 2027 01:15:50.394             6.006              Murmansk1           187.687
        76   02 Jun 2027 01:16:57.911   02 Jun 2027 01:17:03.332             5.421                 Moscow           169.406
        77   02 Jun 2027 01:17:22.996   02 Jun 2027 01:17:43.897            20.901                 Moscow           653.156
        78   02 Jun 2027 01:18:41.764   02 Jun 2027 01:19:10.214            28.450              Murmansk1           889.063
        79   02 Jun 2027 01:22:04.505   02 Jun 2027 01:22:11.251             6.746                 Moscow           210.812
        80   02 Jun 2027 01:22:50.143   02 Jun 2027 01:24:14.567            84.424                 Moscow          2638.250
        81   02 Jun 2027 01:46:03.036   02 Jun 2027 01:46:34.842            31.806               CapeTown           993.938
        82   02 Jun 2027 02:33:04.413   02 Jun 2027 02:35:25.298           140.885               Magadan2          4402.656
        83   02 Jun 2027 02:36:32.975   02 Jun 2027 02:36:51.324            18.349               Magadan2           573.406
        84   02 Jun 2027 02:37:35.198   02 Jun 2027 02:38:29.373            54.175               Magadan1          1692.969
        85   02 Jun 2027 02:43:33.505   02 Jun 2027 02:43:59.379            25.874                Norilsk           808.562
        86   02 Jun 2027 02:45:06.170   02 Jun 2027 02:45:49.369            43.199              Murmansk2          1349.969
        87   02 Jun 2027 02:46:08.102   02 Jun 2027 02:46:33.951            25.849              Murmansk1           807.781
        88   02 Jun 2027 02:48:46.258   02 Jun 2027 02:48:51.780             5.522              Murmansk1           172.562
        89   02 Jun 2027 02:48:51.780   02 Jun 2027 02:49:23.143            31.363              Murmansk2           980.094
        90   02 Jun 2027 02:52:18.692   02 Jun 2027 02:52:23.047             4.355                 Moscow           136.094
        91   02 Jun 2027 02:52:53.303   02 Jun 2027 02:53:51.078            57.775                 Moscow          1805.469
        92   02 Jun 2027 03:26:12.993   02 Jun 2027 03:27:43.460            90.467            RioGallegos          2827.094
        93   02 Jun 2027 03:28:34.166   02 Jun 2027 03:28:54.354            20.188            RioGallegos           630.875
        94   02 Jun 2027 03:30:40.302   02 Jun 2027 03:31:13.200            32.898            RioGallegos          1028.062
        95   02 Jun 2027 04:14:03.565   02 Jun 2027 04:14:19.653            16.088               Magadan2           502.750
        96   02 Jun 2027 04:14:57.702   02 Jun 2027 04:20:14.422           316.720                Anadyr1          9897.500
        97   02 Jun 2027 05:51:53.865   02 Jun 2027 05:52:11.057            17.192               Magadan1           537.250
        98   02 Jun 2027 05:52:12.744   02 Jun 2027 05:53:28.898            76.154                Irkutsk          2379.813
        99   02 Jun 2027 05:53:46.084   02 Jun 2027 05:54:24.176            38.092               Magadan2          1190.375
       100   02 Jun 2027 05:54:25.114   02 Jun 2027 05:54:40.103            14.989                Irkutsk           468.406
       101   02 Jun 2027 05:54:51.939   02 Jun 2027 05:55:13.507            21.568                Novosib           674.000
       102   02 Jun 2027 05:55:20.318   02 Jun 2027 05:56:22.433            62.115                Norilsk          1941.094
       103   02 Jun 2027 05:56:24.475   02 Jun 2027 05:56:27.955             3.480               Magadan2           108.750
       104   02 Jun 2027 05:56:39.091   02 Jun 2027 05:58:32.219           113.128                Novosib          3535.250
       105   02 Jun 2027 05:59:45.108   02 Jun 2027 06:00:02.877            17.769                Norilsk           555.281
       106   02 Jun 2027 06:01:16.621   02 Jun 2027 06:01:32.900            16.279                Norilsk           508.719
       107   02 Jun 2027 06:32:03.343   02 Jun 2027 06:33:29.351            86.008            RioGallegos          2687.750
       108   02 Jun 2027 06:35:16.075   02 Jun 2027 06:36:18.835            62.760            RioGallegos          1961.250
       109   02 Jun 2027 07:07:00.356   02 Jun 2027 07:07:17.207            16.851                Sumatra           526.594
       110   02 Jun 2027 07:08:18.431   02 Jun 2027 07:10:39.271           140.840                Sumatra          4401.250
       111   02 Jun 2027 07:18:10.853   02 Jun 2027 07:19:18.041            67.188                  Delhi          2099.625
       112   02 Jun 2027 07:28:56.997   02 Jun 2027 07:30:28.488            91.491                Novosib          2859.094
       113   02 Jun 2027 07:31:03.906   02 Jun 2027 07:31:33.494            29.588              Murmansk1           924.625
       114   02 Jun 2027 07:31:38.406   02 Jun 2027 07:33:07.847            89.441                Norilsk          2795.031
       115   02 Jun 2027 07:33:09.184   02 Jun 2027 07:34:25.912            76.728              Murmansk1          2397.750
       116   02 Jun 2027 07:34:31.937   02 Jun 2027 07:35:00.379            28.442                Norilsk           888.813
       117   02 Jun 2027 08:12:04.605   02 Jun 2027 08:12:57.778            53.173            RioGallegos          1661.656
       118   02 Jun 2027 08:45:35.846   02 Jun 2027 08:46:03.510            27.664                Sumatra           864.500
       119   02 Jun 2027 08:48:06.182   02 Jun 2027 08:49:02.373            56.191                Sumatra          1755.969
       120   02 Jun 2027 08:51:06.184   02 Jun 2027 08:52:31.749            85.565                  Delhi          2673.906
       121   02 Jun 2027 08:54:44.587   02 Jun 2027 08:56:06.233            81.646                  Delhi          2551.438
       122   02 Jun 2027 09:07:00.641   02 Jun 2027 09:07:41.619            40.978              Murmansk1          1280.563
       123   02 Jun 2027 09:07:44.592   02 Jun 2027 09:08:34.486            49.894                 Moscow          1559.187
       124   02 Jun 2027 09:08:43.727   02 Jun 2027 09:09:35.906            52.179                Norilsk          1630.594
       125   02 Jun 2027 09:09:51.715   02 Jun 2027 09:10:48.151            56.436              Murmansk2          1763.625
       126   02 Jun 2027 09:10:48.151   02 Jun 2027 09:11:44.716            56.565              Murmansk1          1767.656
       127   02 Jun 2027 10:32:02.667   02 Jun 2027 10:33:12.633            69.966                  Delhi          2186.437
       128   02 Jun 2027 10:33:39.894   02 Jun 2027 10:33:41.643             1.749                  Delhi            54.656
       129   02 Jun 2027 10:40:12.943   02 Jun 2027 10:43:26.720           193.777              Murmansk1          6055.531
       130   02 Jun 2027 10:43:32.312   02 Jun 2027 10:43:40.534             8.222                Novosib           256.938
       131   02 Jun 2027 10:44:02.151   02 Jun 2027 10:46:52.841           170.690                 Moscow          5334.062
       132   02 Jun 2027 10:46:57.684   02 Jun 2027 10:49:41.962           164.278              Murmansk1          5133.688
       133   02 Jun 2027 10:51:15.597   02 Jun 2027 10:51:53.205            37.608              Murmansk2          1175.250
       134   02 Jun 2027 11:50:50.302   02 Jun 2027 11:53:54.075           183.773               CapeTown          5742.906
       135   02 Jun 2027 11:55:36.452   02 Jun 2027 11:59:28.638           232.186               CapeTown          7255.812
       136   02 Jun 2027 12:15:41.619   02 Jun 2027 12:16:50.651            69.032              Murmansk1          2157.250
       137   02 Jun 2027 12:16:58.654   02 Jun 2027 12:17:33.633            34.979              Murmansk1          1093.094
       138   02 Jun 2027 12:30:13.481   02 Jun 2027 12:38:21.236           487.755                Anadyr1         15242.344
       139   02 Jun 2027 12:38:37.936   02 Jun 2027 12:38:41.753             3.817                Anadyr1           119.281
       140   02 Jun 2027 14:07:15.103   02 Jun 2027 14:07:19.734             4.631                Anadyr2           144.719
       141   02 Jun 2027 14:08:13.872   02 Jun 2027 14:09:29.350            75.478                Anadyr2          2358.687
       142   02 Jun 2027 14:09:35.358   02 Jun 2027 14:15:27.532           352.174               Magadan1         11005.438
       143   02 Jun 2027 15:45:32.105   02 Jun 2027 15:46:06.870            34.765               Magadan1          1086.406
       144   02 Jun 2027 15:46:06.870   02 Jun 2027 15:46:24.488            17.618               Magadan2           550.563
       145   02 Jun 2027 15:47:44.704   02 Jun 2027 15:49:15.623            90.919               Magadan2          2841.219
       146   02 Jun 2027 17:18:31.288   02 Jun 2027 17:19:17.781            46.493                Anadyr1          1452.906
       147   02 Jun 2027 17:19:47.420   02 Jun 2027 17:25:21.313           333.893                Norilsk         10434.156
       148   02 Jun 2027 17:25:54.937   02 Jun 2027 17:30:38.240           283.303                Irkutsk          8853.219
       149   02 Jun 2027 19:00:36.190   02 Jun 2027 19:08:03.915           447.725                Novosib         13991.406
       150   02 Jun 2027 20:40:57.625   02 Jun 2027 20:41:35.721            38.096                Novosib          1190.500
       151   02 Jun 2027 20:42:38.723   02 Jun 2027 20:44:31.159           112.436                  Delhi          3513.625
       152   02 Jun 2027 20:49:22.999   02 Jun 2027 20:49:57.574            34.575                  Delhi          1080.469
       153   02 Jun 2027 20:52:06.215   02 Jun 2027 20:53:52.377           106.162                  Delhi          3317.563
       154   02 Jun 2027 22:09:29.052   02 Jun 2027 22:14:58.275           329.223              Murmansk2         10288.219
       155   02 Jun 2027 22:15:01.389   02 Jun 2027 22:21:40.128           398.739                 Moscow         12460.594
       156   02 Jun 2027 22:42:27.185   02 Jun 2027 22:45:57.723           210.538               CapeTown          6579.313
       157   03 Jun 2027 01:15:49.173   03 Jun 2027 01:16:04.833            15.660               Magadan1           489.375
       158   03 Jun 2027 01:21:05.583   03 Jun 2027 01:21:37.636            32.053               Magadan1          1001.656
       159   03 Jun 2027 01:22:07.227   03 Jun 2027 01:22:22.038            14.811              Murmansk2           462.844
       160   03 Jun 2027 01:23:31.819   03 Jun 2027 01:24:35.084            63.265              Murmansk1          1977.031
       161   03 Jun 2027 01:27:23.451   03 Jun 2027 01:28:46.044            82.593                 Moscow          2581.031
       162   03 Jun 2027 01:52:41.162   03 Jun 2027 01:53:48.509            67.347               CapeTown          2104.594
       163   03 Jun 2027 02:44:57.717   03 Jun 2027 02:47:26.041           148.324               Magadan1          4635.125
       164   03 Jun 2027 02:47:26.041   03 Jun 2027 02:48:06.254            40.213               Magadan2          1256.656
       165   03 Jun 2027 02:49:02.664   03 Jun 2027 02:49:07.218             4.554               Magadan2           142.313
       166   03 Jun 2027 02:49:44.825   03 Jun 2027 02:50:31.929            47.104               Magadan1          1472.000
       167   03 Jun 2027 02:54:43.279   03 Jun 2027 02:54:48.194             4.915                Norilsk           153.594
       168   03 Jun 2027 02:55:22.623   03 Jun 2027 02:55:29.326             6.703                Norilsk           209.469
       169   03 Jun 2027 02:57:05.620   03 Jun 2027 02:57:50.999            45.379              Murmansk2          1418.094
       170   03 Jun 2027 02:57:55.739   03 Jun 2027 02:59:03.732            67.993              Murmansk1          2124.781
       171   03 Jun 2027 03:37:16.317   03 Jun 2027 03:40:13.149           176.832            RioGallegos          5526.000
       172   03 Jun 2027 04:25:20.354   03 Jun 2027 04:26:39.922            79.568                Irkutsk          2486.500
       173   03 Jun 2027 04:27:07.822   03 Jun 2027 04:27:41.244            33.422                Anadyr2          1044.437
       174   03 Jun 2027 04:27:42.351   03 Jun 2027 04:29:26.286           103.935                Irkutsk          3247.969
       175   03 Jun 2027 04:29:41.167   03 Jun 2027 04:30:45.852            64.685                Norilsk          2021.406
       176   03 Jun 2027 04:30:51.977   03 Jun 2027 04:32:36.010           104.033                Irkutsk          3251.031
       177   03 Jun 2027 04:32:42.695   03 Jun 2027 04:32:45.477             2.782                Irkutsk            86.937
       178   03 Jun 2027 04:33:07.168   03 Jun 2027 04:33:26.148            18.980                Novosib           593.125
       179   03 Jun 2027 04:33:27.298   03 Jun 2027 04:33:30.806             3.508               Magadan2           109.625
       180   03 Jun 2027 04:33:49.597   03 Jun 2027 04:34:01.930            12.333              Murmansk1           385.406
       181   03 Jun 2027 04:34:41.080   03 Jun 2027 04:34:46.097             5.017                Norilsk           156.781
       182   03 Jun 2027 04:34:57.738   03 Jun 2027 04:35:03.443             5.705              Murmansk1           178.281
       183   03 Jun 2027 04:35:21.218   03 Jun 2027 04:36:36.340            75.122                Norilsk          2347.562
       184   03 Jun 2027 05:08:53.176   03 Jun 2027 05:12:20.757           207.581            RioGallegos          6486.906
       185   03 Jun 2027 05:48:44.426   03 Jun 2027 05:48:47.581             3.155                Sumatra            98.594
       186   03 Jun 2027 05:50:03.747   03 Jun 2027 05:50:58.331            54.584                Sumatra          1705.750
       187   03 Jun 2027 06:03:42.374   03 Jun 2027 06:04:27.611            45.237               Magadan1          1413.656
       188   03 Jun 2027 06:04:27.611   03 Jun 2027 06:04:37.854            10.243               Magadan2           320.094
       189   03 Jun 2027 06:04:40.105   03 Jun 2027 06:05:00.413            20.308               Magadan1           634.625
       190   03 Jun 2027 06:05:04.334   03 Jun 2027 06:05:21.590            17.256                Novosib           539.250
       191   03 Jun 2027 06:05:36.804   03 Jun 2027 06:10:02.111           265.307                Novosib          8290.844
       192   03 Jun 2027 06:44:11.584   03 Jun 2027 06:45:20.154            68.570            RioGallegos          2142.812
       193   03 Jun 2027 06:47:15.122   03 Jun 2027 06:48:09.272            54.150            RioGallegos          1692.187
       194   03 Jun 2027 07:18:56.127   03 Jun 2027 07:19:57.548            61.421                Sumatra          1919.406
       195   03 Jun 2027 07:21:25.972   03 Jun 2027 07:21:48.667            22.695                Sumatra           709.219
       196   03 Jun 2027 07:27:03.963   03 Jun 2027 07:28:31.297            87.334                Sumatra          2729.187
       197   03 Jun 2027 07:29:44.373   03 Jun 2027 07:31:32.378           108.005                  Delhi          3375.156
       198   03 Jun 2027 07:41:34.290   03 Jun 2027 07:43:06.800            92.510              Murmansk2          2890.938
       199   03 Jun 2027 07:43:06.800   03 Jun 2027 07:43:31.382            24.582              Murmansk1           768.187
       200   03 Jun 2027 07:43:45.686   03 Jun 2027 07:44:14.800            29.114                 Moscow           909.812
       201   03 Jun 2027 07:44:34.318   03 Jun 2027 07:47:21.112           166.794                Norilsk          5212.313
       202   03 Jun 2027 07:47:31.596   03 Jun 2027 07:48:32.032            60.436              Murmansk1          1888.625
       203   03 Jun 2027 07:48:32.032   03 Jun 2027 07:51:11.616           159.584              Murmansk2          4987.000
       204   03 Jun 2027 07:51:30.417   03 Jun 2027 07:51:47.699            17.282              Murmansk2           540.062
       205   03 Jun 2027 08:24:00.950   03 Jun 2027 08:26:02.377           121.427            RioGallegos          3794.594
       206   03 Jun 2027 08:30:44.733   03 Jun 2027 08:30:50.954             6.221            RioGallegos           194.406
       207   03 Jun 2027 08:59:59.891   03 Jun 2027 09:01:28.914            89.023                Sumatra          2781.969
       208   03 Jun 2027 09:03:11.537   03 Jun 2027 09:04:58.025           106.488                  Delhi          3327.750
       209   03 Jun 2027 09:07:02.263   03 Jun 2027 09:08:28.277            86.014                  Delhi          2687.937
       210   03 Jun 2027 09:18:57.973   03 Jun 2027 09:19:44.733            46.760                Novosib          1461.250
       211   03 Jun 2027 09:19:48.833   03 Jun 2027 09:20:20.159            31.326              Murmansk1           978.937
       212   03 Jun 2027 09:20:31.358   03 Jun 2027 09:22:28.817           117.459                Novosib          3670.594
       213   03 Jun 2027 09:22:48.676   03 Jun 2027 09:23:41.268            52.592              Murmansk1          1643.500
       214   03 Jun 2027 10:51:25.600   03 Jun 2027 10:52:06.288            40.688              Murmansk2          1271.500
       215   03 Jun 2027 10:52:18.346   03 Jun 2027 10:52:41.769            23.423              Murmansk2           731.969
       216   03 Jun 2027 10:52:41.769   03 Jun 2027 10:53:18.701            36.932              Murmansk1          1154.125
       217   03 Jun 2027 10:53:27.943   03 Jun 2027 10:54:18.960            51.017              Murmansk2          1594.281
       218   03 Jun 2027 10:54:30.691   03 Jun 2027 10:54:47.987            17.296              Murmansk2           540.500
       219   03 Jun 2027 10:54:47.987   03 Jun 2027 10:55:27.127            39.140              Murmansk1          1223.125
       220   03 Jun 2027 10:55:34.952   03 Jun 2027 10:56:26.878            51.926              Murmansk1          1622.688
       221   03 Jun 2027 10:57:01.947   03 Jun 2027 10:58:03.777            61.830              Murmansk1          1932.187
       222   03 Jun 2027 10:58:44.463   03 Jun 2027 10:59:10.509            26.046              Murmansk2           813.938
       223   03 Jun 2027 11:00:55.034   03 Jun 2027 11:00:59.976             4.942              Murmansk1           154.438
       224   03 Jun 2027 12:02:17.936   03 Jun 2027 12:03:35.543            77.607               CapeTown          2425.219
       225   03 Jun 2027 12:04:14.630   03 Jun 2027 12:09:19.577           304.947               CapeTown          9529.594
       226   03 Jun 2027 12:27:57.344   03 Jun 2027 12:28:37.766            40.422              Murmansk1          1263.188
       227   03 Jun 2027 12:34:05.248   03 Jun 2027 12:34:22.865            17.617              Murmansk2           550.531
       228   03 Jun 2027 12:42:06.133   03 Jun 2027 12:47:48.495           342.362                Anadyr1         10698.812
       229   03 Jun 2027 12:48:40.216   03 Jun 2027 12:51:19.820           159.604                Anadyr2          4987.625
       230   03 Jun 2027 14:17:35.923   03 Jun 2027 14:19:23.897           107.974                Anadyr1          3374.188
       231   03 Jun 2027 14:21:09.261   03 Jun 2027 14:28:05.872           416.611               Magadan2         13019.094
       232   03 Jun 2027 15:55:52.829   03 Jun 2027 15:57:18.837            86.008               Magadan1          2687.750
       233   03 Jun 2027 15:59:46.827   03 Jun 2027 16:00:54.892            68.065               Magadan1          2127.031
       234   03 Jun 2027 17:29:21.291   03 Jun 2027 17:30:09.285            47.994                Anadyr1          1499.813
       235   03 Jun 2027 17:30:19.826   03 Jun 2027 17:31:09.156            49.330                Anadyr2          1541.562
       236   03 Jun 2027 17:31:39.496   03 Jun 2027 17:32:03.796            24.300                Norilsk           759.375
       237   03 Jun 2027 17:33:00.136   03 Jun 2027 17:33:57.501            57.365               Magadan1          1792.656
       238   03 Jun 2027 17:35:18.256   03 Jun 2027 17:35:49.001            30.745                Norilsk           960.781
       239   03 Jun 2027 17:37:03.065   03 Jun 2027 17:38:17.574            74.509                Norilsk          2328.406
       240   03 Jun 2027 17:39:12.591   03 Jun 2027 17:43:56.540           283.949                Irkutsk          8873.406
       241   03 Jun 2027 17:53:19.557   03 Jun 2027 17:58:19.437           299.880                Sumatra          9371.250
       242   03 Jun 2027 19:12:14.584   03 Jun 2027 19:20:08.887           474.303                Novosib         14821.969
       243   03 Jun 2027 20:46:52.243   03 Jun 2027 20:47:05.246            13.003              Murmansk1           406.344
       244   03 Jun 2027 20:48:06.597   03 Jun 2027 20:49:51.465           104.868              Murmansk1          3277.125
       245   03 Jun 2027 20:57:23.446   03 Jun 2027 20:57:35.537            12.091                  Delhi           377.844
       246   03 Jun 2027 21:00:14.849   03 Jun 2027 21:00:17.581             2.732                  Delhi            85.375
       247   03 Jun 2027 21:03:53.004   03 Jun 2027 21:05:30.181            97.177                  Delhi          3036.781
       248   03 Jun 2027 22:21:28.069   03 Jun 2027 22:23:00.542            92.473              Murmansk2          2889.781
       249   03 Jun 2027 22:23:05.503   03 Jun 2027 22:27:21.718           256.215              Murmansk1          8006.719
       250   03 Jun 2027 22:27:54.844   03 Jun 2027 22:31:42.861           228.017                 Moscow          7125.531
       251   03 Jun 2027 22:52:49.057   03 Jun 2027 22:59:10.413           381.356               CapeTown         11917.375
       252   04 Jun 2027 01:33:17.827   04 Jun 2027 01:33:48.863            31.036              Murmansk2           969.875
       253   04 Jun 2027 01:33:55.032   04 Jun 2027 01:34:23.742            28.710              Murmansk2           897.188
       254   04 Jun 2027 01:36:37.356   04 Jun 2027 01:38:13.881            96.525                 Moscow          3016.406
       255   04 Jun 2027 01:47:06.863   04 Jun 2027 01:47:25.540            18.677                 Moscow           583.656
       256   04 Jun 2027 02:02:39.809   04 Jun 2027 02:03:28.429            48.620               CapeTown          1519.375
       257   04 Jun 2027 02:11:16.895   04 Jun 2027 02:11:20.552             3.657               CapeTown           114.281
       258   04 Jun 2027 02:56:53.272   04 Jun 2027 02:59:27.037           153.765               Magadan2          4805.156
       259   04 Jun 2027 03:00:55.537   04 Jun 2027 03:00:59.600             4.063               Magadan1           126.969
       260   04 Jun 2027 03:01:09.888   04 Jun 2027 03:02:34.616            84.728               Magadan2          2647.750
       261   04 Jun 2027 03:03:02.620   04 Jun 2027 03:03:56.654            54.034                Anadyr2          1688.563
       262   04 Jun 2027 03:04:20.360   04 Jun 2027 03:06:58.849           158.489               Magadan2          4952.781
       263   04 Jun 2027 03:07:02.140   04 Jun 2027 03:09:17.339           135.199                Anadyr1          4224.969
       264   04 Jun 2027 03:09:38.688   04 Jun 2027 03:09:44.037             5.349               Magadan1           167.156
       265   04 Jun 2027 04:37:11.133   04 Jun 2027 04:38:20.296            69.163               Magadan1          2161.344
       266   04 Jun 2027 04:38:30.394   04 Jun 2027 04:38:34.814             4.420               Magadan2           138.125
       267   04 Jun 2027 04:38:40.772   04 Jun 2027 04:40:04.044            83.272               Magadan2          2602.250
       268   04 Jun 2027 04:40:15.654   04 Jun 2027 04:40:59.323            43.669                Norilsk          1364.656
       269   04 Jun 2027 04:41:01.365   04 Jun 2027 04:41:19.402            18.037               Magadan2           563.656
       270   04 Jun 2027 04:41:35.976   04 Jun 2027 04:44:32.809           176.833                Irkutsk          5526.031
       271   04 Jun 2027 04:44:34.809   04 Jun 2027 04:44:46.979            12.170                Irkutsk           380.313
       272   04 Jun 2027 04:44:50.224   04 Jun 2027 04:45:28.579            38.355               Magadan2          1198.594
       273   04 Jun 2027 05:20:38.575   04 Jun 2027 05:21:20.181            41.606            RioGallegos          1300.188
       274   04 Jun 2027 05:22:43.585   04 Jun 2027 05:24:33.233           109.648            RioGallegos          3426.500
       275   04 Jun 2027 05:58:30.007   04 Jun 2027 05:59:12.115            42.108                Sumatra          1315.875
       276   04 Jun 2027 06:01:47.139   04 Jun 2027 06:03:58.718           131.579                Sumatra          4111.844
       277   04 Jun 2027 06:15:11.059   04 Jun 2027 06:15:19.298             8.239                Irkutsk           257.469
       278   04 Jun 2027 06:15:33.037   04 Jun 2027 06:16:18.812            45.775               Magadan1          1430.469
       279   04 Jun 2027 06:16:29.285   04 Jun 2027 06:17:27.539            58.254               Magadan2          1820.437
       280   04 Jun 2027 06:17:31.392   04 Jun 2027 06:18:10.444            39.052                Novosib          1220.375
       281   04 Jun 2027 06:18:12.014   04 Jun 2027 06:18:28.500            16.486                Irkutsk           515.187
       282   04 Jun 2027 06:18:40.222   04 Jun 2027 06:20:31.730           111.508                Norilsk          3484.625
       283   04 Jun 2027 06:20:36.850   04 Jun 2027 06:21:25.943            49.093                Irkutsk          1534.156
       284   04 Jun 2027 06:21:27.568   04 Jun 2027 06:21:32.307             4.739              Murmansk1           148.094
       285   04 Jun 2027 06:56:23.537   04 Jun 2027 06:57:14.131            50.594            RioGallegos          1581.063
       286   04 Jun 2027 07:30:57.484   04 Jun 2027 07:33:12.554           135.070                Sumatra          4220.938
       287   04 Jun 2027 07:40:44.538   04 Jun 2027 07:40:58.901            14.363                  Delhi           448.844
       288   04 Jun 2027 07:41:29.778   04 Jun 2027 07:43:53.414           143.636                  Delhi          4488.625
       289   04 Jun 2027 07:52:42.603   04 Jun 2027 07:53:41.842            59.239                Novosib          1851.219
       290   04 Jun 2027 07:53:55.735   04 Jun 2027 07:54:55.225            59.490              Murmansk2          1859.062
       291   04 Jun 2027 07:54:59.746   04 Jun 2027 07:56:01.749            62.003                 Moscow          1937.594
       292   04 Jun 2027 07:56:12.332   04 Jun 2027 07:57:44.715            92.383                 Moscow          2886.969
       293   04 Jun 2027 07:58:15.892   04 Jun 2027 07:58:29.034            13.142              Murmansk2           410.687
       294   04 Jun 2027 07:58:33.934   04 Jun 2027 07:59:29.774            55.840                 Moscow          1745.000
       295   04 Jun 2027 08:38:33.903   04 Jun 2027 08:39:06.383            32.480            RioGallegos          1015.000
       296   04 Jun 2027 09:15:22.574   04 Jun 2027 09:18:10.847           168.273                  Delhi          5258.531
       297   04 Jun 2027 09:29:10.354   04 Jun 2027 09:29:54.623            44.269              Murmansk1          1383.406
       298   04 Jun 2027 09:30:04.471   04 Jun 2027 09:31:10.579            66.108              Murmansk1          2065.875
       299   04 Jun 2027 09:31:14.727   04 Jun 2027 09:31:15.457             0.730                Novosib            22.813
       300   04 Jun 2027 09:31:18.448   04 Jun 2027 09:31:33.558            15.110                Norilsk           472.188
       301   04 Jun 2027 09:31:46.448   04 Jun 2027 09:32:02.849            16.401              Murmansk2           512.531
       302   04 Jun 2027 09:32:07.268   04 Jun 2027 09:32:22.636            15.368              Murmansk2           480.250
       303   04 Jun 2027 09:32:29.620   04 Jun 2027 09:33:07.248            37.628                Norilsk          1175.875
       304   04 Jun 2027 09:34:24.235   04 Jun 2027 09:34:49.440            25.205              Murmansk2           787.656
       305   04 Jun 2027 11:03:01.090   04 Jun 2027 11:03:08.186             7.096              Murmansk2           221.750
       306   04 Jun 2027 11:03:18.656   04 Jun 2027 11:03:25.479             6.823              Murmansk1           213.219
       307   04 Jun 2027 11:03:51.432   04 Jun 2027 11:03:59.170             7.738                 Moscow           241.812
       308   04 Jun 2027 11:04:00.388   04 Jun 2027 11:05:10.072            69.684              Murmansk1          2177.625
       309   04 Jun 2027 11:05:16.774   04 Jun 2027 11:05:37.121            20.347              Murmansk1           635.844
       310   04 Jun 2027 11:05:42.943   04 Jun 2027 11:06:07.066            24.123              Murmansk2           753.844
       311   04 Jun 2027 11:06:08.791   04 Jun 2027 11:06:23.726            14.935                 Moscow           466.719
       312   04 Jun 2027 11:06:36.683   04 Jun 2027 11:07:11.942            35.259                 Moscow          1101.844
       313   04 Jun 2027 11:07:23.638   04 Jun 2027 11:08:08.083            44.445                 Moscow          1388.906
       314   04 Jun 2027 12:13:54.631   04 Jun 2027 12:17:23.226           208.595               CapeTown          6518.594
       315   04 Jun 2027 12:18:08.525   04 Jun 2027 12:20:24.290           135.765               CapeTown          4242.656
       316   04 Jun 2027 12:40:15.123   04 Jun 2027 12:40:17.244             2.121              Murmansk1            66.281
       317   04 Jun 2027 12:41:00.279   04 Jun 2027 12:41:32.258            31.979              Murmansk2           999.344
       318   04 Jun 2027 12:54:00.767   04 Jun 2027 12:56:21.507           140.740                Anadyr1          4398.125
       319   04 Jun 2027 12:57:39.061   04 Jun 2027 12:59:47.458           128.397                Anadyr2          4012.406
       320   04 Jun 2027 13:01:03.128   04 Jun 2027 13:03:53.546           170.418                Anadyr2          5325.563
       321   04 Jun 2027 14:29:36.480   04 Jun 2027 14:30:51.715            75.235                Anadyr1          2351.094
       322   04 Jun 2027 14:31:10.192   04 Jun 2027 14:32:12.309            62.117                Anadyr2          1941.156
       323   04 Jun 2027 14:32:51.461   04 Jun 2027 14:41:16.536           505.075               Magadan2         15783.594
       324   04 Jun 2027 16:07:51.635   04 Jun 2027 16:09:03.822            72.187               Magadan1          2255.844
       325   04 Jun 2027 16:11:49.124   04 Jun 2027 16:12:12.097            22.973               Magadan1           717.906
       326   04 Jun 2027 17:02:17.319   04 Jun 2027 17:06:33.881           256.562            RioGallegos          8017.562
       327   04 Jun 2027 17:43:34.360   04 Jun 2027 17:44:56.490            82.130                Norilsk          2566.562
       328   04 Jun 2027 17:48:38.328   04 Jun 2027 17:55:39.561           421.233                Irkutsk         13163.531
       329   04 Jun 2027 18:03:52.909   04 Jun 2027 18:11:39.419           466.510                Sumatra         14578.437
       330   04 Jun 2027 19:26:40.411   04 Jun 2027 19:30:05.801           205.390                Novosib          6418.438
       331   04 Jun 2027 19:34:48.526   04 Jun 2027 19:38:21.531           213.005                  Delhi          6656.406
       332   04 Jun 2027 20:58:24.294   04 Jun 2027 21:03:02.537           278.243              Murmansk1          8695.094
       333   04 Jun 2027 22:35:54.120   04 Jun 2027 22:39:42.873           228.753              Murmansk2          7148.531
       334   04 Jun 2027 22:41:04.540   04 Jun 2027 22:45:27.289           262.749                 Moscow          8210.906
       335   04 Jun 2027 23:03:45.186   04 Jun 2027 23:11:51.948           486.762               CapeTown         15211.312
       336   05 Jun 2027 03:15:48.196   05 Jun 2027 03:16:50.366            62.170                Anadyr1          1942.813
       337   05 Jun 2027 03:16:50.366   05 Jun 2027 03:17:33.486            43.120                Anadyr2          1347.500
       338   05 Jun 2027 03:17:43.234   05 Jun 2027 03:19:59.301           136.067                Anadyr1          4252.094
       339   05 Jun 2027 03:19:59.301   05 Jun 2027 03:21:54.654           115.353                Anadyr2          3604.781
       340   05 Jun 2027 04:50:52.313   05 Jun 2027 04:51:23.601            31.288               Magadan1           977.750
       341   05 Jun 2027 04:51:33.718   05 Jun 2027 04:53:17.120           103.402                Anadyr2          3231.313
       342   05 Jun 2027 04:53:18.765   05 Jun 2027 04:54:43.352            84.587               Magadan2          2643.344
       343   05 Jun 2027 04:54:43.806   05 Jun 2027 04:55:03.388            19.582                Novosib           611.938
       344   05 Jun 2027 04:55:18.004   05 Jun 2027 04:56:28.556            70.552                Anadyr1          2204.750
       345   05 Jun 2027 04:56:32.456   05 Jun 2027 04:57:04.887            32.431                Irkutsk          1013.469
       346   05 Jun 2027 04:57:23.499   05 Jun 2027 05:00:04.442           160.943                Norilsk          5029.469
       347   05 Jun 2027 05:32:27.149   05 Jun 2027 05:36:32.258           245.109            RioGallegos          7659.656
       348   05 Jun 2027 06:09:23.119   05 Jun 2027 06:11:28.959           125.840                Sumatra          3932.500
       349   05 Jun 2027 06:13:39.797   05 Jun 2027 06:15:58.604           138.807                Sumatra          4337.719
       350   05 Jun 2027 06:28:06.738   05 Jun 2027 06:28:49.633            42.895                Norilsk          1340.469
       351   05 Jun 2027 06:28:50.551   05 Jun 2027 06:32:48.903           238.352                Novosib          7448.500
       352   05 Jun 2027 06:33:03.648   05 Jun 2027 06:33:13.846            10.198                Norilsk           318.687
       353   05 Jun 2027 06:33:20.189   05 Jun 2027 06:34:01.537            41.348              Murmansk2          1292.125
       354   05 Jun 2027 06:34:11.249   05 Jun 2027 06:34:35.742            24.493              Murmansk2           765.406
       355   05 Jun 2027 07:08:39.461   05 Jun 2027 07:09:11.301            31.840            RioGallegos           995.000
       356   05 Jun 2027 07:43:04.513   05 Jun 2027 07:44:46.451           101.938                Sumatra          3185.563
       357   05 Jun 2027 07:52:15.239   05 Jun 2027 07:53:44.081            88.842                  Delhi          2776.313
       358   05 Jun 2027 07:53:51.418   05 Jun 2027 07:54:19.552            28.134                  Delhi           879.188
       359   05 Jun 2027 07:58:09.719   05 Jun 2027 07:58:57.379            47.660                  Delhi          1489.375
       360   05 Jun 2027 08:04:31.719   05 Jun 2027 08:04:46.453            14.734                Novosib           460.437
       361   05 Jun 2027 08:04:52.279   05 Jun 2027 08:05:37.849            45.570              Murmansk1          1424.063
       362   05 Jun 2027 08:05:40.893   05 Jun 2027 08:05:49.116             8.223                Novosib           256.969
       363   05 Jun 2027 08:05:51.889   05 Jun 2027 08:06:12.978            21.089                Norilsk           659.031
       364   05 Jun 2027 08:06:14.759   05 Jun 2027 08:07:16.403            61.644              Murmansk2          1926.375
       365   05 Jun 2027 08:07:16.403   05 Jun 2027 08:07:24.857             8.454              Murmansk1           264.188
       366   05 Jun 2027 08:07:35.891   05 Jun 2027 08:07:38.983             3.092                Novosib            96.625
       367   05 Jun 2027 08:07:45.988   05 Jun 2027 08:09:51.234           125.246                 Moscow          3913.937
       368   05 Jun 2027 09:27:39.851   05 Jun 2027 09:30:01.440           141.589                  Delhi          4424.656
       369   05 Jun 2027 09:31:24.351   05 Jun 2027 09:31:59.455            35.104                  Delhi          1097.000
       370   05 Jun 2027 09:36:35.358   05 Jun 2027 09:37:33.289            57.931                  Delhi          1810.344
       371   05 Jun 2027 09:40:36.527   05 Jun 2027 09:40:41.794             5.267                Novosib           164.594
       372   05 Jun 2027 09:40:57.580   05 Jun 2027 09:41:36.522            38.942              Murmansk2          1216.937
       373   05 Jun 2027 09:41:36.592   05 Jun 2027 09:42:20.697            44.105                Novosib          1378.281
       374   05 Jun 2027 09:42:27.753   05 Jun 2027 09:43:00.675            32.922              Murmansk1          1028.812
       375   05 Jun 2027 09:43:18.045   05 Jun 2027 09:43:30.949            12.904              Murmansk2           403.250
       376   05 Jun 2027 09:43:33.215   05 Jun 2027 09:44:00.537            27.322                Norilsk           853.813
       377   05 Jun 2027 09:44:06.775   05 Jun 2027 09:44:13.829             7.054                Norilsk           220.438
       378   05 Jun 2027 09:44:23.599   05 Jun 2027 09:44:24.021             0.422                Norilsk            13.188
       379   05 Jun 2027 09:44:32.125   05 Jun 2027 09:44:51.870            19.745              Murmansk2           617.031
       380   05 Jun 2027 09:44:51.870   05 Jun 2027 09:44:59.792             7.922              Murmansk1           247.562
       381   05 Jun 2027 09:45:35.810   05 Jun 2027 09:46:25.911            50.101              Murmansk1          1565.656
       382   05 Jun 2027 11:15:55.223   05 Jun 2027 11:16:11.328            16.105              Murmansk2           503.281
       383   05 Jun 2027 11:17:10.997   05 Jun 2027 11:17:51.341            40.344                 Moscow          1260.750
       384   05 Jun 2027 11:17:53.890   05 Jun 2027 11:18:34.678            40.788                 Moscow          1274.625
       385   05 Jun 2027 11:18:52.800   05 Jun 2027 11:19:10.278            17.478                 Moscow           546.188
       386   05 Jun 2027 11:19:27.751   05 Jun 2027 11:20:36.772            69.021              Murmansk2          2156.906
       387   05 Jun 2027 12:25:37.632   05 Jun 2027 12:29:31.640           234.008               CapeTown          7312.750
       388   05 Jun 2027 12:52:35.036   05 Jun 2027 12:54:19.386           104.350              Murmansk2          3260.937
       389   05 Jun 2027 12:56:55.835   05 Jun 2027 12:57:14.307            18.472              Murmansk1           577.250
       390   05 Jun 2027 13:05:56.864   05 Jun 2027 13:11:29.122           332.258                Anadyr2         10383.063
       391   05 Jun 2027 13:14:06.843   05 Jun 2027 13:15:29.111            82.268                Anadyr1          2570.875
       392   05 Jun 2027 14:41:37.283   05 Jun 2027 14:43:52.374           135.091                Anadyr1          4221.594
       393   05 Jun 2027 14:44:38.560   05 Jun 2027 14:53:57.859           559.299               Magadan2         17478.094
       394   05 Jun 2027 16:20:43.558   05 Jun 2027 16:22:00.282            76.724               Magadan2          2397.625
       395   05 Jun 2027 17:13:23.453   05 Jun 2027 17:19:58.590           395.137            RioGallegos         12348.031
       396   05 Jun 2027 17:57:10.379   05 Jun 2027 17:57:58.618            48.239                Norilsk          1507.469
       397   05 Jun 2027 18:00:17.735   05 Jun 2027 18:08:02.978           465.243                Irkutsk         14538.844
       398   05 Jun 2027 18:14:58.411   05 Jun 2027 18:23:26.228           507.817                Sumatra         15869.281
       399   05 Jun 2027 19:39:45.879   05 Jun 2027 19:39:50.385             4.506                Novosib           140.812
       400   05 Jun 2027 19:45:14.694   05 Jun 2027 19:52:09.047           414.353                  Delhi         12948.531
       401   05 Jun 2027 21:10:09.001   05 Jun 2027 21:15:58.907           349.906              Murmansk1         10934.563
       402   05 Jun 2027 22:48:51.519   05 Jun 2027 22:49:26.913            35.394              Murmansk2          1106.062
       403   05 Jun 2027 22:52:30.172   05 Jun 2027 22:54:13.176           103.004              Murmansk2          3218.875
       404   05 Jun 2027 23:17:29.281   05 Jun 2027 23:22:35.788           306.507               CapeTown          9578.344
       405   06 Jun 2027 01:57:19.800   06 Jun 2027 01:57:58.822            39.022              Murmansk2          1219.438
       406   06 Jun 2027 01:57:58.822   06 Jun 2027 01:58:01.176             2.354              Murmansk1            73.562
       407   06 Jun 2027 02:00:46.599   06 Jun 2027 02:01:40.215            53.616                 Moscow          1675.500
       408   06 Jun 2027 02:01:41.261   06 Jun 2027 02:01:46.112             4.851              Murmansk2           151.594
       409   06 Jun 2027 02:01:46.112   06 Jun 2027 02:02:44.893            58.781              Murmansk1          1836.906
       410   06 Jun 2027 02:08:27.143   06 Jun 2027 02:08:57.306            30.163                 Moscow           942.594
       411   06 Jun 2027 02:29:29.107   06 Jun 2027 02:30:14.347            45.240               CapeTown          1413.750
       412   06 Jun 2027 02:31:42.969   06 Jun 2027 02:31:44.613             1.644               CapeTown            51.375
       413   06 Jun 2027 03:27:54.167   06 Jun 2027 03:28:19.960            25.793                Anadyr2           806.031
       414   06 Jun 2027 03:28:29.204   06 Jun 2027 03:28:33.465             4.261               Magadan1           133.156
       415   06 Jun 2027 03:28:37.888   06 Jun 2027 03:29:30.922            53.034                Anadyr2          1657.312
       416   06 Jun 2027 03:29:43.105   06 Jun 2027 03:31:45.169           122.064                Anadyr2          3814.500
       417   06 Jun 2027 03:32:37.487   06 Jun 2027 03:32:39.159             1.672               Magadan1            52.250
       418   06 Jun 2027 03:32:56.234   06 Jun 2027 03:33:46.618            50.384               Magadan1          1574.500
       419   06 Jun 2027 05:03:25.553   06 Jun 2027 05:05:15.475           109.922               Magadan1          3435.063
       420   06 Jun 2027 05:05:17.463   06 Jun 2027 05:07:45.910           148.447               Magadan1          4638.969
       421   06 Jun 2027 05:08:09.688   06 Jun 2027 05:09:20.946            71.258               Magadan2          2226.813
       422   06 Jun 2027 05:10:21.586   06 Jun 2027 05:11:30.386            68.800                Norilsk          2150.000
       423   06 Jun 2027 05:44:18.886   06 Jun 2027 05:46:52.663           153.777            RioGallegos          4805.531
       424   06 Jun 2027 05:48:08.657   06 Jun 2027 05:48:34.576            25.919            RioGallegos           809.969
       425   06 Jun 2027 06:20:37.568   06 Jun 2027 06:23:41.749           184.181                Sumatra          5755.656
       426   06 Jun 2027 06:26:27.930   06 Jun 2027 06:28:04.106            96.176                Sumatra          3005.500
       427   06 Jun 2027 06:40:40.092   06 Jun 2027 06:41:07.344            27.252                Novosib           851.625
       428   06 Jun 2027 06:41:09.260   06 Jun 2027 06:42:09.661            60.401                Irkutsk          1887.531
       429   06 Jun 2027 06:42:15.752   06 Jun 2027 06:44:30.901           135.149                Norilsk          4223.406
       430   06 Jun 2027 06:44:32.607   06 Jun 2027 06:45:53.161            80.554                Novosib          2517.313
       431   06 Jun 2027 07:20:59.723   06 Jun 2027 07:21:11.724            12.001            RioGallegos           375.031
       432   06 Jun 2027 07:22:59.874   06 Jun 2027 07:23:15.651            15.777            RioGallegos           493.031
       433   06 Jun 2027 07:55:17.668   06 Jun 2027 07:56:28.150            70.482                Sumatra          2202.562
       434   06 Jun 2027 07:57:47.500   06 Jun 2027 07:58:57.460            69.960                Sumatra          2186.250
       435   06 Jun 2027 08:03:52.896   06 Jun 2027 08:05:38.786           105.890                  Delhi          3309.063
       436   06 Jun 2027 08:06:07.533   06 Jun 2027 08:07:40.589            93.056                  Delhi          2908.000
       437   06 Jun 2027 08:16:24.906   06 Jun 2027 08:17:50.523            85.617                 Moscow          2675.531
       438   06 Jun 2027 08:17:55.060   06 Jun 2027 08:18:37.342            42.282              Murmansk1          1321.312
       439   06 Jun 2027 08:18:49.031   06 Jun 2027 08:20:24.647            95.616              Murmansk2          2988.000
       440   06 Jun 2027 08:20:28.472   06 Jun 2027 08:21:52.005            83.533                 Moscow          2610.406
       441   06 Jun 2027 09:40:04.322   06 Jun 2027 09:41:47.486           103.164                  Delhi          3223.875
       442   06 Jun 2027 09:43:21.697   06 Jun 2027 09:44:06.257            44.560                  Delhi          1392.500
       443   06 Jun 2027 09:52:32.668   06 Jun 2027 09:52:41.946             9.278                Novosib           289.937
       444   06 Jun 2027 09:52:44.833   06 Jun 2027 09:53:02.904            18.071              Murmansk2           564.719
       445   06 Jun 2027 09:53:10.376   06 Jun 2027 09:53:38.059            27.683              Murmansk2           865.094
       446   06 Jun 2027 09:53:40.838   06 Jun 2027 09:54:15.949            35.111                Novosib          1097.219
       447   06 Jun 2027 09:54:23.174   06 Jun 2027 09:54:28.297             5.123                Novosib           160.094
       448   06 Jun 2027 09:54:30.322   06 Jun 2027 09:55:29.321            58.999                Novosib          1843.719
       449   06 Jun 2027 09:55:39.147   06 Jun 2027 09:55:41.838             2.691              Murmansk2            84.094
       450   06 Jun 2027 09:55:43.175   06 Jun 2027 09:55:57.848            14.673              Murmansk1           458.531
       451   06 Jun 2027 09:56:02.715   06 Jun 2027 09:56:18.266            15.551                Norilsk           485.969
       452   06 Jun 2027 09:56:23.459   06 Jun 2027 09:57:15.047            51.588              Murmansk1          1612.125
       453   06 Jun 2027 09:57:18.254   06 Jun 2027 09:57:36.090            17.836                Novosib           557.375
       454   06 Jun 2027 09:57:49.856   06 Jun 2027 09:57:52.329             2.473                 Moscow            77.281
       455   06 Jun 2027 09:58:17.482   06 Jun 2027 09:59:19.511            62.029                 Moscow          1938.406
       456   06 Jun 2027 11:30:44.057   06 Jun 2027 11:30:51.989             7.932                 Moscow           247.875
       457   06 Jun 2027 11:31:07.582   06 Jun 2027 11:31:29.042            21.460                 Moscow           670.625
       458   06 Jun 2027 11:32:06.629   06 Jun 2027 11:32:20.825            14.196              Murmansk2           443.625
       459   06 Jun 2027 11:33:22.261   06 Jun 2027 11:33:24.777             2.516                 Moscow            78.625
       460   06 Jun 2027 11:36:27.656   06 Jun 2027 11:36:53.505            25.849              Murmansk2           807.781
       461   06 Jun 2027 11:43:52.761   06 Jun 2027 11:47:04.901           192.140                Anadyr2          6004.375
       462   06 Jun 2027 12:38:56.820   06 Jun 2027 12:39:48.355            51.535               CapeTown          1610.469
       463   06 Jun 2027 12:48:48.574   06 Jun 2027 12:49:37.158            48.584               CapeTown          1518.250
       464   06 Jun 2027 13:04:57.192   06 Jun 2027 13:06:13.634            76.442              Murmansk2          2388.813
       465   06 Jun 2027 13:07:02.169   06 Jun 2027 13:07:15.270            13.101              Murmansk1           409.406
       466   06 Jun 2027 13:11:30.319   06 Jun 2027 13:11:38.892             8.573              Murmansk2           267.906
       467   06 Jun 2027 13:17:54.095   06 Jun 2027 13:19:40.737           106.642                Anadyr2          3332.563
       468   06 Jun 2027 13:19:52.399   06 Jun 2027 13:23:23.205           210.806                Anadyr1          6587.687
       469   06 Jun 2027 13:25:00.726   06 Jun 2027 13:25:55.167            54.441                Anadyr2          1701.281
       470   06 Jun 2027 14:53:38.284   06 Jun 2027 14:54:49.678            71.394                Anadyr2          2231.063
       471   06 Jun 2027 14:55:06.088   06 Jun 2027 14:56:10.367            64.279                Anadyr1          2008.719
       472   06 Jun 2027 14:56:28.954   06 Jun 2027 14:59:54.814           205.860               Magadan1          6433.125
       473   06 Jun 2027 14:59:58.043   06 Jun 2027 15:02:17.395           139.352               Magadan2          4354.750
       474   06 Jun 2027 15:02:47.790   06 Jun 2027 15:06:33.253           225.463               Magadan1          7045.719
       475   06 Jun 2027 16:31:51.107   06 Jun 2027 16:33:40.927           109.820               Magadan1          3431.875
       476   06 Jun 2027 17:24:51.253   06 Jun 2027 17:32:07.528           436.275            RioGallegos         13633.594
       477   06 Jun 2027 18:12:02.571   06 Jun 2027 18:15:14.504           191.933                Irkutsk          5997.906
       478   06 Jun 2027 18:15:35.143   06 Jun 2027 18:18:07.413           152.270                Irkutsk          4758.437
       479   06 Jun 2027 18:29:29.878   06 Jun 2027 18:33:36.552           246.674                Sumatra          7708.563
       480   06 Jun 2027 19:47:38.433   06 Jun 2027 19:48:43.673            65.240                Novosib          2038.750
       481   06 Jun 2027 19:49:43.075   06 Jun 2027 19:51:09.327            86.252                Novosib          2695.375
       482   06 Jun 2027 19:56:23.528   06 Jun 2027 20:05:11.906           528.378                  Delhi         16511.812
