uniorb/output/strategy_1/Drop/Drop_KinoSat_110108.txt

KinoSat_110108
-------------------------
    Access    *     Start Time (UTCG)     *     Stop Time (UTCG)  *   Duration (s)        *       Station  *  Data (Mbytes)
         1   01 Jun 2027 03:39:57.736   01 Jun 2027 03:41:25.341            87.605                Irkutsk         10950.625
         2   01 Jun 2027 03:42:23.669   01 Jun 2027 03:42:56.816            33.147              Murmansk1          4143.375
         3   01 Jun 2027 03:42:59.399   01 Jun 2027 03:43:28.368            28.969                Novosib          3621.125
         4   01 Jun 2027 03:43:49.619   01 Jun 2027 03:45:59.288           129.669                Norilsk         16208.625
         5   01 Jun 2027 04:22:21.053   01 Jun 2027 04:23:17.898            56.845            RioGallegos          7105.625
         6   01 Jun 2027 04:54:47.662   01 Jun 2027 04:56:38.620           110.958                Sumatra         13869.750
         7   01 Jun 2027 05:08:56.955   01 Jun 2027 05:09:25.057            28.102                  Delhi          3512.750
         8   01 Jun 2027 05:18:02.939   01 Jun 2027 05:18:19.524            16.585                Irkutsk          2073.125
         9   01 Jun 2027 05:18:28.314   01 Jun 2027 05:19:33.625            65.311                Novosib          8163.875
        10   01 Jun 2027 05:20:00.592   01 Jun 2027 05:20:09.635             9.043              Murmansk2          1130.375
        11   01 Jun 2027 05:20:35.854   01 Jun 2027 05:21:32.171            56.317                Norilsk          7039.625
        12   01 Jun 2027 06:39:47.453   01 Jun 2027 06:43:19.087           211.634                  Delhi         26454.250
        13   01 Jun 2027 06:54:27.682   01 Jun 2027 06:55:10.553            42.871                Novosib          5358.875
        14   01 Jun 2027 06:55:19.550   01 Jun 2027 06:56:21.743            62.193              Murmansk1          7774.125
        15   01 Jun 2027 09:39:15.242   01 Jun 2027 09:40:03.232            47.990               CapeTown          5998.750
        16   01 Jun 2027 10:17:01.466   01 Jun 2027 10:17:14.365            12.899                Anadyr1          1612.375
        17   01 Jun 2027 10:26:29.093   01 Jun 2027 10:26:35.046             5.953                Anadyr2           744.125
        18   01 Jun 2027 11:57:32.669   01 Jun 2027 11:58:35.011            62.342               Magadan1          7792.750
        19   01 Jun 2027 13:31:01.049   01 Jun 2027 13:31:18.638            17.589               Magadan1          2198.625
        20   01 Jun 2027 13:32:41.401   01 Jun 2027 13:34:17.486            96.085               Magadan2         12010.625
        21   01 Jun 2027 15:12:27.680   01 Jun 2027 15:15:47.277           199.597                Irkutsk         24949.625
        22   01 Jun 2027 15:26:42.519   01 Jun 2027 15:31:57.124           314.605                Sumatra         39325.625
        23   01 Jun 2027 16:49:45.094   01 Jun 2027 16:51:24.320            99.226                Novosib         12403.250
        24   01 Jun 2027 16:54:57.825   01 Jun 2027 17:03:01.891           484.066                  Delhi         43982.125
        25   02 Jun 2027 04:33:57.618   02 Jun 2027 04:34:33.697            36.079            RioGallegos          4509.875
        26   02 Jun 2027 04:35:59.916   02 Jun 2027 04:36:20.643            20.727            RioGallegos          2590.875
        27   02 Jun 2027 05:07:16.902   02 Jun 2027 05:08:12.591            55.689                Sumatra          6961.125
        28   02 Jun 2027 05:09:07.795   02 Jun 2027 05:11:01.454           113.659                Sumatra         14207.375
        29   02 Jun 2027 05:21:47.372   02 Jun 2027 05:24:05.477           138.105                  Delhi         17263.125
        30   02 Jun 2027 05:31:10.559   02 Jun 2027 05:31:39.566            29.007                Norilsk          3625.875
        31   02 Jun 2027 05:31:49.276   02 Jun 2027 05:32:05.891            16.615              Murmansk2          2076.875
        32   02 Jun 2027 05:32:13.131   02 Jun 2027 05:32:51.371            38.240              Murmansk2          4780.000
        33   02 Jun 2027 05:33:56.910   02 Jun 2027 05:34:03.911             7.001                Novosib           875.125
        34   02 Jun 2027 05:36:02.780   02 Jun 2027 05:36:20.717            17.937                Norilsk          2242.125
        35   02 Jun 2027 06:52:32.869   02 Jun 2027 06:55:35.760           182.891                  Delhi         22861.375
        36   02 Jun 2027 07:06:10.334   02 Jun 2027 07:06:36.447            26.113              Murmansk1          3264.125
        37   02 Jun 2027 07:06:42.581   02 Jun 2027 07:06:52.517             9.936              Murmansk2          1242.000
        38   02 Jun 2027 07:06:54.177   02 Jun 2027 07:07:14.445            20.268                 Moscow          2533.500
        39   02 Jun 2027 07:07:26.672   02 Jun 2027 07:08:33.913            67.241                Novosib          8405.125
        40   02 Jun 2027 07:08:53.311   02 Jun 2027 07:09:00.574             7.263                Norilsk           907.875
        41   02 Jun 2027 07:09:02.654   02 Jun 2027 07:09:33.801            31.147              Murmansk2          3893.375
        42   02 Jun 2027 12:07:25.550   02 Jun 2027 12:09:28.764           123.214               Magadan1         15401.750
        43   02 Jun 2027 12:11:44.731   02 Jun 2027 12:11:50.516             5.785               Magadan1           723.125
        44   02 Jun 2027 12:16:13.150   02 Jun 2027 12:16:56.820            43.670               Magadan1          5458.750
        45   02 Jun 2027 13:43:02.009   02 Jun 2027 13:44:48.490           106.481               Magadan2         13310.125
        46   02 Jun 2027 13:51:57.964   02 Jun 2027 13:52:37.526            39.562               Magadan2          4945.250
        47   02 Jun 2027 14:38:12.695   02 Jun 2027 14:38:19.200             6.505            RioGallegos           813.125
        48   02 Jun 2027 15:24:28.666   02 Jun 2027 15:28:17.081           228.415                Irkutsk         28551.875
        49   02 Jun 2027 15:39:04.473   02 Jun 2027 15:43:00.589           236.116                Sumatra         29514.500
        50   02 Jun 2027 17:06:30.914   02 Jun 2027 17:10:35.215           244.301                Novosib         30537.625
        51   02 Jun 2027 18:34:18.632   02 Jun 2027 18:34:25.931             7.299                Novosib           912.375
        52   02 Jun 2027 18:40:57.175   02 Jun 2027 18:42:19.204            82.029                Novosib         10253.625
        53   02 Jun 2027 18:44:06.546   02 Jun 2027 18:46:22.281           135.735                  Delhi         16966.875
        54   02 Jun 2027 20:12:04.107   02 Jun 2027 20:13:26.090            81.983                 Moscow         10247.875
        55   02 Jun 2027 20:20:51.203   02 Jun 2027 20:21:36.520            45.317                 Moscow          5664.625
        56   02 Jun 2027 21:54:49.328   02 Jun 2027 21:55:52.588            63.260                 Moscow          7907.500
        57   02 Jun 2027 21:57:28.179   02 Jun 2027 21:57:28.303             0.124                 Moscow            15.500
        58   02 Jun 2027 21:58:32.369   02 Jun 2027 21:58:34.983             2.614                 Moscow           326.750
        59   02 Jun 2027 22:12:18.921   02 Jun 2027 22:14:33.733           134.812               CapeTown         16851.500
        60   03 Jun 2027 03:42:34.219   03 Jun 2027 03:45:12.614           158.395                Sumatra         19799.375
        61   03 Jun 2027 03:48:34.566   03 Jun 2027 03:48:39.079             4.513                Sumatra           564.125
        62   03 Jun 2027 05:21:18.353   03 Jun 2027 05:22:16.762            58.409                Sumatra          7301.125
        63   03 Jun 2027 05:26:30.360   03 Jun 2027 05:27:04.137            33.777                  Delhi          4222.125
        64   03 Jun 2027 05:34:04.012   03 Jun 2027 05:36:04.549           120.537                  Delhi         15067.125
        65   03 Jun 2027 05:37:50.669   03 Jun 2027 05:38:16.791            26.122                  Delhi          3265.250
        66   03 Jun 2027 05:43:56.800   03 Jun 2027 05:44:46.878            50.078                Novosib          6259.750
        67   03 Jun 2027 07:08:33.764   03 Jun 2027 07:09:46.980            73.216                  Delhi          9152.000
        68   03 Jun 2027 07:16:54.661   03 Jun 2027 07:17:13.587            18.926                Norilsk          2365.750
        69   03 Jun 2027 07:17:31.083   03 Jun 2027 07:18:26.773            55.690                 Moscow          6961.250
        70   03 Jun 2027 07:18:54.285   03 Jun 2027 07:20:04.801            70.516              Murmansk1          8814.500
        71   03 Jun 2027 07:20:04.801   03 Jun 2027 07:20:29.169            24.368              Murmansk2          3046.000
        72   03 Jun 2027 07:20:31.801   03 Jun 2027 07:21:03.470            31.669              Murmansk2          3958.625
        73   03 Jun 2027 07:21:15.026   03 Jun 2027 07:21:29.404            14.378                Norilsk          1797.250
        74   03 Jun 2027 07:22:38.964   03 Jun 2027 07:22:44.291             5.327                Norilsk           665.875
        75   03 Jun 2027 08:27:00.201   03 Jun 2027 08:27:23.151            22.950               CapeTown          2868.750
        76   03 Jun 2027 10:40:59.851   03 Jun 2027 10:41:29.819            29.968                Anadyr1          3746.000
        77   03 Jun 2027 10:42:19.874   03 Jun 2027 10:43:13.250            53.376                Anadyr2          6672.000
        78   03 Jun 2027 12:19:21.621   03 Jun 2027 12:21:10.128           108.507               Magadan1         13563.375
        79   03 Jun 2027 12:24:25.372   03 Jun 2027 12:24:27.448             2.076               Magadan1           259.500
        80   03 Jun 2027 12:25:14.414   03 Jun 2027 12:30:02.517           288.103               Magadan2         36012.875
        81   03 Jun 2027 14:50:29.380   03 Jun 2027 14:51:31.823            62.443            RioGallegos          7805.375
        82   03 Jun 2027 15:34:45.557   03 Jun 2027 15:36:53.088           127.531                Irkutsk         15941.375
        83   03 Jun 2027 15:42:09.602   03 Jun 2027 15:44:16.317           126.715                Irkutsk         15839.375
        84   03 Jun 2027 15:48:28.561   03 Jun 2027 15:51:19.078           170.517                Sumatra         21314.625
        85   03 Jun 2027 17:10:32.743   03 Jun 2027 17:13:04.300           151.557                Novosib         18944.625
        86   03 Jun 2027 17:18:15.224   03 Jun 2027 17:24:25.212           369.988                  Delhi         46248.500
        87   03 Jun 2027 20:24:01.598   03 Jun 2027 20:25:04.045            62.447                 Moscow          7805.875
        88   03 Jun 2027 20:26:47.658   03 Jun 2027 20:29:02.133           134.475                 Moscow         16809.375
        89   03 Jun 2027 22:26:51.774   03 Jun 2027 22:27:28.327            36.553               CapeTown          4569.125
        90   04 Jun 2027 03:54:24.400   04 Jun 2027 03:59:29.080           304.680                Sumatra         38085.000
        91   04 Jun 2027 05:40:22.957   04 Jun 2027 05:40:33.784            10.827                  Delhi          1353.375
        92   04 Jun 2027 05:46:16.165   04 Jun 2027 05:48:08.980           112.815                  Delhi         14101.875
        93   04 Jun 2027 05:56:02.145   04 Jun 2027 05:56:34.784            32.639                Norilsk          4079.875
        94   04 Jun 2027 06:01:37.276   04 Jun 2027 06:01:41.811             4.535                Norilsk           566.875
        95   04 Jun 2027 07:19:31.126   04 Jun 2027 07:20:31.928            60.802                  Delhi          7600.250
        96   04 Jun 2027 07:21:28.045   04 Jun 2027 07:22:32.834            64.789                  Delhi          8098.625
        97   04 Jun 2027 07:28:14.205   04 Jun 2027 07:28:47.138            32.933              Murmansk1          4116.625
        98   04 Jun 2027 07:28:47.138   04 Jun 2027 07:29:41.843            54.705              Murmansk2          6838.125
        99   04 Jun 2027 07:29:55.195   04 Jun 2027 07:30:14.759            19.564                 Moscow          2445.500
       100   04 Jun 2027 07:30:18.436   04 Jun 2027 07:30:28.895            10.459              Murmansk2          1307.375
       101   04 Jun 2027 07:30:35.076   04 Jun 2027 07:30:50.969            15.893                 Moscow          1986.625
       102   04 Jun 2027 07:31:07.352   04 Jun 2027 07:32:31.115            83.763                 Moscow         10470.375
       103   04 Jun 2027 07:32:49.496   04 Jun 2027 07:33:57.543            68.047                 Moscow          8505.875
       104   04 Jun 2027 07:35:31.928   04 Jun 2027 07:35:48.392            16.464                 Moscow          2058.000
       105   04 Jun 2027 08:38:13.261   04 Jun 2027 08:40:45.357           152.096               CapeTown         19012.000
       106   04 Jun 2027 08:46:03.340   04 Jun 2027 08:46:59.758            56.418               CapeTown          7052.250
       107   04 Jun 2027 10:52:59.794   04 Jun 2027 10:55:26.539           146.745                Anadyr1         18343.125
       108   04 Jun 2027 10:59:16.160   04 Jun 2027 11:01:59.181           163.021                Anadyr1         20377.625
       109   04 Jun 2027 12:31:18.827   04 Jun 2027 12:32:23.806            64.979               Magadan1          8122.375
       110   04 Jun 2027 12:33:31.746   04 Jun 2027 12:36:20.065           168.319               Magadan1         21039.875
       111   04 Jun 2027 12:39:53.059   04 Jun 2027 12:40:09.937            16.878               Magadan2          2109.750
       112   04 Jun 2027 12:40:26.948   04 Jun 2027 12:41:44.390            77.442               Magadan2          9680.250
       113   04 Jun 2027 15:00:36.422   04 Jun 2027 15:04:28.437           232.015            RioGallegos         29001.875
       114   04 Jun 2027 15:55:23.623   04 Jun 2027 15:56:12.972            49.349                Irkutsk          6168.625
       115   04 Jun 2027 16:00:21.683   04 Jun 2027 16:04:20.869           239.186                Sumatra         29898.250
       116   04 Jun 2027 17:22:43.313   04 Jun 2027 17:23:29.570            46.257                Novosib          5782.125
       117   04 Jun 2027 17:29:07.261   04 Jun 2027 17:29:59.034            51.773                Novosib          6471.625
       118   04 Jun 2027 17:30:02.627   04 Jun 2027 17:42:19.966           737.339                  Delhi         92167.375
       119   05 Jun 2027 04:06:20.375   05 Jun 2027 04:09:29.380           189.005                Sumatra         23625.625
       120   05 Jun 2027 04:34:02.234   05 Jun 2027 04:34:18.028            15.794                Novosib          1974.250
       121   05 Jun 2027 05:50:36.050   05 Jun 2027 05:53:40.610           184.560                  Delhi         23070.000
       122   05 Jun 2027 05:58:24.505   05 Jun 2027 05:59:09.965            45.460                  Delhi          5682.500
       123   05 Jun 2027 06:07:21.905   05 Jun 2027 06:08:17.208            55.303              Murmansk1          6912.875
       124   05 Jun 2027 06:08:31.881   05 Jun 2027 06:08:33.542             1.661                Novosib           207.625
       125   05 Jun 2027 07:39:36.343   05 Jun 2027 07:40:54.039            77.696                 Moscow          9712.000
       126   05 Jun 2027 07:41:40.380   05 Jun 2027 07:44:31.130           170.750                 Moscow         21343.750
       127   05 Jun 2027 07:44:45.048   05 Jun 2027 07:44:53.387             8.339                Norilsk          1042.375
       128   05 Jun 2027 07:44:56.009   05 Jun 2027 07:45:24.427            28.418                 Moscow          3552.250
       129   05 Jun 2027 07:47:28.260   05 Jun 2027 07:47:32.985             4.725                 Moscow           590.625
       130   05 Jun 2027 08:49:41.263   05 Jun 2027 08:57:27.177           465.914               CapeTown         58239.250
       131   05 Jun 2027 11:05:00.116   05 Jun 2027 11:05:15.195            15.079                Anadyr2          1884.875
       132   05 Jun 2027 12:43:16.954   05 Jun 2027 12:44:06.887            49.933               Magadan2          6241.625
       133   05 Jun 2027 12:45:49.928   05 Jun 2027 12:47:54.920           124.992               Magadan2         15624.000
       134   05 Jun 2027 12:47:54.920   05 Jun 2027 12:48:14.530            19.610               Magadan1          2451.250
       135   05 Jun 2027 14:19:06.778   05 Jun 2027 14:19:09.168             2.390               Magadan1           298.750
       136   05 Jun 2027 14:20:03.223   05 Jun 2027 14:20:06.634             3.411               Magadan1           426.375
       137   05 Jun 2027 14:23:21.821   05 Jun 2027 14:23:50.295            28.474               Magadan2          3559.250
       138   05 Jun 2027 14:26:11.391   05 Jun 2027 14:27:09.524            58.133               Magadan2          7266.625
       139   05 Jun 2027 15:10:53.708   05 Jun 2027 15:13:24.359           150.651            RioGallegos         18831.375
       140   05 Jun 2027 15:18:06.849   05 Jun 2027 15:20:24.187           137.338            RioGallegos         17167.250
       141   05 Jun 2027 15:58:37.957   05 Jun 2027 15:59:52.454            74.497                Irkutsk          9312.125
       142   05 Jun 2027 16:12:20.458   05 Jun 2027 16:15:01.228           160.770                Sumatra         20096.250
       143   05 Jun 2027 17:34:29.160   05 Jun 2027 17:37:10.204           161.044                Novosib         20130.500
       144   05 Jun 2027 17:41:54.372   05 Jun 2027 17:44:48.105           173.733                  Delhi         21716.625
       145   05 Jun 2027 19:18:44.570   05 Jun 2027 19:20:05.118            80.548                  Delhi         10068.500
       146   05 Jun 2027 20:44:44.420   05 Jun 2027 20:44:45.336             0.916              Murmansk1           114.500
       147   05 Jun 2027 20:47:32.676   05 Jun 2027 20:48:58.856            86.180              Murmansk1         10772.500
       148   05 Jun 2027 20:51:09.830   05 Jun 2027 20:52:52.885           103.055                 Moscow         12881.875
       149   06 Jun 2027 03:04:59.785   06 Jun 2027 03:05:08.048             8.263               Magadan1          1032.875
       150   06 Jun 2027 03:05:08.048   06 Jun 2027 03:05:37.594            29.546               Magadan2          3693.250
       151   06 Jun 2027 03:05:47.686   06 Jun 2027 03:06:45.615            57.929               Magadan2          7241.125
       152   06 Jun 2027 03:07:19.925   06 Jun 2027 03:07:41.009            21.084                Irkutsk          2635.500
       153   06 Jun 2027 03:07:59.868   06 Jun 2027 03:08:16.814            16.946                Norilsk          2118.250
       154   06 Jun 2027 03:08:31.742   06 Jun 2027 03:08:56.656            24.914                Novosib          3114.250
       155   06 Jun 2027 03:10:02.429   06 Jun 2027 03:10:25.974            23.545                Norilsk          2943.125
       156   06 Jun 2027 03:43:48.205   06 Jun 2027 03:46:37.351           169.146            RioGallegos         21143.250
       157   06 Jun 2027 03:46:39.318   06 Jun 2027 03:47:49.626            70.308            RioGallegos          8788.500
       158   06 Jun 2027 04:18:21.943   06 Jun 2027 04:20:33.091           131.148                Sumatra         16393.500
       159   06 Jun 2027 04:41:07.380   06 Jun 2027 04:41:26.705            19.325              Murmansk1          2415.625
       160   06 Jun 2027 04:41:26.705   06 Jun 2027 04:42:17.530            50.825              Murmansk2          6353.125
       161   06 Jun 2027 04:42:31.343   06 Jun 2027 04:42:52.147            20.804                Norilsk          2600.500
       162   06 Jun 2027 04:42:59.731   06 Jun 2027 04:43:08.957             9.226              Murmansk2          1153.250
       163   06 Jun 2027 04:43:08.957   06 Jun 2027 04:43:17.675             8.718              Murmansk1          1089.750
       164   06 Jun 2027 04:43:26.929   06 Jun 2027 04:43:38.603            11.674                Novosib          1459.250
       165   06 Jun 2027 04:43:43.154   06 Jun 2027 04:44:28.838            45.684              Murmansk1          5710.500
       166   06 Jun 2027 04:44:49.125   06 Jun 2027 04:45:14.448            25.323              Murmansk2          3165.375
       167   06 Jun 2027 04:45:55.792   06 Jun 2027 04:46:02.643             6.851                 Moscow           856.375
       168   06 Jun 2027 05:24:46.967   06 Jun 2027 05:25:24.526            37.559            RioGallegos          4694.875
       169   06 Jun 2027 06:02:47.294   06 Jun 2027 06:05:11.730           144.436                  Delhi         18054.500
       170   06 Jun 2027 06:08:53.269   06 Jun 2027 06:10:11.235            77.966                  Delhi          9745.750
       171   06 Jun 2027 06:18:32.383   06 Jun 2027 06:19:57.070            84.687                Novosib         10585.875
       172   06 Jun 2027 06:20:17.287   06 Jun 2027 06:20:42.417            25.130                Novosib          3141.250
       173   06 Jun 2027 07:51:14.226   06 Jun 2027 07:51:24.297            10.071                 Moscow          1258.875
       174   06 Jun 2027 07:52:43.057   06 Jun 2027 07:55:08.415           145.358              Murmansk1         18169.750
       175   06 Jun 2027 07:55:20.539   06 Jun 2027 07:55:56.918            36.379                Norilsk          4547.375
       176   06 Jun 2027 07:56:00.044   06 Jun 2027 07:56:18.026            17.982              Murmansk1          2247.750
       177   06 Jun 2027 07:56:33.385   06 Jun 2027 07:56:45.210            11.825                 Moscow          1478.125
       178   06 Jun 2027 09:01:18.224   06 Jun 2027 09:07:55.073           396.849               CapeTown         49606.125
       179   06 Jun 2027 11:17:00.744   06 Jun 2027 11:17:47.558            46.814                Anadyr2          5851.750
       180   06 Jun 2027 12:55:15.846   06 Jun 2027 12:58:04.929           169.083               Magadan1         21135.375
       181   06 Jun 2027 12:58:04.929   06 Jun 2027 13:00:10.440           125.511               Magadan2         15688.875
       182   06 Jun 2027 13:05:21.120   06 Jun 2027 13:07:49.244           148.124               Magadan1         18515.500
       183   06 Jun 2027 14:51:38.395   06 Jun 2027 14:52:21.663            43.268                Sumatra          5408.500
       184   06 Jun 2027 15:22:48.837   06 Jun 2027 15:24:35.392           106.555            RioGallegos         13319.375
       185   06 Jun 2027 16:13:40.293   06 Jun 2027 16:15:34.569           114.276                Irkutsk         14284.500
       186   06 Jun 2027 16:24:24.843   06 Jun 2027 16:26:09.610           104.767                Sumatra         13095.875
       187   06 Jun 2027 16:32:06.241   06 Jun 2027 16:34:07.030           120.789                Sumatra         15098.625
       188   06 Jun 2027 17:53:49.891   06 Jun 2027 17:56:23.262           153.371                  Delhi         19171.375
       189   06 Jun 2027 18:00:55.579   06 Jun 2027 18:03:23.303           147.724                  Delhi         18465.500
       190   06 Jun 2027 20:59:59.646   06 Jun 2027 21:00:27.302            27.656                 Moscow          3457.000
       191   06 Jun 2027 21:03:16.106   06 Jun 2027 21:04:03.814            47.708                 Moscow          5963.500
       192   06 Jun 2027 21:26:23.646   06 Jun 2027 21:27:06.053            42.407               CapeTown          5300.875
       193   06 Jun 2027 21:35:42.232   06 Jun 2027 21:36:40.896            58.664               CapeTown          7333.000
       194   07 Jun 2027 02:57:13.573   07 Jun 2027 02:58:53.216            99.643                Sumatra         12455.375
       195   07 Jun 2027 03:18:31.406   07 Jun 2027 03:18:49.150            17.744              Murmansk2          2218.000
       196   07 Jun 2027 03:19:09.105   07 Jun 2027 03:19:41.502            32.397                Norilsk          4049.625
       197   07 Jun 2027 03:19:46.002   07 Jun 2027 03:20:52.297            66.295                Irkutsk          8286.875
       198   07 Jun 2027 03:56:04.286   07 Jun 2027 03:57:50.759           106.473            RioGallegos         13309.125
       199   07 Jun 2027 04:30:29.206   07 Jun 2027 04:32:05.098            95.892                Sumatra         11986.500
       200   07 Jun 2027 04:33:23.297   07 Jun 2027 04:35:13.529           110.232                Sumatra         13779.000
       201   07 Jun 2027 04:53:12.698   07 Jun 2027 04:54:04.971            52.273                Novosib          6534.125
       202   07 Jun 2027 04:54:32.849   07 Jun 2027 04:54:59.426            26.577              Murmansk1          3322.125
       203   07 Jun 2027 04:55:03.468   07 Jun 2027 04:55:34.296            30.828                Novosib          3853.500
       204   07 Jun 2027 04:55:56.573   07 Jun 2027 04:56:14.087            17.514                Norilsk          2189.250
       205   07 Jun 2027 04:56:24.772   07 Jun 2027 04:57:40.755            75.983                Novosib          9497.875
       206   07 Jun 2027 04:58:08.267   07 Jun 2027 04:58:20.479            12.212                Novosib          1526.500
       207   07 Jun 2027 06:15:04.814   07 Jun 2027 06:19:18.597           253.783                  Delhi         31722.875
       208   07 Jun 2027 06:30:03.309   07 Jun 2027 06:30:42.035            38.726                Novosib          4840.750
       209   07 Jun 2027 06:31:06.319   07 Jun 2027 06:33:13.709           127.390                Novosib         15923.750
       210   07 Jun 2027 08:06:03.646   07 Jun 2027 08:07:47.327           103.681                 Moscow         12960.125
       211   07 Jun 2027 09:13:01.444   07 Jun 2027 09:19:05.838           364.394               CapeTown         45549.250
       212   07 Jun 2027 11:29:01.618   07 Jun 2027 11:29:11.396             9.778                Anadyr1          1222.250
       213   07 Jun 2027 11:30:16.296   07 Jun 2027 11:30:31.183            14.887                Anadyr2          1860.875
       214   07 Jun 2027 11:33:46.824   07 Jun 2027 11:34:22.517            35.693                Anadyr1          4461.625
       215   07 Jun 2027 11:38:18.851   07 Jun 2027 11:38:36.958            18.107                Anadyr1          2263.375
       216   07 Jun 2027 13:07:15.390   07 Jun 2027 13:12:07.498           292.108               Magadan1         36513.500
       217   07 Jun 2027 15:02:43.503   07 Jun 2027 15:05:34.695           171.192                Sumatra         21399.000
       218   07 Jun 2027 15:11:12.685   07 Jun 2027 15:11:24.479            11.794                Sumatra          1474.250
       219   07 Jun 2027 15:34:45.535   07 Jun 2027 15:36:05.078            79.543            RioGallegos          9942.875
       220   07 Jun 2027 15:44:50.563   07 Jun 2027 15:45:22.121            31.558            RioGallegos          3944.750
       221   07 Jun 2027 16:25:48.474   07 Jun 2027 16:26:08.212            19.738                Irkutsk          2467.250
       222   07 Jun 2027 16:36:35.099   07 Jun 2027 16:37:17.493            42.394                Sumatra          5299.250
       223   07 Jun 2027 16:37:50.192   07 Jun 2027 16:39:35.789           105.597                  Delhi         13199.625
       224   07 Jun 2027 16:44:15.155   07 Jun 2027 16:45:02.498            47.343                Sumatra          5917.875
       225   07 Jun 2027 17:58:29.013   07 Jun 2027 17:58:54.972            25.959                Novosib          3244.875
       226   07 Jun 2027 18:00:05.824   07 Jun 2027 18:01:46.278           100.454                Novosib         12556.750
       227   07 Jun 2027 18:05:48.861   07 Jun 2027 18:07:35.270           106.409                  Delhi         13301.125
       228   07 Jun 2027 18:13:18.834   07 Jun 2027 18:15:24.902           126.068                  Delhi         15758.500
       229   07 Jun 2027 19:40:06.123   07 Jun 2027 19:42:03.176           117.053                 Moscow         14631.625
       230   07 Jun 2027 21:36:33.796   07 Jun 2027 21:37:31.170            57.374               CapeTown          7171.750
       231   07 Jun 2027 21:38:12.381   07 Jun 2027 21:39:06.195            53.814               CapeTown          6726.750
       232   08 Jun 2027 03:08:05.807   08 Jun 2027 03:12:38.033           272.226                Sumatra         34028.250
       233   08 Jun 2027 03:16:06.261   08 Jun 2027 03:17:08.542            62.281                Sumatra          7785.125
       234   08 Jun 2027 03:31:42.998   08 Jun 2027 03:31:56.673            13.675                Novosib          1709.375
       235   08 Jun 2027 03:32:16.305   08 Jun 2027 03:32:30.291            13.986                Norilsk          1748.250
       236   08 Jun 2027 03:32:56.811   08 Jun 2027 03:33:00.954             4.143                Norilsk           517.875
       237   08 Jun 2027 03:33:25.502   08 Jun 2027 03:33:55.160            29.658              Murmansk2          3707.250
       238   08 Jun 2027 03:34:08.204   08 Jun 2027 03:34:20.100            11.896              Murmansk2          1487.000
       239   08 Jun 2027 03:35:02.186   08 Jun 2027 03:35:29.600            27.414              Murmansk2          3426.750
       240   08 Jun 2027 04:09:25.832   08 Jun 2027 04:10:28.809            62.977            RioGallegos          7872.125
       241   08 Jun 2027 04:42:42.624   08 Jun 2027 04:44:40.648           118.024                Sumatra         14753.000
       242   08 Jun 2027 04:45:11.526   08 Jun 2027 04:47:07.832           116.306                Sumatra         14538.250
       243   08 Jun 2027 05:05:48.881   08 Jun 2027 05:06:11.650            22.769                 Moscow          2846.125
       244   08 Jun 2027 05:06:28.873   08 Jun 2027 05:08:03.407            94.534                Irkutsk         11816.750
       245   08 Jun 2027 06:27:29.575   08 Jun 2027 06:31:15.998           226.423                  Delhi         28302.875
       246   08 Jun 2027 06:42:21.270   08 Jun 2027 06:42:53.980            32.710                Norilsk          4088.750
       247   08 Jun 2027 06:42:58.087   08 Jun 2027 06:44:02.610            64.523                 Moscow          8065.375
       248   08 Jun 2027 06:44:13.080   08 Jun 2027 06:45:25.944            72.864                Novosib          9108.000
       249   08 Jun 2027 08:18:42.712   08 Jun 2027 08:19:05.163            22.451                 Moscow          2806.375
       250   08 Jun 2027 08:19:14.239   08 Jun 2027 08:19:35.371            21.132              Murmansk1          2641.500
       251   08 Jun 2027 08:33:32.698   08 Jun 2027 08:34:33.609            60.911                Anadyr2          7613.875
       252   08 Jun 2027 09:24:49.438   08 Jun 2027 09:30:32.605           343.167               CapeTown         42895.875
       253   08 Jun 2027 10:14:51.315   08 Jun 2027 10:15:45.438            54.123                Anadyr2          6765.375
       254   08 Jun 2027 11:41:33.549   08 Jun 2027 11:42:16.228            42.679                Anadyr2          5334.875
       255   08 Jun 2027 11:46:54.172   08 Jun 2027 11:49:23.267           149.095               Magadan2         18636.875
       256   08 Jun 2027 13:19:15.483   08 Jun 2027 13:19:38.460            22.977               Magadan1          2872.125
       257   08 Jun 2027 13:20:27.581   08 Jun 2027 13:22:18.527           110.946               Magadan2         13868.250
       258   08 Jun 2027 15:13:43.223   08 Jun 2027 15:21:41.926           478.703                Sumatra         59837.875
       259   08 Jun 2027 16:38:51.106   08 Jun 2027 16:41:21.127           150.021                Novosib         18752.625
       260   08 Jun 2027 16:48:37.380   08 Jun 2027 16:52:37.971           240.591                  Delhi         30073.875
       261   08 Jun 2027 18:25:35.080   08 Jun 2027 18:26:25.430            50.350                  Delhi          6293.750
       262   08 Jun 2027 19:53:01.358   08 Jun 2027 19:53:46.150            44.792                 Moscow          5599.000
       263   08 Jun 2027 19:54:28.307   08 Jun 2027 19:55:54.025            85.718                 Moscow         10714.750
       264   08 Jun 2027 21:48:02.303   08 Jun 2027 21:49:01.740            59.437               CapeTown          7429.625
       265   08 Jun 2027 21:54:18.828   08 Jun 2027 21:55:45.741            86.913               CapeTown         10864.125
       266   09 Jun 2027 03:20:43.828   09 Jun 2027 03:26:49.374           365.546                Sumatra         45693.250
       267   09 Jun 2027 04:55:03.161   09 Jun 2027 04:56:53.148           109.987                Sumatra         13748.375
       268   09 Jun 2027 05:00:25.730   09 Jun 2027 05:01:24.259            58.529                Sumatra          7316.125
       269   09 Jun 2027 05:09:40.310   09 Jun 2027 05:11:18.396            98.086                  Delhi         12260.750
       270   09 Jun 2027 05:18:33.651   09 Jun 2027 05:19:48.649            74.998                Irkutsk          9374.750
       271   09 Jun 2027 05:24:07.986   09 Jun 2027 05:24:28.363            20.377                Norilsk          2547.125
       272   09 Jun 2027 06:40:03.247   09 Jun 2027 06:42:08.011           124.764                  Delhi         15595.500
       273   09 Jun 2027 06:54:02.466   09 Jun 2027 06:54:32.654            30.188              Murmansk2          3773.500
       274   09 Jun 2027 06:54:52.181   09 Jun 2027 06:55:04.463            12.282                 Moscow          1535.250
       275   09 Jun 2027 06:55:06.403   09 Jun 2027 06:55:41.803            35.400                Norilsk          4425.000
       276   09 Jun 2027 06:55:48.039   09 Jun 2027 06:56:49.187            61.148                Norilsk          7643.500
       277   09 Jun 2027 09:36:41.325   09 Jun 2027 09:39:30.526           169.201               CapeTown         21150.125
       278   09 Jun 2027 10:17:16.404   09 Jun 2027 10:18:07.515            51.111                Anadyr2          6388.875
       279   09 Jun 2027 11:53:03.896   09 Jun 2027 11:53:08.583             4.687                Anadyr2           585.875
       280   09 Jun 2027 11:55:12.689   09 Jun 2027 11:56:21.766            69.077                Anadyr1          8634.625
       281   09 Jun 2027 11:57:37.617   09 Jun 2027 11:58:58.502            80.885               Magadan1         10110.625
       282   09 Jun 2027 12:05:06.033   09 Jun 2027 12:06:29.223            83.190               Magadan2         10398.750
       283   09 Jun 2027 13:31:16.045   09 Jun 2027 13:31:33.278            17.233               Magadan1          2154.125
       284   09 Jun 2027 13:32:56.496   09 Jun 2027 13:33:30.176            33.680               Magadan2          4210.000
       285   09 Jun 2027 13:34:32.579   09 Jun 2027 13:36:23.601           111.022               Magadan1         13877.750
       286   09 Jun 2027 15:12:42.463   09 Jun 2027 15:16:12.929           210.466                Irkutsk         26308.250
       287   09 Jun 2027 15:26:58.043   09 Jun 2027 15:32:10.782           312.739                Sumatra         39092.375
       288   09 Jun 2027 16:51:39.910   09 Jun 2027 16:52:12.463            32.553                Novosib          4069.125
       289   09 Jun 2027 16:55:12.190   09 Jun 2027 17:03:13.601           481.411                  Delhi         60176.375
       290   09 Jun 2027 20:05:33.522   09 Jun 2027 20:08:02.594           149.072                 Moscow         18634.000
       291   09 Jun 2027 21:44:03.885   09 Jun 2027 21:45:40.423            96.538                 Moscow         12067.250
       292   09 Jun 2027 22:04:40.823   09 Jun 2027 22:06:33.868           113.045               CapeTown         14130.625
       293   10 Jun 2027 03:31:04.944   10 Jun 2027 03:33:09.949           125.005                Sumatra         15625.625
       294   10 Jun 2027 03:35:52.758   10 Jun 2027 03:37:40.023           107.265                Sumatra         13408.125
       295   10 Jun 2027 04:34:12.392   10 Jun 2027 04:34:24.047            11.655            RioGallegos          1456.875
       296   10 Jun 2027 04:35:01.803   10 Jun 2027 04:36:14.081            72.278            RioGallegos          9034.750
       297   10 Jun 2027 05:07:32.619   10 Jun 2027 05:08:26.939            54.320                Sumatra          6790.000
       298   10 Jun 2027 05:09:22.697   10 Jun 2027 05:11:16.442           113.745                Sumatra         14218.125
       299   10 Jun 2027 05:19:59.891   10 Jun 2027 05:20:29.961            30.070                  Delhi          3758.750
       300   10 Jun 2027 05:30:07.699   10 Jun 2027 05:30:33.517            25.818                Novosib          3227.250
       301   10 Jun 2027 05:32:02.559   10 Jun 2027 05:32:12.240             9.681                Novosib          1210.125
       302   10 Jun 2027 05:32:21.678   10 Jun 2027 05:33:15.561            53.883              Murmansk1          6735.375
       303   10 Jun 2027 05:33:39.727   10 Jun 2027 05:33:54.072            14.345                Norilsk          1793.125
       304   10 Jun 2027 05:34:12.585   10 Jun 2027 05:34:18.863             6.278                Novosib           784.750
       305   10 Jun 2027 05:34:30.022   10 Jun 2027 05:35:01.797            31.775                Norilsk          3971.875
       306   10 Jun 2027 06:52:48.963   10 Jun 2027 06:55:50.927           181.964                  Delhi         22745.500
       307   10 Jun 2027 07:06:15.846   10 Jun 2027 07:07:04.451            48.605                Novosib          6075.625
       308   10 Jun 2027 07:07:21.590   10 Jun 2027 07:08:27.508            65.918              Murmansk1          8239.750
       309   10 Jun 2027 07:08:46.561   10 Jun 2027 07:09:16.014            29.453                Norilsk          3681.625
       310   10 Jun 2027 07:09:49.863   10 Jun 2027 07:10:12.728            22.865              Murmansk1          2858.125
       311   10 Jun 2027 08:16:36.051   10 Jun 2027 08:20:34.490           238.439               CapeTown         29804.875
       312   10 Jun 2027 09:48:36.538   10 Jun 2027 09:51:01.015           144.477               CapeTown         18059.625
       313   10 Jun 2027 10:31:08.661   10 Jun 2027 10:32:35.457            86.796                Anadyr2         10849.500
       314   10 Jun 2027 12:05:05.212   10 Jun 2027 12:05:58.130            52.918                Anadyr1          6614.750
       315   10 Jun 2027 12:07:40.423   10 Jun 2027 12:12:00.318           259.895               Magadan1         32486.875
       316   10 Jun 2027 13:43:17.015   10 Jun 2027 13:45:02.846           105.831               Magadan2         13228.875
       317   10 Jun 2027 14:38:18.456   10 Jun 2027 14:38:42.994            24.538            RioGallegos          3067.250
       318   10 Jun 2027 15:24:44.218   10 Jun 2027 15:27:20.073           155.855                Irkutsk         19481.875
       319   10 Jun 2027 15:27:49.186   10 Jun 2027 15:28:31.583            42.397                Irkutsk          5299.625
       320   10 Jun 2027 15:39:19.828   10 Jun 2027 15:43:14.615           234.787                Sumatra         29348.375
       321   10 Jun 2027 17:04:20.264   10 Jun 2027 17:06:46.623           146.359                Novosib         18294.875
       322   10 Jun 2027 17:07:54.949   10 Jun 2027 17:13:32.241           337.292                  Delhi         42161.500
       323   10 Jun 2027 20:12:19.017   10 Jun 2027 20:13:40.414            81.397                 Moscow         10174.625
       324   10 Jun 2027 20:21:06.721   10 Jun 2027 20:21:51.450            44.729                 Moscow          5591.125
       325   10 Jun 2027 21:57:42.870   10 Jun 2027 21:58:47.461            64.591                 Moscow          8073.875
       326   10 Jun 2027 22:12:34.369   10 Jun 2027 22:14:48.495           134.126               CapeTown         16765.750
       327   11 Jun 2027 03:42:48.931   11 Jun 2027 03:45:27.897           158.966                Sumatra         19870.750
       328   11 Jun 2027 03:48:50.175   11 Jun 2027 03:48:53.230             3.055                Sumatra           381.875
       329   11 Jun 2027 04:09:03.214   11 Jun 2027 04:09:12.454             9.240                Norilsk          1155.000
       330   11 Jun 2027 04:10:04.022   11 Jun 2027 04:10:22.787            18.765                Norilsk          2345.625
       331   11 Jun 2027 04:10:51.642   11 Jun 2027 04:11:00.613             8.971                Norilsk          1121.375
       332   11 Jun 2027 04:45:58.443   11 Jun 2027 04:47:07.318            68.875            RioGallegos          8609.375
       333   11 Jun 2027 04:47:22.270   11 Jun 2027 04:47:39.052            16.782            RioGallegos          2097.750
       334   11 Jun 2027 04:51:17.650   11 Jun 2027 04:51:46.758            29.108            RioGallegos          3638.500
       335   11 Jun 2027 05:20:14.725   11 Jun 2027 05:22:30.307           135.582                Sumatra         16947.750
       336   11 Jun 2027 05:26:45.292   11 Jun 2027 05:27:38.822            53.530                  Delhi          6691.250
       337   11 Jun 2027 05:32:07.114   11 Jun 2027 05:34:19.074           131.960                  Delhi         16495.000
       338   11 Jun 2027 05:44:05.773   11 Jun 2027 05:44:50.185            44.412                 Moscow          5551.500
       339   11 Jun 2027 05:45:46.860   11 Jun 2027 05:46:16.511            29.651                Novosib          3706.375
       340   11 Jun 2027 07:05:54.030   11 Jun 2027 07:07:50.866           116.836                  Delhi         14604.500
       341   11 Jun 2027 07:16:42.857   11 Jun 2027 07:17:48.098            65.241                 Moscow          8155.125
       342   11 Jun 2027 07:18:09.817   11 Jun 2027 07:18:16.668             6.851                Norilsk           856.375
       343   11 Jun 2027 07:18:19.064   11 Jun 2027 07:19:10.414            51.350                Novosib          6418.750
       344   11 Jun 2027 07:19:23.718   11 Jun 2027 07:19:30.906             7.188              Murmansk2           898.500
       345   11 Jun 2027 07:19:37.537   11 Jun 2027 07:20:50.060            72.523                 Moscow          9065.375
       346   11 Jun 2027 07:21:01.470   11 Jun 2027 07:21:24.327            22.857                 Moscow          2857.125
       347   11 Jun 2027 07:21:40.621   11 Jun 2027 07:22:00.029            19.408              Murmansk2          2426.000
       348   11 Jun 2027 07:23:22.179   11 Jun 2027 07:23:28.743             6.564                 Moscow           820.500
       349   11 Jun 2027 08:27:13.941   11 Jun 2027 08:27:47.286            33.345               CapeTown          4168.125
       350   11 Jun 2027 10:00:34.737   11 Jun 2027 10:02:16.623           101.886               CapeTown         12735.750
       351   11 Jun 2027 10:07:59.468   11 Jun 2027 10:10:09.814           130.346               CapeTown         16293.250
       352   11 Jun 2027 10:43:28.629   11 Jun 2027 10:44:15.553            46.924                Anadyr2          5865.500
       353   11 Jun 2027 10:47:05.235   11 Jun 2027 10:47:23.909            18.674                Anadyr2          2334.250
       354   11 Jun 2027 10:53:04.362   11 Jun 2027 10:53:17.144            12.782                Anadyr1          1597.750
       355   11 Jun 2027 12:17:06.593   11 Jun 2027 12:17:52.579            45.986                Anadyr1          5748.250
       356   11 Jun 2027 12:19:36.523   11 Jun 2027 12:21:02.567            86.044               Magadan1         10755.500
       357   11 Jun 2027 12:24:40.846   11 Jun 2027 12:24:42.115             1.269               Magadan1           158.625
       358   11 Jun 2027 12:25:30.153   11 Jun 2027 12:30:16.904           286.751               Magadan1         35843.875
       359   11 Jun 2027 14:04:54.088   11 Jun 2027 14:04:59.763             5.675               Magadan2           709.375
       360   11 Jun 2027 14:07:49.491   11 Jun 2027 14:08:11.714            22.223               Magadan1          2777.875
       361   11 Jun 2027 14:48:11.389   11 Jun 2027 14:48:21.932            10.543            RioGallegos          1317.875
       362   11 Jun 2027 14:50:45.353   11 Jun 2027 14:51:58.100            72.747            RioGallegos          9093.375
       363   11 Jun 2027 15:35:00.419   11 Jun 2027 15:37:08.536           128.117                Irkutsk         16014.625
       364   11 Jun 2027 15:42:25.594   11 Jun 2027 15:44:31.207           125.613                Irkutsk         15701.625
       365   11 Jun 2027 15:48:43.338   11 Jun 2027 15:51:34.292           170.954                Sumatra         21369.250
       366   11 Jun 2027 17:10:47.659   11 Jun 2027 17:12:04.444            76.785                Novosib          9598.125
       367   11 Jun 2027 17:16:54.094   11 Jun 2027 17:19:47.292           173.198                Novosib         21649.750
       368   11 Jun 2027 17:20:25.560   11 Jun 2027 17:24:39.299           253.739                  Delhi         31717.375
       369   11 Jun 2027 20:24:16.533   11 Jun 2027 20:25:18.482            61.949                 Moscow          7743.625
       370   11 Jun 2027 20:27:02.946   11 Jun 2027 20:29:16.844           133.898                 Moscow         16737.250
       371   11 Jun 2027 22:25:00.474   11 Jun 2027 22:26:35.134            94.660               CapeTown         11832.500
       372   12 Jun 2027 03:54:39.240   12 Jun 2027 03:59:41.152           301.912                Sumatra         37739.000
       373   12 Jun 2027 05:33:19.061   12 Jun 2027 05:35:48.796           149.735                Sumatra         18716.875
       374   12 Jun 2027 05:38:45.545   12 Jun 2027 05:40:47.912           122.367                  Delhi         15295.875
       375   12 Jun 2027 05:56:05.948   12 Jun 2027 05:57:18.288            72.340                Novosib          9042.500
       376   12 Jun 2027 07:19:50.064   12 Jun 2027 07:21:42.499           112.435                  Delhi         14054.375
       377   12 Jun 2027 07:28:03.935   12 Jun 2027 07:29:14.200            70.265                Novosib          8783.125
       378   12 Jun 2027 07:29:31.852   12 Jun 2027 07:29:38.935             7.083                Novosib           885.375
       379   12 Jun 2027 07:29:47.383   12 Jun 2027 07:30:31.001            43.618                Norilsk          5452.250
       380   12 Jun 2027 07:30:43.477   12 Jun 2027 07:31:25.741            42.264              Murmansk1          5283.000
       381   12 Jun 2027 07:31:27.031   12 Jun 2027 07:32:12.084            45.053              Murmansk1          5631.625
       382   12 Jun 2027 07:32:33.176   12 Jun 2027 07:33:30.556            57.380              Murmansk1          7172.500
       383   12 Jun 2027 07:33:36.884   12 Jun 2027 07:34:00.359            23.475                Norilsk          2934.375
       384   12 Jun 2027 08:38:27.434   12 Jun 2027 08:41:13.612           166.178               CapeTown         20772.250
       385   12 Jun 2027 08:46:12.677   12 Jun 2027 08:47:15.833            63.156               CapeTown          7894.500
       386   12 Jun 2027 10:55:40.480   12 Jun 2027 10:59:31.412           230.932                Anadyr1         28866.500
       387   12 Jun 2027 11:02:57.940   12 Jun 2027 11:03:07.781             9.841                Anadyr1          1230.125
       388   12 Jun 2027 12:31:33.753   12 Jun 2027 12:32:38.217            64.464               Magadan2          8058.000
       389   12 Jun 2027 12:37:00.969   12 Jun 2027 12:41:06.710           245.741               Magadan1         30717.625
       390   12 Jun 2027 14:16:55.911   12 Jun 2027 14:17:45.145            49.234               Magadan1          6154.250
       391   12 Jun 2027 15:00:51.981   12 Jun 2027 15:04:42.918           230.937            RioGallegos         28867.125
       392   12 Jun 2027 15:52:04.526   12 Jun 2027 15:52:59.303            54.777                Irkutsk          6847.125
       393   12 Jun 2027 16:00:36.582   12 Jun 2027 16:04:34.084           237.502                Sumatra         29687.750
       394   12 Jun 2027 16:10:08.457   12 Jun 2027 16:10:09.752             1.295                Sumatra           161.875
       395   12 Jun 2027 17:22:45.399   12 Jun 2027 17:23:44.025            58.626                Novosib          7328.250
       396   12 Jun 2027 17:25:35.101   12 Jun 2027 17:27:44.838           129.737                Novosib         16217.125
       397   12 Jun 2027 17:30:17.390   12 Jun 2027 17:36:03.702           346.312                  Delhi         43289.000
       398   12 Jun 2027 20:36:15.065   12 Jun 2027 20:36:31.734            16.669                 Moscow          2083.625
       399   12 Jun 2027 20:38:37.842   12 Jun 2027 20:41:11.508           153.666                 Moscow         19208.250
       400   12 Jun 2027 22:37:35.224   12 Jun 2027 22:38:11.990            36.766               CapeTown          4595.750
       401   13 Jun 2027 04:06:35.335   13 Jun 2027 04:09:44.416           189.081                Sumatra         23635.125
       402   13 Jun 2027 04:32:49.956   13 Jun 2027 04:32:55.983             6.027                Novosib           753.375
       403   13 Jun 2027 04:33:05.785   13 Jun 2027 04:33:48.275            42.490                Norilsk          5311.250
       404   13 Jun 2027 04:34:13.048   13 Jun 2027 04:34:16.288             3.240                Norilsk           405.000
       405   13 Jun 2027 04:35:47.782   13 Jun 2027 04:35:52.548             4.766                Norilsk           595.750
       406   13 Jun 2027 05:11:42.981   13 Jun 2027 05:12:32.947            49.966            RioGallegos          6245.750
       407   13 Jun 2027 05:48:11.087   13 Jun 2027 05:48:17.117             6.030                Sumatra           753.750
       408   13 Jun 2027 05:50:51.209   13 Jun 2027 05:55:39.438           288.229                  Delhi         36028.625
       409   13 Jun 2027 06:07:28.506   13 Jun 2027 06:07:36.430             7.924              Murmansk1           990.500
       410   13 Jun 2027 06:07:37.670   13 Jun 2027 06:08:07.000            29.330                Norilsk          3666.250
       411   13 Jun 2027 06:08:25.474   13 Jun 2027 06:09:46.733            81.259                Novosib         10157.375
       412   13 Jun 2027 07:40:20.110   13 Jun 2027 07:41:58.328            98.218              Murmansk1         12277.250
       413   13 Jun 2027 07:42:21.270   13 Jun 2027 07:43:05.737            44.467              Murmansk2          5558.375
       414   13 Jun 2027 07:43:05.737   13 Jun 2027 07:43:24.451            18.714              Murmansk1          2339.250
       415   13 Jun 2027 07:43:35.432   13 Jun 2027 07:44:24.312            48.880                Norilsk          6110.000
       416   13 Jun 2027 07:44:40.846   13 Jun 2027 07:45:34.340            53.494              Murmansk1          6686.750
       417   13 Jun 2027 07:45:34.340   13 Jun 2027 07:46:12.070            37.730              Murmansk2          4716.250
       418   13 Jun 2027 07:47:43.003   13 Jun 2027 07:47:50.548             7.545                 Moscow           943.125
       419   13 Jun 2027 08:49:55.673   13 Jun 2027 08:57:39.396           463.723               CapeTown         57965.375
       420   13 Jun 2027 12:43:31.900   13 Jun 2027 12:46:05.262           153.362               Magadan2         19170.250
       421   13 Jun 2027 12:48:04.600   13 Jun 2027 12:49:45.514           100.914               Magadan2         12614.250
       422   13 Jun 2027 14:24:05.139   13 Jun 2027 14:26:26.308           141.169               Magadan1         17646.125
       423   13 Jun 2027 15:11:08.563   13 Jun 2027 15:13:38.111           149.548            RioGallegos         18693.500
       424   13 Jun 2027 15:58:52.886   13 Jun 2027 16:00:06.831            73.945                Irkutsk          9243.125
       425   13 Jun 2027 16:01:43.782   13 Jun 2027 16:03:55.795           132.013                Irkutsk         16501.625
       426   13 Jun 2027 16:12:52.166   13 Jun 2027 16:15:15.058           142.892                Sumatra         17861.500
       427   13 Jun 2027 17:37:47.076   13 Jun 2027 17:39:39.838           112.762                Novosib         14095.250
       428   13 Jun 2027 17:42:09.222   13 Jun 2027 17:45:59.043           229.821                  Delhi         28727.625
       429   13 Jun 2027 20:44:59.433   13 Jun 2027 20:45:41.293            41.860              Murmansk2          5232.500
       430   13 Jun 2027 20:48:14.469   13 Jun 2027 20:48:50.818            36.349                 Moscow          4543.625
       431   13 Jun 2027 20:49:13.939   13 Jun 2027 20:49:43.036            29.097              Murmansk2          3637.125
       432   13 Jun 2027 20:51:56.074   13 Jun 2027 20:53:07.651            71.577                 Moscow          8947.125
       433   13 Jun 2027 22:55:37.858   13 Jun 2027 22:56:00.976            23.118               CapeTown          2889.750
