uniorb/output/strategy_1/Drop/Drop_KinoSat_111607.txt

KinoSat_111607
-------------------------
    Access    *     Start Time (UTCG)     *     Stop Time (UTCG)  *   Duration (s)        *       Station  *  Data (Mbytes)
         1   01 Jun 2027 03:01:08.653   01 Jun 2027 03:01:34.950            26.297                  Delhi           255.500
         2   01 Jun 2027 04:35:06.428   01 Jun 2027 04:35:20.959            14.531              Murmansk1           454.094
         3   01 Jun 2027 04:35:20.959   01 Jun 2027 04:36:04.842            43.883              Murmansk2          1371.344
         4   01 Jun 2027 04:36:04.842   01 Jun 2027 04:36:34.856            30.014              Murmansk1           937.937
         5   01 Jun 2027 04:36:40.207   01 Jun 2027 04:37:26.968            46.761              Murmansk1          1461.281
         6   01 Jun 2027 04:37:58.431   01 Jun 2027 04:39:45.345           106.914              Murmansk2          3341.063
         7   01 Jun 2027 04:40:05.731   01 Jun 2027 04:40:56.210            50.479                 Moscow          1577.469
         8   01 Jun 2027 04:41:25.062   01 Jun 2027 04:41:50.054            24.992                 Moscow           781.000
         9   01 Jun 2027 04:55:22.512   01 Jun 2027 04:56:59.597            97.085               CapeTown          3033.906
        10   01 Jun 2027 05:58:55.576   01 Jun 2027 06:03:34.963           279.387               Magadan1          8730.844
        11   01 Jun 2027 06:04:22.667   01 Jun 2027 06:04:57.432            34.765              Murmansk2          1086.406
        12   01 Jun 2027 06:09:43.925   01 Jun 2027 06:10:41.527            57.602              Murmansk1          1800.063
        13   01 Jun 2027 06:10:41.527   01 Jun 2027 06:10:58.123            16.596              Murmansk2           518.625
        14   01 Jun 2027 06:11:18.486   01 Jun 2027 06:14:50.738           212.252              Murmansk1          6632.875
        15   01 Jun 2027 07:33:59.792   01 Jun 2027 07:34:13.553            13.761                Anadyr1           430.031
        16   01 Jun 2027 07:34:44.993   01 Jun 2027 07:37:22.756           157.763                Norilsk          4930.094
        17   01 Jun 2027 07:37:28.246   01 Jun 2027 07:39:54.459           146.213                Anadyr1          4569.156
        18   01 Jun 2027 09:06:50.610   01 Jun 2027 09:07:54.314            63.704               Magadan2          1990.750
        19   01 Jun 2027 09:08:02.165   01 Jun 2027 09:08:52.420            50.255               Magadan1          1570.469
        20   01 Jun 2027 09:09:07.707   01 Jun 2027 09:12:34.158           206.451                Anadyr2          6451.594
        21   01 Jun 2027 09:12:46.410   01 Jun 2027 09:13:57.384            70.974                Anadyr2          2217.938
        22   01 Jun 2027 09:14:07.173   01 Jun 2027 09:14:25.916            18.743               Magadan2           585.719
        23   01 Jun 2027 10:45:28.570   01 Jun 2027 10:45:42.172            13.602                Irkutsk           425.063
        24   01 Jun 2027 10:46:03.869   01 Jun 2027 10:47:09.417            65.548                Norilsk          2048.375
        25   01 Jun 2027 10:47:30.207   01 Jun 2027 10:50:16.478           166.271                Irkutsk          5195.969
        26   01 Jun 2027 10:50:24.949   01 Jun 2027 10:52:13.094           108.145                Norilsk          3379.531
        27   01 Jun 2027 10:52:15.006   01 Jun 2027 10:52:50.249            35.243              Murmansk2          1101.344
        28   01 Jun 2027 11:26:15.724   01 Jun 2027 11:28:01.369           105.645            RioGallegos          3301.406
        29   01 Jun 2027 11:29:50.380   01 Jun 2027 11:30:31.465            41.085            RioGallegos          1283.906
        30   01 Jun 2027 12:00:53.455   01 Jun 2027 12:03:12.155           138.700                Sumatra          4334.375
        31   01 Jun 2027 12:15:13.893   01 Jun 2027 12:19:44.182           270.289                Irkutsk          8446.531
        32   01 Jun 2027 12:20:36.410   01 Jun 2027 12:20:50.471            14.061                Norilsk           439.406
        33   01 Jun 2027 12:21:20.054   01 Jun 2027 12:22:26.999            66.945                Norilsk          2092.031
        34   01 Jun 2027 13:06:42.861   01 Jun 2027 13:09:54.159           191.298            RioGallegos          5978.062
        35   01 Jun 2027 13:10:33.731   01 Jun 2027 13:10:54.542            20.811            RioGallegos           650.344
        36   01 Jun 2027 13:53:07.402   01 Jun 2027 13:54:06.410            59.008                Novosib          1844.000
        37   01 Jun 2027 13:54:44.708   01 Jun 2027 13:57:11.045           146.337                Novosib          4573.031
        38   01 Jun 2027 14:00:00.852   01 Jun 2027 14:00:14.806            13.954                Norilsk           436.063
        39   01 Jun 2027 15:29:29.343   01 Jun 2027 15:32:02.341           152.998                 Moscow          4781.188
        40   01 Jun 2027 15:32:56.776   01 Jun 2027 15:34:11.178            74.402              Murmansk1          2325.062
        41   01 Jun 2027 15:37:09.010   01 Jun 2027 15:39:05.193           116.183                Norilsk          3630.719
        42   01 Jun 2027 15:40:21.918   01 Jun 2027 15:41:43.979            82.061                Norilsk          2564.406
        43   01 Jun 2027 15:41:57.772   01 Jun 2027 15:42:24.580            26.808                Norilsk           837.750
        44   01 Jun 2027 17:06:59.425   01 Jun 2027 17:07:28.688            29.263                 Moscow           914.469
        45   01 Jun 2027 17:08:19.543   01 Jun 2027 17:09:15.862            56.319                 Moscow          1759.969
        46   01 Jun 2027 17:10:05.042   01 Jun 2027 17:11:04.738            59.696              Murmansk1          1865.500
        47   01 Jun 2027 17:11:38.682   01 Jun 2027 17:12:03.770            25.088                 Moscow           784.000
        48   01 Jun 2027 17:12:16.111   01 Jun 2027 17:12:42.288            26.177              Murmansk2           818.031
        49   01 Jun 2027 17:23:57.275   01 Jun 2027 17:24:30.448            33.173                Anadyr2          1036.656
        50   01 Jun 2027 17:24:54.339   01 Jun 2027 17:25:41.038            46.699                Anadyr2          1459.344
        51   01 Jun 2027 17:28:47.957   01 Jun 2027 17:29:03.596            15.639                Anadyr1           488.719
        52   01 Jun 2027 18:19:01.248   01 Jun 2027 18:19:30.326            29.078               CapeTown           908.687
        53   01 Jun 2027 18:21:02.204   01 Jun 2027 18:21:57.066            54.862               CapeTown          1714.438
        54   01 Jun 2027 18:49:30.926   01 Jun 2027 18:53:56.112           265.186              Murmansk1          8287.063
        55   01 Jun 2027 18:54:39.048   01 Jun 2027 18:55:57.879            78.831              Murmansk1          2463.469
        56   01 Jun 2027 19:02:50.992   01 Jun 2027 19:03:03.309            12.317               Magadan2           384.906
        57   01 Jun 2027 19:03:03.309   01 Jun 2027 19:03:40.161            36.852               Magadan1          1151.625
        58   01 Jun 2027 20:35:28.332   01 Jun 2027 20:39:12.921           224.589                Anadyr2          7018.406
        59   01 Jun 2027 20:40:01.639   01 Jun 2027 20:42:40.562           158.923               Magadan2          4966.344
        60   01 Jun 2027 20:42:40.562   01 Jun 2027 20:42:58.835            18.273               Magadan1           571.031
        61   01 Jun 2027 21:32:38.363   01 Jun 2027 21:34:27.767           109.404            RioGallegos          3418.875
        62   01 Jun 2027 22:11:19.457   01 Jun 2027 22:12:47.184            87.727                Anadyr2          2741.469
        63   01 Jun 2027 22:13:05.835   01 Jun 2027 22:13:27.498            21.663                Anadyr1           676.969
        64   01 Jun 2027 22:13:29.261   01 Jun 2027 22:15:09.781           100.520                Norilsk          3141.250
        65   01 Jun 2027 22:15:26.225   01 Jun 2027 22:16:54.901            88.676                Norilsk          2771.125
        66   01 Jun 2027 22:18:41.302   01 Jun 2027 22:19:19.203            37.901                Irkutsk          1184.406
        67   01 Jun 2027 22:19:29.421   01 Jun 2027 22:20:08.632            39.211                Irkutsk          1225.344
        68   01 Jun 2027 22:21:29.473   01 Jun 2027 22:21:39.859            10.386                Irkutsk           324.562
        69   01 Jun 2027 22:24:18.128   01 Jun 2027 22:24:55.233            37.105                Irkutsk          1159.531
        70   01 Jun 2027 22:34:14.096   01 Jun 2027 22:35:44.988            90.892                Sumatra          2840.375
        71   01 Jun 2027 22:41:00.036   01 Jun 2027 22:41:13.195            13.159                Sumatra           411.219
        72   01 Jun 2027 23:46:41.372   01 Jun 2027 23:49:06.092           144.720                Anadyr2          4522.500
        73   01 Jun 2027 23:49:06.729   01 Jun 2027 23:49:32.912            26.183                Anadyr1           818.219
        74   01 Jun 2027 23:49:40.733   01 Jun 2027 23:50:13.175            32.442                Norilsk          1013.812
        75   01 Jun 2027 23:50:34.853   01 Jun 2027 23:50:54.405            19.552                Norilsk           611.000
        76   01 Jun 2027 23:51:30.021   01 Jun 2027 23:52:06.769            36.748               Magadan1          1148.375
        77   01 Jun 2027 23:52:24.413   01 Jun 2027 23:52:45.101            20.688               Magadan1           646.500
        78   01 Jun 2027 23:53:09.092   01 Jun 2027 23:54:15.564            66.472                Irkutsk          2077.250
        79   01 Jun 2027 23:54:42.380   01 Jun 2027 23:55:21.591            39.211                Novosib          1225.344
        80   01 Jun 2027 23:57:14.260   01 Jun 2027 23:57:36.886            22.626                Novosib           707.063
        81   01 Jun 2027 23:57:40.735   01 Jun 2027 23:58:23.146            42.411                Novosib          1325.344
        82   02 Jun 2027 00:06:38.818   02 Jun 2027 00:06:40.231             1.413                  Delhi            44.156
        83   02 Jun 2027 00:09:24.534   02 Jun 2027 00:09:26.859             2.325                Sumatra            72.656
        84   02 Jun 2027 00:11:05.854   02 Jun 2027 00:11:37.031            31.177                Sumatra           974.281
        85   02 Jun 2027 00:13:18.542   02 Jun 2027 00:14:23.134            64.592                Sumatra          2018.500
        86   02 Jun 2027 00:47:28.664   02 Jun 2027 00:47:42.539            13.875            RioGallegos           433.594
        87   02 Jun 2027 00:52:36.925   02 Jun 2027 00:52:42.733             5.808            RioGallegos           181.500
        88   02 Jun 2027 01:20:56.820   02 Jun 2027 01:21:42.861            46.041                Anadyr2          1438.781
        89   02 Jun 2027 01:21:50.598   02 Jun 2027 01:22:22.066            31.468                Anadyr1           983.375
        90   02 Jun 2027 01:23:06.879   02 Jun 2027 01:23:32.577            25.698                Anadyr1           803.063
        91   02 Jun 2027 01:23:46.303   02 Jun 2027 01:23:57.994            11.691                Anadyr2           365.344
        92   02 Jun 2027 01:25:11.964   02 Jun 2027 01:27:10.522           118.558                Norilsk          3704.938
        93   02 Jun 2027 01:28:15.963   02 Jun 2027 01:28:48.316            32.353               Magadan1          1011.031
        94   02 Jun 2027 01:29:01.319   02 Jun 2027 01:30:38.292            96.973                Novosib          3030.406
        95   02 Jun 2027 01:34:18.730   02 Jun 2027 01:34:38.456            19.726                Irkutsk           616.438
        96   02 Jun 2027 01:36:23.754   02 Jun 2027 01:37:02.229            38.475                  Delhi          1202.344
        97   02 Jun 2027 01:40:04.405   02 Jun 2027 01:40:39.464            35.059                Irkutsk          1095.594
        98   02 Jun 2027 01:44:23.844   02 Jun 2027 01:44:58.439            34.595                  Delhi          1081.094
        99   02 Jun 2027 02:18:03.224   02 Jun 2027 02:18:07.430             4.206            RioGallegos           131.438
       100   02 Jun 2027 02:18:51.377   02 Jun 2027 02:19:25.254            33.877            RioGallegos          1058.656
       101   02 Jun 2027 02:19:29.957   02 Jun 2027 02:20:55.646            85.689            RioGallegos          2677.781
       102   02 Jun 2027 02:25:00.630   02 Jun 2027 02:25:55.992            55.362            RioGallegos          1730.062
       103   02 Jun 2027 02:57:19.235   02 Jun 2027 02:57:38.346            19.111                Anadyr2           597.219
       104   02 Jun 2027 03:08:07.468   02 Jun 2027 03:09:54.784           107.316                Norilsk          3353.625
       105   02 Jun 2027 03:10:00.573   02 Jun 2027 03:12:41.181           160.608                Novosib          5019.000
       106   02 Jun 2027 03:13:37.921   02 Jun 2027 03:17:11.111           213.190                  Delhi          6662.187
       107   02 Jun 2027 04:46:16.309   02 Jun 2027 04:47:02.204            45.895              Murmansk2          1434.219
       108   02 Jun 2027 04:47:14.829   02 Jun 2027 04:47:45.439            30.610              Murmansk2           956.562
       109   02 Jun 2027 04:48:24.210   02 Jun 2027 04:49:34.166            69.956                 Moscow          2186.125
       110   02 Jun 2027 04:49:46.051   02 Jun 2027 04:51:56.351           130.300              Murmansk1          4071.875
       111   02 Jun 2027 04:52:07.206   02 Jun 2027 04:53:54.098           106.892                 Moscow          3340.375
       112   02 Jun 2027 05:06:25.811   02 Jun 2027 05:09:21.113           175.302               CapeTown          5478.188
       113   02 Jun 2027 06:09:49.664   02 Jun 2027 06:10:45.351            55.687               Magadan2          1740.219
       114   02 Jun 2027 06:10:52.413   02 Jun 2027 06:11:19.772            27.359               Magadan2           854.969
       115   02 Jun 2027 06:11:37.495   02 Jun 2027 06:11:48.304            10.809               Magadan2           337.781
       116   02 Jun 2027 06:11:55.709   02 Jun 2027 06:11:57.719             2.010                Norilsk            62.812
       117   02 Jun 2027 06:12:03.958   02 Jun 2027 06:12:12.483             8.525               Magadan2           266.406
       118   02 Jun 2027 06:12:54.504   02 Jun 2027 06:12:59.582             5.078                Norilsk           158.688
       119   02 Jun 2027 06:13:08.086   02 Jun 2027 06:14:14.377            66.291                Anadyr2          2071.594
       120   02 Jun 2027 06:14:51.001   02 Jun 2027 06:15:06.117            15.116                Anadyr2           472.375
       121   02 Jun 2027 07:47:17.294   02 Jun 2027 07:48:59.093           101.799                Norilsk          3181.219
       122   02 Jun 2027 07:49:30.442   02 Jun 2027 07:51:12.843           102.401                Anadyr2          3200.031
       123   02 Jun 2027 07:51:12.843   02 Jun 2027 07:51:53.864            41.021                Anadyr1          1281.906
       124   02 Jun 2027 07:53:45.363   02 Jun 2027 07:54:11.666            26.303              Murmansk2           821.969
       125   02 Jun 2027 07:56:25.858   02 Jun 2027 07:56:54.203            28.345                 Moscow           885.781
       126   02 Jun 2027 09:20:21.986   02 Jun 2027 09:21:06.528            44.542               Magadan1          1391.938
       127   02 Jun 2027 09:21:10.769   02 Jun 2027 09:21:52.365            41.596               Magadan2          1299.875
       128   02 Jun 2027 09:22:07.325   02 Jun 2027 09:26:40.416           273.091                Anadyr2          8534.094
       129   02 Jun 2027 09:27:15.996   02 Jun 2027 09:27:32.169            16.173              Murmansk1           505.406
       130   02 Jun 2027 10:02:28.354   02 Jun 2027 10:03:04.461            36.107            RioGallegos          1128.344
       131   02 Jun 2027 10:06:56.797   02 Jun 2027 10:07:55.203            58.406            RioGallegos          1825.188
       132   02 Jun 2027 10:39:39.527   02 Jun 2027 10:41:32.028           112.501                Sumatra          3515.656
       133   02 Jun 2027 10:57:34.219   02 Jun 2027 11:01:11.262           217.043               Magadan1          6782.594
       134   02 Jun 2027 11:01:51.375   02 Jun 2027 11:02:36.523            45.148              Murmansk2          1410.875
       135   02 Jun 2027 11:02:41.824   02 Jun 2027 11:04:03.333            81.509              Murmansk2          2547.156
       136   02 Jun 2027 11:04:14.050   02 Jun 2027 11:04:38.712            24.662              Murmansk1           770.687
       137   02 Jun 2027 11:38:30.530   02 Jun 2027 11:40:12.847           102.317            RioGallegos          3197.406
       138   02 Jun 2027 11:41:08.982   02 Jun 2027 11:41:28.739            19.757            RioGallegos           617.406
       139   02 Jun 2027 11:42:18.186   02 Jun 2027 11:43:03.074            44.888            RioGallegos          1402.750
       140   02 Jun 2027 12:12:58.945   02 Jun 2027 12:13:59.514            60.569                Sumatra          1892.781
       141   02 Jun 2027 12:15:18.613   02 Jun 2027 12:16:36.405            77.792                Sumatra          2431.000
       142   02 Jun 2027 12:27:37.445   02 Jun 2027 12:28:37.146            59.701                Irkutsk          1865.656
       143   02 Jun 2027 12:28:42.859   02 Jun 2027 12:30:23.291           100.432                Irkutsk          3138.500
       144   02 Jun 2027 12:31:38.464   02 Jun 2027 12:32:33.240            54.776                Norilsk          1711.750
       145   02 Jun 2027 12:32:40.281   02 Jun 2027 12:32:52.014            11.733                Norilsk           366.656
       146   02 Jun 2027 12:34:27.631   02 Jun 2027 12:34:44.260            16.629                Norilsk           519.656
       147   02 Jun 2027 13:20:37.156   02 Jun 2027 13:23:03.117           145.961            RioGallegos          4561.281
       148   02 Jun 2027 13:57:30.526   02 Jun 2027 13:57:39.442             8.916                  Delhi           278.625
       149   02 Jun 2027 14:05:35.090   02 Jun 2027 14:10:05.253           270.163                Novosib          8442.594
       150   02 Jun 2027 14:10:44.246   02 Jun 2027 14:11:22.501            38.255                Norilsk          1195.469
       151   02 Jun 2027 14:11:50.728   02 Jun 2027 14:12:12.713            21.985                Norilsk           687.031
       152   02 Jun 2027 14:12:44.622   02 Jun 2027 14:14:17.413            92.791                Norilsk          2899.719
       153   02 Jun 2027 15:41:31.283   02 Jun 2027 15:42:35.948            64.665                 Moscow          2020.781
       154   02 Jun 2027 15:45:01.349   02 Jun 2027 15:47:00.287           118.938              Murmansk2          3716.812
       155   02 Jun 2027 15:47:00.287   02 Jun 2027 15:47:36.044            35.757              Murmansk1          1117.406
       156   02 Jun 2027 15:49:56.284   02 Jun 2027 15:54:36.580           280.296                Norilsk          8759.250
       157   02 Jun 2027 17:19:31.175   02 Jun 2027 17:20:38.200            67.025                 Moscow          2094.531
       158   02 Jun 2027 17:22:24.510   02 Jun 2027 17:24:17.723           113.213              Murmansk1          3537.906
       159   02 Jun 2027 18:31:10.053   02 Jun 2027 18:32:59.850           109.797               CapeTown          3431.156
       160   02 Jun 2027 19:02:12.713   02 Jun 2027 19:07:59.039           346.326              Murmansk1         10822.688
       161   02 Jun 2027 19:14:37.369   02 Jun 2027 19:14:57.966            20.597               Magadan1           643.656
       162   02 Jun 2027 19:16:47.963   02 Jun 2027 19:17:31.674            43.711               Magadan1          1365.969
       163   02 Jun 2027 20:47:29.981   02 Jun 2027 20:49:05.014            95.033                Anadyr2          2969.781
       164   02 Jun 2027 20:49:07.812   02 Jun 2027 20:50:39.323            91.511                Anadyr1          2859.719
       165   02 Jun 2027 20:50:57.986   02 Jun 2027 20:52:01.370            63.384               Magadan2          1980.750
       166   02 Jun 2027 20:52:04.135   02 Jun 2027 20:52:54.785            50.650               Magadan1          1582.812
       167   02 Jun 2027 20:53:10.259   02 Jun 2027 20:53:27.373            17.114               Magadan2           534.813
       168   02 Jun 2027 20:54:26.024   02 Jun 2027 20:55:09.373            43.349               Magadan2          1354.656
       169   02 Jun 2027 21:43:31.213   02 Jun 2027 21:44:51.883            80.670            RioGallegos          2520.938
       170   02 Jun 2027 21:45:14.700   02 Jun 2027 21:45:43.397            28.697            RioGallegos           896.781
       171   02 Jun 2027 22:23:19.073   02 Jun 2027 22:25:14.441           115.368                Anadyr1          3605.250
       172   02 Jun 2027 22:25:26.180   02 Jun 2027 22:26:56.945            90.765                Norilsk          2836.406
       173   02 Jun 2027 22:27:04.570   02 Jun 2027 22:29:25.131           140.561               Magadan2          4392.531
       174   02 Jun 2027 22:30:18.978   02 Jun 2027 22:30:56.674            37.696                Irkutsk          1178.000
       175   02 Jun 2027 22:45:11.502   02 Jun 2027 22:47:03.874           112.372                Sumatra          3511.625
       176   02 Jun 2027 23:58:34.690   02 Jun 2027 23:58:53.392            18.702                Anadyr1           584.438
       177   02 Jun 2027 23:58:59.778   03 Jun 2027 00:01:03.348           123.570                Anadyr2          3861.562
       178   03 Jun 2027 00:01:13.391   03 Jun 2027 00:02:56.527           103.136                Norilsk          3223.000
       179   03 Jun 2027 00:03:07.972   03 Jun 2027 00:03:34.058            26.086               Magadan1           815.188
       180   03 Jun 2027 00:03:52.417   03 Jun 2027 00:04:46.419            54.002               Magadan2          1687.562
       181   03 Jun 2027 00:05:08.370   03 Jun 2027 00:06:12.418            64.048                Irkutsk          2001.500
       182   03 Jun 2027 00:06:51.838   03 Jun 2027 00:07:26.774            34.936                Novosib          1091.750
       183   03 Jun 2027 00:08:04.274   03 Jun 2027 00:08:54.511            50.237                Novosib          1569.906
       184   03 Jun 2027 00:15:33.193   03 Jun 2027 00:17:05.325            92.132                  Delhi          2879.125
       185   03 Jun 2027 00:53:14.803   03 Jun 2027 00:54:24.226            69.423            RioGallegos          2169.469
       186   03 Jun 2027 01:33:40.338   03 Jun 2027 01:34:14.956            34.618                Anadyr1          1081.813
       187   03 Jun 2027 01:34:51.157   03 Jun 2027 01:35:14.629            23.472                Anadyr1           733.500
       188   03 Jun 2027 01:37:14.170   03 Jun 2027 01:39:12.922           118.752                Norilsk          3711.000
       189   03 Jun 2027 01:40:05.507   03 Jun 2027 01:41:33.781            88.274              Murmansk2          2758.563
       190   03 Jun 2027 01:41:59.637   03 Jun 2027 01:43:05.893            66.256                Irkutsk          2070.500
       191   03 Jun 2027 01:48:21.869   03 Jun 2027 01:50:59.693           157.824                  Delhi          4932.000
       192   03 Jun 2027 02:30:21.175   03 Jun 2027 02:31:35.097            73.922            RioGallegos          2310.063
       193   03 Jun 2027 02:34:37.782   03 Jun 2027 02:35:05.286            27.504            RioGallegos           859.500
       194   03 Jun 2027 03:21:01.949   03 Jun 2027 03:21:29.391            27.442              Murmansk2           857.562
       195   03 Jun 2027 03:21:50.322   03 Jun 2027 03:24:18.335           148.013                Norilsk          4625.406
       196   03 Jun 2027 03:24:24.250   03 Jun 2027 03:24:58.609            34.359              Murmansk1          1073.719
       197   03 Jun 2027 03:25:00.018   03 Jun 2027 03:25:45.016            44.998                Novosib          1406.188
       198   03 Jun 2027 03:26:19.297   03 Jun 2027 03:26:39.520            20.223                  Delhi           631.969
       199   03 Jun 2027 03:27:14.368   03 Jun 2027 03:28:00.331            45.963                Novosib          1436.344
       200   03 Jun 2027 03:31:19.452   03 Jun 2027 03:31:35.317            15.865                  Delhi           495.781
       201   03 Jun 2027 04:58:12.980   03 Jun 2027 04:59:04.969            51.989                Novosib          1624.656
       202   03 Jun 2027 04:59:30.481   03 Jun 2027 04:59:44.924            14.443                Novosib           451.344
       203   03 Jun 2027 04:59:59.039   03 Jun 2027 05:00:53.969            54.930              Murmansk2          1716.563
       204   03 Jun 2027 05:01:07.139   03 Jun 2027 05:03:34.269           147.130              Murmansk1          4597.812
       205   03 Jun 2027 05:03:40.754   03 Jun 2027 05:04:05.534            24.780              Murmansk1           774.375
       206   03 Jun 2027 05:18:26.516   03 Jun 2027 05:21:01.223           154.707               CapeTown          4834.594
       207   03 Jun 2027 06:21:42.302   03 Jun 2027 06:21:52.587            10.285               Magadan2           321.406
       208   03 Jun 2027 06:22:15.241   03 Jun 2027 06:27:39.754           324.513                Anadyr2         10141.031
       209   03 Jun 2027 07:59:08.258   03 Jun 2027 08:00:12.564            64.306                Anadyr1          2009.562
       210   03 Jun 2027 08:00:12.564   03 Jun 2027 08:02:12.557           119.993                Anadyr2          3749.781
       211   03 Jun 2027 09:32:03.582   03 Jun 2027 09:32:54.124            50.542               Magadan2          1579.437
       212   03 Jun 2027 09:33:51.988   03 Jun 2027 09:35:46.169           114.181               Magadan1          3568.156
       213   03 Jun 2027 09:36:03.057   03 Jun 2027 09:38:09.227           126.170                Anadyr2          3942.812
       214   03 Jun 2027 09:38:11.951   03 Jun 2027 09:38:47.710            35.759               Magadan2          1117.469
       215   03 Jun 2027 09:39:04.601   03 Jun 2027 09:39:23.874            19.273              Murmansk1           602.281
       216   03 Jun 2027 10:14:19.143   03 Jun 2027 10:15:35.198            76.055            RioGallegos          2376.719
       217   03 Jun 2027 10:50:48.167   03 Jun 2027 10:52:29.210           101.043                Sumatra          3157.594
       218   03 Jun 2027 11:09:27.070   03 Jun 2027 11:10:46.116            79.046                Novosib          2470.187
       219   03 Jun 2027 11:10:47.713   03 Jun 2027 11:11:10.684            22.971                Norilsk           717.844
       220   03 Jun 2027 11:11:21.262   03 Jun 2027 11:11:38.588            17.326                Irkutsk           541.438
       221   03 Jun 2027 11:12:08.157   03 Jun 2027 11:12:26.188            18.031                Irkutsk           563.469
       222   03 Jun 2027 11:12:28.372   03 Jun 2027 11:12:34.045             5.673                Norilsk           177.281
       223   03 Jun 2027 11:12:36.628   03 Jun 2027 11:12:55.338            18.710                Norilsk           584.688
       224   03 Jun 2027 11:12:57.067   03 Jun 2027 11:13:24.197            27.130                Norilsk           847.812
       225   03 Jun 2027 11:13:25.485   03 Jun 2027 11:13:30.484             4.999              Murmansk1           156.219
       226   03 Jun 2027 11:13:39.508   03 Jun 2027 11:14:23.443            43.935                Novosib          1372.969
       227   03 Jun 2027 11:14:25.487   03 Jun 2027 11:14:51.115            25.628                Novosib           800.875
       228   03 Jun 2027 11:14:58.854   03 Jun 2027 11:15:26.388            27.534              Murmansk2           860.437
       229   03 Jun 2027 11:16:04.485   03 Jun 2027 11:16:10.758             6.273              Murmansk1           196.031
       230   03 Jun 2027 11:17:02.940   03 Jun 2027 11:17:07.853             4.913              Murmansk2           153.531
       231   03 Jun 2027 11:17:56.197   03 Jun 2027 11:18:15.167            18.970              Murmansk1           592.812
       232   03 Jun 2027 11:20:54.111   03 Jun 2027 11:21:58.263            64.152              Murmansk2          2004.750
       233   03 Jun 2027 11:53:04.915   03 Jun 2027 11:54:08.161            63.246            RioGallegos          1976.438
       234   03 Jun 2027 12:27:07.046   03 Jun 2027 12:27:49.966            42.920                Sumatra          1341.250
       235   03 Jun 2027 12:34:41.523   03 Jun 2027 12:35:02.763            21.240                  Delhi           663.750
       236   03 Jun 2027 12:40:01.477   03 Jun 2027 12:42:16.079           134.602                Novosib          4206.313
       237   03 Jun 2027 12:43:43.102   03 Jun 2027 12:44:27.473            44.371                Irkutsk          1386.594
       238   03 Jun 2027 12:44:28.242   03 Jun 2027 12:45:26.210            57.968                Norilsk          1811.500
       239   03 Jun 2027 14:09:52.828   03 Jun 2027 14:11:01.544            68.716                  Delhi          2147.375
       240   03 Jun 2027 14:11:51.202   03 Jun 2027 14:14:22.844           151.642                  Delhi          4738.813
       241   03 Jun 2027 14:18:08.020   03 Jun 2027 14:23:05.750           297.730                Novosib          9304.062
       242   03 Jun 2027 15:53:36.218   03 Jun 2027 15:56:53.352           197.134                 Moscow          6160.437
       243   03 Jun 2027 15:57:07.574   03 Jun 2027 15:58:05.112            57.538              Murmansk1          1798.063
       244   03 Jun 2027 16:02:49.696   03 Jun 2027 16:06:26.435           216.739                Norilsk          6773.094
       245   03 Jun 2027 17:07:25.867   03 Jun 2027 17:07:47.562            21.695               CapeTown           677.969
       246   03 Jun 2027 17:32:08.922   03 Jun 2027 17:32:19.343            10.421                 Moscow           325.656
       247   03 Jun 2027 17:33:21.334   03 Jun 2027 17:34:37.065            75.731                 Moscow          2366.594
       248   03 Jun 2027 17:34:46.194   03 Jun 2027 17:36:19.110            92.916              Murmansk2          2903.625
       249   03 Jun 2027 17:38:20.673   03 Jun 2027 17:38:44.486            23.813              Murmansk2           744.156
       250   03 Jun 2027 17:40:01.733   03 Jun 2027 17:40:05.577             3.844              Murmansk1           120.125
       251   03 Jun 2027 17:44:16.034   03 Jun 2027 17:44:39.349            23.315              Murmansk2           728.594
       252   03 Jun 2027 17:47:50.870   03 Jun 2027 17:49:11.343            80.473                Anadyr2          2514.781
       253   03 Jun 2027 17:49:11.343   03 Jun 2027 17:49:43.053            31.710                Anadyr1           990.938
       254   03 Jun 2027 18:43:22.150   03 Jun 2027 18:45:00.385            98.235               CapeTown          3069.844
       255   03 Jun 2027 19:14:59.145   03 Jun 2027 19:19:40.942           281.797              Murmansk2          8806.156
       256   03 Jun 2027 19:19:59.814   03 Jun 2027 19:21:00.003            60.189              Murmansk1          1880.906
       257   03 Jun 2027 19:26:52.321   03 Jun 2027 19:27:00.601             8.280               Magadan2           258.750
       258   03 Jun 2027 19:29:05.471   03 Jun 2027 19:29:30.223            24.752               Magadan1           773.500
       259   03 Jun 2027 19:34:31.298   03 Jun 2027 19:35:02.444            31.146               Magadan2           973.313
       260   03 Jun 2027 20:59:31.530   03 Jun 2027 21:03:21.446           229.916                Anadyr2          7184.875
       261   03 Jun 2027 21:03:44.657   03 Jun 2027 21:04:56.630            71.973               Magadan1          2249.156
       262   03 Jun 2027 21:04:56.630   03 Jun 2027 21:05:54.561            57.931               Magadan2          1810.344
       263   03 Jun 2027 21:06:32.402   03 Jun 2027 21:06:50.191            17.789               Magadan2           555.906
       264   03 Jun 2027 21:07:04.379   03 Jun 2027 21:08:18.387            74.008               Magadan2          2312.750
       265   03 Jun 2027 21:54:55.128   03 Jun 2027 21:57:37.953           162.825            RioGallegos          5088.281
       266   03 Jun 2027 22:00:14.958   03 Jun 2027 22:01:01.375            46.417            RioGallegos          1450.531
       267   03 Jun 2027 22:35:18.191   03 Jun 2027 22:36:09.335            51.144                Anadyr2          1598.250
       268   03 Jun 2027 22:36:20.998   03 Jun 2027 22:36:24.773             3.775                Anadyr2           117.969
       269   03 Jun 2027 22:37:24.472   03 Jun 2027 22:37:29.425             4.953                Norilsk           154.781
       270   03 Jun 2027 22:37:46.568   03 Jun 2027 22:39:50.548           123.980               Magadan2          3874.375
       271   03 Jun 2027 22:41:34.466   03 Jun 2027 22:41:34.776             0.310               Magadan2             9.688
       272   03 Jun 2027 22:42:02.849   03 Jun 2027 22:42:54.929            52.080                Irkutsk          1627.500
       273   03 Jun 2027 22:44:08.738   03 Jun 2027 22:44:37.472            28.734                Irkutsk           897.938
       274   03 Jun 2027 22:50:56.393   03 Jun 2027 22:51:27.395            31.002                Irkutsk           968.813
       275   03 Jun 2027 22:56:28.475   03 Jun 2027 22:57:44.097            75.622                Sumatra          2363.187
       276   03 Jun 2027 23:01:01.301   03 Jun 2027 23:01:33.908            32.607                Sumatra          1018.969
       277   03 Jun 2027 23:40:34.988   03 Jun 2027 23:41:10.638            35.650            RioGallegos          1114.063
       278   04 Jun 2027 00:10:26.819   04 Jun 2027 00:11:45.172            78.353                Anadyr1          2448.531
       279   04 Jun 2027 00:12:10.952   04 Jun 2027 00:12:52.302            41.350                Anadyr2          1292.188
       280   04 Jun 2027 00:13:21.971   04 Jun 2027 00:13:29.247             7.276                Anadyr2           227.375
       281   04 Jun 2027 00:13:54.177   04 Jun 2027 00:16:11.251           137.074               Magadan2          4283.563
       282   04 Jun 2027 00:16:11.251   04 Jun 2027 00:16:28.417            17.166               Magadan1           536.437
       283   04 Jun 2027 00:17:08.671   04 Jun 2027 00:17:50.079            41.408                Irkutsk          1294.000
       284   04 Jun 2027 00:18:17.495   04 Jun 2027 00:19:02.983            45.488                Novosib          1421.500
       285   04 Jun 2027 00:23:16.933   04 Jun 2027 00:23:26.363             9.430                Novosib           294.688
       286   04 Jun 2027 00:26:33.844   04 Jun 2027 00:28:55.026           141.182                  Delhi          4411.937
       287   04 Jun 2027 00:42:55.195   04 Jun 2027 00:43:02.673             7.478                Sumatra           233.687
       288   04 Jun 2027 01:05:20.499   04 Jun 2027 01:06:30.152            69.653            RioGallegos          2176.656
       289   04 Jun 2027 01:13:54.838   04 Jun 2027 01:14:21.748            26.910            RioGallegos           840.937
       290   04 Jun 2027 01:44:23.031   04 Jun 2027 01:45:11.551            48.520                Anadyr1          1516.250
       291   04 Jun 2027 01:45:11.551   04 Jun 2027 01:45:39.620            28.069                Anadyr2           877.156
       292   04 Jun 2027 01:46:04.930   04 Jun 2027 01:46:22.354            17.424                Anadyr1           544.500
       293   04 Jun 2027 01:47:07.937   04 Jun 2027 01:47:21.075            13.138                Anadyr2           410.563
       294   04 Jun 2027 01:49:16.286   04 Jun 2027 01:50:45.979            89.693                Norilsk          2802.906
       295   04 Jun 2027 01:51:06.667   04 Jun 2027 01:51:15.343             8.676                Norilsk           271.125
       296   04 Jun 2027 01:51:55.530   04 Jun 2027 01:53:35.439            99.909              Murmansk2          3122.156
       297   04 Jun 2027 01:53:46.388   04 Jun 2027 01:56:21.689           155.301                Novosib          4853.156
       298   04 Jun 2027 02:42:44.716   04 Jun 2027 02:46:22.256           217.540            RioGallegos          6798.125
       299   04 Jun 2027 02:47:33.361   04 Jun 2027 02:47:51.964            18.603            RioGallegos           581.344
       300   04 Jun 2027 03:33:09.231   04 Jun 2027 03:34:31.994            82.763                Irkutsk          2586.344
       301   04 Jun 2027 03:34:42.847   04 Jun 2027 03:35:50.012            67.165                Novosib          2098.906
       302   04 Jun 2027 03:36:05.519   04 Jun 2027 03:36:21.412            15.893                 Moscow           496.656
       303   04 Jun 2027 03:36:22.761   04 Jun 2027 03:37:42.125            79.364                Norilsk          2480.125
       304   04 Jun 2027 03:37:55.786   04 Jun 2027 03:38:38.979            43.193              Murmansk2          1349.781
       305   04 Jun 2027 03:38:53.203   04 Jun 2027 03:40:14.175            80.972                Novosib          2530.375
       306   04 Jun 2027 03:40:33.662   04 Jun 2027 03:42:53.984           140.322                  Delhi          4385.062
       307   04 Jun 2027 05:10:13.238   04 Jun 2027 05:11:03.867            50.629                Novosib          1582.156
       308   04 Jun 2027 05:12:06.292   04 Jun 2027 05:14:10.812           124.520                 Moscow          3891.250
       309   04 Jun 2027 06:33:55.391   04 Jun 2027 06:35:03.365            67.974               Magadan2          2124.188
       310   04 Jun 2027 06:35:14.952   04 Jun 2027 06:35:40.138            25.186               Magadan1           787.062
       311   04 Jun 2027 06:35:45.047   04 Jun 2027 06:36:20.007            34.960                Anadyr2          1092.500
       312   04 Jun 2027 06:36:20.007   04 Jun 2027 06:36:59.857            39.850                Anadyr1          1245.313
       313   04 Jun 2027 08:10:48.801   04 Jun 2027 08:11:00.797            11.996                Norilsk           374.875
       314   04 Jun 2027 08:11:05.123   04 Jun 2027 08:11:59.544            54.421               Magadan1          1700.656
       315   04 Jun 2027 08:11:59.544   04 Jun 2027 08:13:33.091            93.547               Magadan2          2923.344
       316   04 Jun 2027 08:13:52.211   04 Jun 2027 08:14:34.781            42.570               Magadan2          1330.313
       317   04 Jun 2027 08:15:13.095   04 Jun 2027 08:15:44.944            31.849                Anadyr2           995.281
       318   04 Jun 2027 09:45:11.973   04 Jun 2027 09:45:44.366            32.393               Magadan2          1012.281
       319   04 Jun 2027 09:45:56.469   04 Jun 2027 09:46:43.436            46.967               Magadan2          1467.719
       320   04 Jun 2027 09:47:01.659   04 Jun 2027 09:47:09.616             7.957                Norilsk           248.656
       321   04 Jun 2027 09:47:15.866   04 Jun 2027 09:47:18.596             2.730                Norilsk            85.312
       322   04 Jun 2027 09:47:22.347   04 Jun 2027 09:48:11.038            48.691                Irkutsk          1521.594
       323   04 Jun 2027 09:48:14.379   04 Jun 2027 09:48:15.285             0.906                Irkutsk            28.312
       324   04 Jun 2027 09:48:21.286   04 Jun 2027 09:50:29.774           128.488               Magadan1          4015.250
       325   04 Jun 2027 09:50:37.171   04 Jun 2027 09:51:03.072            25.901               Magadan1           809.406
       326   04 Jun 2027 09:51:07.149   04 Jun 2027 09:51:13.939             6.790                Irkutsk           212.187
       327   04 Jun 2027 09:51:28.828   04 Jun 2027 09:51:35.240             6.412                Norilsk           200.375
       328   04 Jun 2027 09:51:35.711   04 Jun 2027 09:52:14.403            38.692              Murmansk2          1209.125
       329   04 Jun 2027 09:52:42.349   04 Jun 2027 09:53:35.973            53.624              Murmansk2          1675.750
       330   04 Jun 2027 10:26:13.149   04 Jun 2027 10:27:05.026            51.877            RioGallegos          1621.156
       331   04 Jun 2027 11:02:11.763   04 Jun 2027 11:02:28.955            17.192                Sumatra           537.250
       332   04 Jun 2027 11:11:03.573   04 Jun 2027 11:11:24.617            21.044                Sumatra           657.625
       333   04 Jun 2027 11:21:04.097   04 Jun 2027 11:21:41.843            37.746                Novosib          1179.563
       334   04 Jun 2027 11:22:14.142   04 Jun 2027 11:22:20.580             6.438                Novosib           201.188
       335   04 Jun 2027 11:22:25.844   04 Jun 2027 11:24:11.792           105.948                Irkutsk          3310.875
       336   04 Jun 2027 11:24:26.539   04 Jun 2027 11:24:35.397             8.858              Murmansk2           276.812
       337   04 Jun 2027 11:24:52.540   04 Jun 2027 11:24:55.171             2.631                Norilsk            82.219
       338   04 Jun 2027 11:24:56.733   04 Jun 2027 11:25:10.083            13.350              Murmansk2           417.188
       339   04 Jun 2027 11:25:17.504   04 Jun 2027 11:25:27.127             9.623                Irkutsk           300.719
       340   04 Jun 2027 11:25:32.110   04 Jun 2027 11:26:34.709            62.599              Murmansk1          1956.219
       341   04 Jun 2027 11:26:48.381   04 Jun 2027 11:27:06.482            18.101                Norilsk           565.656
       342   04 Jun 2027 11:27:10.488   04 Jun 2027 11:27:37.936            27.448              Murmansk2           857.750
       343   04 Jun 2027 11:28:32.385   04 Jun 2027 11:28:53.093            20.708                Novosib           647.125
       344   04 Jun 2027 12:03:13.304   04 Jun 2027 12:03:33.019            19.715            RioGallegos           616.094
       345   04 Jun 2027 12:04:05.862   04 Jun 2027 12:04:13.268             7.406            RioGallegos           231.437
       346   04 Jun 2027 12:04:59.044   04 Jun 2027 12:06:01.382            62.338            RioGallegos          1948.062
       347   04 Jun 2027 12:37:28.731   04 Jun 2027 12:38:33.277            64.546                Sumatra          2017.062
       348   04 Jun 2027 12:46:03.683   04 Jun 2027 12:46:18.813            15.130                  Delhi           472.812
       349   04 Jun 2027 12:52:07.060   04 Jun 2027 12:55:19.984           192.924                Novosib          6028.875
       350   04 Jun 2027 12:56:44.306   04 Jun 2027 12:56:55.670            11.364                Norilsk           355.125
       351   04 Jun 2027 13:04:05.740   04 Jun 2027 13:04:17.355            11.615              Murmansk2           362.969
       352   04 Jun 2027 13:05:43.902   04 Jun 2027 13:05:49.832             5.930              Murmansk1           185.313
       353   04 Jun 2027 14:22:23.391   04 Jun 2027 14:25:30.462           187.071                  Delhi          5845.969
       354   04 Jun 2027 14:26:03.694   04 Jun 2027 14:27:31.828            88.134                  Delhi          2754.188
       355   04 Jun 2027 14:30:47.197   04 Jun 2027 14:31:52.124            64.927                Novosib          2028.969
       356   04 Jun 2027 14:33:05.809   04 Jun 2027 14:36:10.134           184.325                Novosib          5760.156
       357   04 Jun 2027 16:05:44.256   04 Jun 2027 16:07:38.234           113.978                 Moscow          3561.813
       358   04 Jun 2027 16:08:50.640   04 Jun 2027 16:09:26.420            35.780                 Moscow          1118.125
       359   04 Jun 2027 16:09:59.590   04 Jun 2027 16:12:01.320           121.730              Murmansk2          3804.063
       360   04 Jun 2027 16:18:26.531   04 Jun 2027 16:19:19.512            52.981                Norilsk          1655.656
       361   04 Jun 2027 16:25:15.463   04 Jun 2027 16:25:49.276            33.813                Anadyr2          1056.656
       362   04 Jun 2027 16:29:09.906   04 Jun 2027 16:29:21.544            11.638                Anadyr2           363.688
       363   04 Jun 2027 17:19:16.812   04 Jun 2027 17:20:50.173            93.361               CapeTown          2917.531
       364   04 Jun 2027 17:26:15.217   04 Jun 2027 17:26:37.628            22.411               CapeTown           700.344
       365   04 Jun 2027 17:44:54.165   04 Jun 2027 17:45:28.649            34.484                 Moscow          1077.625
       366   04 Jun 2027 17:46:31.527   04 Jun 2027 17:49:39.357           187.830                 Moscow          5869.687
       367   04 Jun 2027 17:55:36.197   04 Jun 2027 17:55:39.351             3.154              Murmansk1            98.562
       368   04 Jun 2027 17:56:06.465   04 Jun 2027 17:57:44.349            97.884              Murmansk2          3058.875
       369   04 Jun 2027 18:55:38.126   04 Jun 2027 18:56:20.877            42.751               CapeTown          1335.969
       370   04 Jun 2027 18:59:05.426   04 Jun 2027 19:00:11.849            66.423               CapeTown          2075.719
       371   04 Jun 2027 19:27:51.763   04 Jun 2027 19:32:24.677           272.914              Murmansk2          8528.563
       372   04 Jun 2027 19:32:27.504   04 Jun 2027 19:33:09.038            41.534              Murmansk1          1297.937
       373   04 Jun 2027 19:38:20.017   04 Jun 2027 19:39:03.139            43.122               Magadan2          1347.563
       374   04 Jun 2027 19:42:34.808   04 Jun 2027 19:42:50.764            15.956               Magadan2           498.625
       375   04 Jun 2027 19:43:40.601   04 Jun 2027 19:43:47.514             6.913               Magadan1           216.031
       376   04 Jun 2027 19:46:44.406   04 Jun 2027 19:47:16.280            31.874               Magadan1           996.063
       377   04 Jun 2027 21:11:32.935   04 Jun 2027 21:15:16.178           223.243                Anadyr1          6976.344
       378   04 Jun 2027 21:15:23.128   04 Jun 2027 21:16:43.899            80.771                Anadyr2          2524.094
       379   04 Jun 2027 21:16:53.380   04 Jun 2027 21:18:29.162            95.782               Magadan2          2993.188
       380   04 Jun 2027 21:18:32.440   04 Jun 2027 21:18:54.573            22.133               Magadan1           691.656
       381   04 Jun 2027 21:25:41.330   04 Jun 2027 21:25:44.441             3.111               Magadan1            97.219
       382   04 Jun 2027 21:26:18.990   04 Jun 2027 21:26:36.440            17.450               Magadan1           545.312
       383   04 Jun 2027 22:06:30.949   04 Jun 2027 22:08:58.040           147.091            RioGallegos          4596.594
       384   04 Jun 2027 22:09:02.035   04 Jun 2027 22:09:24.325            22.290            RioGallegos           696.562
       385   04 Jun 2027 22:13:02.632   04 Jun 2027 22:13:04.798             2.166            RioGallegos            67.687
       386   04 Jun 2027 22:47:16.724   04 Jun 2027 22:48:53.844            97.120                Anadyr1          3035.000
       387   04 Jun 2027 22:49:23.754   04 Jun 2027 22:51:00.225            96.471                Norilsk          3014.719
       388   04 Jun 2027 22:51:14.669   04 Jun 2027 22:52:08.510            53.841               Magadan2          1682.531
       389   04 Jun 2027 22:52:53.245   04 Jun 2027 22:53:00.848             7.603                Norilsk           237.594
       390   04 Jun 2027 22:53:02.734   04 Jun 2027 22:53:07.368             4.634               Magadan2           144.812
       391   04 Jun 2027 22:53:50.899   04 Jun 2027 22:54:37.136            46.237                Irkutsk          1444.906
       392   04 Jun 2027 22:56:04.073   04 Jun 2027 22:56:21.067            16.994                Irkutsk           531.062
       393   04 Jun 2027 22:59:56.618   04 Jun 2027 23:00:03.115             6.497                Irkutsk           203.031
       394   04 Jun 2027 23:00:48.175   04 Jun 2027 23:01:57.656            69.481                Irkutsk          2171.281
       395   04 Jun 2027 23:07:57.584   04 Jun 2027 23:08:56.913            59.329                Sumatra          1854.031
       396   04 Jun 2027 23:13:48.910   04 Jun 2027 23:14:06.397            17.487                Sumatra           546.469
       397   04 Jun 2027 23:44:59.328   04 Jun 2027 23:45:34.909            35.581            RioGallegos          1111.906
       398   04 Jun 2027 23:51:47.954   04 Jun 2027 23:52:40.516            52.562            RioGallegos          1642.563
       399   05 Jun 2027 00:22:17.683   05 Jun 2027 00:22:20.928             3.245                Anadyr2           101.406
       400   05 Jun 2027 00:22:34.745   05 Jun 2027 00:22:44.599             9.854                Anadyr2           307.938
       401   05 Jun 2027 00:22:44.599   05 Jun 2027 00:23:34.781            50.182                Anadyr1          1568.187
       402   05 Jun 2027 00:23:46.096   05 Jun 2027 00:24:12.251            26.155                Anadyr2           817.344
       403   05 Jun 2027 00:24:36.907   05 Jun 2027 00:24:52.882            15.975                Anadyr2           499.219
       404   05 Jun 2027 00:25:17.601   05 Jun 2027 00:27:00.636           103.035                Norilsk          3219.844
       405   05 Jun 2027 00:27:58.946   05 Jun 2027 00:28:50.257            51.311               Magadan2          1603.469
       406   05 Jun 2027 00:29:19.938   05 Jun 2027 00:29:56.826            36.888                Irkutsk          1152.750
       407   05 Jun 2027 00:30:03.616   05 Jun 2027 00:30:33.905            30.289                Novosib           946.531
       408   05 Jun 2027 00:31:02.042   05 Jun 2027 00:31:16.646            14.604                Novosib           456.375
       409   05 Jun 2027 00:31:38.881   05 Jun 2027 00:31:55.682            16.801                Novosib           525.031
       410   05 Jun 2027 00:37:51.166   05 Jun 2027 00:38:28.311            37.145                Novosib          1160.781
       411   05 Jun 2027 00:38:39.603   05 Jun 2027 00:40:44.624           125.021                  Delhi          3906.906
       412   05 Jun 2027 00:54:37.078   05 Jun 2027 00:54:37.136             0.058                Sumatra             1.813
       413   05 Jun 2027 01:19:25.897   05 Jun 2027 01:19:52.889            26.992            RioGallegos           843.500
       414   05 Jun 2027 01:22:21.845   05 Jun 2027 01:23:09.612            47.767            RioGallegos          1492.719
       415   05 Jun 2027 01:27:45.269   05 Jun 2027 01:28:14.004            28.735            RioGallegos           897.969
       416   05 Jun 2027 01:56:04.986   05 Jun 2027 01:56:06.190             1.204                Anadyr2            37.625
       417   05 Jun 2027 01:56:16.710   05 Jun 2027 01:56:38.042            21.332                Anadyr1           666.625
       418   05 Jun 2027 01:57:09.999   05 Jun 2027 01:57:24.569            14.570                Anadyr1           455.312
       419   05 Jun 2027 01:57:40.776   05 Jun 2027 01:58:22.954            42.178                Anadyr2          1318.062
       420   05 Jun 2027 02:01:18.289   05 Jun 2027 02:02:41.115            82.826                Norilsk          2588.313
       421   05 Jun 2027 02:03:49.052   05 Jun 2027 02:04:29.299            40.247              Murmansk1          1257.719
       422   05 Jun 2027 02:05:04.591   05 Jun 2027 02:05:42.438            37.847                Novosib          1182.719
       423   05 Jun 2027 02:06:25.243   05 Jun 2027 02:06:56.388            31.145              Murmansk2           973.281
       424   05 Jun 2027 02:07:26.927   05 Jun 2027 02:08:36.284            69.357                Irkutsk          2167.406
       425   05 Jun 2027 02:12:38.775   05 Jun 2027 02:14:05.813            87.038                  Delhi          2719.938
       426   05 Jun 2027 02:55:19.673   05 Jun 2027 02:55:58.039            38.366            RioGallegos          1198.937
       427   05 Jun 2027 02:57:12.782   05 Jun 2027 02:57:44.910            32.128            RioGallegos          1004.000
       428   05 Jun 2027 02:58:09.924   05 Jun 2027 02:58:51.262            41.338            RioGallegos          1291.812
       429   05 Jun 2027 03:45:49.634   05 Jun 2027 03:49:14.925           205.291                Novosib          6415.344
       430   05 Jun 2027 03:49:17.948   05 Jun 2027 03:49:48.684            30.736                 Moscow           960.500
       431   05 Jun 2027 03:50:10.268   05 Jun 2027 03:50:42.345            32.077              Murmansk1          1002.406
       432   05 Jun 2027 03:50:42.345   05 Jun 2027 03:50:59.996            17.651              Murmansk2           551.594
       433   05 Jun 2027 03:52:28.175   05 Jun 2027 03:53:54.930            86.755                 Moscow          2711.094
       434   05 Jun 2027 04:09:02.669   05 Jun 2027 04:10:45.524           102.855               CapeTown          3214.219
       435   05 Jun 2027 05:23:07.382   05 Jun 2027 05:24:20.565            73.183              Murmansk1          2286.969
       436   05 Jun 2027 05:24:20.565   05 Jun 2027 05:24:43.365            22.800              Murmansk2           712.500
       437   05 Jun 2027 05:24:44.528   05 Jun 2027 05:24:59.945            15.417              Murmansk2           481.781
       438   05 Jun 2027 05:25:11.765   05 Jun 2027 05:26:13.318            61.553              Murmansk1          1923.531
       439   05 Jun 2027 05:44:35.474   05 Jun 2027 05:44:37.856             2.382               CapeTown            74.438
       440   05 Jun 2027 05:47:14.734   05 Jun 2027 05:47:42.087            27.353               CapeTown           854.781
       441   05 Jun 2027 05:53:15.384   05 Jun 2027 05:54:08.540            53.156               CapeTown          1661.125
       442   05 Jun 2027 06:46:17.146   05 Jun 2027 06:47:58.444           101.298                Anadyr2          3165.562
       443   05 Jun 2027 06:47:58.444   05 Jun 2027 06:48:24.006            25.562                Anadyr1           798.813
       444   05 Jun 2027 06:51:27.356   05 Jun 2027 06:51:47.220            19.864               Magadan1           620.750
       445   05 Jun 2027 08:22:20.160   05 Jun 2027 08:23:15.182            55.022                Irkutsk          1719.438
       446   05 Jun 2027 08:23:19.068   05 Jun 2027 08:23:59.119            40.051                Norilsk          1251.594
       447   05 Jun 2027 08:24:01.388   05 Jun 2027 08:25:31.573            90.185               Magadan2          2818.281
       448   05 Jun 2027 08:25:51.568   05 Jun 2027 08:27:45.626           114.058                Anadyr1          3564.313
       449   05 Jun 2027 09:57:01.314   05 Jun 2027 09:57:58.018            56.704               Magadan2          1772.000
       450   05 Jun 2027 09:58:08.618   05 Jun 2027 09:58:15.120             6.502               Magadan2           203.188
       451   05 Jun 2027 09:58:15.120   05 Jun 2027 09:58:54.436            39.316               Magadan1          1228.625
       452   05 Jun 2027 09:59:21.191   05 Jun 2027 09:59:22.314             1.123                Irkutsk            35.094
       453   05 Jun 2027 09:59:41.154   05 Jun 2027 10:01:50.832           129.678               Magadan2          4052.437
       454   05 Jun 2027 10:02:14.505   05 Jun 2027 10:02:32.304            17.799                Norilsk           556.219
       455   05 Jun 2027 10:02:42.093   05 Jun 2027 10:03:09.609            27.516                Norilsk           859.875
       456   05 Jun 2027 10:03:23.889   05 Jun 2027 10:03:52.414            28.525                Norilsk           891.406
       457   05 Jun 2027 10:03:57.237   05 Jun 2027 10:04:38.796            41.559              Murmansk2          1298.719
       458   05 Jun 2027 10:38:10.400   05 Jun 2027 10:39:14.256            63.856            RioGallegos          1995.500
       459   05 Jun 2027 11:13:45.604   05 Jun 2027 11:14:59.966            74.362                Sumatra          2323.812
       460   05 Jun 2027 11:33:22.316   05 Jun 2027 11:33:52.513            30.197                Novosib           943.656
       461   05 Jun 2027 11:34:08.925   05 Jun 2027 11:35:24.909            75.984                Irkutsk          2374.500
       462   05 Jun 2027 11:35:37.156   05 Jun 2027 11:36:48.492            71.336                Novosib          2229.250
       463   05 Jun 2027 11:36:53.428   05 Jun 2027 11:37:20.645            27.217                Norilsk           850.531
       464   05 Jun 2027 11:37:28.734   05 Jun 2027 11:38:32.058            63.324              Murmansk1          1978.875
       465   05 Jun 2027 11:38:36.226   05 Jun 2027 11:38:47.856            11.630                Norilsk           363.438
       466   05 Jun 2027 11:38:55.766   05 Jun 2027 11:38:59.463             3.697                Novosib           115.531
       467   05 Jun 2027 11:39:14.335   05 Jun 2027 11:39:35.985            21.650                Norilsk           676.563
       468   05 Jun 2027 11:40:07.644   05 Jun 2027 11:40:13.454             5.810              Murmansk2           181.562
       469   05 Jun 2027 11:40:21.366   05 Jun 2027 11:40:40.624            19.258                Norilsk           601.813
       470   05 Jun 2027 12:15:42.349   05 Jun 2027 12:16:24.416            42.067            RioGallegos          1314.594
       471   05 Jun 2027 12:19:19.665   05 Jun 2027 12:20:00.222            40.557            RioGallegos          1267.406
       472   05 Jun 2027 12:49:55.269   05 Jun 2027 12:51:01.693            66.424                Sumatra          2075.750
       473   05 Jun 2027 12:54:10.733   05 Jun 2027 12:55:10.063            59.330                Sumatra          1854.062
       474   05 Jun 2027 13:04:15.777   05 Jun 2027 13:04:50.677            34.900                Novosib          1090.625
       475   05 Jun 2027 13:05:22.834   05 Jun 2027 13:05:22.965             0.131                Irkutsk             4.094
       476   05 Jun 2027 13:05:29.341   05 Jun 2027 13:07:19.975           110.634                Novosib          3457.313
       477   05 Jun 2027 13:08:57.741   05 Jun 2027 13:09:38.470            40.729                Norilsk          1272.781
       478   05 Jun 2027 13:11:15.824   05 Jun 2027 13:11:51.751            35.927                Norilsk          1122.719
       479   05 Jun 2027 14:35:04.693   05 Jun 2027 14:37:06.261           121.568                  Delhi          3799.000
       480   05 Jun 2027 14:38:18.591   05 Jun 2027 14:39:57.666            99.075                  Delhi          3096.094
       481   05 Jun 2027 14:44:00.117   05 Jun 2027 14:44:52.202            52.085                Novosib          1627.656
       482   05 Jun 2027 14:45:10.599   05 Jun 2027 14:45:15.600             5.001              Murmansk1           156.281
