uniorb/output/strategy_1/Drop/Drop_KinoSat_110202.txt

KinoSat_110202
-------------------------
    Access    *     Start Time (UTCG)     *     Stop Time (UTCG)  *   Duration (s)        *       Station  *  Data (Mbytes)
         1   01 Jun 2027 03:00:13.544   01 Jun 2027 03:00:58.708            45.164               Magadan2          5645.500
         2   01 Jun 2027 03:36:02.464   01 Jun 2027 03:37:35.806            93.342            RioGallegos          8966.500
         3   01 Jun 2027 04:33:23.479   01 Jun 2027 04:34:16.554            53.075                Norilsk          6634.375
         4   01 Jun 2027 04:34:17.115   01 Jun 2027 04:34:23.372             6.257                Norilsk           782.125
         5   01 Jun 2027 04:34:25.771   01 Jun 2027 04:35:26.008            60.237                Norilsk          7529.625
         6   01 Jun 2027 04:35:38.778   01 Jun 2027 04:36:04.842            26.064              Murmansk1          3258.000
         7   01 Jun 2027 04:36:34.856   01 Jun 2027 04:37:58.431            83.575              Murmansk2         10446.875
         8   01 Jun 2027 05:14:39.694   01 Jun 2027 05:14:44.410             4.716            RioGallegos           589.500
         9   01 Jun 2027 05:15:27.207   01 Jun 2027 05:15:38.411            11.204            RioGallegos          1400.500
        10   01 Jun 2027 05:15:56.964   01 Jun 2027 05:16:25.014            28.050            RioGallegos          3506.250
        11   01 Jun 2027 05:47:54.018   01 Jun 2027 05:48:56.928            62.910                Sumatra          7863.750
        12   01 Jun 2027 05:50:03.705   01 Jun 2027 05:51:48.763           105.058                Sumatra         13132.250
        13   01 Jun 2027 05:55:17.409   01 Jun 2027 05:58:17.042           179.633                  Delhi         22454.125
        14   01 Jun 2027 06:11:13.121   01 Jun 2027 06:12:28.728            75.607                Novosib          9450.875
        15   01 Jun 2027 07:47:04.819   01 Jun 2027 07:47:16.953            12.134                Novosib          1516.750
        16   01 Jun 2027 07:47:24.209   01 Jun 2027 07:47:42.532            18.323                 Moscow          2290.375
        17   01 Jun 2027 07:47:51.686   01 Jun 2027 07:48:17.206            25.520              Murmansk2          3190.000
        18   01 Jun 2027 07:48:21.129   01 Jun 2027 07:48:23.584             2.455                Novosib           306.875
        19   01 Jun 2027 07:48:28.415   01 Jun 2027 07:48:56.062            27.647                Norilsk          3455.875
        20   01 Jun 2027 07:49:16.142   01 Jun 2027 07:50:44.629            88.487                Norilsk         11060.875
        21   01 Jun 2027 07:54:35.753   01 Jun 2027 07:55:16.702            40.949              Murmansk2          5118.625
        22   01 Jun 2027 08:57:21.110   01 Jun 2027 08:58:49.548            88.438               CapeTown         11054.750
        23   01 Jun 2027 11:09:41.537   01 Jun 2027 11:10:30.941            49.404                Anadyr2          6175.500
        24   01 Jun 2027 11:11:31.710   01 Jun 2027 11:13:30.390           118.680                Anadyr1         14835.000
        25   01 Jun 2027 12:48:07.164   01 Jun 2027 12:50:12.643           125.479               Magadan2         15684.875
        26   01 Jun 2027 12:52:33.069   01 Jun 2027 12:53:24.023            50.954               Magadan1          6369.250
        27   01 Jun 2027 12:55:29.002   01 Jun 2027 12:59:17.980           228.978               Magadan2         28622.250
        28   01 Jun 2027 15:16:04.407   01 Jun 2027 15:17:58.779           114.372            RioGallegos         14296.500
        29   01 Jun 2027 16:03:33.763   01 Jun 2027 16:07:10.077           216.314                Irkutsk         27039.250
        30   01 Jun 2027 16:17:24.321   01 Jun 2027 16:19:43.396           139.075                Sumatra         17384.375
        31   01 Jun 2027 17:39:17.715   01 Jun 2027 17:41:23.510           125.795                Novosib         15724.375
        32   01 Jun 2027 17:47:16.565   01 Jun 2027 17:51:17.558           240.993                  Delhi         26575.250
        33   02 Jun 2027 03:11:41.120   02 Jun 2027 03:12:20.795            39.675               Magadan2          4959.375
        34   02 Jun 2027 03:13:40.263   02 Jun 2027 03:14:28.418            48.155                Novosib          6019.375
        35   02 Jun 2027 03:15:41.506   02 Jun 2027 03:15:56.897            15.391              Murmansk2          1923.875
        36   02 Jun 2027 03:48:03.529   02 Jun 2027 03:49:52.929           109.400            RioGallegos         13675.000
        37   02 Jun 2027 03:56:48.968   02 Jun 2027 03:57:41.312            52.344            RioGallegos          6543.000
        38   02 Jun 2027 04:23:16.706   02 Jun 2027 04:27:54.179           277.473                Sumatra         34684.125
        39   02 Jun 2027 04:45:11.657   02 Jun 2027 04:46:01.397            49.740                Irkutsk          6217.500
        40   02 Jun 2027 04:46:16.309   02 Jun 2027 04:46:49.146            32.837              Murmansk1          4104.625
        41   02 Jun 2027 04:47:02.204   02 Jun 2027 04:47:14.829            12.625              Murmansk2          1578.125
        42   02 Jun 2027 04:47:45.439   02 Jun 2027 04:48:03.155            17.716              Murmansk1          2214.500
        43   02 Jun 2027 04:48:29.359   02 Jun 2027 04:49:46.051            76.692              Murmansk1          9586.500
        44   02 Jun 2027 04:49:46.051   02 Jun 2027 04:50:09.760            23.709              Murmansk2          2963.625
        45   02 Jun 2027 05:26:19.041   02 Jun 2027 05:28:02.031           102.990            RioGallegos         12873.750
        46   02 Jun 2027 06:00:34.027   02 Jun 2027 06:02:43.515           129.488                Sumatra         16186.000
        47   02 Jun 2027 06:07:11.644   02 Jun 2027 06:08:45.671            94.027                  Delhi         11753.375
        48   02 Jun 2027 06:23:21.995   02 Jun 2027 06:23:30.399             8.404                Irkutsk          1050.500
        49   02 Jun 2027 06:23:57.423   02 Jun 2027 06:25:10.545            73.122                Norilsk          9140.250
        50   02 Jun 2027 07:46:09.677   02 Jun 2027 07:48:32.810           143.133                  Delhi         17891.625
        51   02 Jun 2027 07:58:24.234   02 Jun 2027 07:59:29.965            65.731                 Moscow          8216.375
        52   02 Jun 2027 07:59:56.306   02 Jun 2027 08:00:15.363            19.057              Murmansk2          2382.125
        53   02 Jun 2027 08:00:26.575   02 Jun 2027 08:00:46.945            20.370                Novosib          2546.250
        54   02 Jun 2027 08:00:51.198   02 Jun 2027 08:00:54.492             3.294                Norilsk           411.750
        55   02 Jun 2027 08:00:58.892   02 Jun 2027 08:01:16.694            17.802                 Moscow          2225.250
        56   02 Jun 2027 08:01:18.607   02 Jun 2027 08:02:05.556            46.949              Murmansk1          5868.625
        57   02 Jun 2027 09:07:48.199   02 Jun 2027 09:10:31.585           163.386               CapeTown         20423.250
        58   02 Jun 2027 11:21:40.925   02 Jun 2027 11:22:21.855            40.930                Anadyr1          5116.250
        59   02 Jun 2027 11:24:53.114   02 Jun 2027 11:26:28.432            95.318                Anadyr2         11914.750
        60   02 Jun 2027 13:00:03.058   02 Jun 2027 13:01:36.441            93.383               Magadan2         11672.875
        61   02 Jun 2027 13:01:48.354   02 Jun 2027 13:05:13.496           205.142               Magadan2         25642.750
        62   02 Jun 2027 15:27:51.853   02 Jun 2027 15:32:13.132           261.279            RioGallegos         32659.875
        63   02 Jun 2027 16:15:27.208   02 Jun 2027 16:17:31.480           124.272                Irkutsk         15534.000
        64   02 Jun 2027 16:29:10.688   02 Jun 2027 16:31:58.723           168.035                Sumatra         21004.375
        65   02 Jun 2027 17:51:14.093   02 Jun 2027 17:52:39.213            85.120                Novosib         10640.000
        66   02 Jun 2027 17:58:57.982   02 Jun 2027 18:03:15.813           257.831                  Delhi         32228.875
        67   02 Jun 2027 21:28:58.087   02 Jun 2027 21:30:39.423           101.336               CapeTown         12667.000
        68   03 Jun 2027 03:23:41.419   03 Jun 2027 03:24:34.845            53.426               Magadan1          6678.250
        69   03 Jun 2027 04:00:07.970   03 Jun 2027 04:00:15.934             7.964            RioGallegos           995.500
        70   03 Jun 2027 04:02:26.233   03 Jun 2027 04:03:16.528            50.295            RioGallegos          6286.875
        71   03 Jun 2027 04:35:06.181   03 Jun 2027 04:39:52.155           285.974                Sumatra         35746.750
        72   03 Jun 2027 04:57:57.689   03 Jun 2027 05:00:39.804           162.115                Irkutsk         20264.375
        73   03 Jun 2027 05:01:26.289   03 Jun 2027 05:01:36.579            10.290                Norilsk          1286.250
        74   03 Jun 2027 05:39:03.845   03 Jun 2027 05:39:25.646            21.801            RioGallegos          2725.125
        75   03 Jun 2027 05:41:14.236   03 Jun 2027 05:41:16.390             2.154            RioGallegos           269.250
        76   03 Jun 2027 06:13:34.205   03 Jun 2027 06:13:46.796            12.591                Sumatra          1573.875
        77   03 Jun 2027 06:18:15.514   03 Jun 2027 06:19:01.763            46.249                Sumatra          5781.125
        78   03 Jun 2027 06:19:11.166   03 Jun 2027 06:21:05.237           114.071                  Delhi         14258.875
        79   03 Jun 2027 06:23:47.699   03 Jun 2027 06:24:22.381            34.682                  Delhi          4335.250
        80   03 Jun 2027 06:35:02.546   03 Jun 2027 06:35:08.914             6.368              Murmansk1           796.000
        81   03 Jun 2027 06:35:13.530   03 Jun 2027 06:35:43.019            29.489                Norilsk          3686.125
        82   03 Jun 2027 06:35:46.328   03 Jun 2027 06:36:29.092            42.764                Novosib          5345.500
        83   03 Jun 2027 06:36:52.579   03 Jun 2027 06:37:28.529            35.950              Murmansk1          4493.750
        84   03 Jun 2027 06:37:55.999   03 Jun 2027 06:38:15.836            19.837                 Moscow          2479.625
        85   03 Jun 2027 07:59:52.964   03 Jun 2027 08:00:25.843            32.879                  Delhi          4109.875
        86   03 Jun 2027 08:08:02.680   03 Jun 2027 08:08:32.650            29.970              Murmansk1          3746.250
        87   03 Jun 2027 08:08:46.183   03 Jun 2027 08:09:31.111            44.928              Murmansk1          5616.000
        88   03 Jun 2027 08:09:43.070   03 Jun 2027 08:09:47.120             4.050                Novosib           506.250
        89   03 Jun 2027 08:10:08.377   03 Jun 2027 08:10:51.664            43.287                Norilsk          5410.875
        90   03 Jun 2027 08:11:08.655   03 Jun 2027 08:14:33.647           204.992                 Moscow         25624.000
        91   03 Jun 2027 09:18:58.769   03 Jun 2027 09:22:18.654           199.885               CapeTown         24985.625
        92   03 Jun 2027 09:24:35.956   03 Jun 2027 09:27:34.628           178.672               CapeTown         22334.000
        93   03 Jun 2027 13:12:00.115   03 Jun 2027 13:16:42.435           282.320               Magadan2         35290.000
        94   03 Jun 2027 15:39:42.409   03 Jun 2027 15:44:10.907           268.498            RioGallegos         33562.250
        95   03 Jun 2027 16:41:03.127   03 Jun 2027 16:44:07.692           184.565                Sumatra         23070.625
        96   03 Jun 2027 18:05:59.156   03 Jun 2027 18:07:56.733           117.577                Novosib         14697.125
        97   03 Jun 2027 18:10:44.812   03 Jun 2027 18:13:11.255           146.443                  Delhi         18305.375
        98   03 Jun 2027 19:41:55.944   03 Jun 2027 19:42:25.368            29.424                 Moscow          3678.000
        99   03 Jun 2027 21:13:23.609   03 Jun 2027 21:13:38.980            15.371              Murmansk1          1921.375
       100   03 Jun 2027 21:24:46.901   03 Jun 2027 21:26:15.069            88.168                 Moscow         11021.000
       101   03 Jun 2027 21:40:44.817   03 Jun 2027 21:43:37.664           172.847               CapeTown         21605.875
       102   04 Jun 2027 03:17:22.773   04 Jun 2027 03:18:04.008            41.235                Sumatra          5154.375
       103   04 Jun 2027 03:35:41.657   04 Jun 2027 03:36:15.752            34.095               Magadan2          4261.875
       104   04 Jun 2027 03:37:10.154   04 Jun 2027 03:37:22.491            12.337                Irkutsk          1542.125
       105   04 Jun 2027 03:37:35.306   04 Jun 2027 03:37:55.786            20.480              Murmansk1          2560.000
       106   04 Jun 2027 03:40:29.275   04 Jun 2027 03:41:11.078            41.803              Murmansk1          5225.375
       107   04 Jun 2027 04:12:15.914   04 Jun 2027 04:13:32.506            76.592            RioGallegos          9574.000
       108   04 Jun 2027 04:15:29.228   04 Jun 2027 04:15:41.588            12.360            RioGallegos          1545.000
       109   04 Jun 2027 04:16:56.815   04 Jun 2027 04:17:56.663            59.848            RioGallegos          7481.000
       110   04 Jun 2027 04:20:25.238   04 Jun 2027 04:21:16.016            50.778            RioGallegos          6347.250
       111   04 Jun 2027 04:47:01.488   04 Jun 2027 04:50:09.981           188.493                Sumatra         23561.625
       112   04 Jun 2027 05:09:48.074   04 Jun 2027 05:11:15.696            87.622                Norilsk         10952.750
       113   04 Jun 2027 05:11:31.364   04 Jun 2027 05:12:41.983            70.619                Novosib          8827.375
       114   04 Jun 2027 05:12:56.126   04 Jun 2027 05:12:57.929             1.803              Murmansk2           225.375
       115   04 Jun 2027 05:13:07.543   04 Jun 2027 05:14:56.654           109.111                Novosib         13638.875
       116   04 Jun 2027 06:27:37.541   04 Jun 2027 06:28:21.196            43.655                Sumatra          5456.875
       117   04 Jun 2027 06:31:16.066   04 Jun 2027 06:32:45.006            88.940                  Delhi         11117.500
       118   04 Jun 2027 06:47:39.181   04 Jun 2027 06:48:28.490            49.309                Norilsk          6163.625
       119   04 Jun 2027 06:48:33.137   04 Jun 2027 06:49:22.738            49.601                 Moscow          6200.125
       120   04 Jun 2027 06:50:18.907   04 Jun 2027 06:50:32.892            13.985                 Moscow          1748.125
       121   04 Jun 2027 08:19:28.038   04 Jun 2027 08:19:37.933             9.895              Murmansk1          1236.875
       122   04 Jun 2027 08:19:54.766   04 Jun 2027 08:21:19.394            84.628              Murmansk1         10578.500
       123   04 Jun 2027 08:21:23.466   04 Jun 2027 08:22:16.771            53.305              Murmansk1          6663.125
       124   04 Jun 2027 08:22:29.334   04 Jun 2027 08:23:16.646            47.312                 Moscow          5914.000
       125   04 Jun 2027 08:23:31.679   04 Jun 2027 08:23:52.656            20.977              Murmansk1          2622.125
       126   04 Jun 2027 08:23:56.547   04 Jun 2027 08:24:31.363            34.816              Murmansk2          4352.000
       127   04 Jun 2027 08:24:43.370   04 Jun 2027 08:25:31.878            48.508                Norilsk          6063.500
       128   04 Jun 2027 08:25:53.944   04 Jun 2027 08:27:11.719            77.775                Norilsk          9721.875
       129   04 Jun 2027 08:28:11.578   04 Jun 2027 08:28:30.811            19.233                 Moscow          2404.125
       130   04 Jun 2027 09:30:25.437   04 Jun 2027 09:34:09.768           224.331               CapeTown         28041.375
       131   04 Jun 2027 09:36:54.409   04 Jun 2027 09:38:09.668            75.259               CapeTown          9407.375
       132   04 Jun 2027 10:12:05.910   04 Jun 2027 10:14:42.566           156.656                Anadyr1         19582.000
       133   04 Jun 2027 11:45:41.043   04 Jun 2027 11:46:10.404            29.361                Anadyr1          3670.125
       134   04 Jun 2027 11:50:03.975   04 Jun 2027 11:50:11.352             7.377               Magadan1           922.125
       135   04 Jun 2027 13:23:58.113   04 Jun 2027 13:28:42.902           284.789               Magadan2         35598.625
       136   04 Jun 2027 15:21:35.615   04 Jun 2027 15:24:19.316           163.701                Sumatra         20462.625
       137   04 Jun 2027 15:51:35.377   04 Jun 2027 15:53:39.424           124.047            RioGallegos         15505.875
       138   04 Jun 2027 16:39:19.209   04 Jun 2027 16:40:41.779            82.570                Irkutsk         10321.250
       139   04 Jun 2027 16:46:01.953   04 Jun 2027 16:47:21.703            79.750                Irkutsk          9968.750
       140   04 Jun 2027 16:47:34.044   04 Jun 2027 16:48:57.544            83.500                Novosib         10437.500
       141   04 Jun 2027 16:53:44.758   04 Jun 2027 16:55:43.471           118.713                Sumatra         14839.125
       142   04 Jun 2027 18:19:58.175   04 Jun 2027 18:22:03.255           125.080                Novosib         15635.000
       143   04 Jun 2027 18:22:36.067   04 Jun 2027 18:25:27.556           171.489                  Delhi         21436.125
       144   04 Jun 2027 19:54:20.011   04 Jun 2027 19:55:40.739            80.728                 Moscow         10091.000
       145   04 Jun 2027 21:36:05.317   04 Jun 2027 21:36:45.030            39.713                 Moscow          4964.125
       146   04 Jun 2027 21:52:36.639   04 Jun 2027 21:54:11.257            94.618               CapeTown         11827.250
       147   04 Jun 2027 21:58:10.223   04 Jun 2027 22:00:11.544           121.321               CapeTown         15165.125
       148   05 Jun 2027 03:26:42.715   05 Jun 2027 03:28:36.260           113.545                Sumatra         14193.125
       149   05 Jun 2027 03:30:32.162   05 Jun 2027 03:33:03.733           151.571                Sumatra         18946.375
       150   05 Jun 2027 03:48:21.167   05 Jun 2027 03:48:51.123            29.956                Norilsk          3744.500
       151   05 Jun 2027 03:49:35.273   05 Jun 2027 03:50:23.635            48.362                Norilsk          6045.250
       152   05 Jun 2027 03:55:21.239   05 Jun 2027 03:55:56.221            34.982              Murmansk1          4372.750
       153   05 Jun 2027 04:24:27.548   05 Jun 2027 04:24:57.970            30.422            RioGallegos          3802.750
       154   05 Jun 2027 04:31:41.626   05 Jun 2027 04:32:15.468            33.842            RioGallegos          4230.250
       155   05 Jun 2027 04:32:32.525   05 Jun 2027 04:33:49.148            76.623            RioGallegos          9577.875
       156   05 Jun 2027 04:59:02.387   05 Jun 2027 05:01:17.240           134.853                Sumatra         16856.625
       157   05 Jun 2027 05:17:45.561   05 Jun 2027 05:18:02.727            17.166                  Delhi          2145.750
       158   05 Jun 2027 05:21:28.515   05 Jun 2027 05:21:36.491             7.976                Irkutsk           997.000
       159   05 Jun 2027 05:22:11.568   05 Jun 2027 05:23:41.375            89.807                Novosib         11225.875
       160   05 Jun 2027 05:23:48.097   05 Jun 2027 05:23:58.453            10.356                 Moscow          1294.500
       161   05 Jun 2027 05:23:58.465   05 Jun 2027 05:25:04.442            65.977                Irkutsk          8247.125
       162   05 Jun 2027 05:27:14.362   05 Jun 2027 05:27:16.118             1.756                Norilsk           219.500
       163   05 Jun 2027 05:32:06.659   05 Jun 2027 05:32:29.420            22.761              Murmansk2          2845.125
       164   05 Jun 2027 06:05:17.003   05 Jun 2027 06:06:30.978            73.975            RioGallegos          9246.875
       165   05 Jun 2027 06:43:26.615   05 Jun 2027 06:46:08.427           161.812                  Delhi         20226.500
       166   05 Jun 2027 06:59:15.265   05 Jun 2027 07:00:07.613            52.348                Novosib          6543.500
       167   05 Jun 2027 07:00:23.292   05 Jun 2027 07:00:53.749            30.457              Murmansk2          3807.125
       168   05 Jun 2027 07:00:57.866   05 Jun 2027 07:02:28.184            90.318                Novosib         11289.750
       169   05 Jun 2027 08:31:32.136   05 Jun 2027 08:32:07.787            35.651              Murmansk1          4456.375
       170   05 Jun 2027 08:32:50.892   05 Jun 2027 08:33:45.819            54.927                 Moscow          6865.875
       171   05 Jun 2027 08:34:12.541   05 Jun 2027 08:35:42.184            89.643              Murmansk2         11205.375
       172   05 Jun 2027 08:35:49.901   05 Jun 2027 08:36:10.400            20.499                Norilsk          2562.375
       173   05 Jun 2027 08:36:17.475   05 Jun 2027 08:36:40.356            22.881                Norilsk          2860.125
       174   05 Jun 2027 08:37:13.889   05 Jun 2027 08:37:39.090            25.201                 Moscow          3150.125
       175   05 Jun 2027 09:42:01.512   05 Jun 2027 09:46:04.307           242.795               CapeTown         30349.375
       176   05 Jun 2027 10:26:37.766   05 Jun 2027 10:27:23.608            45.842                Anadyr2          5730.250
       177   05 Jun 2027 10:30:04.686   05 Jun 2027 10:31:37.466            92.780                Anadyr2         11597.500
       178   05 Jun 2027 11:57:41.609   05 Jun 2027 11:58:06.913            25.304                Anadyr1          3163.000
       179   05 Jun 2027 11:58:46.566   05 Jun 2027 11:59:47.857            61.291                Anadyr2          7661.375
       180   05 Jun 2027 12:04:58.513   05 Jun 2027 12:05:08.440             9.927               Magadan1          1240.875
       181   05 Jun 2027 12:07:22.542   05 Jun 2027 12:09:18.031           115.489               Magadan1         14436.125
       182   05 Jun 2027 13:35:56.893   05 Jun 2027 13:36:46.122            49.229               Magadan1          6153.625
       183   05 Jun 2027 13:38:44.234   05 Jun 2027 13:40:43.790           119.556               Magadan2         14944.500
       184   05 Jun 2027 15:21:37.663   05 Jun 2027 15:24:54.822           197.159                Irkutsk         24644.875
       185   05 Jun 2027 15:32:03.954   05 Jun 2027 15:34:26.658           142.704                Sumatra         17838.000
       186   05 Jun 2027 15:36:42.875   05 Jun 2027 15:39:39.281           176.406                Sumatra         22050.750
       187   05 Jun 2027 16:53:13.811   05 Jun 2027 16:54:30.748            76.937                Novosib          9617.125
       188   05 Jun 2027 17:03:07.732   05 Jun 2027 17:04:19.229            71.497                  Delhi          8937.125
       189   05 Jun 2027 17:05:14.184   05 Jun 2027 17:06:11.372            57.188                  Delhi          7148.500
       190   05 Jun 2027 18:31:43.910   05 Jun 2027 18:32:00.186            16.276                Novosib          2034.500
       191   05 Jun 2027 18:32:08.369   05 Jun 2027 18:33:39.097            90.728                Novosib         11341.000
       192   05 Jun 2027 18:34:31.144   05 Jun 2027 18:37:06.106           154.962                  Delhi         19370.250
       193   05 Jun 2027 20:05:26.210   05 Jun 2027 20:07:54.706           148.496                 Moscow         18562.000
       194   05 Jun 2027 21:50:15.551   05 Jun 2027 21:50:48.615            33.064                 Moscow          4133.000
       195   05 Jun 2027 22:04:33.417   05 Jun 2027 22:06:27.534           114.117               CapeTown         14264.625
       196   05 Jun 2027 22:16:40.044   05 Jun 2027 22:17:21.844            41.800               CapeTown          5225.000
       197   06 Jun 2027 03:37:33.087   06 Jun 2027 03:40:18.792           165.705                Sumatra         20713.125
       198   06 Jun 2027 03:42:51.688   06 Jun 2027 03:46:07.182           195.494                Sumatra         24436.750
       199   06 Jun 2027 04:01:24.098   06 Jun 2027 04:01:29.568             5.470                Novosib           683.750
       200   06 Jun 2027 04:01:54.578   06 Jun 2027 04:02:13.253            18.675                Norilsk          2334.375
       201   06 Jun 2027 04:05:10.942   06 Jun 2027 04:05:50.706            39.764                Norilsk          4970.500
       202   06 Jun 2027 04:36:43.139   06 Jun 2027 04:37:33.318            50.179            RioGallegos          6272.375
       203   06 Jun 2027 04:48:00.265   06 Jun 2027 04:48:05.176             4.911            RioGallegos           613.875
       204   06 Jun 2027 05:11:08.948   06 Jun 2027 05:12:36.520            87.572                Sumatra         10946.500
       205   06 Jun 2027 05:18:58.662   06 Jun 2027 05:20:17.294            78.632                Sumatra          9829.000
       206   06 Jun 2027 05:34:21.710   06 Jun 2027 05:34:35.296            13.586                Novosib          1698.250
       207   06 Jun 2027 05:34:57.267   06 Jun 2027 05:35:43.696            46.429              Murmansk2          5803.625
       208   06 Jun 2027 05:35:43.884   06 Jun 2027 05:36:38.847            54.963                Novosib          6870.375
       209   06 Jun 2027 05:36:44.603   06 Jun 2027 05:37:10.784            26.181                Novosib          3272.625
       210   06 Jun 2027 06:55:43.343   06 Jun 2027 06:58:07.749           144.406                  Delhi         18050.750
       211   06 Jun 2027 07:10:26.216   06 Jun 2027 07:11:03.045            36.829                 Moscow          4603.625
       212   06 Jun 2027 07:11:08.638   06 Jun 2027 07:12:02.083            53.445              Murmansk2          6680.625
       213   06 Jun 2027 07:12:16.078   06 Jun 2027 07:13:32.940            76.862                Novosib          9607.750
       214   06 Jun 2027 08:45:33.706   06 Jun 2027 08:46:48.989            75.283                 Moscow          9410.375
       215   06 Jun 2027 08:46:58.681   06 Jun 2027 08:47:13.352            14.671              Murmansk2          1833.875
       216   06 Jun 2027 08:47:15.365   06 Jun 2027 08:47:40.373            25.008                 Moscow          3126.000
       217   06 Jun 2027 08:48:25.070   06 Jun 2027 08:49:39.086            74.016              Murmansk2          9252.000
       218   06 Jun 2027 09:53:44.073   06 Jun 2027 09:58:01.894           257.821               CapeTown         32227.625
       219   06 Jun 2027 10:38:30.953   06 Jun 2027 10:39:13.331            42.378                Anadyr1          5297.250
       220   06 Jun 2027 10:40:51.620   06 Jun 2027 10:41:46.930            55.310                Anadyr2          6913.750
       221   06 Jun 2027 12:09:42.428   06 Jun 2027 12:10:04.460            22.032                Anadyr2          2754.000
       222   06 Jun 2027 12:11:14.659   06 Jun 2027 12:11:29.723            15.064                Anadyr2          1883.000
       223   06 Jun 2027 12:12:47.819   06 Jun 2027 12:14:33.308           105.489                Anadyr1         13186.125
       224   06 Jun 2027 12:16:19.627   06 Jun 2027 12:17:04.267            44.640               Magadan2          5580.000
       225   06 Jun 2027 13:47:56.337   06 Jun 2027 13:52:22.127           265.790               Magadan1         33223.750
       226   06 Jun 2027 14:45:45.625   06 Jun 2027 14:47:58.057           132.432            RioGallegos         16554.000
       227   06 Jun 2027 15:32:18.377   06 Jun 2027 15:32:28.600            10.223                Irkutsk          1277.875
       228   06 Jun 2027 15:34:30.778   06 Jun 2027 15:34:57.445            26.667                Irkutsk          3333.375
       229   06 Jun 2027 15:43:07.601   06 Jun 2027 15:48:58.783           351.182                Sumatra         43897.750
       230   06 Jun 2027 17:06:38.771   06 Jun 2027 17:08:15.296            96.525                Novosib         12065.625
       231   06 Jun 2027 17:13:25.407   06 Jun 2027 17:16:00.192           154.785                  Delhi         19348.125
       232   06 Jun 2027 17:17:46.819   06 Jun 2027 17:20:07.627           140.808                  Delhi         17601.000
       233   06 Jun 2027 18:53:54.675   06 Jun 2027 18:56:05.423           130.748                  Delhi         16343.500
       234   06 Jun 2027 20:18:10.641   06 Jun 2027 20:20:58.964           168.323                 Moscow         21040.375
       235   06 Jun 2027 22:16:35.159   06 Jun 2027 22:16:41.469             6.310               CapeTown           788.750
       236   06 Jun 2027 22:19:09.943   06 Jun 2027 22:19:47.185            37.242               CapeTown          4655.250
       237   06 Jun 2027 22:22:21.280   06 Jun 2027 22:22:48.654            27.374               CapeTown          3421.750
       238   06 Jun 2027 22:24:32.308   06 Jun 2027 22:25:21.537            49.229               CapeTown          6153.625
       239   07 Jun 2027 03:48:46.155   07 Jun 2027 03:52:07.815           201.660                Sumatra         25207.500
       240   07 Jun 2027 04:12:39.245   07 Jun 2027 04:12:56.972            17.727                Novosib          2215.875
       241   07 Jun 2027 04:13:17.196   07 Jun 2027 04:13:34.249            17.053                Irkutsk          2131.625
       242   07 Jun 2027 04:14:08.673   07 Jun 2027 04:14:38.669            29.996              Murmansk2          3749.500
       243   07 Jun 2027 04:14:57.092   07 Jun 2027 04:14:58.121             1.029                Novosib           128.625
       244   07 Jun 2027 04:49:03.030   07 Jun 2027 04:50:21.342            78.312            RioGallegos          9789.000
       245   07 Jun 2027 04:53:00.012   07 Jun 2027 04:53:10.640            10.628            RioGallegos          1328.500
       246   07 Jun 2027 04:56:38.287   07 Jun 2027 04:56:41.475             3.188            RioGallegos           398.500
       247   07 Jun 2027 05:23:21.581   07 Jun 2027 05:24:07.046            45.465                Sumatra          5683.125
       248   07 Jun 2027 05:25:39.430   07 Jun 2027 05:27:55.752           136.322                Sumatra         17040.250
       249   07 Jun 2027 05:34:11.543   07 Jun 2027 05:36:12.055           120.512                  Delhi         15064.000
       250   07 Jun 2027 05:47:29.571   07 Jun 2027 05:48:45.598            76.027                Irkutsk          9503.375
       251   07 Jun 2027 05:49:33.555   07 Jun 2027 05:50:22.519            48.964                Novosib          6120.500
       252   07 Jun 2027 07:08:07.172   07 Jun 2027 07:09:54.259           107.087                  Delhi         13385.875
       253   07 Jun 2027 07:10:33.395   07 Jun 2027 07:11:45.129            71.734                  Delhi          8966.750
       254   07 Jun 2027 07:22:57.216   07 Jun 2027 07:23:10.422            13.206              Murmansk2          1650.750
       255   07 Jun 2027 07:23:12.265   07 Jun 2027 07:23:33.754            21.489                 Moscow          2686.125
       256   07 Jun 2027 07:23:48.913   07 Jun 2027 07:24:49.111            60.198              Murmansk2          7524.750
       257   07 Jun 2027 07:24:51.472   07 Jun 2027 07:25:28.628            37.156                 Moscow          4644.500
       258   07 Jun 2027 08:58:47.535   07 Jun 2027 08:58:56.908             9.373                 Moscow          1171.625
       259   07 Jun 2027 08:58:58.224   07 Jun 2027 08:59:23.286            25.062              Murmansk2          3132.750
       260   07 Jun 2027 08:59:57.227   07 Jun 2027 09:00:43.180            45.953              Murmansk1          5744.125
       261   07 Jun 2027 10:05:31.536   07 Jun 2027 10:07:51.876           140.340               CapeTown         17542.500
       262   07 Jun 2027 10:10:02.303   07 Jun 2027 10:11:06.920            64.617               CapeTown          8077.125
       263   07 Jun 2027 10:45:59.431   07 Jun 2027 10:47:16.732            77.301                Anadyr2          9662.625
       264   07 Jun 2027 10:50:12.974   07 Jun 2027 10:50:41.767            28.793                Anadyr1          3599.125
       265   07 Jun 2027 10:53:17.359   07 Jun 2027 10:56:53.271           215.912                Anadyr1         26989.000
       266   07 Jun 2027 12:24:34.780   07 Jun 2027 12:29:01.275           266.495               Magadan1         33311.875
       267   07 Jun 2027 13:59:56.344   07 Jun 2027 14:00:30.817            34.473               Magadan1          4309.125
       268   07 Jun 2027 14:58:13.082   07 Jun 2027 15:00:59.406           166.324            RioGallegos         20790.500
       269   07 Jun 2027 15:40:08.826   07 Jun 2027 15:42:17.602           128.776                Irkutsk         16097.000
       270   07 Jun 2027 15:54:27.941   07 Jun 2027 15:58:04.549           216.608                Sumatra         27076.000
       271   07 Jun 2027 17:15:44.248   07 Jun 2027 17:16:46.414            62.166                Novosib          7770.750
       272   07 Jun 2027 17:19:39.554   07 Jun 2027 17:20:12.805            33.251                Novosib          4156.375
       273   07 Jun 2027 17:24:32.254   07 Jun 2027 17:27:46.668           194.414                  Delhi         24301.750
       274   07 Jun 2027 18:58:31.542   07 Jun 2027 18:58:51.251            19.709                  Delhi          2463.625
       275   07 Jun 2027 19:01:41.420   07 Jun 2027 19:03:30.154           108.734                  Delhi         13591.750
       276   07 Jun 2027 20:29:09.487   07 Jun 2027 20:31:50.695           161.208                 Moscow         20151.000
       277   07 Jun 2027 22:07:19.675   07 Jun 2027 22:08:00.694            41.019                 Moscow          5127.375
       278   07 Jun 2027 22:09:34.795   07 Jun 2027 22:09:39.240             4.445                 Moscow           555.625
       279   07 Jun 2027 22:28:42.021   07 Jun 2027 22:29:50.355            68.334               CapeTown          8541.750
       280   07 Jun 2027 22:31:28.683   07 Jun 2027 22:33:30.737           122.054               CapeTown         15256.750
       281   08 Jun 2027 04:01:21.049   08 Jun 2027 04:04:02.703           161.654                Sumatra         20206.750
       282   08 Jun 2027 04:07:10.775   08 Jun 2027 04:07:33.652            22.877                Sumatra          2859.625
       283   08 Jun 2027 04:26:25.677   08 Jun 2027 04:26:46.240            20.563                Novosib          2570.375
       284   08 Jun 2027 05:01:27.704   08 Jun 2027 05:02:01.571            33.867            RioGallegos          4233.375
       285   08 Jun 2027 05:35:41.181   08 Jun 2027 05:35:46.027             4.846                Sumatra           605.750
       286   08 Jun 2027 05:37:36.476   08 Jun 2027 05:39:29.100           112.624                Sumatra         14078.000
       287   08 Jun 2027 05:43:43.150   08 Jun 2027 05:48:16.551           273.401                  Delhi         34175.125
       288   08 Jun 2027 05:59:35.147   08 Jun 2027 06:01:35.034           119.887                Novosib         14985.875
       289   08 Jun 2027 07:35:28.325   08 Jun 2027 07:36:21.604            53.279                Novosib          6659.875
       290   08 Jun 2027 07:36:36.034   08 Jun 2027 07:37:40.413            64.379                Novosib          8047.375
       291   08 Jun 2027 10:17:22.976   08 Jun 2027 10:20:09.686           166.710               CapeTown         20838.750
       292   08 Jun 2027 10:57:57.522   08 Jun 2027 11:02:07.314           249.792                Anadyr1         31224.000
       293   08 Jun 2027 11:02:42.018   08 Jun 2027 11:03:00.461            18.443                Anadyr1          2305.375
       294   08 Jun 2027 11:05:24.784   08 Jun 2027 11:05:52.488            27.704                Anadyr2          3463.000
       295   08 Jun 2027 12:36:27.416   08 Jun 2027 12:40:00.789           213.373               Magadan2         26671.625
       296   08 Jun 2027 12:40:00.789   08 Jun 2027 12:40:11.886            11.097               Magadan1          1387.125
       297   08 Jun 2027 12:40:39.891   08 Jun 2027 12:40:59.238            19.347               Magadan1          2418.375
       298   08 Jun 2027 14:11:56.821   08 Jun 2027 14:12:25.899            29.078               Magadan2          3634.750
       299   08 Jun 2027 14:16:48.397   08 Jun 2027 14:16:51.206             2.809               Magadan1           351.125
       300   08 Jun 2027 14:20:52.042   08 Jun 2027 14:21:32.024            39.982               Magadan2          4997.750
       301   08 Jun 2027 15:04:35.675   08 Jun 2027 15:06:08.605            92.930            RioGallegos         11616.250
       302   08 Jun 2027 15:07:13.784   08 Jun 2027 15:08:36.830            83.046            RioGallegos         10380.750
       303   08 Jun 2027 15:10:38.763   08 Jun 2027 15:11:20.388            41.625            RioGallegos          5203.125
       304   08 Jun 2027 15:51:57.203   08 Jun 2027 15:52:51.605            54.402                Irkutsk          6800.250
       305   08 Jun 2027 16:05:59.247   08 Jun 2027 16:10:02.254           243.007                Sumatra         30375.875
       306   08 Jun 2027 17:27:37.477   08 Jun 2027 17:29:14.896            97.419                Novosib         12177.375
       307   08 Jun 2027 17:35:11.820   08 Jun 2027 17:37:07.866           116.046                Novosib         14505.750
       308   08 Jun 2027 17:42:27.600   08 Jun 2027 17:43:55.570            87.970                  Delhi         10996.250
       309   08 Jun 2027 19:10:36.694   08 Jun 2027 19:11:28.376            51.682                  Delhi          6460.250
       310   08 Jun 2027 19:12:51.680   08 Jun 2027 19:13:35.302            43.622                  Delhi          5452.750
       311   08 Jun 2027 20:38:50.284   08 Jun 2027 20:39:20.528            30.244              Murmansk2          3780.500
       312   08 Jun 2027 20:41:04.137   08 Jun 2027 20:42:59.210           115.073                 Moscow         14384.125
       313   08 Jun 2027 21:13:22.714   08 Jun 2027 21:15:10.136           107.422               CapeTown         13427.750
       314   08 Jun 2027 22:40:54.324   08 Jun 2027 22:41:28.472            34.148               CapeTown          4268.500
       315   08 Jun 2027 22:43:39.370   08 Jun 2027 22:45:27.695           108.325               CapeTown         13540.625
       316   09 Jun 2027 04:11:48.123   09 Jun 2027 04:16:03.203           255.080                Sumatra         31885.000
       317   09 Jun 2027 04:38:33.819   09 Jun 2027 04:38:36.688             2.869                Novosib           358.625
       318   09 Jun 2027 05:14:54.354   09 Jun 2027 05:14:58.326             3.972            RioGallegos           496.500
       319   09 Jun 2027 05:15:41.851   09 Jun 2027 05:15:57.243            15.392            RioGallegos          1924.000
       320   09 Jun 2027 05:16:40.100   09 Jun 2027 05:17:04.919            24.819            RioGallegos          3102.375
       321   09 Jun 2027 05:48:09.416   09 Jun 2027 05:50:18.504           129.088                Sumatra         16136.000
       322   09 Jun 2027 05:55:32.096   09 Jun 2027 05:58:31.972           179.876                  Delhi         22484.500
       323   09 Jun 2027 06:11:33.056   09 Jun 2027 06:12:29.770            56.714              Murmansk2          7089.250
       324   09 Jun 2027 06:12:52.348   09 Jun 2027 06:13:37.274            44.926                Norilsk          5615.750
       325   09 Jun 2027 07:33:23.699   09 Jun 2027 07:34:03.907            40.208                  Delhi          5026.000
       326   09 Jun 2027 07:34:43.628   09 Jun 2027 07:36:38.427           114.799                  Delhi         14349.875
       327   09 Jun 2027 07:46:37.753   09 Jun 2027 07:47:35.630            57.877                 Moscow          7234.625
       328   09 Jun 2027 07:47:55.770   09 Jun 2027 07:48:06.748            10.978              Murmansk2          1372.250
       329   09 Jun 2027 07:48:22.699   09 Jun 2027 07:49:40.783            78.084              Murmansk1          9760.500
       330   09 Jun 2027 08:57:33.274   09 Jun 2027 08:59:04.085            90.811               CapeTown         11351.375
       331   09 Jun 2027 10:29:17.788   09 Jun 2027 10:31:44.700           146.912               CapeTown         18364.000
       332   09 Jun 2027 11:09:56.337   09 Jun 2027 11:10:45.444            49.107                Anadyr2          6138.375
       333   09 Jun 2027 11:11:46.911   09 Jun 2027 11:15:23.451           216.540                Anadyr1         27067.500
       334   09 Jun 2027 12:48:21.896   09 Jun 2027 12:50:26.672           124.776               Magadan1         15597.000
       335   09 Jun 2027 12:55:03.918   09 Jun 2027 12:59:31.068           267.150               Magadan1         33393.750
       336   09 Jun 2027 15:16:18.976   09 Jun 2027 15:18:14.912           115.936            RioGallegos         14492.000
       337   09 Jun 2027 16:03:48.449   09 Jun 2027 16:07:22.675           214.226                Irkutsk         26778.250
       338   09 Jun 2027 16:17:38.857   09 Jun 2027 16:19:58.538           139.681                Sumatra         17460.125
       339   09 Jun 2027 17:39:32.463   09 Jun 2027 17:41:21.113           108.650                Novosib         13581.250
       340   09 Jun 2027 17:47:31.016   09 Jun 2027 17:51:32.467           241.451                  Delhi         30181.375
       341   09 Jun 2027 20:49:35.614   09 Jun 2027 20:49:55.851            20.237              Murmansk1          2529.625
       342   09 Jun 2027 20:53:00.267   09 Jun 2027 20:54:29.191            88.924                 Moscow         11115.500
       343   09 Jun 2027 21:17:31.188   09 Jun 2027 21:17:54.098            22.910               CapeTown          2863.750
       344   09 Jun 2027 21:26:50.457   09 Jun 2027 21:28:20.662            90.205               CapeTown         11275.625
       345   10 Jun 2027 03:10:23.578   10 Jun 2027 03:11:19.089            55.511               Magadan1          6938.875
       346   10 Jun 2027 03:11:37.434   10 Jun 2027 03:11:56.052            18.618               Magadan1          2327.250
       347   10 Jun 2027 03:12:27.889   10 Jun 2027 03:13:03.192            35.303               Magadan1          4412.875
       348   10 Jun 2027 03:13:31.811   10 Jun 2027 03:14:42.766            70.955                Novosib          8869.375
       349   10 Jun 2027 03:48:18.404   10 Jun 2027 03:51:14.967           176.563            RioGallegos         22070.375
       350   10 Jun 2027 04:23:31.298   10 Jun 2027 04:28:09.351           278.053                Sumatra         34756.625
       351   10 Jun 2027 04:45:23.098   10 Jun 2027 04:46:21.115            58.017                Irkutsk          7252.125
       352   10 Jun 2027 04:46:49.167   10 Jun 2027 04:49:19.645           150.478                Irkutsk         18809.750
       353   10 Jun 2027 06:07:26.420   10 Jun 2027 06:09:00.858            94.438                  Delhi         11804.750
       354   10 Jun 2027 06:23:55.877   10 Jun 2027 06:23:59.845             3.968                 Moscow           496.000
       355   10 Jun 2027 06:24:03.722   10 Jun 2027 06:24:25.179            21.457                Novosib          2682.125
       356   10 Jun 2027 06:24:27.088   10 Jun 2027 06:24:44.266            17.178              Murmansk1          2147.250
       357   10 Jun 2027 06:24:56.109   10 Jun 2027 06:25:08.363            12.254              Murmansk1          1531.750
       358   10 Jun 2027 06:25:10.719   10 Jun 2027 06:25:16.621             5.902                 Moscow           737.750
       359   10 Jun 2027 06:25:25.782   10 Jun 2027 06:25:52.089            26.307                Norilsk          3288.375
       360   10 Jun 2027 07:46:25.784   10 Jun 2027 07:48:47.312           141.528                  Delhi         17691.000
       361   10 Jun 2027 07:57:55.156   10 Jun 2027 07:58:36.188            41.032              Murmansk2          5129.000
       362   10 Jun 2027 07:58:49.468   10 Jun 2027 07:59:18.953            29.485                Norilsk          3685.625
       363   10 Jun 2027 07:59:34.633   10 Jun 2027 08:00:35.255            60.622                Novosib          7577.750
       364   10 Jun 2027 08:00:41.702   10 Jun 2027 08:00:59.185            17.483                Novosib          2185.375
       365   10 Jun 2027 08:01:07.526   10 Jun 2027 08:01:09.587             2.061                Norilsk           257.625
       366   10 Jun 2027 08:01:16.763   10 Jun 2027 08:02:11.339            54.576                 Moscow          6822.000
       367   10 Jun 2027 08:02:22.866   10 Jun 2027 08:03:03.113            40.247              Murmansk2          5030.875
       368   10 Jun 2027 09:08:01.946   10 Jun 2027 09:10:46.245           164.299               CapeTown         20537.375
       369   10 Jun 2027 10:41:59.701   10 Jun 2027 10:43:03.527            63.826               CapeTown          7978.250
       370   10 Jun 2027 11:21:55.736   10 Jun 2027 11:22:36.395            40.659                Anadyr2          5082.375
       371   10 Jun 2027 11:24:00.719   10 Jun 2027 11:26:53.711           172.992                Anadyr2         21624.000
       372   10 Jun 2027 11:30:06.454   10 Jun 2027 11:30:19.048            12.594               Magadan2          1574.250
       373   10 Jun 2027 13:00:17.815   10 Jun 2027 13:04:57.424           279.609               Magadan2         34951.125
       374   10 Jun 2027 13:07:56.853   10 Jun 2027 13:09:49.918           113.065               Magadan1         14133.125
       375   10 Jun 2027 15:28:06.482   10 Jun 2027 15:28:58.741            52.259            RioGallegos          6532.375
       376   10 Jun 2027 15:31:34.044   10 Jun 2027 15:33:51.978           137.934            RioGallegos         17241.750
       377   10 Jun 2027 16:15:41.930   10 Jun 2027 16:17:46.690           124.760                Irkutsk         15595.000
       378   10 Jun 2027 16:29:25.333   10 Jun 2027 16:32:13.755           168.422                Sumatra         21052.750
       379   10 Jun 2027 16:37:02.315   10 Jun 2027 16:38:53.430           111.115                Sumatra         13889.375
       380   10 Jun 2027 17:59:12.539   10 Jun 2027 18:01:03.222           110.683                  Delhi         13835.375
       381   10 Jun 2027 21:01:36.964   10 Jun 2027 21:01:54.354            17.390              Murmansk2          2173.750
       382   10 Jun 2027 21:02:17.780   10 Jun 2027 21:03:15.384            57.604              Murmansk1          7200.500
       383   10 Jun 2027 21:04:57.621   10 Jun 2027 21:06:08.606            70.985                 Moscow          8873.125
       384   10 Jun 2027 21:11:17.871   10 Jun 2027 21:11:28.241            10.370              Murmansk2          1296.250
       385   10 Jun 2027 21:29:12.639   10 Jun 2027 21:31:07.058           114.419               CapeTown         14302.375
       386   11 Jun 2027 03:22:12.718   11 Jun 2027 03:23:23.353            70.635               Magadan2          8829.375
       387   11 Jun 2027 03:23:36.163   11 Jun 2027 03:23:55.976            19.813               Magadan1          2476.625
       388   11 Jun 2027 03:24:36.268   11 Jun 2027 03:24:46.838            10.570                Norilsk          1321.250
       389   11 Jun 2027 03:25:01.161   11 Jun 2027 03:25:16.678            15.517                Novosib          1939.625
       390   11 Jun 2027 03:25:18.030   11 Jun 2027 03:25:31.258            13.228                Irkutsk          1653.500
       391   11 Jun 2027 03:25:37.470   11 Jun 2027 03:26:23.179            45.709              Murmansk1          5713.625
       392   11 Jun 2027 04:00:22.896   11 Jun 2027 04:02:40.066           137.170            RioGallegos         17146.250
       393   11 Jun 2027 04:35:20.877   11 Jun 2027 04:38:18.935           178.058                Sumatra         22257.250
       394   11 Jun 2027 04:57:08.597   11 Jun 2027 04:58:11.885            63.288                Irkutsk          7911.000
       395   11 Jun 2027 04:58:27.978   11 Jun 2027 04:58:38.415            10.437                Novosib          1304.625
       396   11 Jun 2027 04:58:40.683   11 Jun 2027 04:58:54.378            13.695                Irkutsk          1711.875
       397   11 Jun 2027 04:59:21.384   11 Jun 2027 04:59:48.374            26.990                Novosib          3373.750
       398   11 Jun 2027 04:59:59.359   11 Jun 2027 05:00:51.872            52.513                Norilsk          6564.125
       399   11 Jun 2027 05:01:18.876   11 Jun 2027 05:01:47.370            28.494                Novosib          3561.750
       400   11 Jun 2027 05:05:53.368   11 Jun 2027 05:06:37.454            44.086                Norilsk          5510.750
       401   11 Jun 2027 05:39:19.514   11 Jun 2027 05:39:40.262            20.748            RioGallegos          2593.500
       402   11 Jun 2027 05:41:01.877   11 Jun 2027 05:41:30.154            28.277            RioGallegos          3534.625
       403   11 Jun 2027 06:13:50.347   11 Jun 2027 06:14:00.850            10.503                Sumatra          1312.875
       404   11 Jun 2027 06:19:16.579   11 Jun 2027 06:20:26.615            70.036                Sumatra          8754.500
       405   11 Jun 2027 06:21:17.557   11 Jun 2027 06:22:38.421            80.864                  Delhi         10108.000
       406   11 Jun 2027 06:35:35.910   11 Jun 2027 06:35:48.858            12.948                 Moscow          1618.500
       407   11 Jun 2027 06:35:57.670   11 Jun 2027 06:36:46.005            48.335                Norilsk          6041.875
       408   11 Jun 2027 06:37:09.520   11 Jun 2027 06:38:37.819            88.299              Murmansk2         11037.375
       409   11 Jun 2027 06:38:53.979   11 Jun 2027 06:39:26.771            32.792                 Moscow          4099.000
       410   11 Jun 2027 08:00:10.446   11 Jun 2027 08:00:40.413            29.967                  Delhi          3745.875
       411   11 Jun 2027 08:07:47.169   11 Jun 2027 08:09:11.961            84.792              Murmansk1         10599.000
       412   11 Jun 2027 08:09:15.443   11 Jun 2027 08:09:30.153            14.710                 Moscow          1838.750
       413   11 Jun 2027 08:09:46.367   11 Jun 2027 08:10:37.413            51.046              Murmansk2          6380.750
       414   11 Jun 2027 08:10:38.480   11 Jun 2027 08:10:52.830            14.350                Novosib          1793.750
       415   11 Jun 2027 08:11:07.542   11 Jun 2027 08:12:23.997            76.455                Norilsk          9556.875
       416   11 Jun 2027 08:12:38.277   11 Jun 2027 08:13:25.895            47.618                 Moscow          5952.250
       417   11 Jun 2027 08:13:26.633   11 Jun 2027 08:13:29.793             3.160              Murmansk2           395.000
       418   11 Jun 2027 08:13:38.082   11 Jun 2027 08:14:03.817            25.735                Norilsk          3216.875
       419   11 Jun 2027 08:14:12.424   11 Jun 2027 08:14:42.648            30.224                Norilsk          3778.000
       420   11 Jun 2027 08:14:44.909   11 Jun 2027 08:15:01.546            16.637                 Moscow          2079.625
       421   11 Jun 2027 09:19:12.908   11 Jun 2027 09:22:33.407           200.499               CapeTown         25062.375
       422   11 Jun 2027 10:00:37.830   11 Jun 2027 10:02:38.678           120.848                Anadyr1         15106.000
       423   11 Jun 2027 11:33:55.615   11 Jun 2027 11:36:24.770           149.155                Anadyr2         18644.375
       424   11 Jun 2027 11:37:01.808   11 Jun 2027 11:38:29.691            87.883                Anadyr2         10985.375
       425   11 Jun 2027 13:12:14.891   11 Jun 2027 13:13:28.110            73.219               Magadan2          9152.375
       426   11 Jun 2027 13:14:25.533   11 Jun 2027 13:17:21.536           176.003               Magadan1         22000.375
       427   11 Jun 2027 15:39:57.092   11 Jun 2027 15:44:18.733           261.641            RioGallegos         32705.125
       428   11 Jun 2027 15:45:01.996   11 Jun 2027 15:45:29.336            27.340            RioGallegos          3417.500
       429   11 Jun 2027 16:27:37.216   11 Jun 2027 16:29:21.904           104.688                Irkutsk         13086.000
       430   11 Jun 2027 16:41:17.872   11 Jun 2027 16:44:22.618           184.746                Sumatra         23093.250
       431   11 Jun 2027 18:05:16.696   11 Jun 2027 18:06:14.223            57.527                Novosib          7190.875
       432   11 Jun 2027 18:08:11.740   11 Jun 2027 18:08:31.591            19.851                Novosib          2481.375
       433   11 Jun 2027 18:10:59.453   11 Jun 2027 18:15:32.428           272.975                  Delhi         34121.875
       434   11 Jun 2027 21:13:38.455   11 Jun 2027 21:13:53.613            15.158              Murmansk1          1894.750
       435   11 Jun 2027 21:25:01.874   11 Jun 2027 21:26:29.883            88.009                 Moscow         11001.125
       436   11 Jun 2027 21:41:35.263   11 Jun 2027 21:43:52.611           137.348               CapeTown         17168.500
       437   12 Jun 2027 03:17:29.109   12 Jun 2027 03:18:19.681            50.572                Sumatra          6321.500
       438   12 Jun 2027 03:35:23.614   12 Jun 2027 03:36:30.211            66.597               Magadan1          8324.625
       439   12 Jun 2027 03:37:24.908   12 Jun 2027 03:37:43.003            18.095                Irkutsk          2261.875
       440   12 Jun 2027 03:42:17.223   12 Jun 2027 03:42:28.273            11.050                Norilsk          1381.250
       441   12 Jun 2027 04:12:30.903   12 Jun 2027 04:12:53.922            23.019            RioGallegos          2877.375
       442   12 Jun 2027 04:15:35.311   12 Jun 2027 04:15:43.925             8.614            RioGallegos          1076.750
       443   12 Jun 2027 04:15:55.813   12 Jun 2027 04:17:11.518            75.705            RioGallegos          9463.125
       444   12 Jun 2027 04:21:29.248   12 Jun 2027 04:22:14.451            45.203            RioGallegos          5650.375
       445   12 Jun 2027 04:47:16.283   12 Jun 2027 04:50:24.859           188.576                Sumatra         23572.000
       446   12 Jun 2027 05:10:03.106   12 Jun 2027 05:11:11.435            68.329                Norilsk          8541.125
       447   12 Jun 2027 05:11:13.468   12 Jun 2027 05:12:31.923            78.455                Irkutsk          9806.875
       448   12 Jun 2027 05:12:50.597   12 Jun 2027 05:13:34.015            43.418                Norilsk          5427.250
       449   12 Jun 2027 05:52:16.163   12 Jun 2027 05:53:10.422            54.259            RioGallegos          6782.375
       450   12 Jun 2027 06:27:56.837   12 Jun 2027 06:28:35.889            39.052                Sumatra          4881.500
       451   12 Jun 2027 06:31:31.023   12 Jun 2027 06:32:59.264            88.241                  Delhi         11030.125
       452   12 Jun 2027 06:34:03.725   12 Jun 2027 06:34:36.694            32.969                  Delhi          4121.125
       453   12 Jun 2027 06:47:53.849   12 Jun 2027 06:49:02.680            68.831                Norilsk          8603.875
       454   12 Jun 2027 06:49:07.454   12 Jun 2027 06:49:24.948            17.494                Novosib          2186.750
       455   12 Jun 2027 06:49:33.117   12 Jun 2027 06:49:41.388             8.271                Norilsk          1033.875
       456   12 Jun 2027 06:49:56.229   12 Jun 2027 06:49:57.978             1.749                 Moscow           218.625
       457   12 Jun 2027 06:50:36.878   12 Jun 2027 06:50:48.769            11.891                 Moscow          1486.375
       458   12 Jun 2027 08:19:17.667   12 Jun 2027 08:20:11.530            53.863              Murmansk2          6732.875
       459   12 Jun 2027 08:20:15.686   12 Jun 2027 08:20:28.065            12.379                 Moscow          1547.375
       460   12 Jun 2027 08:20:36.214   12 Jun 2027 08:21:33.888            57.674              Murmansk1          7209.250
       461   12 Jun 2027 08:22:34.342   12 Jun 2027 08:26:11.611           217.269              Murmansk1         27158.625
       462   12 Jun 2027 08:26:42.983   12 Jun 2027 08:27:02.387            19.404                 Moscow          2425.500
       463   12 Jun 2027 09:30:39.777   12 Jun 2027 09:34:24.599           224.822               CapeTown         28102.750
       464   12 Jun 2027 10:12:21.681   12 Jun 2027 10:14:58.676           156.995                Anadyr1         19624.375
       465   12 Jun 2027 11:45:55.870   12 Jun 2027 11:46:29.980            34.110                Anadyr1          4263.750
       466   12 Jun 2027 11:49:52.536   12 Jun 2027 11:50:45.652            53.116                Anadyr1          6639.500
       467   12 Jun 2027 11:55:42.897   12 Jun 2027 11:56:44.066            61.169               Magadan2          7646.125
       468   12 Jun 2027 13:24:12.906   12 Jun 2027 13:25:12.259            59.353               Magadan2          7419.125
       469   12 Jun 2027 13:25:54.113   12 Jun 2027 13:29:16.051           201.938               Magadan1         25242.250
       470   12 Jun 2027 15:10:30.868   12 Jun 2027 15:12:12.179           101.311                Irkutsk         12663.875
       471   12 Jun 2027 15:21:48.247   12 Jun 2027 15:23:02.213            73.966                Sumatra          9245.750
       472   12 Jun 2027 15:24:34.880   12 Jun 2027 15:26:31.201           116.321                Sumatra         14540.125
       473   12 Jun 2027 15:53:54.636   12 Jun 2027 15:54:20.204            25.568            RioGallegos          3196.000
       474   12 Jun 2027 16:39:33.987   12 Jun 2027 16:40:56.148            82.161                Irkutsk         10270.125
       475   12 Jun 2027 16:47:36.697   12 Jun 2027 16:47:50.191            13.494                Irkutsk          1686.750
       476   12 Jun 2027 16:53:16.079   12 Jun 2027 16:55:57.392           161.313                Sumatra         20164.125
       477   12 Jun 2027 17:04:24.324   12 Jun 2027 17:04:52.269            27.945                Sumatra          3493.125
       478   12 Jun 2027 18:20:13.195   12 Jun 2027 18:22:17.534           124.339                Novosib         15542.375
       479   12 Jun 2027 18:22:50.779   12 Jun 2027 18:25:42.605           171.826                  Delhi         21478.250
       480   12 Jun 2027 18:31:34.347   12 Jun 2027 18:32:21.125            46.778                  Delhi          5847.250
       481   12 Jun 2027 19:53:53.434   12 Jun 2027 19:54:36.588            43.154                 Moscow          5394.250
       482   12 Jun 2027 21:33:17.944   12 Jun 2027 21:33:45.503            27.559                 Moscow          3444.875
