uniorb/output/strategy_1/Drop/Drop_KinoSat_110508.txt

KinoSat_110508
-------------------------
    Access    *     Start Time (UTCG)     *     Stop Time (UTCG)  *   Duration (s)        *       Station  *  Data (Mbytes)
         1   01 Jun 2027 03:20:51.089   01 Jun 2027 03:21:24.768            33.679               Magadan2          4209.875
         2   01 Jun 2027 03:21:28.767   01 Jun 2027 03:22:01.289            32.522               Magadan2          4065.250
         3   01 Jun 2027 03:22:22.246   01 Jun 2027 03:22:41.546            19.300               Magadan1          2412.500
         4   01 Jun 2027 03:22:51.670   01 Jun 2027 03:23:07.097            15.427               Magadan1          1928.375
         5   01 Jun 2027 03:23:07.097   01 Jun 2027 03:23:39.214            32.117               Magadan2          4014.625
         6   01 Jun 2027 03:24:34.543   01 Jun 2027 03:24:47.173            12.630                Anadyr1          1578.750
         7   01 Jun 2027 03:25:19.721   01 Jun 2027 03:25:47.414            27.693                Anadyr2          3461.625
         8   01 Jun 2027 04:56:51.152   01 Jun 2027 04:57:23.975            32.823                Novosib          4102.875
         9   01 Jun 2027 04:57:39.308   01 Jun 2027 04:58:13.594            34.286                Norilsk          4285.750
        10   01 Jun 2027 04:58:17.098   01 Jun 2027 04:59:30.560            73.462               Magadan2          9182.750
        11   01 Jun 2027 04:59:57.179   01 Jun 2027 05:00:29.483            32.304                Norilsk          4038.000
        12   01 Jun 2027 05:00:41.838   01 Jun 2027 05:01:39.642            57.804                Irkutsk          7225.500
        13   01 Jun 2027 05:02:32.928   01 Jun 2027 05:02:36.806             3.878                Norilsk           484.750
        14   01 Jun 2027 05:05:01.159   01 Jun 2027 05:05:16.895            15.736                Norilsk          1967.000
        15   01 Jun 2027 05:36:24.942   01 Jun 2027 05:37:06.418            41.476            RioGallegos          5184.500
        16   01 Jun 2027 06:11:48.967   01 Jun 2027 06:13:32.568           103.601                Sumatra         12950.125
        17   01 Jun 2027 06:26:17.439   01 Jun 2027 06:27:06.892            49.453                  Delhi          6181.625
        18   01 Jun 2027 06:33:15.819   01 Jun 2027 06:33:54.507            38.688                Norilsk          4836.000
        19   01 Jun 2027 06:34:01.864   01 Jun 2027 06:34:28.541            26.677                Norilsk          3334.625
        20   01 Jun 2027 06:34:41.643   01 Jun 2027 06:34:58.947            17.304              Murmansk2          2163.000
        21   01 Jun 2027 06:35:13.935   01 Jun 2027 06:36:25.716            71.781                Irkutsk          8972.625
        22   01 Jun 2027 06:36:34.229   01 Jun 2027 06:36:58.104            23.875                Norilsk          2984.375
        23   01 Jun 2027 06:37:23.940   01 Jun 2027 06:38:38.341            74.401              Murmansk2          9300.125
        24   01 Jun 2027 06:38:47.278   01 Jun 2027 06:39:15.868            28.590                Norilsk          3573.750
        25   01 Jun 2027 07:49:07.572   01 Jun 2027 07:49:12.549             4.977                Sumatra           622.125
        26   01 Jun 2027 07:50:50.322   01 Jun 2027 07:51:15.862            25.540                Sumatra          3192.500
        27   01 Jun 2027 07:55:37.086   01 Jun 2027 07:56:14.820            37.734                  Delhi          4716.750
        28   01 Jun 2027 07:57:31.770   01 Jun 2027 07:58:02.068            30.298                  Delhi          3787.250
        29   01 Jun 2027 07:58:41.776   01 Jun 2027 07:58:50.359             8.583                  Delhi          1072.875
        30   01 Jun 2027 08:11:33.323   01 Jun 2027 08:13:16.020           102.697                 Moscow         12837.125
        31   01 Jun 2027 08:13:47.763   01 Jun 2027 08:14:49.117            61.354                Novosib          7669.250
        32   01 Jun 2027 09:46:43.100   01 Jun 2027 09:47:41.411            58.311              Murmansk1          7288.875
        33   01 Jun 2027 09:47:46.627   01 Jun 2027 09:48:33.629            47.002                Novosib          5875.250
        34   01 Jun 2027 09:48:45.988   01 Jun 2027 09:49:14.786            28.798              Murmansk1          3599.750
        35   01 Jun 2027 09:49:21.882   01 Jun 2027 09:50:08.963            47.081                 Moscow          5885.125
        36   01 Jun 2027 10:56:58.762   01 Jun 2027 10:58:54.912           116.150               CapeTown         14518.750
        37   01 Jun 2027 11:35:00.965   01 Jun 2027 11:41:51.283           410.318                Anadyr2         51289.750
        38   01 Jun 2027 14:48:28.061   01 Jun 2027 14:50:37.507           129.446               Magadan2         16180.750
        39   01 Jun 2027 14:53:50.298   01 Jun 2027 14:53:57.940             7.642               Magadan2           955.250
        40   01 Jun 2027 14:57:23.080   01 Jun 2027 14:57:45.665            22.585               Magadan1          2823.125
        41   01 Jun 2027 14:59:42.794   01 Jun 2027 14:59:49.352             6.558               Magadan1           819.750
        42   01 Jun 2027 17:19:50.836   01 Jun 2027 17:22:24.132           153.296            RioGallegos         19162.000
        43   01 Jun 2027 18:06:11.687   01 Jun 2027 18:10:30.186           258.499                Novosib         32312.375
        44   01 Jun 2027 19:52:01.235   01 Jun 2027 19:53:59.649           118.414                  Delhi         14801.750
        45   01 Jun 2027 21:15:16.829   01 Jun 2027 21:18:07.779           170.950              Murmansk2         21368.750
        46   01 Jun 2027 21:18:07.779   01 Jun 2027 21:20:47.635           159.856              Murmansk1         19982.000
        47   01 Jun 2027 21:21:24.373   01 Jun 2027 21:25:06.929           222.556                 Moscow         27819.500
        48   02 Jun 2027 05:09:15.843   02 Jun 2027 05:09:39.971            24.128                Norilsk          3016.000
        49   02 Jun 2027 05:10:03.648   02 Jun 2027 05:12:19.585           135.937                Novosib         16992.125
        50   02 Jun 2027 05:12:30.294   02 Jun 2027 05:12:55.848            25.554               Magadan2          3194.250
        51   02 Jun 2027 05:12:57.897   02 Jun 2027 05:13:06.085             8.188               Magadan1          1023.500
        52   02 Jun 2027 05:13:22.958   02 Jun 2027 05:13:44.425            21.467                Irkutsk          2683.375
        53   02 Jun 2027 05:13:45.028   02 Jun 2027 05:13:58.216            13.188                Novosib          1648.500
        54   02 Jun 2027 05:16:14.763   02 Jun 2027 05:16:27.727            12.964                Norilsk          1620.500
        55   02 Jun 2027 05:16:49.922   02 Jun 2027 05:17:30.856            40.934                Norilsk          5116.750
        56   02 Jun 2027 05:49:34.291   02 Jun 2027 05:49:56.617            22.326            RioGallegos          2790.750
        57   02 Jun 2027 06:23:34.511   02 Jun 2027 06:25:10.416            95.905                Sumatra         11988.125
        58   02 Jun 2027 06:35:22.847   02 Jun 2027 06:36:03.086            40.239                  Delhi          5029.875
        59   02 Jun 2027 06:45:45.786   02 Jun 2027 06:46:45.936            60.150                Novosib          7518.750
        60   02 Jun 2027 06:46:51.974   02 Jun 2027 06:47:02.937            10.963                Irkutsk          1370.375
        61   02 Jun 2027 06:47:13.683   02 Jun 2027 06:47:19.788             6.105                Norilsk           763.125
        62   02 Jun 2027 06:47:24.594   02 Jun 2027 06:49:39.036           134.442                Irkutsk         16805.250
        63   02 Jun 2027 06:49:56.460   02 Jun 2027 06:50:28.238            31.778                Novosib          3972.250
        64   02 Jun 2027 08:07:33.287   02 Jun 2027 08:08:47.455            74.168                  Delhi          9271.000
        65   02 Jun 2027 08:24:10.028   02 Jun 2027 08:24:34.312            24.284              Murmansk1          3035.500
        66   02 Jun 2027 08:24:43.459   02 Jun 2027 08:25:07.943            24.484                 Moscow          3060.500
        67   02 Jun 2027 08:26:39.793   02 Jun 2027 08:26:48.313             8.520                Novosib          1065.000
        68   02 Jun 2027 08:26:56.282   02 Jun 2027 08:27:20.364            24.082                 Moscow          3010.250
        69   02 Jun 2027 09:47:03.163   02 Jun 2027 09:48:40.675            97.512                  Delhi         12189.000
        70   02 Jun 2027 09:56:28.876   02 Jun 2027 09:57:05.264            36.388                 Moscow          4548.500
        71   02 Jun 2027 09:57:24.314   02 Jun 2027 09:58:44.257            79.943              Murmansk1          9992.875
        72   02 Jun 2027 09:58:57.888   02 Jun 2027 09:59:41.172            43.284              Murmansk2          5410.500
        73   02 Jun 2027 09:59:49.797   02 Jun 2027 10:01:35.144           105.347                 Moscow         13168.375
        74   02 Jun 2027 10:01:57.818   02 Jun 2027 10:03:13.615            75.797                 Moscow          9474.625
        75   02 Jun 2027 11:07:49.646   02 Jun 2027 11:10:36.391           166.745               CapeTown         20843.125
        76   02 Jun 2027 11:14:39.670   02 Jun 2027 11:15:19.417            39.747               CapeTown          4968.375
        77   02 Jun 2027 11:46:48.012   02 Jun 2027 11:50:52.487           244.475                Anadyr1         30559.375
        78   02 Jun 2027 11:51:11.521   02 Jun 2027 11:52:47.228            95.707                Anadyr2         11963.375
        79   02 Jun 2027 13:26:31.556   02 Jun 2027 13:31:00.597           269.041               Magadan1         33630.125
        80   02 Jun 2027 16:43:35.196   02 Jun 2027 16:45:29.113           113.917                Irkutsk         14239.625
        81   02 Jun 2027 18:17:25.089   02 Jun 2027 18:23:50.363           385.274                Novosib         48159.250
        82   02 Jun 2027 20:05:04.255   02 Jun 2027 20:05:22.309            18.054                  Delhi          2256.750
        83   02 Jun 2027 21:26:59.666   02 Jun 2027 21:27:44.749            45.083              Murmansk1          5635.375
        84   02 Jun 2027 21:28:40.034   02 Jun 2027 21:31:21.132           161.098              Murmansk2         20137.250
        85   02 Jun 2027 21:31:55.127   02 Jun 2027 21:38:08.897           373.770                 Moscow         46721.250
        86   03 Jun 2027 03:46:30.014   03 Jun 2027 03:46:36.962             6.948                Anadyr2           868.500
        87   03 Jun 2027 03:46:46.168   03 Jun 2027 03:46:58.041            11.873               Magadan2          1484.125
        88   03 Jun 2027 03:47:01.415   03 Jun 2027 03:47:39.097            37.682               Magadan2          4710.250
        89   03 Jun 2027 03:48:09.128   03 Jun 2027 03:49:59.493           110.365               Magadan2         13795.625
        90   03 Jun 2027 05:20:47.940   03 Jun 2027 05:24:17.707           209.767                Irkutsk         26220.875
        91   03 Jun 2027 05:25:21.698   03 Jun 2027 05:25:48.439            26.741                Irkutsk          3342.625
        92   03 Jun 2027 05:26:20.064   03 Jun 2027 05:26:51.937            31.873                Norilsk          3984.125
        93   03 Jun 2027 06:00:32.955   03 Jun 2027 06:01:44.161            71.206            RioGallegos          8900.750
        94   03 Jun 2027 06:35:26.187   03 Jun 2027 06:36:21.188            55.001                Sumatra          6875.125
        95   03 Jun 2027 06:48:52.999   03 Jun 2027 06:50:57.243           124.244                  Delhi         15530.500
        96   03 Jun 2027 06:58:02.961   03 Jun 2027 06:58:43.767            40.806                Norilsk          5100.750
        97   03 Jun 2027 06:59:02.523   03 Jun 2027 06:59:28.628            26.105                Norilsk          3263.125
        98   03 Jun 2027 06:59:30.346   03 Jun 2027 07:00:21.157            50.811                 Moscow          6351.375
        99   03 Jun 2027 07:00:37.239   03 Jun 2027 07:01:14.917            37.678                Irkutsk          4709.750
       100   03 Jun 2027 07:01:25.857   03 Jun 2027 07:02:30.096            64.239              Murmansk1          8029.875
       101   03 Jun 2027 08:19:34.777   03 Jun 2027 08:20:36.303            61.526                  Delhi          7690.750
       102   03 Jun 2027 08:35:37.451   03 Jun 2027 08:35:57.397            19.946                Novosib          2493.250
       103   03 Jun 2027 08:36:06.454   03 Jun 2027 08:36:25.113            18.659              Murmansk2          2332.375
       104   03 Jun 2027 08:36:34.725   03 Jun 2027 08:38:08.642            93.917                 Moscow         11739.625
       105   03 Jun 2027 10:08:07.713   03 Jun 2027 10:08:38.369            30.656              Murmansk2          3832.000
       106   03 Jun 2027 10:08:50.776   03 Jun 2027 10:10:11.858            81.082                 Moscow         10135.250
       107   03 Jun 2027 10:10:21.603   03 Jun 2027 10:10:34.341            12.738              Murmansk2          1592.250
       108   03 Jun 2027 10:10:45.563   03 Jun 2027 10:11:35.847            50.284              Murmansk2          6285.500
       109   03 Jun 2027 10:11:41.259   03 Jun 2027 10:12:05.284            24.025              Murmansk2          3003.125
       110   03 Jun 2027 10:12:18.470   03 Jun 2027 10:13:12.447            53.977                 Moscow          6747.125
       111   03 Jun 2027 10:13:23.280   03 Jun 2027 10:13:48.567            25.287              Murmansk1          3160.875
       112   03 Jun 2027 10:13:51.984   03 Jun 2027 10:14:10.655            18.671                 Moscow          2333.875
       113   03 Jun 2027 10:14:12.606   03 Jun 2027 10:14:21.254             8.648              Murmansk2          1081.000
       114   03 Jun 2027 10:15:56.834   03 Jun 2027 10:16:42.665            45.831              Murmansk1          5728.875
       115   03 Jun 2027 11:19:07.479   03 Jun 2027 11:22:23.005           195.526               CapeTown         24440.750
       116   03 Jun 2027 11:24:37.290   03 Jun 2027 11:26:38.671           121.381               CapeTown         15172.625
       117   03 Jun 2027 11:58:38.779   03 Jun 2027 12:02:49.439           250.660                Anadyr1         31332.500
       118   03 Jun 2027 12:03:41.711   03 Jun 2027 12:04:23.358            41.647                Anadyr2          5205.875
       119   03 Jun 2027 13:37:54.336   03 Jun 2027 13:41:25.974           211.638               Magadan2         26454.750
       120   03 Jun 2027 13:43:33.004   03 Jun 2027 13:44:13.825            40.821               Magadan1          5102.625
       121   03 Jun 2027 15:18:56.212   03 Jun 2027 15:19:35.419            39.207               Magadan1          4900.875
       122   03 Jun 2027 16:54:06.039   03 Jun 2027 16:59:31.606           325.567                Irkutsk         40695.875
       123   03 Jun 2027 18:26:21.681   03 Jun 2027 18:27:13.074            51.393                Norilsk          6424.125
       124   03 Jun 2027 18:28:56.850   03 Jun 2027 18:36:49.136           472.286                Novosib         59035.750
       125   03 Jun 2027 21:38:23.778   03 Jun 2027 21:39:40.029            76.251              Murmansk1          9531.375
       126   03 Jun 2027 21:41:23.493   03 Jun 2027 21:43:43.525           140.032              Murmansk1         17504.000
       127   03 Jun 2027 21:43:51.597   03 Jun 2027 21:47:24.443           212.846                 Moscow         26605.750
       128   03 Jun 2027 22:10:19.973   03 Jun 2027 22:12:30.810           130.837               CapeTown         16354.625
       129   04 Jun 2027 03:57:59.160   04 Jun 2027 03:58:30.759            31.599               Magadan2          3949.875
       130   04 Jun 2027 03:58:48.212   04 Jun 2027 04:00:09.701            81.489               Magadan2         10186.125
       131   04 Jun 2027 04:00:14.788   04 Jun 2027 04:00:43.590            28.802               Magadan1          3600.250
       132   04 Jun 2027 04:01:22.482   04 Jun 2027 04:01:30.850             8.368                Anadyr2          1046.000
       133   04 Jun 2027 04:01:33.745   04 Jun 2027 04:01:57.863            24.118               Magadan1          3014.750
       134   04 Jun 2027 05:16:15.547   04 Jun 2027 05:17:07.302            51.755                Sumatra          6469.375
       135   04 Jun 2027 05:18:04.370   04 Jun 2027 05:18:45.043            40.673                Sumatra          5084.125
       136   04 Jun 2027 05:33:12.158   04 Jun 2027 05:34:15.314            63.156               Magadan1          7894.500
       137   04 Jun 2027 05:34:19.418   04 Jun 2027 05:34:42.898            23.480                Irkutsk          2935.000
       138   04 Jun 2027 05:34:52.008   04 Jun 2027 05:35:01.020             9.012               Magadan2          1126.500
       139   04 Jun 2027 05:35:15.655   04 Jun 2027 05:35:33.062            17.407                Norilsk          2175.875
       140   04 Jun 2027 05:35:50.160   04 Jun 2027 05:37:34.012           103.852                Novosib         12981.500
       141   04 Jun 2027 05:37:46.151   04 Jun 2027 05:38:12.666            26.515                Norilsk          3314.375
       142   04 Jun 2027 05:38:38.183   04 Jun 2027 05:39:07.603            29.420                Novosib          3677.500
       143   04 Jun 2027 06:12:42.234   04 Jun 2027 06:13:09.981            27.747            RioGallegos          3468.375
       144   04 Jun 2027 06:47:23.562   04 Jun 2027 06:49:12.379           108.817                Sumatra         13602.125
       145   04 Jun 2027 07:00:28.143   04 Jun 2027 07:00:35.181             7.038                  Delhi           879.750
       146   04 Jun 2027 07:09:32.382   04 Jun 2027 07:10:16.430            44.048                Novosib          5506.000
       147   04 Jun 2027 07:10:32.672   04 Jun 2027 07:11:12.166            39.494                 Moscow          4936.750
       148   04 Jun 2027 07:11:25.647   04 Jun 2027 07:11:28.986             3.339              Murmansk2           417.375
       149   04 Jun 2027 07:11:41.661   04 Jun 2027 07:12:16.774            35.113                Irkutsk          4389.125
       150   04 Jun 2027 07:12:36.616   04 Jun 2027 07:13:20.244            43.628                Irkutsk          5453.500
       151   04 Jun 2027 07:13:21.354   04 Jun 2027 07:13:34.897            13.543                Norilsk          1692.875
       152   04 Jun 2027 07:13:47.056   04 Jun 2027 07:14:47.897            60.841                Norilsk          7605.125
       153   04 Jun 2027 07:15:10.029   04 Jun 2027 07:15:31.809            21.780                 Moscow          2722.500
       154   04 Jun 2027 08:31:41.720   04 Jun 2027 08:33:07.508            85.788                  Delhi         10723.500
       155   04 Jun 2027 08:45:52.704   04 Jun 2027 08:45:57.858             5.154              Murmansk1           644.250
       156   04 Jun 2027 08:46:01.934   04 Jun 2027 08:46:12.076            10.142                Norilsk          1267.750
       157   04 Jun 2027 08:46:13.494   04 Jun 2027 08:46:25.559            12.065              Murmansk1          1508.125
       158   04 Jun 2027 08:46:46.992   04 Jun 2027 08:47:59.620            72.628                Novosib          9078.500
       159   04 Jun 2027 08:48:00.668   04 Jun 2027 08:48:12.391            11.723                Norilsk          1465.375
       160   04 Jun 2027 08:48:13.196   04 Jun 2027 08:48:39.176            25.980                Norilsk          3247.500
       161   04 Jun 2027 08:48:49.813   04 Jun 2027 08:49:32.292            42.479              Murmansk1          5309.875
       162   04 Jun 2027 10:19:18.040   04 Jun 2027 10:19:43.863            25.823                 Moscow          3227.875
       163   04 Jun 2027 10:20:00.546   04 Jun 2027 10:21:18.271            77.725              Murmansk2          9715.625
       164   04 Jun 2027 10:21:24.579   04 Jun 2027 10:21:39.990            15.411                 Moscow          1926.375
       165   04 Jun 2027 10:21:44.954   04 Jun 2027 10:22:00.947            15.993              Murmansk1          1999.125
       166   04 Jun 2027 10:22:21.578   04 Jun 2027 10:23:41.634            80.056              Murmansk2         10007.000
       167   04 Jun 2027 10:23:44.268   04 Jun 2027 10:24:50.407            66.139                Norilsk          8267.375
       168   04 Jun 2027 10:25:09.158   04 Jun 2027 10:25:30.365            21.207              Murmansk2          2650.875
       169   04 Jun 2027 10:25:34.743   04 Jun 2027 10:26:12.706            37.963                 Moscow          4745.375
       170   04 Jun 2027 11:30:38.116   04 Jun 2027 11:30:50.865            12.749               CapeTown          1593.625
       171   04 Jun 2027 11:32:18.038   04 Jun 2027 11:36:56.249           278.211               CapeTown         34776.375
       172   04 Jun 2027 12:10:32.053   04 Jun 2027 12:14:26.362           234.309                Anadyr1         29288.625
       173   04 Jun 2027 13:49:31.162   04 Jun 2027 13:53:51.151           259.989               Magadan2         32498.625
       174   04 Jun 2027 17:05:25.696   04 Jun 2027 17:11:14.562           348.866                Irkutsk         43608.250
       175   04 Jun 2027 17:21:16.727   04 Jun 2027 17:22:53.288            96.561                Sumatra         12070.125
       176   04 Jun 2027 17:24:20.104   04 Jun 2027 17:26:39.542           139.438                Sumatra         17429.750
       177   04 Jun 2027 18:41:38.992   04 Jun 2027 18:43:53.653           134.661                Novosib         16832.625
       178   04 Jun 2027 18:44:28.087   04 Jun 2027 18:45:59.322            91.235                Novosib         11404.375
       179   04 Jun 2027 21:49:55.547   04 Jun 2027 21:50:11.466            15.919              Murmansk1          1989.875
       180   04 Jun 2027 21:50:31.672   04 Jun 2027 21:51:56.378            84.706              Murmansk1         10588.250
       181   04 Jun 2027 21:53:56.291   04 Jun 2027 21:55:39.050           102.759                 Moscow         12844.875
       182   04 Jun 2027 21:56:25.748   04 Jun 2027 21:59:49.988           204.240                 Moscow         25530.000
       183   04 Jun 2027 22:20:56.222   04 Jun 2027 22:22:50.156           113.934               CapeTown         14241.750
       184   05 Jun 2027 04:10:04.984   05 Jun 2027 04:10:11.048             6.064               Magadan2           758.000
       185   05 Jun 2027 04:10:23.173   05 Jun 2027 04:12:48.842           145.669                Irkutsk         18208.625
       186   05 Jun 2027 04:13:39.437   05 Jun 2027 04:13:55.371            15.934               Magadan1          1991.750
       187   05 Jun 2027 04:49:48.554   05 Jun 2027 04:50:30.023            41.469            RioGallegos          5183.625
       188   05 Jun 2027 04:56:59.267   05 Jun 2027 04:57:14.197            14.930            RioGallegos          1866.250
       189   05 Jun 2027 05:26:35.282   05 Jun 2027 05:28:11.970            96.688                Sumatra         12086.000
       190   05 Jun 2027 05:45:02.006   05 Jun 2027 05:45:54.184            52.178               Magadan1          6522.250
       191   05 Jun 2027 05:46:14.799   05 Jun 2027 05:47:21.695            66.896                Irkutsk          8362.000
       192   05 Jun 2027 05:47:36.171   05 Jun 2027 05:47:45.969             9.798                Novosib          1224.750
       193   05 Jun 2027 05:48:20.140   05 Jun 2027 05:49:00.279            40.139                Norilsk          5017.375
       194   05 Jun 2027 05:49:15.516   05 Jun 2027 05:49:54.195            38.679                Irkutsk          4834.875
       195   05 Jun 2027 05:50:00.878   05 Jun 2027 05:50:28.619            27.741              Murmansk2          3467.625
       196   05 Jun 2027 05:50:30.031   05 Jun 2027 05:51:14.238            44.207                Norilsk          5525.875
       197   05 Jun 2027 06:24:55.292   05 Jun 2027 06:25:28.740            33.448            RioGallegos          4181.000
       198   05 Jun 2027 06:27:39.741   05 Jun 2027 06:27:57.226            17.485            RioGallegos          2185.625
       199   05 Jun 2027 06:59:26.516   05 Jun 2027 07:00:03.178            36.662                Sumatra          4582.750
       200   05 Jun 2027 07:09:02.972   05 Jun 2027 07:10:04.263            61.291                  Delhi          7661.375
       201   05 Jun 2027 07:15:20.109   05 Jun 2027 07:16:03.863            43.754                  Delhi          5469.250
       202   05 Jun 2027 07:21:51.968   05 Jun 2027 07:21:57.748             5.780                Irkutsk           722.500
       203   05 Jun 2027 07:22:15.234   05 Jun 2027 07:23:21.175            65.941                 Moscow          8242.625
       204   05 Jun 2027 07:23:24.862   05 Jun 2027 07:23:39.561            14.699                 Moscow          1837.375
       205   05 Jun 2027 07:23:48.541   05 Jun 2027 07:25:23.928            95.387                Irkutsk         11923.375
       206   05 Jun 2027 07:25:45.713   05 Jun 2027 07:27:01.146            75.433                 Moscow          9429.125
       207   05 Jun 2027 08:43:54.466   05 Jun 2027 08:44:54.968            60.502                  Delhi          7562.750
       208   05 Jun 2027 08:57:07.271   05 Jun 2027 08:57:24.056            16.785                Novosib          2098.125
       209   05 Jun 2027 08:57:30.315   05 Jun 2027 08:58:16.537            46.222                 Moscow          5777.750
       210   05 Jun 2027 08:58:26.915   05 Jun 2027 08:58:30.032             3.117              Murmansk2           389.625
       211   05 Jun 2027 08:58:30.032   05 Jun 2027 08:58:55.214            25.182              Murmansk1          3147.750
       212   05 Jun 2027 08:59:22.944   05 Jun 2027 09:01:03.951           101.007                Novosib         12625.875
       213   05 Jun 2027 09:01:15.394   05 Jun 2027 09:02:16.579            61.185                 Moscow          7648.125
       214   05 Jun 2027 10:31:34.027   05 Jun 2027 10:31:54.137            20.110              Murmansk1          2513.750
       215   05 Jun 2027 10:32:05.851   05 Jun 2027 10:32:38.218            32.367                 Moscow          4045.875
       216   05 Jun 2027 10:33:16.094   05 Jun 2027 10:33:47.101            31.007              Murmansk1          3875.875
       217   05 Jun 2027 10:34:09.146   05 Jun 2027 10:35:42.276            93.130              Murmansk1         11641.250
       218   05 Jun 2027 10:36:12.566   05 Jun 2027 10:38:12.310           119.744                Norilsk         14968.000
       219   05 Jun 2027 11:42:16.818   05 Jun 2027 11:42:52.950            36.132               CapeTown          4516.500
       220   05 Jun 2027 11:43:30.073   05 Jun 2027 11:44:16.305            46.232               CapeTown          5779.000
       221   05 Jun 2027 11:46:39.168   05 Jun 2027 11:48:39.935           120.767               CapeTown         15095.875
       222   05 Jun 2027 12:22:27.145   05 Jun 2027 12:24:37.259           130.114                Anadyr2         16264.250
       223   05 Jun 2027 12:26:06.110   05 Jun 2027 12:26:45.990            39.880                Anadyr1          4985.000
       224   05 Jun 2027 12:29:15.243   05 Jun 2027 12:31:18.770           123.527                Anadyr1         15440.875
       225   05 Jun 2027 14:01:14.986   05 Jun 2027 14:06:21.926           306.940               Magadan1         38367.500
       226   05 Jun 2027 16:30:25.660   05 Jun 2027 16:33:11.247           165.587            RioGallegos         20698.375
       227   05 Jun 2027 16:35:15.239   05 Jun 2027 16:35:29.934            14.695            RioGallegos          1836.875
       228   05 Jun 2027 17:16:59.360   05 Jun 2027 17:22:05.943           306.583                Irkutsk         38322.875
       229   05 Jun 2027 17:32:02.739   05 Jun 2027 17:34:31.475           148.736                Sumatra         18592.000
       230   05 Jun 2027 17:36:22.213   05 Jun 2027 17:38:21.796           119.583                Sumatra         14947.875
       231   05 Jun 2027 18:55:10.560   05 Jun 2027 18:56:22.733            72.173                Novosib          9021.625
       232   05 Jun 2027 19:02:40.191   05 Jun 2027 19:03:16.727            36.536                  Delhi          4567.000
       233   05 Jun 2027 19:04:24.612   05 Jun 2027 19:05:13.897            49.285                  Delhi          6160.625
       234   05 Jun 2027 19:06:23.190   05 Jun 2027 19:07:29.227            66.037                  Delhi          8254.625
       235   05 Jun 2027 20:27:58.265   05 Jun 2027 20:28:48.404            50.139              Murmansk2          6267.375
       236   05 Jun 2027 22:03:51.009   05 Jun 2027 22:06:14.480           143.471              Murmansk1         17933.875
       237   05 Jun 2027 22:09:32.807   05 Jun 2027 22:09:50.328            17.521                 Moscow          2190.125
       238   05 Jun 2027 22:12:11.198   05 Jun 2027 22:12:43.730            32.532                 Moscow          4066.500
       239   05 Jun 2027 22:31:57.634   05 Jun 2027 22:33:29.758            92.124               CapeTown         11515.500
       240   05 Jun 2027 22:36:18.419   05 Jun 2027 22:38:12.530           114.111               CapeTown         14263.875
       241   06 Jun 2027 04:22:22.516   06 Jun 2027 04:22:58.607            36.091                Irkutsk          4511.375
       242   06 Jun 2027 04:23:52.999   06 Jun 2027 04:24:06.919            13.920                Novosib          1740.000
       243   06 Jun 2027 04:24:19.997   06 Jun 2027 04:25:09.748            49.751               Magadan1          6218.875
       244   06 Jun 2027 04:25:19.617   06 Jun 2027 04:25:22.817             3.200                Irkutsk           400.000
       245   06 Jun 2027 04:25:25.887   06 Jun 2027 04:25:43.872            17.985                Novosib          2248.125
       246   06 Jun 2027 04:25:57.696   06 Jun 2027 04:26:54.316            56.620                Norilsk          7077.500
       247   06 Jun 2027 05:00:52.066   06 Jun 2027 05:02:11.173            79.107            RioGallegos          9888.375
       248   06 Jun 2027 05:37:36.048   06 Jun 2027 05:38:31.771            55.723                Sumatra          6965.375
       249   06 Jun 2027 05:43:32.326   06 Jun 2027 05:44:42.418            70.092                Sumatra          8761.500
       250   06 Jun 2027 05:57:19.969   06 Jun 2027 05:58:08.795            48.826                Irkutsk          6103.250
       251   06 Jun 2027 05:59:00.092   06 Jun 2027 05:59:51.467            51.375                Norilsk          6421.875
       252   06 Jun 2027 06:00:00.711   06 Jun 2027 06:00:43.127            42.416              Murmansk1          5302.000
       253   06 Jun 2027 06:01:10.161   06 Jun 2027 06:01:55.903            45.742                Irkutsk          5717.750
       254   06 Jun 2027 06:01:59.882   06 Jun 2027 06:02:35.065            35.183                Norilsk          4397.875
       255   06 Jun 2027 06:04:04.251   06 Jun 2027 06:04:32.063            27.812                Norilsk          3476.500
       256   06 Jun 2027 06:37:12.415   06 Jun 2027 06:37:25.812            13.397            RioGallegos          1674.625
       257   06 Jun 2027 06:39:35.805   06 Jun 2027 06:39:38.380             2.575            RioGallegos           321.875
       258   06 Jun 2027 07:11:35.231   06 Jun 2027 07:13:01.589            86.358                Sumatra         10794.750
       259   06 Jun 2027 07:22:24.153   06 Jun 2027 07:24:16.418           112.265                  Delhi         14033.125
       260   06 Jun 2027 07:34:28.369   06 Jun 2027 07:35:09.494            41.125                Norilsk          5140.625
       261   06 Jun 2027 07:35:18.593   06 Jun 2027 07:36:45.653            87.060              Murmansk1         10882.500
       262   06 Jun 2027 07:36:59.183   06 Jun 2027 07:37:14.873            15.690                Irkutsk          1961.250
       263   06 Jun 2027 07:37:17.983   06 Jun 2027 07:37:36.041            18.058                Norilsk          2257.250
       264   06 Jun 2027 07:37:43.616   06 Jun 2027 07:38:40.480            56.864                 Moscow          7108.000
       265   06 Jun 2027 08:56:13.679   06 Jun 2027 08:56:42.575            28.896                  Delhi          3612.000
       266   06 Jun 2027 09:09:10.118   06 Jun 2027 09:09:35.339            25.221              Murmansk1          3152.625
       267   06 Jun 2027 09:09:43.617   06 Jun 2027 09:11:22.545            98.928                Norilsk         12366.000
       268   06 Jun 2027 09:11:40.543   06 Jun 2027 09:11:53.966            13.423                 Moscow          1677.875
       269   06 Jun 2027 09:11:59.147   06 Jun 2027 09:12:05.281             6.134              Murmansk1           766.750
       270   06 Jun 2027 09:12:07.668   06 Jun 2027 09:12:29.474            21.806              Murmansk2          2725.750
       271   06 Jun 2027 09:12:37.299   06 Jun 2027 09:13:03.964            26.665                Norilsk          3333.125
       272   06 Jun 2027 09:13:14.997   06 Jun 2027 09:13:39.717            24.720                Novosib          3090.000
       273   06 Jun 2027 09:13:39.743   06 Jun 2027 09:14:12.328            32.585                Norilsk          4073.125
       274   06 Jun 2027 10:46:24.343   06 Jun 2027 10:47:02.218            37.875                 Moscow          4734.375
       275   06 Jun 2027 10:47:17.721   06 Jun 2027 10:48:15.295            57.574                 Moscow          7196.750
       276   06 Jun 2027 11:54:01.307   06 Jun 2027 11:55:44.669           103.362               CapeTown         12920.250
       277   06 Jun 2027 12:34:23.590   06 Jun 2027 12:36:36.452           132.862                Anadyr2         16607.750
       278   06 Jun 2027 12:38:49.328   06 Jun 2027 12:39:49.254            59.926                Anadyr2          7490.750
       279   06 Jun 2027 12:42:19.459   06 Jun 2027 12:43:15.783            56.324                Anadyr1          7040.500
       280   06 Jun 2027 14:13:03.146   06 Jun 2027 14:17:07.938           244.792               Magadan2         30599.000
       281   06 Jun 2027 14:18:48.379   06 Jun 2027 14:18:55.400             7.021               Magadan1           877.625
       282   06 Jun 2027 14:19:58.297   06 Jun 2027 14:22:30.414           152.117               Magadan2         19014.625
       283   06 Jun 2027 16:41:40.458   06 Jun 2027 16:44:58.027           197.569            RioGallegos         24696.125
       284   06 Jun 2027 17:30:46.165   06 Jun 2027 17:36:54.640           368.475                Irkutsk         46059.375
       285   06 Jun 2027 17:43:13.662   06 Jun 2027 17:46:16.729           183.067                Sumatra         22883.375
       286   06 Jun 2027 17:47:57.869   06 Jun 2027 17:49:00.793            62.924                Sumatra          7865.500
       287   06 Jun 2027 19:13:25.246   06 Jun 2027 19:15:23.218           117.972                  Delhi         14746.500
       288   06 Jun 2027 19:18:14.969   06 Jun 2027 19:20:07.998           113.029                  Delhi         14128.625
       289   06 Jun 2027 22:16:50.380   06 Jun 2027 22:18:26.124            95.744              Murmansk2         11968.000
       290   06 Jun 2027 22:46:05.764   06 Jun 2027 22:48:19.869           134.105               CapeTown         16763.125
       291   07 Jun 2027 04:35:13.906   07 Jun 2027 04:35:44.857            30.951                Anadyr1          3868.875
       292   07 Jun 2027 04:36:00.076   07 Jun 2027 04:36:48.776            48.700               Magadan2          6087.500
       293   07 Jun 2027 04:36:59.398   07 Jun 2027 04:37:06.456             7.058               Magadan2           882.250
       294   07 Jun 2027 04:37:09.775   07 Jun 2027 04:37:48.013            38.238                Novosib          4779.750
       295   07 Jun 2027 05:13:44.849   07 Jun 2027 05:15:07.783            82.934            RioGallegos         10366.750
       296   07 Jun 2027 05:51:07.377   07 Jun 2027 05:52:11.707            64.330                Sumatra          8041.250
       297   07 Jun 2027 06:09:30.563   07 Jun 2027 06:11:18.486           107.923                Irkutsk         13490.375
       298   07 Jun 2027 06:11:45.998   07 Jun 2027 06:13:15.974            89.976                Novosib         11247.000
       299   07 Jun 2027 06:13:36.893   07 Jun 2027 06:14:23.703            46.810                Novosib          5851.250
       300   07 Jun 2027 07:23:50.274   07 Jun 2027 07:24:43.067            52.793                Sumatra          6599.125
       301   07 Jun 2027 07:34:14.842   07 Jun 2027 07:36:15.028           120.186                  Delhi         15023.250
       302   07 Jun 2027 07:47:01.041   07 Jun 2027 07:47:58.501            57.460                Novosib          7182.500
       303   07 Jun 2027 07:47:59.655   07 Jun 2027 07:48:39.242            39.587                Irkutsk          4948.375
       304   07 Jun 2027 07:48:56.164   07 Jun 2027 07:49:13.046            16.882              Murmansk2          2110.250
       305   07 Jun 2027 07:50:27.659   07 Jun 2027 07:51:22.130            54.471                 Moscow          6808.875
       306   07 Jun 2027 09:21:25.093   07 Jun 2027 09:22:55.990            90.897              Murmansk1         11362.125
       307   07 Jun 2027 09:23:15.360   07 Jun 2027 09:24:54.103            98.743                Novosib         12342.875
       308   07 Jun 2027 09:25:05.319   07 Jun 2027 09:25:37.890            32.571                Norilsk          4071.375
       309   07 Jun 2027 11:12:06.134   07 Jun 2027 11:15:58.629           232.495                Anadyr1         29061.875
       310   07 Jun 2027 12:47:39.761   07 Jun 2027 12:48:47.643            67.882                Anadyr1          8485.250
       311   07 Jun 2027 12:51:27.365   07 Jun 2027 12:53:10.955           103.590                Anadyr1         12948.750
       312   07 Jun 2027 14:24:54.291   07 Jun 2027 14:30:36.337           342.046               Magadan2         42755.750
       313   07 Jun 2027 14:33:34.178   07 Jun 2027 14:33:34.799             0.621               Magadan1            77.625
       314   07 Jun 2027 16:53:11.713   07 Jun 2027 16:59:25.652           373.939            RioGallegos         46742.375
       315   07 Jun 2027 17:44:04.270   07 Jun 2027 17:44:27.369            23.099                Irkutsk          2887.375
       316   07 Jun 2027 17:58:27.467   07 Jun 2027 18:01:48.185           200.718                Sumatra         25089.750
       317   07 Jun 2027 19:24:39.942   07 Jun 2027 19:27:50.910           190.968                  Delhi         23871.000
       318   07 Jun 2027 19:30:11.963   07 Jun 2027 19:32:07.969           116.006                  Delhi         14500.750
       319   07 Jun 2027 20:50:24.785   07 Jun 2027 20:50:35.127            10.342              Murmansk1          1292.750
       320   07 Jun 2027 20:51:51.101   07 Jun 2027 20:54:19.679           148.578              Murmansk2         18572.250
       321   07 Jun 2027 22:59:18.066   07 Jun 2027 23:00:40.548            82.482               CapeTown         10310.250
       322   08 Jun 2027 03:12:17.813   08 Jun 2027 03:13:04.083            46.270                Anadyr2          5783.750
       323   08 Jun 2027 04:44:57.759   08 Jun 2027 04:45:12.910            15.151               Magadan1          1893.875
       324   08 Jun 2027 04:45:35.882   08 Jun 2027 04:47:50.199           134.317               Magadan1         16789.625
       325   08 Jun 2027 04:48:12.095   08 Jun 2027 04:48:19.771             7.676               Magadan2           959.500
       326   08 Jun 2027 04:48:39.551   08 Jun 2027 04:49:05.508            25.957               Magadan2          3244.625
       327   08 Jun 2027 04:49:10.735   08 Jun 2027 04:49:48.741            38.006                Irkutsk          4750.750
       328   08 Jun 2027 04:49:53.907   08 Jun 2027 04:50:54.078            60.171                Novosib          7521.375
       329   08 Jun 2027 06:00:24.758   08 Jun 2027 06:01:54.617            89.859                Sumatra         11232.375
       330   08 Jun 2027 06:21:35.836   08 Jun 2027 06:22:15.697            39.861                Norilsk          4982.625
       331   08 Jun 2027 06:22:26.353   08 Jun 2027 06:22:51.208            24.855                Novosib          3106.875
       332   08 Jun 2027 06:23:14.417   08 Jun 2027 06:23:47.570            33.153                Norilsk          4144.125
       333   08 Jun 2027 06:23:50.381   08 Jun 2027 06:24:33.695            43.314                Novosib          5414.250
       334   08 Jun 2027 06:24:53.030   08 Jun 2027 06:25:44.029            50.999                Norilsk          6374.875
       335   08 Jun 2027 06:25:46.309   08 Jun 2027 06:26:34.241            47.932                Novosib          5991.500
       336   08 Jun 2027 07:36:12.776   08 Jun 2027 07:36:31.150            18.374                Sumatra          2296.750
       337   08 Jun 2027 07:37:50.325   08 Jun 2027 07:38:02.261            11.936                Sumatra          1492.000
       338   08 Jun 2027 07:39:24.916   08 Jun 2027 07:39:40.081            15.165                Sumatra          1895.625
       339   08 Jun 2027 07:44:00.681   08 Jun 2027 07:44:00.944             0.263                  Delhi            32.875
       340   08 Jun 2027 07:45:29.655   08 Jun 2027 07:46:49.504            79.849                  Delhi          9981.125
       341   08 Jun 2027 07:58:36.544   08 Jun 2027 07:59:05.792            29.248              Murmansk2          3656.000
       342   08 Jun 2027 07:59:13.829   08 Jun 2027 07:59:59.275            45.446              Murmansk2          5680.750
       343   08 Jun 2027 08:00:11.450   08 Jun 2027 08:00:24.303            12.853                Novosib          1606.625
       344   08 Jun 2027 08:00:29.744   08 Jun 2027 08:01:26.128            56.384                 Moscow          7048.000
       345   08 Jun 2027 09:21:16.762   08 Jun 2027 09:21:48.655            31.893                  Delhi          3986.625
       346   08 Jun 2027 09:24:25.256   08 Jun 2027 09:25:17.813            52.557                  Delhi          6569.625
       347   08 Jun 2027 09:33:37.388   08 Jun 2027 09:34:04.553            27.165                Novosib          3395.625
       348   08 Jun 2027 09:34:23.726   08 Jun 2027 09:36:02.540            98.814                Novosib         12351.750
       349   08 Jun 2027 09:36:11.963   08 Jun 2027 09:36:35.615            23.652              Murmansk2          2956.500
       350   08 Jun 2027 09:36:55.072   08 Jun 2027 09:38:23.350            88.278                Norilsk         11034.750
       351   08 Jun 2027 11:23:34.418   08 Jun 2027 11:29:10.185           335.767                Anadyr1         41970.875
       352   08 Jun 2027 14:36:47.622   08 Jun 2027 14:40:43.085           235.463               Magadan1         29432.875
       353   08 Jun 2027 14:41:24.137   08 Jun 2027 14:42:22.643            58.506               Magadan2          7313.250
       354   08 Jun 2027 14:44:33.662   08 Jun 2027 14:45:34.375            60.713               Magadan1          7589.125
       355   08 Jun 2027 17:06:41.878   08 Jun 2027 17:11:13.427           271.549            RioGallegos         33943.625
       356   08 Jun 2027 17:50:03.477   08 Jun 2027 17:50:46.274            42.797                Norilsk          5349.625
       357   08 Jun 2027 18:11:47.120   08 Jun 2027 18:12:49.389            62.269                Sumatra          7783.625
       358   08 Jun 2027 19:38:29.899   08 Jun 2027 19:43:09.743           279.844                  Delhi         34980.500
       359   08 Jun 2027 21:03:10.235   08 Jun 2027 21:06:37.587           207.352              Murmansk1         25919.000
       360   08 Jun 2027 21:06:48.116   08 Jun 2027 21:07:33.517            45.401              Murmansk2          5675.125
       361   08 Jun 2027 21:08:10.939   08 Jun 2027 21:09:40.424            89.485                 Moscow         11185.625
       362   08 Jun 2027 21:09:49.562   08 Jun 2027 21:10:45.725            56.163                 Moscow          7020.375
       363   08 Jun 2027 23:11:59.490   08 Jun 2027 23:12:47.090            47.600               CapeTown          5950.000
       364   09 Jun 2027 03:23:13.215   09 Jun 2027 03:23:17.161             3.946                Anadyr2           493.250
       365   09 Jun 2027 03:23:27.308   09 Jun 2027 03:23:36.977             9.669                Anadyr2          1208.625
       366   09 Jun 2027 03:24:49.789   09 Jun 2027 03:25:03.767            13.978                Anadyr2          1747.250
       367   09 Jun 2027 04:57:12.265   09 Jun 2027 04:58:22.015            69.750                Irkutsk          8718.750
       368   09 Jun 2027 04:58:22.835   09 Jun 2027 04:58:54.281            31.446               Magadan1          3930.750
       369   09 Jun 2027 04:59:08.803   09 Jun 2027 04:59:45.753            36.950               Magadan1          4618.750
       370   09 Jun 2027 05:00:06.920   09 Jun 2027 05:00:34.477            27.557                Irkutsk          3444.625
       371   09 Jun 2027 05:00:38.186   09 Jun 2027 05:01:06.986            28.800               Magadan2          3600.000
       372   09 Jun 2027 05:01:37.913   09 Jun 2027 05:01:54.320            16.407                Irkutsk          2050.875
       373   09 Jun 2027 05:01:57.794   09 Jun 2027 05:03:02.414            64.620                Novosib          8077.500
       374   09 Jun 2027 05:03:13.771   09 Jun 2027 05:03:47.521            33.750                Norilsk          4218.750
       375   09 Jun 2027 05:36:39.571   09 Jun 2027 05:37:21.481            41.910            RioGallegos          5238.750
       376   09 Jun 2027 05:40:37.490   09 Jun 2027 05:41:16.849            39.359            RioGallegos          4919.875
       377   09 Jun 2027 06:13:47.016   09 Jun 2027 06:14:18.363            31.347                Sumatra          3918.375
       378   09 Jun 2027 06:18:13.887   09 Jun 2027 06:18:27.144            13.257                Sumatra          1657.125
       379   09 Jun 2027 06:25:04.358   09 Jun 2027 06:26:02.702            58.344                  Delhi          7293.000
       380   09 Jun 2027 06:27:21.695   09 Jun 2027 06:29:15.535           113.840                  Delhi         14230.000
       381   09 Jun 2027 06:34:04.741   09 Jun 2027 06:34:28.411            23.670                Novosib          2958.750
       382   09 Jun 2027 06:34:30.113   09 Jun 2027 06:34:54.232            24.119                Irkutsk          3014.875
       383   09 Jun 2027 06:34:56.320   09 Jun 2027 06:35:30.873            34.553              Murmansk2          4319.125
       384   09 Jun 2027 06:35:47.553   09 Jun 2027 06:36:01.637            14.084                Irkutsk          1760.500
       385   09 Jun 2027 06:36:07.394   09 Jun 2027 06:36:45.399            38.005              Murmansk2          4750.625
       386   09 Jun 2027 06:36:54.382   09 Jun 2027 06:37:55.750            61.368                Irkutsk          7671.000
       387   09 Jun 2027 07:14:32.994   09 Jun 2027 07:15:01.186            28.192            RioGallegos          3524.000
       388   09 Jun 2027 07:51:06.420   09 Jun 2027 07:51:27.076            20.656                Sumatra          2582.000
       389   09 Jun 2027 07:55:51.625   09 Jun 2027 07:56:30.005            38.380                  Delhi          4797.500
       390   09 Jun 2027 07:57:46.203   09 Jun 2027 07:58:17.364            31.161                  Delhi          3895.125
       391   09 Jun 2027 08:10:13.193   09 Jun 2027 08:10:26.182            12.989              Murmansk2          1623.625
       392   09 Jun 2027 08:10:32.007   09 Jun 2027 08:11:03.379            31.372                Novosib          3921.500
       393   09 Jun 2027 08:11:12.203   09 Jun 2027 08:11:34.668            22.465              Murmansk1          2808.125
       394   09 Jun 2027 08:11:46.527   09 Jun 2027 08:12:24.742            38.215                Norilsk          4776.875
       395   09 Jun 2027 08:12:28.905   09 Jun 2027 08:12:40.130            11.225              Murmansk1          1403.125
       396   09 Jun 2027 08:12:45.876   09 Jun 2027 08:13:30.950            45.074                 Moscow          5634.250
       397   09 Jun 2027 09:34:06.357   09 Jun 2027 09:35:45.680            99.323                  Delhi         12415.375
       398   09 Jun 2027 09:45:32.595   09 Jun 2027 09:47:01.332            88.737                 Moscow         11092.125
       399   09 Jun 2027 09:47:16.242   09 Jun 2027 09:47:48.186            31.944              Murmansk1          3993.000
       400   09 Jun 2027 09:47:56.128   09 Jun 2027 09:48:50.016            53.888              Murmansk1          6736.000
       401   09 Jun 2027 09:49:00.572   09 Jun 2027 09:49:29.739            29.167              Murmansk2          3645.875
       402   09 Jun 2027 09:49:35.612   09 Jun 2027 09:49:47.945            12.333                Norilsk          1541.625
       403   09 Jun 2027 09:49:48.659   09 Jun 2027 09:50:03.048            14.389              Murmansk1          1798.625
       404   09 Jun 2027 09:50:16.710   09 Jun 2027 09:51:06.537            49.827                Norilsk          6228.375
       405   09 Jun 2027 10:57:12.236   09 Jun 2027 10:59:09.280           117.044               CapeTown         14630.500
       406   09 Jun 2027 11:01:12.108   09 Jun 2027 11:02:09.453            57.345               CapeTown          7168.125
       407   09 Jun 2027 11:35:15.405   09 Jun 2027 11:38:39.225           203.820                Anadyr1         25477.500
       408   09 Jun 2027 11:38:52.613   09 Jun 2027 11:41:14.559           141.946                Anadyr2         17743.250
       409   09 Jun 2027 14:48:42.629   09 Jun 2027 14:50:44.508           121.879               Magadan2         15234.875
       410   09 Jun 2027 14:54:05.417   09 Jun 2027 14:55:45.898           100.481               Magadan1         12560.125
       411   09 Jun 2027 14:57:38.613   09 Jun 2027 14:57:58.167            19.554               Magadan2          2444.250
       412   09 Jun 2027 17:20:06.340   09 Jun 2027 17:22:38.431           152.091            RioGallegos         19011.375
       413   09 Jun 2027 18:06:25.546   09 Jun 2027 18:10:45.984           260.438                Novosib         32554.750
       414   09 Jun 2027 19:52:16.847   09 Jun 2027 19:54:13.737           116.890                  Delhi         14611.250
       415   09 Jun 2027 21:15:33.406   09 Jun 2027 21:19:42.736           249.330              Murmansk2         31166.250
       416   09 Jun 2027 21:20:10.860   09 Jun 2027 21:22:32.378           141.518                 Moscow         17689.750
       417   09 Jun 2027 21:24:42.835   09 Jun 2027 21:25:22.392            39.557                 Moscow          4944.625
       418   10 Jun 2027 03:34:35.649   10 Jun 2027 03:34:46.941            11.292               Magadan1          1411.500
       419   10 Jun 2027 03:34:57.285   10 Jun 2027 03:34:58.820             1.535               Magadan1           191.875
       420   10 Jun 2027 03:35:11.403   10 Jun 2027 03:35:17.791             6.388                Anadyr2           798.500
       421   10 Jun 2027 03:35:21.048   10 Jun 2027 03:35:41.305            20.257               Magadan1          2532.125
       422   10 Jun 2027 03:35:54.799   10 Jun 2027 03:36:24.546            29.747               Magadan2          3718.375
       423   10 Jun 2027 03:36:25.743   10 Jun 2027 03:37:03.871            38.128                Anadyr1          4766.000
       424   10 Jun 2027 03:37:19.666   10 Jun 2027 03:37:59.940            40.274               Magadan1          5034.250
       425   10 Jun 2027 05:09:00.613   10 Jun 2027 05:09:34.208            33.595                Irkutsk          4199.375
       426   10 Jun 2027 05:09:57.923   10 Jun 2027 05:11:18.893            80.970                Norilsk         10121.250
       427   10 Jun 2027 05:11:33.838   10 Jun 2027 05:12:28.532            54.694               Magadan1          6836.750
       428   10 Jun 2027 05:12:31.893   10 Jun 2027 05:12:45.304            13.411               Magadan1          1676.375
       429   10 Jun 2027 05:12:48.953   10 Jun 2027 05:13:59.097            70.144                Irkutsk          8768.000
       430   10 Jun 2027 05:49:47.171   10 Jun 2027 05:49:49.519             2.348            RioGallegos           293.500
       431   10 Jun 2027 06:23:48.990   10 Jun 2027 06:24:01.241            12.251                Sumatra          1531.375
       432   10 Jun 2027 06:25:24.754   10 Jun 2027 06:26:34.237            69.483                Sumatra          8685.375
       433   10 Jun 2027 06:35:36.625   10 Jun 2027 06:36:18.080            41.455                  Delhi          5181.875
       434   10 Jun 2027 06:46:00.532   10 Jun 2027 06:47:44.480           103.948                Novosib         12993.500
       435   10 Jun 2027 06:48:00.598   10 Jun 2027 06:48:07.028             6.430              Murmansk2           803.750
       436   10 Jun 2027 06:48:22.913   10 Jun 2027 06:49:53.619            90.706                Irkutsk         11338.250
       437   10 Jun 2027 06:50:11.149   10 Jun 2027 06:50:42.639            31.490                Novosib          3936.250
       438   10 Jun 2027 08:01:31.127   10 Jun 2027 08:02:53.755            82.628                Sumatra         10328.500
       439   10 Jun 2027 08:07:47.892   10 Jun 2027 08:09:00.718            72.826                  Delhi          9103.250
       440   10 Jun 2027 08:22:34.044   10 Jun 2027 08:22:59.217            25.173                Irkutsk          3146.625
       441   10 Jun 2027 08:23:11.029   10 Jun 2027 08:24:06.317            55.288              Murmansk2          6911.000
       442   10 Jun 2027 08:24:17.019   10 Jun 2027 08:24:48.120            31.101                Norilsk          3887.625
       443   10 Jun 2027 08:24:51.045   10 Jun 2027 08:25:07.283            16.238              Murmansk2          2029.750
       444   10 Jun 2027 08:25:08.227   10 Jun 2027 08:25:22.140            13.913                 Moscow          1739.125
       445   10 Jun 2027 08:26:15.911   10 Jun 2027 08:27:10.284            54.373                 Moscow          6796.625
       446   10 Jun 2027 09:55:28.424   10 Jun 2027 09:57:22.353           113.929                 Moscow         14241.125
       447   10 Jun 2027 09:57:25.859   10 Jun 2027 09:57:43.855            17.996                Novosib          2249.500
       448   10 Jun 2027 09:57:57.497   10 Jun 2027 09:59:26.874            89.377                 Moscow         11172.125
       449   10 Jun 2027 09:59:47.609   10 Jun 2027 10:01:10.311            82.702                Norilsk         10337.750
       450   10 Jun 2027 10:01:50.065   10 Jun 2027 10:03:28.219            98.154                 Moscow         12269.250
       451   10 Jun 2027 11:08:03.655   10 Jun 2027 11:10:50.833           167.178               CapeTown         20897.250
       452   10 Jun 2027 11:14:54.345   10 Jun 2027 11:15:34.838            40.493               CapeTown          5061.625
       453   10 Jun 2027 11:47:02.506   10 Jun 2027 11:51:07.079           244.573                Anadyr1         30571.625
       454   10 Jun 2027 13:26:45.588   10 Jun 2027 13:29:50.846           185.258               Magadan1         23157.250
       455   10 Jun 2027 16:43:47.546   10 Jun 2027 16:45:46.421           118.875                Irkutsk         14859.375
       456   10 Jun 2027 18:17:39.300   10 Jun 2027 18:24:05.775           386.475                Novosib         48309.375
       457   10 Jun 2027 20:05:19.554   10 Jun 2027 20:05:36.566            17.012                  Delhi          2126.500
       458   10 Jun 2027 21:27:15.254   10 Jun 2027 21:27:59.180            43.926              Murmansk2          5490.750
       459   10 Jun 2027 21:28:55.241   10 Jun 2027 21:31:35.722           160.481              Murmansk1         20060.125
       460   10 Jun 2027 21:32:10.063   10 Jun 2027 21:38:24.163           374.100                 Moscow         46762.500
       461   11 Jun 2027 03:44:53.806   11 Jun 2027 03:46:34.280           100.474                Irkutsk         12559.250
       462   11 Jun 2027 03:46:56.410   11 Jun 2027 03:47:18.113            21.703                Anadyr1          2712.875
       463   11 Jun 2027 03:47:35.769   11 Jun 2027 03:48:52.524            76.755                Anadyr2          9594.375
       464   11 Jun 2027 05:21:10.267   11 Jun 2027 05:22:38.000            87.733               Magadan2         10966.625
       465   11 Jun 2027 05:22:53.795   11 Jun 2027 05:23:24.056            30.261               Magadan2          3782.625
       466   11 Jun 2027 05:23:27.778   11 Jun 2027 05:24:28.829            61.051               Magadan2          7631.375
       467   11 Jun 2027 05:25:15.273   11 Jun 2027 05:27:08.443           113.170              Murmansk1         14146.250
       468   11 Jun 2027 06:05:40.353   11 Jun 2027 06:05:53.882            13.529            RioGallegos          1691.125
       469   11 Jun 2027 06:35:40.739   11 Jun 2027 06:36:36.494            55.755                Sumatra          6969.375
       470   11 Jun 2027 06:38:44.019   11 Jun 2027 06:39:09.366            25.347                Sumatra          3168.375
       471   11 Jun 2027 06:46:37.148   11 Jun 2027 06:48:31.090           113.942                  Delhi         14242.750
       472   11 Jun 2027 06:58:30.826   11 Jun 2027 06:59:51.556            80.730                Novosib         10091.250
       473   11 Jun 2027 07:00:11.899   11 Jun 2027 07:00:20.291             8.392              Murmansk1          1049.000
       474   11 Jun 2027 07:00:30.308   11 Jun 2027 07:01:39.145            68.837                Norilsk          8604.625
       475   11 Jun 2027 07:01:44.660   11 Jun 2027 07:01:52.088             7.428                 Moscow           928.500
       476   11 Jun 2027 07:01:53.283   11 Jun 2027 07:02:22.885            29.602                Novosib          3700.250
       477   11 Jun 2027 07:03:01.805   11 Jun 2027 07:03:34.583            32.778                Novosib          4097.250
       478   11 Jun 2027 08:14:44.703   11 Jun 2027 08:15:29.884            45.181                Sumatra          5647.625
       479   11 Jun 2027 08:34:06.151   11 Jun 2027 08:34:33.846            27.695                Norilsk          3461.875
       480   11 Jun 2027 08:34:36.749   11 Jun 2027 08:35:10.266            33.517              Murmansk2          4189.625
       481   11 Jun 2027 08:35:32.869   11 Jun 2027 08:37:03.877            91.008                Norilsk         11376.000
       482   11 Jun 2027 08:37:14.618   11 Jun 2027 08:37:33.202            18.584                Novosib          2323.000
