uniorb/output/strategy_1/Drop/Drop_KinoSat_111302.txt

KinoSat_111302
-------------------------
    Access    *     Start Time (UTCG)     *     Stop Time (UTCG)  *   Duration (s)        *       Station  *  Data (Mbytes)
         1   01 Jun 2027 03:59:23.223   01 Jun 2027 03:59:33.022             9.799              Murmansk1           306.219
         2   01 Jun 2027 03:59:33.022   01 Jun 2027 04:00:10.216            37.194              Murmansk2          1162.313
         3   01 Jun 2027 04:00:30.832   01 Jun 2027 04:03:13.436           162.604              Murmansk1          5081.375
         4   01 Jun 2027 04:03:22.862   01 Jun 2027 04:03:28.501             5.639                 Moscow           176.219
         5   01 Jun 2027 04:04:49.821   01 Jun 2027 04:05:30.076            40.255                 Moscow          1257.969
         6   01 Jun 2027 05:21:00.502   01 Jun 2027 05:21:10.792            10.290               Magadan2           321.562
         7   01 Jun 2027 05:21:31.025   01 Jun 2027 05:25:40.504           249.479                Anadyr1          7796.219
         8   01 Jun 2027 05:27:07.007   01 Jun 2027 05:27:19.929            12.922                Anadyr1           403.812
         9   01 Jun 2027 06:58:44.951   01 Jun 2027 06:59:24.085            39.134                Anadyr2          1222.937
        10   01 Jun 2027 06:59:24.085   01 Jun 2027 07:02:14.053           169.968                Anadyr1          5311.500
        11   01 Jun 2027 08:32:16.766   01 Jun 2027 08:32:25.075             8.309               Magadan1           259.656
        12   01 Jun 2027 08:32:57.555   01 Jun 2027 08:33:28.263            30.708               Magadan1           959.625
        13   01 Jun 2027 08:34:08.038   01 Jun 2027 08:35:22.525            74.487               Magadan1          2327.719
        14   01 Jun 2027 08:35:31.268   01 Jun 2027 08:36:32.280            61.012                Novosib          1906.625
        15   01 Jun 2027 08:36:34.182   01 Jun 2027 08:36:56.136            21.954                Novosib           686.063
        16   01 Jun 2027 08:37:12.476   01 Jun 2027 08:38:28.021            75.545               Magadan2          2360.781
        17   01 Jun 2027 08:38:32.669   01 Jun 2027 08:38:44.374            11.705                Norilsk           365.781
        18   01 Jun 2027 08:38:48.674   01 Jun 2027 08:40:32.277           103.603              Murmansk2          3237.594
        19   01 Jun 2027 08:40:32.277   01 Jun 2027 08:40:36.702             4.425              Murmansk1           138.281
        20   01 Jun 2027 08:41:04.200   01 Jun 2027 08:41:18.392            14.192              Murmansk2           443.500
        21   01 Jun 2027 09:13:25.083   01 Jun 2027 09:15:59.298           154.215            RioGallegos          4819.219
        22   01 Jun 2027 09:49:23.397   01 Jun 2027 09:50:21.617            58.220                Sumatra          1819.375
        23   01 Jun 2027 10:09:48.472   01 Jun 2027 10:12:12.191           143.719                Novosib          4491.219
        24   01 Jun 2027 10:12:16.484   01 Jun 2027 10:12:18.074             1.590              Murmansk1            49.688
        25   01 Jun 2027 10:12:19.312   01 Jun 2027 10:13:19.678            60.366              Murmansk1          1886.437
        26   01 Jun 2027 10:13:33.124   01 Jun 2027 10:14:53.613            80.489                Novosib          2515.281
        27   01 Jun 2027 10:15:02.140   01 Jun 2027 10:15:51.688            49.548                Norilsk          1548.375
        28   01 Jun 2027 10:50:54.434   01 Jun 2027 10:51:09.107            14.673            RioGallegos           458.531
        29   01 Jun 2027 11:24:41.098   01 Jun 2027 11:26:17.048            95.950                Sumatra          2998.438
        30   01 Jun 2027 11:32:51.071   01 Jun 2027 11:35:00.993           129.922                  Delhi          4060.063
        31   01 Jun 2027 11:47:38.938   01 Jun 2027 11:48:05.721            26.783                Novosib           836.969
        32   01 Jun 2027 11:48:23.177   01 Jun 2027 11:49:21.555            58.378                Novosib          1824.313
        33   01 Jun 2027 11:49:26.354   01 Jun 2027 11:52:51.863           205.509              Murmansk2          6422.156
        34   01 Jun 2027 11:52:57.968   01 Jun 2027 11:53:40.710            42.742                Norilsk          1335.687
        35   01 Jun 2027 13:09:36.259   01 Jun 2027 13:14:44.713           308.454                  Delhi          9639.187
        36   01 Jun 2027 13:18:00.746   01 Jun 2027 13:18:51.161            50.415                Novosib          1575.469
        37   01 Jun 2027 13:20:20.774   01 Jun 2027 13:21:22.553            61.779                Novosib          1930.594
        38   01 Jun 2027 13:21:40.013   01 Jun 2027 13:23:20.957           100.944                Norilsk          3154.500
        39   01 Jun 2027 14:52:56.604   01 Jun 2027 14:54:53.713           117.109                 Moscow          3659.656
        40   01 Jun 2027 14:56:27.885   01 Jun 2027 15:00:29.035           241.150              Murmansk2          7535.938
        41   01 Jun 2027 15:01:32.948   01 Jun 2027 15:01:54.139            21.191              Murmansk1           662.219
        42   01 Jun 2027 15:02:08.729   01 Jun 2027 15:03:19.268            70.539              Murmansk2          2204.344
        43   01 Jun 2027 15:03:21.410   01 Jun 2027 15:04:01.946            40.536                Norilsk          1266.750
        44   01 Jun 2027 15:05:47.486   01 Jun 2027 15:06:27.219            39.733                Norilsk          1241.656
        45   01 Jun 2027 15:07:27.520   01 Jun 2027 15:07:30.010             2.490              Murmansk1            77.812
        46   01 Jun 2027 15:07:54.641   01 Jun 2027 15:09:11.100            76.459              Murmansk1          2389.344
        47   01 Jun 2027 15:12:29.390   01 Jun 2027 15:13:35.125            65.735                Anadyr1          2054.219
        48   01 Jun 2027 15:13:57.528   01 Jun 2027 15:13:58.483             0.955                Anadyr1            29.844
        49   01 Jun 2027 15:14:13.351   01 Jun 2027 15:14:40.812            27.461                Anadyr1           858.156
        50   01 Jun 2027 15:15:34.532   01 Jun 2027 15:16:38.787            64.255                Anadyr2          2007.969
        51   01 Jun 2027 16:14:30.320   01 Jun 2027 16:15:02.407            32.087               CapeTown          1002.719
        52   01 Jun 2027 16:16:56.812   01 Jun 2027 16:18:18.451            81.639               CapeTown          2551.219
        53   01 Jun 2027 16:34:23.253   01 Jun 2027 16:34:24.864             1.611              Murmansk2            50.344
        54   01 Jun 2027 16:35:52.533   01 Jun 2027 16:36:08.172            15.639              Murmansk2           488.719
        55   01 Jun 2027 16:37:11.737   01 Jun 2027 16:38:06.754            55.017                 Moscow          1719.281
        56   01 Jun 2027 16:39:47.215   01 Jun 2027 16:40:18.765            31.550                 Moscow           985.938
        57   01 Jun 2027 16:41:36.177   01 Jun 2027 16:42:12.813            36.636              Murmansk2          1144.875
        58   01 Jun 2027 16:42:58.310   01 Jun 2027 16:43:28.711            30.401              Murmansk2           950.031
        59   01 Jun 2027 16:43:28.711   01 Jun 2027 16:44:18.433            49.722              Murmansk1          1553.812
        60   01 Jun 2027 16:48:29.619   01 Jun 2027 16:48:49.423            19.804                Anadyr2           618.875
        61   01 Jun 2027 16:48:54.398   01 Jun 2027 16:49:25.846            31.448                Anadyr2           982.750
        62   01 Jun 2027 16:50:37.972   01 Jun 2027 16:50:44.294             6.322                Anadyr2           197.563
        63   01 Jun 2027 16:51:29.804   01 Jun 2027 16:51:59.506            29.702                Anadyr1           928.187
        64   01 Jun 2027 16:52:26.833   01 Jun 2027 16:52:35.139             8.306                Anadyr1           259.563
        65   01 Jun 2027 16:52:49.428   01 Jun 2027 16:52:57.228             7.800                Anadyr1           243.750
        66   01 Jun 2027 16:53:14.430   01 Jun 2027 16:53:32.587            18.157                Anadyr1           567.406
        67   01 Jun 2027 16:53:44.755   01 Jun 2027 16:54:07.171            22.416                Anadyr1           700.500
        68   01 Jun 2027 16:54:56.474   01 Jun 2027 16:55:30.878            34.404                Anadyr2          1075.125
        69   01 Jun 2027 16:55:46.236   01 Jun 2027 16:56:07.522            21.286                Anadyr1           665.188
        70   01 Jun 2027 16:56:35.320   01 Jun 2027 16:56:54.428            19.108                Anadyr1           597.125
        71   01 Jun 2027 16:57:37.747   01 Jun 2027 16:58:14.370            36.623                Anadyr2          1144.469
        72   01 Jun 2027 18:15:06.966   01 Jun 2027 18:19:21.267           254.301              Murmansk1          7946.906
        73   01 Jun 2027 18:19:44.949   01 Jun 2027 18:20:18.483            33.534              Murmansk2          1047.938
        74   01 Jun 2027 18:25:43.676   01 Jun 2027 18:26:06.090            22.414               Magadan1           700.437
        75   01 Jun 2027 18:28:34.768   01 Jun 2027 18:28:39.223             4.455                Anadyr1           139.219
        76   01 Jun 2027 18:28:44.797   01 Jun 2027 18:28:47.441             2.644               Magadan2            82.625
        77   01 Jun 2027 18:29:43.945   01 Jun 2027 18:30:08.937            24.992               Magadan2           781.000
        78   01 Jun 2027 18:30:13.960   01 Jun 2027 18:30:57.325            43.365               Magadan2          1355.156
        79   01 Jun 2027 18:32:37.577   01 Jun 2027 18:33:20.855            43.278               Magadan2          1352.437
        80   01 Jun 2027 18:34:20.719   01 Jun 2027 18:35:02.466            41.747               Magadan2          1304.594
        81   01 Jun 2027 19:58:44.724   01 Jun 2027 20:02:30.685           225.961                Anadyr1          7061.281
        82   01 Jun 2027 20:03:00.483   01 Jun 2027 20:04:02.420            61.937               Magadan2          1935.531
        83   01 Jun 2027 20:04:02.420   01 Jun 2027 20:04:16.359            13.939               Magadan1           435.594
        84   01 Jun 2027 20:05:04.935   01 Jun 2027 20:05:13.730             8.795               Magadan2           274.844
        85   01 Jun 2027 20:05:36.534   01 Jun 2027 20:05:42.808             6.274               Magadan2           196.062
        86   01 Jun 2027 20:05:50.007   01 Jun 2027 20:06:06.433            16.426               Magadan1           513.312
        87   01 Jun 2027 20:06:18.857   01 Jun 2027 20:06:34.094            15.237               Magadan2           476.156
        88   01 Jun 2027 20:07:02.993   01 Jun 2027 20:07:29.081            26.088               Magadan1           815.250
        89   01 Jun 2027 20:08:07.661   01 Jun 2027 20:08:26.632            18.971               Magadan2           592.844
        90   01 Jun 2027 20:09:23.248   01 Jun 2027 20:09:55.976            32.728               Magadan1          1022.750
        91   01 Jun 2027 20:11:36.403   01 Jun 2027 20:12:22.687            46.284               Magadan1          1446.375
        92   01 Jun 2027 20:53:43.573   01 Jun 2027 20:56:10.059           146.486            RioGallegos          4577.688
        93   01 Jun 2027 20:58:46.687   01 Jun 2027 20:59:51.385            64.698            RioGallegos          2021.813
        94   01 Jun 2027 21:36:36.797   01 Jun 2027 21:37:02.242            25.445                Norilsk           795.156
        95   01 Jun 2027 21:37:35.433   01 Jun 2027 21:39:24.207           108.774               Magadan1          3399.188
        96   01 Jun 2027 21:39:24.207   01 Jun 2027 21:39:32.570             8.363               Magadan2           261.344
        97   01 Jun 2027 21:39:54.231   01 Jun 2027 21:40:17.654            23.423               Magadan1           731.969
        98   01 Jun 2027 21:40:51.649   01 Jun 2027 21:40:51.863             0.214               Magadan2             6.688
        99   01 Jun 2027 21:41:03.385   01 Jun 2027 21:41:49.445            46.060                Irkutsk          1439.375
       100   01 Jun 2027 21:42:23.872   01 Jun 2027 21:43:38.013            74.141                Irkutsk          2316.906
       101   01 Jun 2027 21:48:19.729   01 Jun 2027 21:48:28.249             8.520               Magadan1           266.250
       102   01 Jun 2027 21:49:37.110   01 Jun 2027 21:50:15.820            38.710                Irkutsk          1209.687
       103   01 Jun 2027 21:51:20.605   01 Jun 2027 21:51:49.490            28.885                Irkutsk           902.656
       104   01 Jun 2027 21:56:34.163   01 Jun 2027 21:58:12.434            98.271                Sumatra          3070.969
       105   01 Jun 2027 22:06:17.999   01 Jun 2027 22:06:29.063            11.064                Sumatra           345.750
       106   01 Jun 2027 22:39:06.707   01 Jun 2027 22:39:17.430            10.723            RioGallegos           335.094
       107   01 Jun 2027 22:40:12.470   01 Jun 2027 22:40:14.817             2.347            RioGallegos            73.344
       108   01 Jun 2027 22:40:53.478   01 Jun 2027 22:41:18.832            25.354            RioGallegos           792.313
       109   01 Jun 2027 23:09:28.523   01 Jun 2027 23:09:41.629            13.106                Anadyr2           409.562
       110   01 Jun 2027 23:10:48.140   01 Jun 2027 23:10:52.440             4.300                Anadyr2           134.375
       111   01 Jun 2027 23:12:07.454   01 Jun 2027 23:12:09.624             2.170                Anadyr1            67.812
       112   01 Jun 2027 23:12:26.744   01 Jun 2027 23:13:10.678            43.934                Anadyr2          1372.938
       113   01 Jun 2027 23:13:21.437   01 Jun 2027 23:14:27.815            66.378               Magadan2          2074.313
       114   01 Jun 2027 23:14:27.815   01 Jun 2027 23:14:33.302             5.487               Magadan1           171.469
       115   01 Jun 2027 23:15:03.403   01 Jun 2027 23:15:11.962             8.559               Magadan1           267.469
       116   01 Jun 2027 23:15:19.898   01 Jun 2027 23:15:30.434            10.536                Anadyr1           329.250
       117   01 Jun 2027 23:15:44.383   01 Jun 2027 23:16:02.410            18.027                Norilsk           563.344
       118   01 Jun 2027 23:16:21.948   01 Jun 2027 23:16:38.407            16.459                Irkutsk           514.344
       119   01 Jun 2027 23:16:42.864   01 Jun 2027 23:16:58.117            15.253                Novosib           476.656
       120   01 Jun 2027 23:17:26.978   01 Jun 2027 23:17:54.180            27.202                Novosib           850.062
       121   01 Jun 2027 23:18:47.384   01 Jun 2027 23:18:56.593             9.209               Magadan1           287.781
       122   01 Jun 2027 23:19:35.923   01 Jun 2027 23:19:58.731            22.808               Magadan1           712.750
       123   01 Jun 2027 23:20:24.705   01 Jun 2027 23:20:25.707             1.002                Irkutsk            31.312
       124   01 Jun 2027 23:20:45.269   01 Jun 2027 23:21:36.019            50.750                Novosib          1585.938
       125   01 Jun 2027 23:23:07.511   01 Jun 2027 23:23:18.204            10.693                Novosib           334.156
       126   01 Jun 2027 23:25:07.315   01 Jun 2027 23:26:08.328            61.013                  Delhi          1906.656
       127   01 Jun 2027 23:27:58.407   01 Jun 2027 23:28:11.107            12.700                  Delhi           396.875
       128   01 Jun 2027 23:28:50.134   01 Jun 2027 23:29:57.297            67.163                  Delhi          2098.844
       129   01 Jun 2027 23:34:41.347   01 Jun 2027 23:34:54.526            13.179                  Delhi           411.844
       130   01 Jun 2027 23:40:51.721   01 Jun 2027 23:41:06.910            15.189                Sumatra           474.656
       131   02 Jun 2027 00:12:49.310   02 Jun 2027 00:12:59.653            10.343            RioGallegos           323.219
       132   02 Jun 2027 00:13:32.556   02 Jun 2027 00:14:19.145            46.589            RioGallegos          1455.906
       133   02 Jun 2027 00:43:44.130   02 Jun 2027 00:44:07.188            23.058                Anadyr1           720.563
       134   02 Jun 2027 00:44:55.404   02 Jun 2027 00:45:38.673            43.269                Anadyr2          1352.156
       135   02 Jun 2027 00:47:38.589   02 Jun 2027 00:48:00.022            21.433                Anadyr1           669.781
       136   02 Jun 2027 00:48:25.964   02 Jun 2027 00:48:47.132            21.168                Anadyr1           661.500
       137   02 Jun 2027 00:48:56.165   02 Jun 2027 00:50:57.174           121.009               Magadan1          3781.531
       138   02 Jun 2027 00:50:57.174   02 Jun 2027 00:51:06.916             9.742               Magadan2           304.437
       139   02 Jun 2027 00:51:27.435   02 Jun 2027 00:52:40.585            73.150              Murmansk1          2285.937
       140   02 Jun 2027 00:52:54.022   02 Jun 2027 00:53:21.781            27.759              Murmansk1           867.469
       141   02 Jun 2027 00:53:21.781   02 Jun 2027 00:53:37.702            15.921              Murmansk2           497.531
       142   02 Jun 2027 00:53:53.564   02 Jun 2027 00:54:28.676            35.112              Murmansk2          1097.250
       143   02 Jun 2027 00:58:12.608   02 Jun 2027 00:58:33.328            20.720                 Moscow           647.500
       144   02 Jun 2027 01:02:10.371   02 Jun 2027 01:02:29.808            19.437                Novosib           607.406
       145   02 Jun 2027 01:03:34.468   02 Jun 2027 01:04:02.825            28.357                Novosib           886.156
       146   02 Jun 2027 01:08:33.962   02 Jun 2027 01:08:54.564            20.602                  Delhi           643.812
       147   02 Jun 2027 01:09:20.773   02 Jun 2027 01:09:37.337            16.564                  Delhi           517.625
       148   02 Jun 2027 01:10:05.438   02 Jun 2027 01:12:01.639           116.201                  Delhi          3631.281
       149   02 Jun 2027 01:46:01.605   02 Jun 2027 01:46:24.467            22.862            RioGallegos           714.438
       150   02 Jun 2027 02:16:34.089   02 Jun 2027 02:16:57.330            23.241                Anadyr1           726.281
       151   02 Jun 2027 02:18:19.875   02 Jun 2027 02:19:21.291            61.416                Anadyr2          1919.250
       152   02 Jun 2027 02:22:11.514   02 Jun 2027 02:23:18.998            67.484               Magadan1          2108.875
       153   02 Jun 2027 02:24:13.050   02 Jun 2027 02:24:38.241            25.191               Magadan1           787.219
       154   02 Jun 2027 02:25:58.498   02 Jun 2027 02:26:07.416             8.918                Norilsk           278.688
       155   02 Jun 2027 02:26:38.346   02 Jun 2027 02:27:06.727            28.381              Murmansk2           886.906
       156   02 Jun 2027 02:28:21.206   02 Jun 2027 02:28:36.895            15.689              Murmansk1           490.281
       157   02 Jun 2027 02:28:36.905   02 Jun 2027 02:28:51.262            14.357              Murmansk2           448.656
       158   02 Jun 2027 02:28:53.883   02 Jun 2027 02:29:38.809            44.926                Novosib          1403.937
       159   02 Jun 2027 02:30:35.532   02 Jun 2027 02:31:18.261            42.729                Novosib          1335.281
       160   02 Jun 2027 02:36:23.316   02 Jun 2027 02:36:33.459            10.143                 Moscow           316.969
       161   02 Jun 2027 02:37:03.624   02 Jun 2027 02:37:22.798            19.174                Novosib           599.187
       162   02 Jun 2027 02:38:11.003   02 Jun 2027 02:38:15.896             4.893                Novosib           152.906
       163   02 Jun 2027 02:39:57.564   02 Jun 2027 02:40:01.573             4.009                 Moscow           125.281
       164   02 Jun 2027 02:40:45.807   02 Jun 2027 02:41:25.179            39.372                 Moscow          1230.375
       165   02 Jun 2027 03:01:24.989   02 Jun 2027 03:01:53.767            28.778               CapeTown           899.313
       166   02 Jun 2027 03:04:37.121   02 Jun 2027 03:05:26.825            49.704               CapeTown          1553.250
       167   02 Jun 2027 04:10:46.980   02 Jun 2027 04:11:12.140            25.160                Norilsk           786.250
       168   02 Jun 2027 04:11:26.626   02 Jun 2027 04:11:32.917             6.291              Murmansk1           196.594
       169   02 Jun 2027 04:11:32.917   02 Jun 2027 04:14:15.848           162.931              Murmansk2          5091.594
       170   02 Jun 2027 04:14:15.848   02 Jun 2027 04:14:27.131            11.283              Murmansk1           352.594
       171   02 Jun 2027 04:16:40.659   02 Jun 2027 04:16:56.439            15.780                 Moscow           493.125
       172   02 Jun 2027 05:33:21.221   02 Jun 2027 05:33:47.023            25.802               Magadan2           806.312
       173   02 Jun 2027 05:33:56.057   02 Jun 2027 05:36:51.552           175.495                Anadyr1          5484.219
       174   02 Jun 2027 05:36:51.552   02 Jun 2027 05:38:06.790            75.238                Anadyr2          2351.187
       175   02 Jun 2027 05:38:56.051   02 Jun 2027 05:39:21.012            24.961                Anadyr2           780.031
       176   02 Jun 2027 07:10:59.125   02 Jun 2027 07:14:58.383           239.258                Anadyr2          7476.812
       177   02 Jun 2027 08:45:46.869   02 Jun 2027 08:46:01.313            14.444                Novosib           451.375
       178   02 Jun 2027 08:46:06.148   02 Jun 2027 08:47:18.857            72.709                Novosib          2272.156
       179   02 Jun 2027 08:47:45.673   02 Jun 2027 08:48:01.515            15.842                Irkutsk           495.063
       180   02 Jun 2027 08:48:20.196   02 Jun 2027 08:50:33.084           132.888                Irkutsk          4152.750
       181   02 Jun 2027 08:50:46.278   02 Jun 2027 08:52:59.679           133.401                Norilsk          4168.781
       182   02 Jun 2027 08:53:11.285   02 Jun 2027 08:54:17.270            65.985              Murmansk2          2062.031
       183   02 Jun 2027 08:56:07.321   02 Jun 2027 08:56:10.871             3.550              Murmansk1           110.937
       184   02 Jun 2027 09:25:22.324   02 Jun 2027 09:28:01.921           159.597            RioGallegos          4987.406
       185   02 Jun 2027 10:00:57.335   02 Jun 2027 10:02:37.421           100.086                Sumatra          3127.688
       186   02 Jun 2027 10:22:10.251   02 Jun 2027 10:22:25.266            15.015                Irkutsk           469.219
       187   02 Jun 2027 10:22:32.945   02 Jun 2027 10:24:32.860           119.915                Norilsk          3747.344
       188   02 Jun 2027 10:24:32.966   02 Jun 2027 10:25:14.749            41.783              Murmansk1          1305.719
       189   02 Jun 2027 10:25:21.353   02 Jun 2027 10:26:05.861            44.508                Novosib          1390.875
       190   02 Jun 2027 10:26:10.432   02 Jun 2027 10:26:18.948             8.516                Norilsk           266.125
       191   02 Jun 2027 10:26:37.193   02 Jun 2027 10:27:52.978            75.785                Norilsk          2368.281
       192   02 Jun 2027 10:28:03.468   02 Jun 2027 10:28:17.228            13.760                Norilsk           430.000
       193   02 Jun 2027 10:29:32.293   02 Jun 2027 10:29:42.820            10.527                Norilsk           328.969
       194   02 Jun 2027 10:30:22.684   02 Jun 2027 10:30:44.402            21.718              Murmansk1           678.688
       195   02 Jun 2027 10:31:52.524   02 Jun 2027 10:32:03.894            11.370              Murmansk2           355.313
       196   02 Jun 2027 10:33:49.002   02 Jun 2027 10:33:52.087             3.085              Murmansk2            96.406
       197   02 Jun 2027 11:02:55.224   02 Jun 2027 11:03:41.426            46.202            RioGallegos          1443.812
       198   02 Jun 2027 11:04:02.147   02 Jun 2027 11:04:22.552            20.405            RioGallegos           637.656
       199   02 Jun 2027 11:04:53.588   02 Jun 2027 11:05:28.293            34.705            RioGallegos          1084.531
       200   02 Jun 2027 11:06:22.472   02 Jun 2027 11:07:12.262            49.790            RioGallegos          1555.937
       201   02 Jun 2027 11:07:59.878   02 Jun 2027 11:08:04.760             4.882            RioGallegos           152.562
       202   02 Jun 2027 11:37:07.563   02 Jun 2027 11:38:17.623            70.060                Sumatra          2189.375
       203   02 Jun 2027 11:40:25.321   02 Jun 2027 11:40:59.263            33.942                Sumatra          1060.687
       204   02 Jun 2027 11:45:34.226   02 Jun 2027 11:47:28.655           114.429                  Delhi          3575.906
       205   02 Jun 2027 11:58:55.199   02 Jun 2027 11:59:05.842            10.643                Irkutsk           332.594
       206   02 Jun 2027 11:59:41.583   02 Jun 2027 12:01:22.804           101.221                Irkutsk          3163.156
       207   02 Jun 2027 12:01:45.975   02 Jun 2027 12:04:05.372           139.397                Novosib          4356.156
       208   02 Jun 2027 12:05:42.124   02 Jun 2027 12:06:36.007            53.883                Norilsk          1683.844
       209   02 Jun 2027 12:07:19.371   02 Jun 2027 12:07:38.855            19.484                Norilsk           608.875
       210   02 Jun 2027 12:07:59.082   02 Jun 2027 12:08:15.008            15.926              Murmansk2           497.687
       211   02 Jun 2027 12:08:39.781   02 Jun 2027 12:09:28.499            48.718              Murmansk1          1522.437
       212   02 Jun 2027 13:23:29.799   02 Jun 2027 13:24:12.883            43.084                  Delhi          1346.375
       213   02 Jun 2027 13:25:33.477   02 Jun 2027 13:31:29.464           355.987                  Delhi         11124.594
       214   02 Jun 2027 13:33:19.778   02 Jun 2027 13:34:37.994            78.216                Novosib          2444.250
       215   02 Jun 2027 13:35:38.898   02 Jun 2027 13:36:36.751            57.853                Novosib          1807.906
       216   02 Jun 2027 13:37:12.489   02 Jun 2027 13:37:36.463            23.974                Novosib           749.187
       217   02 Jun 2027 13:38:16.003   02 Jun 2027 13:38:43.531            27.528                Novosib           860.250
       218   02 Jun 2027 13:39:42.101   02 Jun 2027 13:40:05.648            23.547                 Moscow           735.844
       219   02 Jun 2027 13:40:17.531   02 Jun 2027 13:40:48.795            31.264              Murmansk2           977.000
       220   02 Jun 2027 13:40:53.966   02 Jun 2027 13:43:32.820           158.854                Norilsk          4964.188
       221   02 Jun 2027 13:43:37.780   02 Jun 2027 13:45:14.991            97.211              Murmansk2          3037.844
       222   02 Jun 2027 14:47:54.014   02 Jun 2027 14:48:18.893            24.879               CapeTown           777.469
       223   02 Jun 2027 15:08:17.237   02 Jun 2027 15:09:06.006            48.769                 Moscow          1524.031
       224   02 Jun 2027 15:09:33.396   02 Jun 2027 15:09:56.312            22.916                 Moscow           716.125
       225   02 Jun 2027 15:10:21.083   02 Jun 2027 15:11:37.087            76.004              Murmansk2          2375.125
       226   02 Jun 2027 15:11:39.168   02 Jun 2027 15:11:55.139            15.971                 Moscow           499.094
       227   02 Jun 2027 15:12:12.262   02 Jun 2027 15:12:27.755            15.493                 Moscow           484.156
       228   02 Jun 2027 15:12:52.252   02 Jun 2027 15:13:04.961            12.709              Murmansk1           397.156
       229   02 Jun 2027 15:13:33.783   02 Jun 2027 15:13:41.184             7.401              Murmansk2           231.281
       230   02 Jun 2027 15:13:53.451   02 Jun 2027 15:14:15.686            22.235              Murmansk2           694.844
       231   02 Jun 2027 15:14:28.863   02 Jun 2027 15:14:53.667            24.804                 Moscow           775.125
       232   02 Jun 2027 15:15:10.391   02 Jun 2027 15:17:34.692           144.301                 Moscow          4509.406
       233   02 Jun 2027 15:17:44.577   02 Jun 2027 15:19:15.800            91.223              Murmansk1          2850.719
       234   02 Jun 2027 15:19:15.800   02 Jun 2027 15:19:22.737             6.937              Murmansk2           216.781
       235   02 Jun 2027 15:19:31.712   02 Jun 2027 15:21:12.993           101.281              Murmansk1          3165.031
       236   02 Jun 2027 15:27:35.557   02 Jun 2027 15:28:58.987            83.430                Anadyr2          2607.188
       237   02 Jun 2027 15:29:55.171   02 Jun 2027 15:30:19.559            24.388                Anadyr1           762.125
       238   02 Jun 2027 16:26:53.574   02 Jun 2027 16:27:52.507            58.933               CapeTown          1841.656
       239   02 Jun 2027 16:28:44.895   02 Jun 2027 16:30:07.085            82.190               CapeTown          2568.438
       240   02 Jun 2027 16:51:43.796   02 Jun 2027 16:51:53.361             9.565                 Moscow           298.906
       241   02 Jun 2027 16:53:23.782   02 Jun 2027 16:54:20.127            56.345              Murmansk1          1760.781
       242   02 Jun 2027 16:54:54.561   02 Jun 2027 16:57:06.609           132.048              Murmansk2          4126.500
       243   02 Jun 2027 17:04:50.809   02 Jun 2027 17:05:17.184            26.375                Anadyr1           824.219
       244   02 Jun 2027 17:05:58.980   02 Jun 2027 17:08:11.551           132.571                Anadyr1          4142.844
       245   02 Jun 2027 17:08:34.727   02 Jun 2027 17:08:55.761            21.034                Anadyr2           657.313
       246   02 Jun 2027 17:09:36.044   02 Jun 2027 17:10:01.257            25.213                Anadyr1           787.906
       247   02 Jun 2027 17:10:08.973   02 Jun 2027 17:10:35.506            26.533                Anadyr1           829.156
       248   02 Jun 2027 18:28:10.384   02 Jun 2027 18:31:58.005           227.621              Murmansk2          7113.156
       249   02 Jun 2027 18:40:27.388   02 Jun 2027 18:40:40.551            13.163                Anadyr2           411.344
       250   02 Jun 2027 18:40:58.281   02 Jun 2027 18:41:04.955             6.674                Anadyr1           208.563
       251   02 Jun 2027 18:41:07.794   02 Jun 2027 18:41:16.596             8.802                Anadyr2           275.063
       252   02 Jun 2027 18:41:46.318   02 Jun 2027 18:42:17.179            30.861               Magadan1           964.406
       253   02 Jun 2027 18:43:02.541   02 Jun 2027 18:43:18.700            16.159               Magadan1           504.969
       254   02 Jun 2027 18:43:18.700   02 Jun 2027 18:43:28.743            10.043               Magadan2           313.844
       255   02 Jun 2027 18:43:39.369   02 Jun 2027 18:44:04.641            25.272               Magadan1           789.750
       256   02 Jun 2027 18:44:27.464   02 Jun 2027 18:44:47.422            19.958               Magadan1           623.688
       257   02 Jun 2027 18:45:24.397   02 Jun 2027 18:45:35.902            11.505                Anadyr2           359.531
       258   02 Jun 2027 18:45:38.238   02 Jun 2027 18:46:09.301            31.063                Anadyr1           970.719
       259   02 Jun 2027 18:47:09.625   02 Jun 2027 18:47:22.008            12.383                Anadyr1           386.969
       260   02 Jun 2027 18:47:44.256   02 Jun 2027 18:48:30.242            45.986               Magadan1          1437.062
       261   02 Jun 2027 20:10:45.778   02 Jun 2027 20:12:52.242           126.464                Anadyr1          3952.000
       262   02 Jun 2027 20:13:00.066   02 Jun 2027 20:14:19.103            79.037                Anadyr2          2469.906
       263   02 Jun 2027 20:14:20.054   02 Jun 2027 20:14:40.884            20.830                Norilsk           650.938
       264   02 Jun 2027 20:15:48.533   02 Jun 2027 20:16:21.202            32.669               Magadan2          1020.906
       265   02 Jun 2027 20:16:26.463   02 Jun 2027 20:16:36.836            10.373                Norilsk           324.156
       266   02 Jun 2027 20:17:39.526   02 Jun 2027 20:17:52.504            12.978               Magadan1           405.562
       267   02 Jun 2027 20:18:17.072   02 Jun 2027 20:18:43.009            25.937                Anadyr1           810.531
       268   02 Jun 2027 20:19:05.714   02 Jun 2027 20:19:34.420            28.706               Magadan2           897.063
       269   02 Jun 2027 20:20:27.071   02 Jun 2027 20:20:56.068            28.997               Magadan1           906.156
       270   02 Jun 2027 20:21:29.356   02 Jun 2027 20:22:01.483            32.127                Anadyr1          1003.969
       271   02 Jun 2027 20:23:26.473   02 Jun 2027 20:24:01.097            34.624               Magadan2          1082.000
       272   02 Jun 2027 20:24:01.097   02 Jun 2027 20:24:39.556            38.459               Magadan1          1201.844
       273   02 Jun 2027 21:08:04.463   02 Jun 2027 21:08:44.246            39.783            RioGallegos          1243.219
       274   02 Jun 2027 21:09:14.842   02 Jun 2027 21:09:47.688            32.846            RioGallegos          1026.438
       275   02 Jun 2027 21:11:48.048   02 Jun 2027 21:12:18.660            30.612            RioGallegos           956.625
       276   02 Jun 2027 21:13:45.870   02 Jun 2027 21:13:59.061            13.191            RioGallegos           412.219
       277   02 Jun 2027 21:14:37.876   02 Jun 2027 21:15:15.344            37.468            RioGallegos          1170.875
       278   02 Jun 2027 21:46:25.765   02 Jun 2027 21:46:54.754            28.989                Anadyr2           905.906
       279   02 Jun 2027 21:48:36.617   02 Jun 2027 21:49:04.155            27.538                Norilsk           860.563
       280   02 Jun 2027 21:49:25.515   02 Jun 2027 21:49:37.349            11.834               Magadan2           369.812
       281   02 Jun 2027 21:50:00.748   02 Jun 2027 21:50:06.932             6.184                Anadyr2           193.250
       282   02 Jun 2027 21:50:09.597   02 Jun 2027 21:50:11.392             1.795                Anadyr2            56.094
       283   02 Jun 2027 21:50:14.925   02 Jun 2027 21:50:32.747            17.822                Norilsk           556.938
       284   02 Jun 2027 21:50:48.431   02 Jun 2027 21:51:05.260            16.829               Magadan2           525.906
       285   02 Jun 2027 21:51:32.919   02 Jun 2027 21:52:08.314            35.395               Magadan2          1106.094
       286   02 Jun 2027 21:53:16.737   02 Jun 2027 21:53:28.187            11.450               Magadan2           357.812
       287   02 Jun 2027 21:53:42.506   02 Jun 2027 21:53:45.860             3.354               Magadan1           104.812
       288   02 Jun 2027 21:54:10.766   02 Jun 2027 21:54:52.213            41.447               Magadan2          1295.219
       289   02 Jun 2027 21:55:35.701   02 Jun 2027 21:56:13.081            37.380                Norilsk          1168.125
       290   02 Jun 2027 21:56:20.088   02 Jun 2027 21:58:10.546           110.458                Novosib          3451.813
       291   02 Jun 2027 22:03:53.955   02 Jun 2027 22:04:16.656            22.701                Irkutsk           709.406
       292   02 Jun 2027 22:13:09.864   02 Jun 2027 22:13:12.765             2.901                Sumatra            90.656
       293   02 Jun 2027 22:13:17.439   02 Jun 2027 22:14:02.046            44.607                Sumatra          1393.969
       294   02 Jun 2027 22:14:08.462   02 Jun 2027 22:14:29.386            20.924                Sumatra           653.875
       295   02 Jun 2027 22:16:54.711   02 Jun 2027 22:18:47.256           112.545                Sumatra          3517.031
       296   02 Jun 2027 23:22:50.658   02 Jun 2027 23:22:54.135             3.477                Anadyr2           108.656
       297   02 Jun 2027 23:23:10.802   02 Jun 2027 23:23:37.119            26.317                Anadyr2           822.406
       298   02 Jun 2027 23:24:32.145   02 Jun 2027 23:25:48.528            76.383                Norilsk          2386.969
       299   02 Jun 2027 23:25:54.981   02 Jun 2027 23:26:32.274            37.293                Norilsk          1165.406
       300   02 Jun 2027 23:28:37.749   02 Jun 2027 23:29:36.514            58.765                Novosib          1836.406
       301   02 Jun 2027 23:31:10.305   02 Jun 2027 23:31:30.268            19.963                Novosib           623.844
       302   02 Jun 2027 23:32:20.896   02 Jun 2027 23:32:26.350             5.454                Norilsk           170.438
       303   02 Jun 2027 23:32:54.843   02 Jun 2027 23:33:08.714            13.871                Novosib           433.469
       304   02 Jun 2027 23:33:31.506   02 Jun 2027 23:33:53.063            21.557                Norilsk           673.656
       305   02 Jun 2027 23:34:30.266   02 Jun 2027 23:34:32.986             2.720                Irkutsk            85.000
       306   02 Jun 2027 23:34:48.369   02 Jun 2027 23:35:06.140            17.771                Novosib           555.344
       307   02 Jun 2027 23:35:50.972   02 Jun 2027 23:37:23.772            92.800                Novosib          2900.000
       308   02 Jun 2027 23:42:01.643   02 Jun 2027 23:42:41.080            39.437                  Delhi          1232.406
       309   02 Jun 2027 23:44:06.770   02 Jun 2027 23:45:06.306            59.536                  Delhi          1860.500
       310   03 Jun 2027 00:26:24.407   03 Jun 2027 00:27:33.096            68.689            RioGallegos          2146.531
       311   03 Jun 2027 00:56:49.831   03 Jun 2027 00:57:14.485            24.654                Anadyr2           770.437
       312   03 Jun 2027 00:57:43.183   03 Jun 2027 00:57:55.971            12.788                Anadyr2           399.625
       313   03 Jun 2027 00:59:35.928   03 Jun 2027 00:59:59.772            23.844                Anadyr2           745.125
       314   03 Jun 2027 01:00:23.549   03 Jun 2027 01:00:30.614             7.065                Anadyr2           220.781
       315   03 Jun 2027 01:00:32.089   03 Jun 2027 01:00:54.029            21.940                Norilsk           685.625
       316   03 Jun 2027 01:01:18.600   03 Jun 2027 01:01:23.338             4.738                Anadyr2           148.062
       317   03 Jun 2027 01:01:28.660   03 Jun 2027 01:02:24.315            55.655               Magadan2          1739.219
       318   03 Jun 2027 01:02:24.315   03 Jun 2027 01:03:10.255            45.940               Magadan1          1435.625
       319   03 Jun 2027 01:03:16.657   03 Jun 2027 01:04:32.221            75.564              Murmansk1          2361.375
       320   03 Jun 2027 01:07:57.450   03 Jun 2027 01:08:09.817            12.367                Novosib           386.469
       321   03 Jun 2027 01:09:00.521   03 Jun 2027 01:09:08.438             7.917                Irkutsk           247.406
       322   03 Jun 2027 01:09:35.698   03 Jun 2027 01:10:41.190            65.492                Novosib          2046.625
       323   03 Jun 2027 01:13:31.672   03 Jun 2027 01:13:53.782            22.110                Irkutsk           690.938
       324   03 Jun 2027 01:15:59.018   03 Jun 2027 01:16:11.352            12.334                Novosib           385.438
       325   03 Jun 2027 01:19:36.621   03 Jun 2027 01:20:37.612            60.991                  Delhi          1905.969
       326   03 Jun 2027 01:22:26.513   03 Jun 2027 01:23:16.669            50.156                  Delhi          1567.375
       327   03 Jun 2027 02:28:18.147   03 Jun 2027 02:30:01.244           103.097                Anadyr1          3221.781
       328   03 Jun 2027 02:30:21.245   03 Jun 2027 02:31:18.870            57.625                Anadyr1          1800.781
       329   03 Jun 2027 02:33:39.879   03 Jun 2027 02:34:08.966            29.087               Magadan2           908.969
       330   03 Jun 2027 02:34:38.487   03 Jun 2027 02:35:21.646            43.159               Magadan2          1348.719
       331   03 Jun 2027 02:37:46.835   03 Jun 2027 02:38:04.196            17.361                Norilsk           542.531
       332   03 Jun 2027 02:38:39.684   03 Jun 2027 02:39:06.230            26.546              Murmansk2           829.562
       333   03 Jun 2027 02:40:37.933   03 Jun 2027 02:41:23.826            45.893                Novosib          1434.156
       334   03 Jun 2027 02:43:54.964   03 Jun 2027 02:44:00.282             5.318                Novosib           166.187
       335   03 Jun 2027 02:44:25.555   03 Jun 2027 02:44:39.618            14.063                Novosib           439.469
       336   03 Jun 2027 02:45:09.560   03 Jun 2027 02:46:19.732            70.172                Novosib          2192.875
       337   03 Jun 2027 02:51:24.465   03 Jun 2027 02:51:37.622            13.157                 Moscow           411.156
       338   03 Jun 2027 02:52:50.396   03 Jun 2027 02:53:13.449            23.053                 Moscow           720.406
       339   03 Jun 2027 03:13:25.239   03 Jun 2027 03:13:55.955            30.716               CapeTown           959.875
       340   03 Jun 2027 04:22:15.997   03 Jun 2027 04:22:58.609            42.612              Murmansk2          1331.625
       341   03 Jun 2027 04:23:11.695   03 Jun 2027 04:25:13.755           122.060                 Moscow          3814.375
       342   03 Jun 2027 04:25:29.079   03 Jun 2027 04:25:34.000             4.921              Murmansk1           153.781
       343   03 Jun 2027 04:25:41.459   03 Jun 2027 04:26:15.695            34.236                 Moscow          1069.875
       344   03 Jun 2027 04:26:30.751   03 Jun 2027 04:26:54.187            23.436              Murmansk2           732.375
       345   03 Jun 2027 04:29:31.100   03 Jun 2027 04:29:38.817             7.717                 Moscow           241.156
       346   03 Jun 2027 05:46:23.604   03 Jun 2027 05:49:17.359           173.755                Anadyr1          5429.844
       347   03 Jun 2027 06:33:30.918   03 Jun 2027 06:34:20.742            49.824            RioGallegos          1557.000
       348   03 Jun 2027 07:22:54.592   03 Jun 2027 07:23:57.909            63.317                Anadyr1          1978.656
       349   03 Jun 2027 07:23:57.909   03 Jun 2027 07:25:37.207            99.298                Anadyr2          3103.063
       350   03 Jun 2027 08:55:58.517   03 Jun 2027 08:56:09.628            11.111               Magadan1           347.219
       351   03 Jun 2027 08:57:50.023   03 Jun 2027 08:58:21.734            31.711               Magadan2           990.969
       352   03 Jun 2027 08:58:34.262   03 Jun 2027 09:02:11.797           217.535               Magadan1          6797.969
       353   03 Jun 2027 09:02:25.467   03 Jun 2027 09:04:33.185           127.718              Murmansk1          3991.188
       354   03 Jun 2027 09:37:22.844   03 Jun 2027 09:38:16.191            53.347            RioGallegos          1667.094
       355   03 Jun 2027 09:39:50.440   03 Jun 2027 09:40:16.138            25.698            RioGallegos           803.062
       356   03 Jun 2027 10:12:39.143   03 Jun 2027 10:13:22.701            43.558                Sumatra          1361.188
       357   03 Jun 2027 10:16:33.532   03 Jun 2027 10:16:54.475            20.943                Sumatra           654.469
       358   03 Jun 2027 10:26:13.033   03 Jun 2027 10:26:29.824            16.791                  Delhi           524.719
       359   03 Jun 2027 10:29:21.249   03 Jun 2027 10:29:41.760            20.511                  Delhi           640.969
       360   03 Jun 2027 10:33:01.138   03 Jun 2027 10:33:06.720             5.582                Irkutsk           174.437
       361   03 Jun 2027 10:33:22.025   03 Jun 2027 10:33:25.093             3.068                Norilsk            95.875
       362   03 Jun 2027 10:33:55.983   03 Jun 2027 10:34:45.617            49.634                Novosib          1551.063
       363   03 Jun 2027 10:34:57.310   03 Jun 2027 10:36:14.396            77.086                Irkutsk          2408.937
       364   03 Jun 2027 10:36:17.580   03 Jun 2027 10:37:11.050            53.470              Murmansk1          1670.938
       365   03 Jun 2027 10:37:22.497   03 Jun 2027 10:38:10.194            47.697                Novosib          1490.531
       366   03 Jun 2027 10:38:17.920   03 Jun 2027 10:39:10.560            52.640                Novosib          1645.000
       367   03 Jun 2027 10:39:14.010   03 Jun 2027 10:40:07.368            53.358              Murmansk1          1667.437
       368   03 Jun 2027 11:15:30.540   03 Jun 2027 11:15:56.797            26.257            RioGallegos           820.531
       369   03 Jun 2027 11:16:57.474   03 Jun 2027 11:17:29.552            32.078            RioGallegos          1002.438
       370   03 Jun 2027 11:19:47.889   03 Jun 2027 11:20:30.801            42.912            RioGallegos          1341.000
       371   03 Jun 2027 11:49:45.175   03 Jun 2027 11:49:51.546             6.371                Sumatra           199.094
       372   03 Jun 2027 11:52:42.543   03 Jun 2027 11:53:21.917            39.374                Sumatra          1230.437
       373   03 Jun 2027 12:04:55.521   03 Jun 2027 12:05:22.789            27.268                Novosib           852.125
       374   03 Jun 2027 12:05:53.612   03 Jun 2027 12:06:46.049            52.437                Irkutsk          1638.656
       375   03 Jun 2027 12:09:11.043   03 Jun 2027 12:10:03.896            52.853                Irkutsk          1651.656
       376   03 Jun 2027 12:13:53.153   03 Jun 2027 12:14:11.251            18.098                Norilsk           565.562
       377   03 Jun 2027 12:15:36.645   03 Jun 2027 12:15:43.517             6.872              Murmansk1           214.750
       378   03 Jun 2027 12:16:07.262   03 Jun 2027 12:16:36.778            29.516                Norilsk           922.375
       379   03 Jun 2027 12:18:28.951   03 Jun 2027 12:19:10.463            41.512              Murmansk1          1297.250
       380   03 Jun 2027 13:35:15.111   03 Jun 2027 13:37:25.240           130.129                  Delhi          4066.531
       381   03 Jun 2027 13:42:06.889   03 Jun 2027 13:43:06.903            60.014                 Moscow          1875.438
       382   03 Jun 2027 13:43:46.672   03 Jun 2027 13:45:19.870            93.198                Novosib          2912.438
       383   03 Jun 2027 13:45:36.842   03 Jun 2027 13:46:06.730            29.888              Murmansk1           934.000
       384   03 Jun 2027 13:47:26.393   03 Jun 2027 13:48:12.935            46.542                Novosib          1454.438
       385   03 Jun 2027 13:53:09.705   03 Jun 2027 13:53:58.897            49.192                Norilsk          1537.250
       386   03 Jun 2027 14:57:19.340   03 Jun 2027 14:59:23.205           123.865               CapeTown          3870.781
       387   03 Jun 2027 15:02:25.944   03 Jun 2027 15:02:52.463            26.519               CapeTown           828.719
       388   03 Jun 2027 15:03:32.536   03 Jun 2027 15:03:34.181             1.645               CapeTown            51.406
       389   03 Jun 2027 15:17:22.566   03 Jun 2027 15:17:54.400            31.834                 Moscow           994.812
       390   03 Jun 2027 15:18:28.256   03 Jun 2027 15:18:55.505            27.249                 Moscow           851.531
       391   03 Jun 2027 15:20:49.016   03 Jun 2027 15:20:57.811             8.795              Murmansk1           274.844
       392   03 Jun 2027 15:21:57.768   03 Jun 2027 15:23:38.973           101.205              Murmansk2          3162.656
       393   03 Jun 2027 15:31:16.908   03 Jun 2027 15:31:33.544            16.636              Murmansk1           519.875
       394   03 Jun 2027 15:35:50.030   03 Jun 2027 15:37:04.376            74.346                Anadyr2          2323.313
       395   03 Jun 2027 15:37:08.655   03 Jun 2027 15:37:39.256            30.601                Anadyr1           956.281
       396   03 Jun 2027 15:38:24.396   03 Jun 2027 15:38:42.753            18.357                Anadyr2           573.656
       397   03 Jun 2027 15:42:49.564   03 Jun 2027 15:42:50.957             1.393                Anadyr1            43.531
       398   03 Jun 2027 16:33:00.694   03 Jun 2027 16:33:03.712             3.018               CapeTown            94.313
       399   03 Jun 2027 16:33:05.911   03 Jun 2027 16:33:32.112            26.201               CapeTown           818.781
       400   03 Jun 2027 16:35:57.448   03 Jun 2027 16:36:18.429            20.981               CapeTown           655.656
       401   03 Jun 2027 16:37:11.529   03 Jun 2027 16:37:13.721             2.192               CapeTown            68.500
       402   03 Jun 2027 16:38:19.509   03 Jun 2027 16:39:10.206            50.697               CapeTown          1584.281
       403   03 Jun 2027 16:58:17.393   03 Jun 2027 17:00:06.115           108.722                 Moscow          3397.563
       404   03 Jun 2027 17:02:22.792   03 Jun 2027 17:03:12.948            50.156              Murmansk2          1567.375
       405   03 Jun 2027 17:11:00.273   03 Jun 2027 17:12:03.578            63.305                Anadyr2          1978.281
       406   03 Jun 2027 17:12:23.955   03 Jun 2027 17:12:31.936             7.981                Anadyr1           249.406
       407   03 Jun 2027 17:12:31.936   03 Jun 2027 17:12:52.859            20.923                Anadyr2           653.844
       408   03 Jun 2027 17:16:00.929   03 Jun 2027 17:17:49.508           108.579               Magadan1          3393.094
       409   03 Jun 2027 18:41:46.145   03 Jun 2027 18:43:07.225            81.080              Murmansk1          2533.750
       410   03 Jun 2027 18:46:51.954   03 Jun 2027 18:50:12.806           200.852                Anadyr1          6276.625
       411   03 Jun 2027 18:50:18.106   03 Jun 2027 18:51:57.885            99.779               Magadan1          3118.094
       412   03 Jun 2027 18:54:22.765   03 Jun 2027 18:55:36.660            73.895               Magadan1          2309.219
       413   03 Jun 2027 20:22:46.610   03 Jun 2027 20:26:58.555           251.945                Anadyr1          7873.281
       414   03 Jun 2027 20:27:30.341   03 Jun 2027 20:28:48.883            78.542               Magadan1          2454.437
       415   03 Jun 2027 20:29:14.467   03 Jun 2027 20:29:26.674            12.207               Magadan1           381.469
       416   03 Jun 2027 20:32:03.017   03 Jun 2027 20:32:37.845            34.828               Magadan1          1088.375
       417   03 Jun 2027 21:17:13.051   03 Jun 2027 21:19:55.692           162.641            RioGallegos          5082.531
       418   03 Jun 2027 21:20:37.839   03 Jun 2027 21:20:49.019            11.180            RioGallegos           349.375
       419   03 Jun 2027 21:58:22.739   03 Jun 2027 21:59:06.694            43.955                Anadyr1          1373.594
       420   03 Jun 2027 22:00:37.022   03 Jun 2027 22:00:44.137             7.115                Norilsk           222.344
       421   03 Jun 2027 22:01:06.023   03 Jun 2027 22:02:49.969           103.946                Norilsk          3248.313
       422   03 Jun 2027 22:03:08.517   03 Jun 2027 22:03:20.438            11.921                Norilsk           372.531
       423   03 Jun 2027 22:03:43.106   03 Jun 2027 22:04:13.985            30.879                Anadyr2           964.969
       424   03 Jun 2027 22:04:36.900   03 Jun 2027 22:04:57.754            20.854               Magadan1           651.688
       425   03 Jun 2027 22:05:04.312   03 Jun 2027 22:06:42.540            98.228                Irkutsk          3069.625
       426   03 Jun 2027 22:07:25.448   03 Jun 2027 22:07:40.286            14.838                Irkutsk           463.688
       427   03 Jun 2027 22:07:59.275   03 Jun 2027 22:08:21.654            22.379                Novosib           699.344
       428   03 Jun 2027 22:08:28.731   03 Jun 2027 22:08:34.343             5.612                Novosib           175.375
       429   03 Jun 2027 22:18:32.588   03 Jun 2027 22:21:16.019           163.431                Sumatra          5107.219
       430   03 Jun 2027 23:33:06.078   03 Jun 2027 23:34:49.440           103.362                Anadyr2          3230.062
       431   03 Jun 2027 23:36:34.268   03 Jun 2027 23:38:34.420           120.152                Norilsk          3754.750
       432   03 Jun 2027 23:38:44.085   03 Jun 2027 23:38:53.236             9.151               Magadan2           285.969
       433   03 Jun 2027 23:40:26.546   03 Jun 2027 23:41:26.320            59.774                Irkutsk          1867.937
       434   03 Jun 2027 23:41:42.891   03 Jun 2027 23:42:20.775            37.884                Novosib          1183.875
       435   03 Jun 2027 23:42:59.839   03 Jun 2027 23:43:08.777             8.938                Novosib           279.312
       436   03 Jun 2027 23:44:10.682   03 Jun 2027 23:45:06.153            55.471                Novosib          1733.469
       437   03 Jun 2027 23:48:20.534   03 Jun 2027 23:48:55.265            34.731                  Delhi          1085.344
       438   03 Jun 2027 23:48:58.736   03 Jun 2027 23:49:45.171            46.435                  Delhi          1451.094
       439   03 Jun 2027 23:55:42.300   03 Jun 2027 23:57:43.467           121.167                  Delhi          3786.469
       440   04 Jun 2027 01:08:04.703   04 Jun 2027 01:08:42.180            37.477                Anadyr2          1171.156
       441   04 Jun 2027 01:09:16.021   04 Jun 2027 01:09:36.669            20.648                Anadyr2           645.250
       442   04 Jun 2027 01:12:15.125   04 Jun 2027 01:12:23.307             8.182                Anadyr1           255.688
       443   04 Jun 2027 01:12:33.641   04 Jun 2027 01:12:50.765            17.124                Norilsk           535.125
       444   04 Jun 2027 01:13:02.646   04 Jun 2027 01:15:18.199           135.553               Magadan2          4236.031
       445   04 Jun 2027 01:16:21.424   04 Jun 2027 01:17:30.484            69.060                Novosib          2158.125
       446   04 Jun 2027 01:17:38.497   04 Jun 2027 01:18:19.123            40.626                Novosib          1269.562
       447   04 Jun 2027 01:19:43.657   04 Jun 2027 01:20:09.726            26.069                 Moscow           814.656
       448   04 Jun 2027 01:22:12.952   04 Jun 2027 01:22:22.741             9.789                 Moscow           305.906
       449   04 Jun 2027 01:26:15.705   04 Jun 2027 01:28:08.172           112.467                  Delhi          3514.594
       450   04 Jun 2027 02:40:03.229   04 Jun 2027 02:40:44.297            41.068                Anadyr2          1283.375
       451   04 Jun 2027 02:41:13.156   04 Jun 2027 02:42:22.573            69.417                Anadyr1          2169.281
       452   04 Jun 2027 02:43:10.470   04 Jun 2027 02:43:18.133             7.663                Anadyr1           239.469
       453   04 Jun 2027 02:45:07.692   04 Jun 2027 02:46:25.855            78.163               Magadan2          2442.594
       454   04 Jun 2027 02:48:21.133   04 Jun 2027 02:48:51.739            30.606                Norilsk           956.437
       455   04 Jun 2027 02:50:41.218   04 Jun 2027 02:51:09.088            27.870              Murmansk1           870.938
       456   04 Jun 2027 02:51:49.623   04 Jun 2027 02:52:11.429            21.806              Murmansk2           681.437
       457   04 Jun 2027 02:52:44.154   04 Jun 2027 02:52:47.603             3.449              Murmansk2           107.781
       458   04 Jun 2027 02:52:57.582   04 Jun 2027 02:54:31.409            93.827                Novosib          2932.094
       459   04 Jun 2027 03:00:02.282   04 Jun 2027 03:00:19.506            17.224                Novosib           538.250
       460   04 Jun 2027 03:00:44.340   04 Jun 2027 03:01:30.914            46.574              Murmansk2          1455.437
       461   04 Jun 2027 03:01:33.350   04 Jun 2027 03:02:07.685            34.335                 Moscow          1072.969
       462   04 Jun 2027 03:02:11.750   04 Jun 2027 03:02:16.174             4.424              Murmansk1           138.250
       463   04 Jun 2027 03:02:22.639   04 Jun 2027 03:02:38.315            15.676              Murmansk1           489.875
       464   04 Jun 2027 03:03:33.140   04 Jun 2027 03:05:29.961           116.821                 Moscow          3650.656
       465   04 Jun 2027 03:18:21.263   04 Jun 2027 03:24:46.966           385.703               CapeTown         12053.219
       466   04 Jun 2027 04:14:36.716   04 Jun 2027 04:15:55.443            78.727                Anadyr2          2460.219
       467   04 Jun 2027 04:15:55.443   04 Jun 2027 04:16:15.427            19.984                Anadyr1           624.500
       468   04 Jun 2027 04:18:00.030   04 Jun 2027 04:18:27.158            27.128               Magadan1           847.750
       469   04 Jun 2027 04:21:58.100   04 Jun 2027 04:24:09.684           131.584                Anadyr1          4112.000
       470   04 Jun 2027 04:24:12.019   04 Jun 2027 04:25:30.922            78.903                Anadyr2          2465.719
       471   04 Jun 2027 04:33:13.515   04 Jun 2027 04:33:37.722            24.207                Norilsk           756.469
       472   04 Jun 2027 04:33:45.931   04 Jun 2027 04:34:34.117            48.186              Murmansk1          1505.812
       473   04 Jun 2027 04:35:42.834   04 Jun 2027 04:36:24.792            41.958              Murmansk2          1311.187
       474   04 Jun 2027 04:36:24.792   04 Jun 2027 04:36:34.507             9.715              Murmansk1           303.594
       475   04 Jun 2027 05:56:36.558   04 Jun 2027 05:57:31.797            55.239                Anadyr2          1726.219
       476   04 Jun 2027 05:57:49.251   04 Jun 2027 06:00:54.981           185.730               Magadan1          5804.062
       477   04 Jun 2027 06:01:38.724   04 Jun 2027 06:01:56.458            17.734               Magadan2           554.188
       478   04 Jun 2027 07:33:51.874   04 Jun 2027 07:35:08.974            77.100                Irkutsk          2409.375
       479   04 Jun 2027 07:35:15.958   04 Jun 2027 07:36:09.113            53.155               Magadan2          1661.094
       480   04 Jun 2027 07:36:16.065   04 Jun 2027 07:37:09.724            53.659                Norilsk          1676.844
       481   04 Jun 2027 07:37:22.686   04 Jun 2027 07:38:58.017            95.331               Magadan2          2979.094
       482   04 Jun 2027 07:45:23.842   04 Jun 2027 07:45:28.090             4.248              Murmansk2           132.750
