uniorb/output/strategy_1/Drop/Drop_KinoSat_110801.txt

KinoSat_110801
-------------------------
    Access    *     Start Time (UTCG)     *     Stop Time (UTCG)  *   Duration (s)        *       Station  *  Data (Mbytes)
         1   01 Jun 2027 04:15:45.680   01 Jun 2027 04:17:48.430           122.750               Magadan2          3835.938
         2   01 Jun 2027 04:17:50.347   01 Jun 2027 04:18:14.133            23.786                Norilsk           743.312
         3   01 Jun 2027 04:18:32.801   01 Jun 2027 04:20:29.085           116.284                Anadyr1          3633.875
         4   01 Jun 2027 04:58:41.239   01 Jun 2027 05:00:56.571           135.332            RioGallegos          4229.125
         5   01 Jun 2027 05:49:30.861   01 Jun 2027 05:49:39.095             8.234               Magadan2           257.312
         6   01 Jun 2027 05:49:46.870   01 Jun 2027 05:51:00.498            73.628                Irkutsk          2300.875
         7   01 Jun 2027 05:51:26.831   01 Jun 2027 05:55:33.385           246.554                Novosib          7704.812
         8   01 Jun 2027 05:55:44.534   01 Jun 2027 05:56:49.776            65.242                Norilsk          2038.812
         9   01 Jun 2027 05:57:00.319   01 Jun 2027 05:57:46.758            46.439              Murmansk1          1451.219
        10   01 Jun 2027 05:57:49.865   01 Jun 2027 05:58:17.314            27.449                Norilsk           857.781
        11   01 Jun 2027 05:58:39.832   01 Jun 2027 05:58:51.345            11.513                Norilsk           359.781
        12   01 Jun 2027 05:59:57.933   01 Jun 2027 06:00:38.983            41.050              Murmansk2          1282.812
        13   01 Jun 2027 06:31:06.106   01 Jun 2027 06:32:50.670           104.564            RioGallegos          3267.625
        14   01 Jun 2027 07:08:26.539   01 Jun 2027 07:09:00.157            33.618                Sumatra          1050.562
        15   01 Jun 2027 07:11:53.274   01 Jun 2027 07:12:12.686            19.412                Sumatra           606.625
        16   01 Jun 2027 07:25:16.666   01 Jun 2027 07:25:31.438            14.772                Irkutsk           461.625
        17   01 Jun 2027 07:27:05.843   01 Jun 2027 07:29:30.413           144.570               Magadan1          4517.813
        18   01 Jun 2027 07:29:32.872   01 Jun 2027 07:29:49.996            17.124               Magadan1           535.125
        19   01 Jun 2027 07:30:08.311   01 Jun 2027 07:31:25.452            77.141                Novosib          2410.656
        20   01 Jun 2027 07:31:42.162   01 Jun 2027 07:33:19.887            97.725                Novosib          3053.906
        21   01 Jun 2027 07:35:30.114   01 Jun 2027 07:35:47.305            17.191              Murmansk1           537.219
        22   01 Jun 2027 07:36:44.941   01 Jun 2027 07:37:06.188            21.247              Murmansk1           663.969
        23   01 Jun 2027 07:38:10.105   01 Jun 2027 07:38:14.637             4.532              Murmansk1           141.625
        24   01 Jun 2027 07:38:38.429   01 Jun 2027 07:39:02.878            24.449              Murmansk1           764.031
        25   01 Jun 2027 08:07:04.536   01 Jun 2027 08:08:08.528            63.992            RioGallegos          1999.750
        26   01 Jun 2027 08:09:45.091   01 Jun 2027 08:10:31.566            46.475            RioGallegos          1452.344
        27   01 Jun 2027 08:11:25.620   01 Jun 2027 08:12:13.705            48.085            RioGallegos          1502.656
        28   01 Jun 2027 08:41:33.868   01 Jun 2027 08:42:55.099            81.231                Sumatra          2538.469
        29   01 Jun 2027 08:45:35.987   01 Jun 2027 08:46:30.935            54.948                Sumatra          1717.125
        30   01 Jun 2027 08:51:02.603   01 Jun 2027 08:53:36.355           153.752                  Delhi          4804.750
        31   01 Jun 2027 09:03:42.754   01 Jun 2027 09:05:03.913            81.159                Irkutsk          2536.219
        32   01 Jun 2027 09:05:12.401   01 Jun 2027 09:06:06.760            54.359                 Moscow          1698.719
        33   01 Jun 2027 09:06:21.425   01 Jun 2027 09:09:07.873           166.448                 Moscow          5201.500
        34   01 Jun 2027 09:09:20.567   01 Jun 2027 09:09:41.228            20.661                 Moscow           645.656
        35   01 Jun 2027 10:26:03.965   01 Jun 2027 10:27:24.474            80.509                  Delhi          2515.906
        36   01 Jun 2027 10:40:33.835   01 Jun 2027 10:43:46.972           193.137              Murmansk1          6035.531
        37   01 Jun 2027 10:43:46.972   01 Jun 2027 10:44:17.025            30.053              Murmansk2           939.156
        38   01 Jun 2027 12:10:07.070   01 Jun 2027 12:12:03.052           115.982                 Moscow          3624.438
        39   01 Jun 2027 12:13:36.911   01 Jun 2027 12:16:36.736           179.825              Murmansk2          5619.531
        40   01 Jun 2027 13:24:18.980   01 Jun 2027 13:27:11.206           172.226               CapeTown          5382.063
        41   01 Jun 2027 13:29:35.842   01 Jun 2027 13:29:48.434            12.592               CapeTown           393.500
        42   01 Jun 2027 13:50:58.313   01 Jun 2027 13:52:24.618            86.305              Murmansk1          2697.031
        43   01 Jun 2027 13:55:53.853   01 Jun 2027 13:56:12.409            18.556              Murmansk1           579.875
        44   01 Jun 2027 14:04:32.094   01 Jun 2027 14:09:01.172           269.078                Anadyr2          8408.688
        45   01 Jun 2027 15:30:44.719   01 Jun 2027 15:31:11.314            26.595              Murmansk1           831.094
        46   01 Jun 2027 15:31:23.458   01 Jun 2027 15:32:10.818            47.360              Murmansk2          1480.000
        47   01 Jun 2027 15:40:10.415   01 Jun 2027 15:42:20.674           130.259                Anadyr1          4070.594
        48   01 Jun 2027 15:43:17.917   01 Jun 2027 15:46:59.760           221.843               Magadan2          6932.594
        49   01 Jun 2027 15:48:00.347   01 Jun 2027 15:49:27.841            87.494               Magadan1          2734.187
        50   01 Jun 2027 17:17:01.853   01 Jun 2027 17:17:10.462             8.609                Anadyr1           269.031
        51   01 Jun 2027 17:17:25.260   01 Jun 2027 17:17:58.896            33.636                Anadyr1          1051.125
        52   01 Jun 2027 17:19:12.420   01 Jun 2027 17:20:13.500            61.080               Magadan1          1908.750
        53   01 Jun 2027 17:24:28.083   01 Jun 2027 17:24:35.132             7.049               Magadan1           220.281
        54   01 Jun 2027 17:25:32.284   01 Jun 2027 17:26:08.176            35.892               Magadan1          1121.625
        55   01 Jun 2027 18:12:19.357   01 Jun 2027 18:15:01.489           162.132            RioGallegos          5066.625
        56   01 Jun 2027 18:17:40.940   01 Jun 2027 18:17:54.743            13.803            RioGallegos           431.344
        57   01 Jun 2027 18:52:38.092   01 Jun 2027 18:53:31.827            53.735                Anadyr1          1679.219
        58   01 Jun 2027 18:54:05.848   01 Jun 2027 18:56:50.378           164.530                Norilsk          5141.562
        59   01 Jun 2027 18:59:00.617   01 Jun 2027 19:00:26.355            85.738                Irkutsk          2679.312
        60   01 Jun 2027 19:00:36.821   01 Jun 2027 19:02:27.650           110.829                Irkutsk          3463.406
        61   01 Jun 2027 19:04:19.209   01 Jun 2027 19:05:35.269            76.060                Irkutsk          2376.875
        62   01 Jun 2027 19:13:56.731   01 Jun 2027 19:16:22.619           145.888                Sumatra          4559.000
        63   01 Jun 2027 19:20:05.085   01 Jun 2027 19:20:48.388            43.303                Sumatra          1353.219
        64   01 Jun 2027 20:33:44.950   01 Jun 2027 20:35:35.856           110.906                Irkutsk          3465.812
        65   01 Jun 2027 20:37:12.735   01 Jun 2027 20:38:10.075            57.340                Novosib          1791.875
        66   01 Jun 2027 20:44:25.443   01 Jun 2027 20:46:17.048           111.605                  Delhi          3487.656
        67   01 Jun 2027 20:49:08.868   01 Jun 2027 20:49:42.279            33.411                  Delhi          1044.094
        68   01 Jun 2027 22:07:40.226   01 Jun 2027 22:07:56.194            15.968               Magadan2           499.000
        69   01 Jun 2027 22:08:48.864   01 Jun 2027 22:14:05.898           317.034              Murmansk2          9907.312
        70   01 Jun 2027 23:39:32.679   01 Jun 2027 23:39:33.477             0.798                Anadyr1            24.938
        71   01 Jun 2027 23:39:48.595   01 Jun 2027 23:40:29.232            40.637                Anadyr2          1269.906
        72   01 Jun 2027 23:40:35.707   01 Jun 2027 23:41:56.983            81.276               Magadan2          2539.875
        73   01 Jun 2027 23:42:30.298   01 Jun 2027 23:42:40.914            10.616               Magadan1           331.750
        74   01 Jun 2027 23:43:09.921   01 Jun 2027 23:43:15.257             5.336               Magadan1           166.750
        75   01 Jun 2027 23:44:01.228   01 Jun 2027 23:45:44.976           103.748              Murmansk2          3242.125
        76   01 Jun 2027 23:46:47.865   01 Jun 2027 23:48:24.422            96.557              Murmansk1          3017.406
        77   01 Jun 2027 23:48:25.172   01 Jun 2027 23:49:35.457            70.285                 Moscow          2196.406
        78   01 Jun 2027 23:50:14.615   01 Jun 2027 23:50:50.564            35.949                 Moscow          1123.406
        79   01 Jun 2027 23:55:44.497   01 Jun 2027 23:56:12.580            28.083                 Moscow           877.594
        80   02 Jun 2027 00:13:53.172   02 Jun 2027 00:14:01.551             8.379               CapeTown           261.844
        81   02 Jun 2027 00:14:25.492   02 Jun 2027 00:16:16.870           111.378               CapeTown          3480.562
        82   02 Jun 2027 00:16:34.638   02 Jun 2027 00:17:36.523            61.885               CapeTown          1933.906
        83   02 Jun 2027 00:19:42.516   02 Jun 2027 00:21:39.726           117.210               CapeTown          3662.813
        84   02 Jun 2027 01:21:07.707   02 Jun 2027 01:21:26.426            18.719              Murmansk1           584.969
        85   02 Jun 2027 01:22:10.654   02 Jun 2027 01:22:40.091            29.437              Murmansk2           919.906
        86   02 Jun 2027 01:22:58.242   02 Jun 2027 01:23:14.694            16.452              Murmansk2           514.125
        87   02 Jun 2027 01:23:43.982   02 Jun 2027 01:25:11.187            87.205              Murmansk2          2725.156
        88   02 Jun 2027 01:47:02.181   02 Jun 2027 01:47:21.005            18.824               CapeTown           588.250
        89   02 Jun 2027 01:51:20.644   02 Jun 2027 01:51:39.077            18.433               CapeTown           576.031
        90   02 Jun 2027 01:55:43.068   02 Jun 2027 01:55:58.622            15.554               CapeTown           486.062
        91   02 Jun 2027 02:43:48.415   02 Jun 2027 02:44:40.973            52.558                Anadyr2          1642.437
        92   02 Jun 2027 02:44:43.716   02 Jun 2027 02:45:25.955            42.239                Anadyr1          1319.969
        93   02 Jun 2027 02:45:27.605   02 Jun 2027 02:47:12.327           104.722               Magadan1          3272.563
        94   02 Jun 2027 02:49:30.999   02 Jun 2027 02:49:38.440             7.441               Magadan2           232.531
        95   02 Jun 2027 02:50:56.059   02 Jun 2027 02:51:07.743            11.684               Magadan2           365.125
        96   02 Jun 2027 02:51:46.943   02 Jun 2027 02:52:00.574            13.631               Magadan1           425.969
        97   02 Jun 2027 02:52:59.319   02 Jun 2027 02:53:03.961             4.642                Norilsk           145.062
        98   02 Jun 2027 02:54:30.721   02 Jun 2027 02:54:44.194            13.473                Norilsk           421.031
        99   02 Jun 2027 02:55:53.017   02 Jun 2027 02:56:03.851            10.834              Murmansk1           338.563
       100   02 Jun 2027 02:56:36.478   02 Jun 2027 02:57:24.466            47.988              Murmansk2          1499.625
       101   02 Jun 2027 02:58:41.299   02 Jun 2027 02:59:03.441            22.142              Murmansk1           691.938
       102   02 Jun 2027 02:59:09.138   02 Jun 2027 02:59:20.359            11.221              Murmansk2           350.656
       103   02 Jun 2027 02:59:56.614   02 Jun 2027 03:00:37.789            41.175                 Moscow          1286.719
       104   02 Jun 2027 04:27:32.142   02 Jun 2027 04:29:40.609           128.467               Magadan2          4014.594
       105   02 Jun 2027 04:29:40.609   02 Jun 2027 04:30:53.624            73.015               Magadan1          2281.719
       106   02 Jun 2027 06:01:31.012   02 Jun 2027 06:02:01.667            30.655               Magadan2           957.969
       107   02 Jun 2027 06:02:03.630   02 Jun 2027 06:02:39.826            36.196                Novosib          1131.125
       108   02 Jun 2027 06:02:44.492   02 Jun 2027 06:04:22.344            97.852                Anadyr2          3057.875
       109   02 Jun 2027 06:04:28.699   02 Jun 2027 06:06:32.467           123.768               Magadan2          3867.750
       110   02 Jun 2027 06:06:43.960   02 Jun 2027 06:07:31.475            47.515               Magadan2          1484.844
       111   02 Jun 2027 06:07:41.001   02 Jun 2027 06:08:03.276            22.275              Murmansk1           696.094
       112   02 Jun 2027 06:08:03.276   02 Jun 2027 06:08:29.748            26.472              Murmansk2           827.250
       113   02 Jun 2027 06:09:00.798   02 Jun 2027 06:09:24.602            23.804              Murmansk1           743.875
       114   02 Jun 2027 06:42:56.270   02 Jun 2027 06:45:48.462           172.192            RioGallegos          5381.000
       115   02 Jun 2027 07:19:32.012   02 Jun 2027 07:21:13.821           101.809                Sumatra          3181.531
       116   02 Jun 2027 07:39:43.787   02 Jun 2027 07:44:02.183           258.396                Irkutsk          8074.875
       117   02 Jun 2027 07:44:02.225   02 Jun 2027 07:45:26.694            84.469              Murmansk1          2639.656
       118   02 Jun 2027 07:45:26.694   02 Jun 2027 07:45:27.379             0.685              Murmansk2            21.406
       119   02 Jun 2027 07:46:07.770   02 Jun 2027 07:46:39.963            32.193              Murmansk2          1006.031
       120   02 Jun 2027 07:47:19.250   02 Jun 2027 07:48:13.378            54.128              Murmansk1          1691.500
       121   02 Jun 2027 08:19:22.596   02 Jun 2027 08:20:09.218            46.622            RioGallegos          1456.937
       122   02 Jun 2027 08:53:43.915   02 Jun 2027 08:55:24.401           100.486                Sumatra          3140.188
       123   02 Jun 2027 09:02:36.911   02 Jun 2027 09:02:53.978            17.067                  Delhi           533.344
       124   02 Jun 2027 09:03:51.583   02 Jun 2027 09:06:01.444           129.861                  Delhi          4058.156
       125   02 Jun 2027 09:16:27.586   02 Jun 2027 09:16:54.505            26.919                 Moscow           841.219
       126   02 Jun 2027 09:17:00.907   02 Jun 2027 09:17:15.350            14.443                Irkutsk           451.344
       127   02 Jun 2027 09:17:21.283   02 Jun 2027 09:18:08.405            47.122                Norilsk          1472.563
       128   02 Jun 2027 09:18:12.320   02 Jun 2027 09:21:47.865           215.545              Murmansk2          6735.781
       129   02 Jun 2027 09:21:47.865   02 Jun 2027 09:22:40.892            53.027              Murmansk1          1657.094
       130   02 Jun 2027 09:24:37.520   02 Jun 2027 09:24:43.253             5.733              Murmansk1           179.156
       131   02 Jun 2027 09:25:03.844   02 Jun 2027 09:25:16.198            12.354              Murmansk1           386.063
       132   02 Jun 2027 10:38:24.716   02 Jun 2027 10:41:49.856           205.140                  Delhi          6410.625
       133   02 Jun 2027 10:52:47.319   02 Jun 2027 10:56:58.375           251.056                 Moscow          7845.500
       134   02 Jun 2027 12:22:11.302   02 Jun 2027 12:23:54.110           102.808                 Moscow          3212.750
       135   02 Jun 2027 12:24:00.744   02 Jun 2027 12:24:36.473            35.729                 Moscow          1116.531
       136   02 Jun 2027 12:25:26.137   02 Jun 2027 12:25:58.804            32.667                 Moscow          1020.844
       137   02 Jun 2027 12:26:14.094   02 Jun 2027 12:29:18.620           184.526              Murmansk1          5766.438
       138   02 Jun 2027 12:29:43.846   02 Jun 2027 12:30:16.894            33.048              Murmansk2          1032.750
       139   02 Jun 2027 12:43:09.630   02 Jun 2027 12:44:33.942            84.312                Anadyr2          2634.750
       140   02 Jun 2027 13:36:04.557   02 Jun 2027 13:37:41.033            96.476               CapeTown          3014.875
       141   02 Jun 2027 13:38:10.916   02 Jun 2027 13:39:24.167            73.251               CapeTown          2289.094
       142   02 Jun 2027 14:03:19.361   02 Jun 2027 14:03:36.258            16.897              Murmansk1           528.031
       143   02 Jun 2027 14:03:37.722   02 Jun 2027 14:05:20.747           103.025              Murmansk2          3219.531
       144   02 Jun 2027 14:16:28.841   02 Jun 2027 14:18:36.570           127.729                Anadyr1          3991.531
       145   02 Jun 2027 14:19:03.727   02 Jun 2027 14:20:58.350           114.623                Anadyr2          3581.969
       146   02 Jun 2027 15:43:30.398   02 Jun 2027 15:44:12.221            41.823              Murmansk1          1306.969
       147   02 Jun 2027 15:47:00.287   02 Jun 2027 15:47:01.178             0.891              Murmansk2            27.844
       148   02 Jun 2027 15:52:11.356   02 Jun 2027 15:53:46.818            95.462                Anadyr2          2983.187
       149   02 Jun 2027 15:54:21.282   02 Jun 2027 15:55:40.011            78.729                Anadyr1          2460.281
       150   02 Jun 2027 15:55:56.229   02 Jun 2027 16:00:22.175           265.946               Magadan1          8310.813
       151   02 Jun 2027 17:28:06.749   02 Jun 2027 17:29:56.754           110.005                Anadyr2          3437.656
       152   02 Jun 2027 17:30:24.631   02 Jun 2027 17:32:29.767           125.136               Magadan2          3910.500
       153   02 Jun 2027 17:33:51.532   02 Jun 2027 17:34:02.371            10.839               Magadan1           338.719
       154   02 Jun 2027 17:37:45.273   02 Jun 2027 17:38:15.929            30.656               Magadan1           958.000
       155   02 Jun 2027 18:23:39.086   02 Jun 2027 18:26:47.244           188.158            RioGallegos          5879.937
       156   02 Jun 2027 18:30:35.603   02 Jun 2027 18:31:04.357            28.754            RioGallegos           898.563
       157   02 Jun 2027 19:06:03.313   02 Jun 2027 19:10:08.505           245.192                Norilsk          7662.250
       158   02 Jun 2027 19:10:43.068   02 Jun 2027 19:12:52.281           129.213                Irkutsk          4037.906
       159   02 Jun 2027 19:13:52.328   02 Jun 2027 19:16:11.524           139.196                Irkutsk          4349.875
       160   02 Jun 2027 19:27:23.252   02 Jun 2027 19:29:32.649           129.397                Sumatra          4043.656
       161   02 Jun 2027 19:31:57.716   02 Jun 2027 19:32:38.791            41.075                Sumatra          1283.594
       162   02 Jun 2027 20:47:01.435   02 Jun 2027 20:47:39.609            38.174                Novosib          1192.937
       163   02 Jun 2027 20:47:57.545   02 Jun 2027 20:48:44.742            47.197                Novosib          1474.906
       164   02 Jun 2027 20:55:19.798   02 Jun 2027 20:57:55.642           155.844                  Delhi          4870.125
       165   02 Jun 2027 21:01:23.923   02 Jun 2027 21:03:09.705           105.782                  Delhi          3305.687
       166   02 Jun 2027 22:20:36.905   02 Jun 2027 22:24:27.614           230.709              Murmansk2          7209.656
       167   02 Jun 2027 22:24:51.731   02 Jun 2027 22:26:57.984           126.253              Murmansk1          3945.406
       168   02 Jun 2027 23:55:10.791   02 Jun 2027 23:55:24.708            13.917               Magadan2           434.906
       169   02 Jun 2027 23:56:01.650   02 Jun 2027 23:57:41.946           100.296              Murmansk1          3134.250
       170   02 Jun 2027 23:58:46.898   03 Jun 2027 00:00:05.658            78.760              Murmansk2          2461.250
       171   03 Jun 2027 00:00:29.707   03 Jun 2027 00:02:19.167           109.460                 Moscow          3420.625
       172   03 Jun 2027 00:06:10.403   03 Jun 2027 00:07:08.375            57.972                 Moscow          1811.625
       173   03 Jun 2027 00:26:33.197   03 Jun 2027 00:27:55.761            82.564               CapeTown          2580.125
       174   03 Jun 2027 00:30:14.256   03 Jun 2027 00:31:37.723            83.467               CapeTown          2608.344
       175   03 Jun 2027 01:31:39.337   03 Jun 2027 01:31:56.972            17.635               Magadan1           551.094
       176   03 Jun 2027 01:31:57.910   03 Jun 2027 01:33:00.566            62.656              Murmansk2          1958.000
       177   03 Jun 2027 01:34:40.100   03 Jun 2027 01:35:24.286            44.186                Novosib          1380.812
       178   03 Jun 2027 01:36:39.095   03 Jun 2027 01:36:49.026             9.931                 Moscow           310.344
       179   03 Jun 2027 01:38:47.278   03 Jun 2027 01:39:07.016            19.738                 Moscow           616.812
       180   03 Jun 2027 01:42:38.184   03 Jun 2027 01:42:52.651            14.467                 Moscow           452.094
       181   03 Jun 2027 01:44:41.648   03 Jun 2027 01:44:46.118             4.470                 Moscow           139.688
       182   03 Jun 2027 01:59:06.894   03 Jun 2027 01:59:53.292            46.398               CapeTown          1449.938
       183   03 Jun 2027 02:03:33.390   03 Jun 2027 02:03:59.062            25.672               CapeTown           802.250
       184   03 Jun 2027 02:55:53.990   03 Jun 2027 02:57:22.610            88.620                Anadyr2          2769.375
       185   03 Jun 2027 02:57:42.326   03 Jun 2027 02:58:40.581            58.255               Magadan1          1820.469
       186   03 Jun 2027 02:58:43.869   03 Jun 2027 03:00:05.728            81.859               Magadan2          2558.094
       187   03 Jun 2027 03:01:28.282   03 Jun 2027 03:01:54.386            26.104               Magadan2           815.750
       188   03 Jun 2027 03:02:07.167   03 Jun 2027 03:02:58.425            51.258               Magadan2          1601.812
       189   03 Jun 2027 03:02:58.425   03 Jun 2027 03:04:11.718            73.293               Magadan1          2290.406
       190   03 Jun 2027 03:04:51.623   03 Jun 2027 03:05:22.851            31.228               Magadan1           975.875
       191   03 Jun 2027 04:39:31.270   03 Jun 2027 04:39:48.568            17.298                Anadyr2           540.563
       192   03 Jun 2027 04:39:48.568   03 Jun 2027 04:40:52.918            64.350                Anadyr1          2010.937
       193   03 Jun 2027 04:40:53.777   03 Jun 2027 04:41:03.555             9.778               Magadan1           305.563
       194   03 Jun 2027 04:41:08.315   03 Jun 2027 04:41:34.160            25.845               Magadan1           807.656
       195   03 Jun 2027 04:42:15.845   03 Jun 2027 04:42:43.577            27.732                Anadyr2           866.625
       196   03 Jun 2027 04:42:43.577   03 Jun 2027 04:43:12.584            29.007                Anadyr1           906.469
       197   03 Jun 2027 06:14:14.698   03 Jun 2027 06:14:39.321            24.623               Magadan1           769.469
       198   03 Jun 2027 06:14:53.227   03 Jun 2027 06:17:53.117           179.890               Magadan1          5621.563
       199   03 Jun 2027 06:18:04.470   03 Jun 2027 06:18:56.333            51.863               Magadan2          1620.719
       200   03 Jun 2027 06:19:18.444   03 Jun 2027 06:19:51.976            33.532               Magadan2          1047.875
       201   03 Jun 2027 06:19:53.077   03 Jun 2027 06:20:52.416            59.339                Novosib          1854.344
       202   03 Jun 2027 06:21:55.291   03 Jun 2027 06:22:21.784            26.493              Murmansk2           827.906
       203   03 Jun 2027 06:54:49.606   03 Jun 2027 06:57:26.599           156.993            RioGallegos          4906.031
       204   03 Jun 2027 07:30:53.451   03 Jun 2027 07:33:34.648           161.197                Sumatra          5037.406
       205   03 Jun 2027 07:51:16.476   03 Jun 2027 07:51:47.070            30.594                Novosib           956.063
       206   03 Jun 2027 07:51:53.946   03 Jun 2027 07:52:54.417            60.471                Irkutsk          1889.719
       207   03 Jun 2027 07:53:03.162   03 Jun 2027 07:54:13.935            70.773              Murmansk2          2211.656
       208   03 Jun 2027 07:54:21.810   03 Jun 2027 07:56:20.202           118.392                Norilsk          3699.750
       209   03 Jun 2027 07:56:29.471   03 Jun 2027 07:57:22.003            52.532                Novosib          1641.625
       210   03 Jun 2027 08:31:45.226   03 Jun 2027 08:32:13.276            28.050            RioGallegos           876.562
       211   03 Jun 2027 09:06:00.485   03 Jun 2027 09:07:13.176            72.691                Sumatra          2271.594
       212   03 Jun 2027 09:16:17.971   03 Jun 2027 09:16:25.431             7.460                  Delhi           233.125
       213   03 Jun 2027 09:16:47.490   03 Jun 2027 09:18:01.006            73.516                  Delhi          2297.375
       214   03 Jun 2027 09:29:08.021   03 Jun 2027 09:30:37.203            89.182                Norilsk          2786.938
       215   03 Jun 2027 09:30:44.713   03 Jun 2027 09:33:11.922           147.209              Murmansk1          4600.281
       216   03 Jun 2027 09:33:23.548   03 Jun 2027 09:33:29.764             6.216                Novosib           194.250
       217   03 Jun 2027 09:33:33.352   03 Jun 2027 09:33:40.335             6.983              Murmansk1           218.219
       218   03 Jun 2027 09:36:26.356   03 Jun 2027 09:36:33.957             7.601              Murmansk2           237.531
       219   03 Jun 2027 09:36:44.907   03 Jun 2027 09:36:54.847             9.940              Murmansk2           310.625
       220   03 Jun 2027 09:38:23.887   03 Jun 2027 09:38:41.146            17.259              Murmansk1           539.344
       221   03 Jun 2027 10:50:53.368   03 Jun 2027 10:53:55.775           182.407                  Delhi          5700.219
       222   03 Jun 2027 11:03:57.800   03 Jun 2027 11:04:15.283            17.483              Murmansk2           546.344
       223   03 Jun 2027 11:04:46.703   03 Jun 2027 11:05:01.925            15.222                 Moscow           475.687
       224   03 Jun 2027 11:05:02.155   03 Jun 2027 11:05:06.578             4.423              Murmansk2           138.219
       225   03 Jun 2027 11:05:06.578   03 Jun 2027 11:05:51.198            44.620              Murmansk1          1394.375
       226   03 Jun 2027 11:06:18.090   03 Jun 2027 11:06:26.407             8.317              Murmansk2           259.906
       227   03 Jun 2027 11:06:39.428   03 Jun 2027 11:07:02.123            22.695              Murmansk2           709.219
       228   03 Jun 2027 11:07:02.123   03 Jun 2027 11:07:33.004            30.881              Murmansk1           965.031
       229   03 Jun 2027 11:08:42.659   03 Jun 2027 11:09:12.343            29.684              Murmansk2           927.625
       230   03 Jun 2027 12:34:18.582   03 Jun 2027 12:37:20.014           181.432                 Moscow          5669.750
       231   03 Jun 2027 12:37:50.054   03 Jun 2027 12:41:13.115           203.061              Murmansk1          6345.656
       232   03 Jun 2027 12:42:28.524   03 Jun 2027 12:42:29.651             1.127              Murmansk2            35.219
       233   03 Jun 2027 12:46:46.557   03 Jun 2027 12:47:15.882            29.325                Norilsk           916.406
       234   03 Jun 2027 12:54:02.957   03 Jun 2027 12:57:13.733           190.776                Anadyr2          5961.750
       235   03 Jun 2027 12:57:17.209   03 Jun 2027 12:58:22.560            65.351                Anadyr1          2042.219
       236   03 Jun 2027 13:50:31.422   03 Jun 2027 13:51:09.481            38.059               CapeTown          1189.344
       237   03 Jun 2027 14:15:42.703   03 Jun 2027 14:15:49.673             6.970              Murmansk1           217.812
       238   03 Jun 2027 14:16:27.788   03 Jun 2027 14:17:49.409            81.621              Murmansk2          2550.656
       239   03 Jun 2027 14:18:26.697   03 Jun 2027 14:18:56.576            29.879              Murmansk2           933.719
       240   03 Jun 2027 14:28:26.583   03 Jun 2027 14:30:25.890           119.307                Anadyr2          3728.344
       241   03 Jun 2027 14:31:03.200   03 Jun 2027 14:32:43.102            99.902                Anadyr1          3121.937
       242   03 Jun 2027 15:24:09.721   03 Jun 2027 15:24:13.933             4.212               CapeTown           131.625
       243   03 Jun 2027 15:56:22.185   03 Jun 2027 15:58:05.112           102.927              Murmansk2          3216.469
       244   03 Jun 2027 15:58:05.112   03 Jun 2027 15:58:16.275            11.163              Murmansk1           348.844
       245   03 Jun 2027 15:58:30.502   03 Jun 2027 15:59:00.366            29.864              Murmansk1           933.250
       246   03 Jun 2027 16:04:12.473   03 Jun 2027 16:06:03.597           111.124                Anadyr2          3472.625
       247   03 Jun 2027 16:06:18.010   03 Jun 2027 16:06:55.274            37.264                Anadyr2          1164.500
       248   03 Jun 2027 16:06:58.584   03 Jun 2027 16:10:51.607           233.023               Magadan1          7281.969
       249   03 Jun 2027 17:40:07.809   03 Jun 2027 17:41:55.448           107.639                Anadyr2          3363.719
       250   03 Jun 2027 17:42:24.924   03 Jun 2027 17:44:10.392           105.468               Magadan1          3295.875
       251   03 Jun 2027 17:44:24.646   03 Jun 2027 17:45:29.308            64.662               Magadan1          2020.687
       252   03 Jun 2027 18:35:12.625   03 Jun 2027 18:38:36.534           203.909            RioGallegos          6372.156
       253   03 Jun 2027 18:39:26.212   03 Jun 2027 18:40:26.831            60.619            RioGallegos          1894.344
       254   03 Jun 2027 18:41:45.038   03 Jun 2027 18:41:53.520             8.482            RioGallegos           265.062
       255   03 Jun 2027 19:18:23.871   03 Jun 2027 19:19:14.530            50.659               Magadan1          1583.094
       256   03 Jun 2027 19:19:14.530   03 Jun 2027 19:19:52.140            37.610               Magadan2          1175.313
       257   03 Jun 2027 19:20:53.965   03 Jun 2027 19:22:08.974            75.009                Norilsk          2344.031
       258   03 Jun 2027 19:22:29.988   03 Jun 2027 19:24:58.336           148.348                Irkutsk          4635.875
       259   03 Jun 2027 19:26:12.351   03 Jun 2027 19:26:14.654             2.303                Irkutsk            71.969
       260   03 Jun 2027 19:36:38.368   03 Jun 2027 19:39:55.980           197.612                Sumatra          6175.375
       261   03 Jun 2027 19:41:10.142   03 Jun 2027 19:42:40.260            90.118                Sumatra          2816.188
       262   03 Jun 2027 20:57:45.326   03 Jun 2027 20:59:14.613            89.287                Irkutsk          2790.219
       263   03 Jun 2027 20:59:21.064   03 Jun 2027 21:00:52.254            91.190                Novosib          2849.688
       264   03 Jun 2027 21:06:38.202   03 Jun 2027 21:09:40.254           182.052                  Delhi          5689.125
       265   03 Jun 2027 21:13:33.609   03 Jun 2027 21:13:44.184            10.575                  Delhi           330.469
       266   03 Jun 2027 22:32:29.064   03 Jun 2027 22:39:43.867           434.803              Murmansk2         13587.594
       267   04 Jun 2027 00:04:46.476   04 Jun 2027 00:04:53.230             6.754               Magadan1           211.063
       268   04 Jun 2027 00:05:36.646   04 Jun 2027 00:06:11.442            34.796               Magadan1          1087.375
       269   04 Jun 2027 00:08:02.427   04 Jun 2027 00:08:50.947            48.520              Murmansk1          1516.250
       270   04 Jun 2027 00:08:57.786   04 Jun 2027 00:09:40.071            42.285              Murmansk2          1321.406
       271   04 Jun 2027 00:09:51.860   04 Jun 2027 00:10:45.487            53.627              Murmansk1          1675.844
       272   04 Jun 2027 00:10:55.867   04 Jun 2027 00:11:21.735            25.868              Murmansk1           808.375
       273   04 Jun 2027 00:11:34.521   04 Jun 2027 00:11:53.048            18.527                 Moscow           578.969
       274   04 Jun 2027 00:13:23.547   04 Jun 2027 00:14:04.068            40.521                 Moscow          1266.281
       275   04 Jun 2027 00:15:13.015   04 Jun 2027 00:15:32.113            19.098                 Moscow           596.813
       276   04 Jun 2027 00:17:47.438   04 Jun 2027 00:17:57.969            10.531                 Moscow           329.094
       277   04 Jun 2027 00:18:25.023   04 Jun 2027 00:18:59.907            34.884                 Moscow          1090.125
       278   04 Jun 2027 00:19:44.745   04 Jun 2027 00:21:20.791            96.046                 Moscow          3001.437
       279   04 Jun 2027 00:36:35.949   04 Jun 2027 00:38:46.411           130.462               CapeTown          4076.938
       280   04 Jun 2027 01:36:10.984   04 Jun 2027 01:37:35.396            84.412               Magadan1          2637.875
       281   04 Jun 2027 01:43:59.600   04 Jun 2027 01:44:52.417            52.817              Murmansk2          1650.531
       282   04 Jun 2027 01:44:52.417   04 Jun 2027 01:45:58.773            66.356              Murmansk1          2073.625
       283   04 Jun 2027 01:46:57.643   04 Jun 2027 01:47:12.315            14.672                Novosib           458.500
       284   04 Jun 2027 01:47:25.540   04 Jun 2027 01:47:38.344            12.804                 Moscow           400.125
       285   04 Jun 2027 01:48:23.838   04 Jun 2027 01:48:47.353            23.515                 Moscow           734.844
       286   04 Jun 2027 01:55:47.425   04 Jun 2027 01:55:53.651             6.226                 Moscow           194.563
       287   04 Jun 2027 01:56:21.378   04 Jun 2027 01:56:48.240            26.862                 Moscow           839.437
       288   04 Jun 2027 02:11:20.552   04 Jun 2027 02:12:52.264            91.712               CapeTown          2866.000
       289   04 Jun 2027 03:11:28.693   04 Jun 2027 03:11:35.508             6.815               Magadan1           212.969
       290   04 Jun 2027 03:12:10.748   04 Jun 2027 03:12:40.722            29.974                Anadyr2           936.687
       291   04 Jun 2027 03:13:56.085   04 Jun 2027 03:16:40.037           163.952                Anadyr2          5123.500
       292   04 Jun 2027 03:17:34.495   04 Jun 2027 03:18:08.475            33.980               Magadan1          1061.875
       293   04 Jun 2027 03:18:12.257   04 Jun 2027 03:19:23.487            71.230                Anadyr2          2225.937
       294   04 Jun 2027 03:19:29.498   04 Jun 2027 03:20:20.227            50.729                Anadyr2          1585.281
       295   04 Jun 2027 04:51:59.416   04 Jun 2027 04:53:56.468           117.052               Magadan1          3657.875
       296   04 Jun 2027 04:54:00.191   04 Jun 2027 04:54:09.517             9.326               Magadan2           291.437
       297   04 Jun 2027 04:55:08.024   04 Jun 2027 04:55:53.971            45.947                Anadyr2          1435.844
       298   04 Jun 2027 06:27:06.929   04 Jun 2027 06:28:36.789            89.860                Norilsk          2808.125
       299   04 Jun 2027 06:28:38.904   04 Jun 2027 06:30:27.037           108.133                Novosib          3379.156
       300   04 Jun 2027 06:30:48.091   04 Jun 2027 06:30:52.158             4.067                Norilsk           127.094
       301   04 Jun 2027 06:30:56.922   04 Jun 2027 06:31:32.556            35.634                Novosib          1113.563
       302   04 Jun 2027 06:31:37.800   04 Jun 2027 06:31:43.701             5.901                Norilsk           184.406
       303   04 Jun 2027 06:31:45.102   04 Jun 2027 06:32:57.504            72.402              Murmansk1          2262.562
       304   04 Jun 2027 06:33:12.477   04 Jun 2027 06:33:13.138             0.661                Norilsk            20.656
       305   04 Jun 2027 06:33:15.263   04 Jun 2027 06:33:43.253            27.990                Norilsk           874.687
       306   04 Jun 2027 06:33:45.971   04 Jun 2027 06:35:06.481            80.510              Murmansk1          2515.938
       307   04 Jun 2027 06:35:12.487   04 Jun 2027 06:35:20.868             8.381                Norilsk           261.906
       308   04 Jun 2027 07:06:46.128   04 Jun 2027 07:08:46.230           120.102            RioGallegos          3753.187
       309   04 Jun 2027 07:08:58.952   04 Jun 2027 07:09:08.086             9.134            RioGallegos           285.437
       310   04 Jun 2027 07:42:25.552   04 Jun 2027 07:43:59.120            93.568                Sumatra          2924.000
       311   04 Jun 2027 08:03:15.691   04 Jun 2027 08:04:42.908            87.217                Novosib          2725.531
       312   04 Jun 2027 08:04:46.959   04 Jun 2027 08:04:59.534            12.575                Norilsk           392.969
       313   04 Jun 2027 08:05:01.671   04 Jun 2027 08:06:55.184           113.513              Murmansk2          3547.281
       314   04 Jun 2027 08:07:04.505   04 Jun 2027 08:07:32.295            27.790                Novosib           868.438
       315   04 Jun 2027 08:07:37.242   04 Jun 2027 08:08:39.731            62.489              Murmansk1          1952.781
       316   04 Jun 2027 08:09:26.855   04 Jun 2027 08:09:57.029            30.174              Murmansk1           942.938
       317   04 Jun 2027 08:11:54.177   04 Jun 2027 08:12:45.004            50.827              Murmansk2          1588.344
       318   04 Jun 2027 08:44:13.015   04 Jun 2027 08:44:20.826             7.811            RioGallegos           244.094
       319   04 Jun 2027 08:45:25.394   04 Jun 2027 08:46:08.890            43.496            RioGallegos          1359.250
       320   04 Jun 2027 09:18:24.868   04 Jun 2027 09:19:07.845            42.977                Sumatra          1343.031
       321   04 Jun 2027 09:21:47.076   04 Jun 2027 09:22:11.881            24.805                Sumatra           775.156
       322   04 Jun 2027 09:27:38.209   04 Jun 2027 09:28:53.440            75.231                  Delhi          2350.969
       323   04 Jun 2027 09:39:20.602   04 Jun 2027 09:39:33.758            13.156              Murmansk1           411.125
       324   04 Jun 2027 09:39:37.260   04 Jun 2027 09:39:49.982            12.722                 Moscow           397.562
       325   04 Jun 2027 09:39:54.566   04 Jun 2027 09:39:56.010             1.444                Novosib            45.125
       326   04 Jun 2027 09:40:02.230   04 Jun 2027 09:40:50.931            48.701              Murmansk1          1521.906
       327   04 Jun 2027 09:40:52.103   04 Jun 2027 09:42:08.749            76.646                 Moscow          2395.188
       328   04 Jun 2027 09:42:21.970   04 Jun 2027 09:42:35.965            13.995              Murmansk2           437.344
       329   04 Jun 2027 09:42:44.150   04 Jun 2027 09:43:08.555            24.405                Norilsk           762.656
       330   04 Jun 2027 09:43:11.168   04 Jun 2027 09:44:00.098            48.930              Murmansk2          1529.063
       331   04 Jun 2027 09:46:27.507   04 Jun 2027 09:46:39.124            11.617                 Moscow           363.031
       332   04 Jun 2027 11:03:40.570   04 Jun 2027 11:06:28.453           167.883                  Delhi          5246.344
       333   04 Jun 2027 11:15:31.763   04 Jun 2027 11:16:07.125            35.362              Murmansk2          1105.063
       334   04 Jun 2027 11:16:11.864   04 Jun 2027 11:16:49.174            37.310                Novosib          1165.937
       335   04 Jun 2027 11:16:54.401   04 Jun 2027 11:16:58.433             4.032                Norilsk           126.000
       336   04 Jun 2027 11:16:58.476   04 Jun 2027 11:17:17.319            18.843                Novosib           588.844
       337   04 Jun 2027 11:17:26.509   04 Jun 2027 11:18:27.737            61.228              Murmansk2          1913.375
       338   04 Jun 2027 11:18:38.955   04 Jun 2027 11:18:41.040             2.085              Murmansk2            65.156
       339   04 Jun 2027 11:18:43.241   04 Jun 2027 11:19:03.926            20.685                Norilsk           646.406
       340   04 Jun 2027 11:19:24.570   04 Jun 2027 11:19:28.264             3.694                Norilsk           115.438
       341   04 Jun 2027 11:19:32.255   04 Jun 2027 11:19:36.605             4.350              Murmansk1           135.937
       342   04 Jun 2027 11:19:56.308   04 Jun 2027 11:20:21.990            25.682              Murmansk2           802.563
       343   04 Jun 2027 11:22:01.572   04 Jun 2027 11:22:48.429            46.857                 Moscow          1464.281
       344   04 Jun 2027 12:46:29.056   04 Jun 2027 12:47:44.369            75.313                 Moscow          2353.531
       345   04 Jun 2027 12:49:59.220   04 Jun 2027 12:53:08.814           189.594              Murmansk1          5924.813
       346   04 Jun 2027 12:53:32.988   04 Jun 2027 12:54:30.005            57.017              Murmansk2          1781.781
       347   04 Jun 2027 12:54:52.714   04 Jun 2027 12:55:17.088            24.374              Murmansk2           761.688
       348   04 Jun 2027 12:58:48.864   04 Jun 2027 12:58:53.596             4.732                Norilsk           147.875
       349   04 Jun 2027 13:05:35.262   04 Jun 2027 13:09:05.082           209.820                Anadyr1          6556.875
       350   04 Jun 2027 13:09:39.827   04 Jun 2027 13:11:29.637           109.810                Anadyr2          3431.562
       351   04 Jun 2027 14:28:08.454   04 Jun 2027 14:29:09.480            61.026              Murmansk1          1907.062
       352   04 Jun 2027 14:36:09.116   04 Jun 2027 14:36:26.268            17.152              Murmansk2           536.000
       353   04 Jun 2027 14:40:25.120   04 Jun 2027 14:42:18.203           113.083                Anadyr2          3533.844
       354   04 Jun 2027 14:43:02.210   04 Jun 2027 14:44:26.880            84.670                Anadyr1          2645.938
       355   04 Jun 2027 16:09:23.667   04 Jun 2027 16:11:57.982           154.315              Murmansk1          4822.344
       356   04 Jun 2027 16:16:13.706   04 Jun 2027 16:17:46.988            93.282                Anadyr2          2915.063
       357   04 Jun 2027 16:18:13.031   04 Jun 2027 16:18:50.436            37.405                Anadyr1          1168.906
       358   04 Jun 2027 16:18:52.361   04 Jun 2027 16:22:49.200           236.839               Magadan2          7401.219
       359   04 Jun 2027 16:26:19.972   04 Jun 2027 16:27:00.112            40.140               Magadan2          1254.375
       360   04 Jun 2027 17:52:08.699   04 Jun 2027 17:53:54.812           106.113                Anadyr1          3316.031
       361   04 Jun 2027 17:54:25.657   04 Jun 2027 17:57:12.660           167.003               Magadan1          5218.844
       362   04 Jun 2027 17:57:17.542   04 Jun 2027 17:57:35.388            17.846                Norilsk           557.687
       363   04 Jun 2027 18:46:53.675   04 Jun 2027 18:53:12.936           379.261            RioGallegos         11851.906
       364   04 Jun 2027 19:30:01.279   04 Jun 2027 19:30:41.519            40.240                Norilsk          1257.500
       365   04 Jun 2027 19:32:08.331   04 Jun 2027 19:34:09.839           121.508                Norilsk          3797.125
       366   04 Jun 2027 19:34:20.142   04 Jun 2027 19:34:56.028            35.886                Irkutsk          1121.437
       367   04 Jun 2027 19:35:38.350   04 Jun 2027 19:37:05.318            86.968                Irkutsk          2717.750
       368   04 Jun 2027 19:48:14.760   04 Jun 2027 19:51:51.641           216.881                Sumatra          6777.531
       369   04 Jun 2027 21:10:02.717   04 Jun 2027 21:10:46.767            44.050                Novosib          1376.562
       370   04 Jun 2027 21:11:55.374   04 Jun 2027 21:12:54.573            59.199                Novosib          1849.969
       371   04 Jun 2027 21:18:08.966   04 Jun 2027 21:21:29.665           200.699                  Delhi          6271.844
       372   04 Jun 2027 22:42:12.076   04 Jun 2027 22:42:55.386            43.310               Magadan1          1353.438
       373   04 Jun 2027 22:43:02.264   04 Jun 2027 22:43:24.681            22.417                Norilsk           700.531
       374   04 Jun 2027 22:43:53.514   04 Jun 2027 22:44:00.707             7.193               Magadan2           224.781
       375   04 Jun 2027 22:44:23.786   04 Jun 2027 22:48:23.913           240.127              Murmansk2          7503.969
       376   04 Jun 2027 22:49:46.643   04 Jun 2027 22:50:15.377            28.734              Murmansk1           897.938
       377   04 Jun 2027 22:50:30.384   04 Jun 2027 22:54:24.128           233.744                 Moscow          7304.500
       378   05 Jun 2027 00:20:03.485   05 Jun 2027 00:21:40.218            96.733              Murmansk2          3022.906
       379   05 Jun 2027 00:21:59.225   05 Jun 2027 00:22:25.971            26.746                Novosib           835.813
       380   05 Jun 2027 00:22:56.462   05 Jun 2027 00:23:23.307            26.845              Murmansk2           838.906
       381   05 Jun 2027 00:23:30.075   05 Jun 2027 00:24:07.445            37.370                 Moscow          1167.813
       382   05 Jun 2027 00:24:54.314   05 Jun 2027 00:25:46.438            52.124                 Moscow          1628.875
       383   05 Jun 2027 00:26:24.387   05 Jun 2027 00:26:43.245            18.858              Murmansk2           589.312
       384   05 Jun 2027 00:26:56.650   05 Jun 2027 00:27:24.800            28.150              Murmansk2           879.688
       385   05 Jun 2027 00:31:37.814   05 Jun 2027 00:31:45.869             8.055                 Moscow           251.719
       386   05 Jun 2027 00:48:08.896   05 Jun 2027 00:49:53.879           104.983               CapeTown          3280.719
       387   05 Jun 2027 00:51:05.732   05 Jun 2027 00:51:29.832            24.100               CapeTown           753.125
       388   05 Jun 2027 00:59:09.693   05 Jun 2027 00:59:39.608            29.915               CapeTown           934.844
       389   05 Jun 2027 01:46:51.853   05 Jun 2027 01:48:04.640            72.787               Magadan2          2274.594
       390   05 Jun 2027 01:48:11.444   05 Jun 2027 01:49:31.783            80.339               Magadan1          2510.594
       391   05 Jun 2027 01:56:01.250   05 Jun 2027 01:57:31.021            89.771              Murmansk2          2805.344
       392   05 Jun 2027 01:59:14.219   05 Jun 2027 01:59:26.693            12.474                 Moscow           389.813
       393   05 Jun 2027 01:59:47.053   05 Jun 2027 01:59:57.086            10.033                Novosib           313.531
       394   05 Jun 2027 02:00:43.405   05 Jun 2027 02:00:54.749            11.344                Novosib           354.500
       395   05 Jun 2027 02:03:00.031   05 Jun 2027 02:03:08.938             8.907                 Moscow           278.344
       396   05 Jun 2027 02:04:33.781   05 Jun 2027 02:04:43.805            10.024                 Moscow           313.250
       397   05 Jun 2027 02:07:58.061   05 Jun 2027 02:07:58.830             0.769                 Moscow            24.031
       398   05 Jun 2027 02:09:18.246   05 Jun 2027 02:09:49.352            31.106                 Moscow           972.063
       399   05 Jun 2027 02:23:32.628   05 Jun 2027 02:24:43.508            70.880               CapeTown          2215.000
       400   05 Jun 2027 02:34:44.166   05 Jun 2027 02:35:28.966            44.800               CapeTown          1400.000
       401   05 Jun 2027 03:26:04.469   05 Jun 2027 03:27:05.755            61.286                Anadyr2          1915.188
       402   05 Jun 2027 03:27:46.349   05 Jun 2027 03:29:18.912            92.563               Magadan1          2892.594
       403   05 Jun 2027 03:29:21.645   05 Jun 2027 03:30:14.266            52.621               Magadan1          1644.406
       404   05 Jun 2027 03:30:23.232   05 Jun 2027 03:32:44.784           141.552                Anadyr2          4423.500
       405   05 Jun 2027 05:04:02.450   05 Jun 2027 05:04:12.312             9.862               Magadan1           308.187
       406   05 Jun 2027 05:04:12.312   05 Jun 2027 05:05:18.329            66.017               Magadan2          2063.031
       407   05 Jun 2027 05:05:21.384   05 Jun 2027 05:06:45.706            84.322                Irkutsk          2635.062
       408   05 Jun 2027 05:07:05.207   05 Jun 2027 05:08:13.918            68.711                Anadyr1          2147.219
       409   05 Jun 2027 05:08:13.918   05 Jun 2027 05:08:16.881             2.963                Anadyr2            92.594
       410   05 Jun 2027 05:44:58.611   05 Jun 2027 05:45:41.445            42.834            RioGallegos          1338.562
       411   05 Jun 2027 06:38:21.184   05 Jun 2027 06:38:36.255            15.071               Magadan1           470.969
       412   05 Jun 2027 06:38:43.126   05 Jun 2027 06:39:13.349            30.223                Irkutsk           944.469
       413   05 Jun 2027 06:39:36.745   05 Jun 2027 06:43:32.638           235.893                Norilsk          7371.656
       414   05 Jun 2027 06:43:44.069   05 Jun 2027 06:44:39.372            55.303                Norilsk          1728.219
       415   05 Jun 2027 06:44:53.856   05 Jun 2027 06:45:18.227            24.371              Murmansk2           761.594
       416   05 Jun 2027 06:47:02.085   05 Jun 2027 06:48:21.670            79.585              Murmansk2          2487.031
       417   05 Jun 2027 07:18:45.889   05 Jun 2027 07:19:57.929            72.040            RioGallegos          2251.250
       418   05 Jun 2027 07:20:35.953   05 Jun 2027 07:20:52.829            16.876            RioGallegos           527.375
       419   05 Jun 2027 07:54:05.798   05 Jun 2027 07:55:24.879            79.081                Sumatra          2471.281
       420   05 Jun 2027 07:56:28.477   05 Jun 2027 07:57:51.566            83.089                Sumatra          2596.531
       421   05 Jun 2027 08:14:23.073   05 Jun 2027 08:15:15.236            52.163                Norilsk          1630.094
       422   05 Jun 2027 08:15:27.593   05 Jun 2027 08:15:38.325            10.732                Norilsk           335.375
       423   05 Jun 2027 08:15:38.803   05 Jun 2027 08:17:02.687            83.884                Irkutsk          2621.375
       424   05 Jun 2027 08:17:24.126   05 Jun 2027 08:18:00.365            36.239              Murmansk1          1132.469
       425   05 Jun 2027 08:18:00.365   05 Jun 2027 08:18:49.745            49.380              Murmansk2          1543.125
       426   05 Jun 2027 08:19:12.973   05 Jun 2027 08:19:38.782            25.809                Norilsk           806.531
       427   05 Jun 2027 08:19:42.717   05 Jun 2027 08:20:05.006            22.289              Murmansk1           696.531
       428   05 Jun 2027 08:20:05.006   05 Jun 2027 08:20:58.130            53.124              Murmansk2          1660.125
       429   05 Jun 2027 08:56:46.846   05 Jun 2027 08:57:15.984            29.138            RioGallegos           910.562
       430   05 Jun 2027 08:59:17.687   05 Jun 2027 08:59:55.994            38.307            RioGallegos          1197.094
       431   05 Jun 2027 09:30:59.555   05 Jun 2027 09:31:08.137             8.582                Sumatra           268.187
       432   05 Jun 2027 09:31:20.503   05 Jun 2027 09:31:25.390             4.887                Sumatra           152.719
       433   05 Jun 2027 09:32:04.179   05 Jun 2027 09:33:44.261           100.082                Sumatra          3127.563
       434   05 Jun 2027 09:45:09.681   05 Jun 2027 09:46:13.677            63.996                  Delhi          1999.875
       435   05 Jun 2027 09:52:02.332   05 Jun 2027 09:52:03.995             1.663                Novosib            51.969
       436   05 Jun 2027 09:52:18.735   05 Jun 2027 09:52:55.095            36.360                 Moscow          1136.250
       437   05 Jun 2027 09:52:59.796   05 Jun 2027 09:53:15.927            16.131              Murmansk2           504.094
       438   05 Jun 2027 09:53:17.940   05 Jun 2027 09:53:34.663            16.723              Murmansk1           522.594
       439   05 Jun 2027 09:53:59.570   05 Jun 2027 09:54:28.178            28.608              Murmansk2           894.000
       440   05 Jun 2027 09:54:43.452   05 Jun 2027 09:54:56.135            12.683                Novosib           396.344
       441   05 Jun 2027 09:55:07.100   05 Jun 2027 09:55:49.832            42.732              Murmansk2          1335.375
       442   05 Jun 2027 09:56:55.252   05 Jun 2027 09:57:28.525            33.273                 Moscow          1039.781
       443   05 Jun 2027 11:16:25.510   05 Jun 2027 11:18:23.796           118.286                  Delhi          3696.438
       444   05 Jun 2027 11:19:20.380   05 Jun 2027 11:20:16.823            56.443                  Delhi          1763.844
       445   05 Jun 2027 11:27:11.554   05 Jun 2027 11:28:16.676            65.122                 Moscow          2035.063
       446   05 Jun 2027 11:28:29.209   05 Jun 2027 11:28:42.756            13.547                 Moscow           423.344
       447   05 Jun 2027 11:28:44.555   05 Jun 2027 11:28:49.566             5.011                Novosib           156.594
       448   05 Jun 2027 11:28:59.718   05 Jun 2027 11:29:04.059             4.341              Murmansk2           135.656
       449   05 Jun 2027 11:29:09.397   05 Jun 2027 11:29:10.068             0.671                 Moscow            20.969
       450   05 Jun 2027 11:29:31.770   05 Jun 2027 11:29:46.211            14.441                 Moscow           451.281
       451   05 Jun 2027 11:30:00.951   05 Jun 2027 11:30:38.836            37.885              Murmansk2          1183.906
       452   05 Jun 2027 11:30:41.010   05 Jun 2027 11:31:06.375            25.365              Murmansk1           792.656
       453   05 Jun 2027 11:31:29.192   05 Jun 2027 11:31:56.700            27.508              Murmansk1           859.625
       454   05 Jun 2027 11:32:02.121   05 Jun 2027 11:32:07.164             5.043                 Moscow           157.594
       455   05 Jun 2027 11:32:22.843   05 Jun 2027 11:32:50.573            27.730                 Moscow           866.563
       456   05 Jun 2027 11:33:50.536   05 Jun 2027 11:34:01.344            10.808                 Moscow           337.750
       457   05 Jun 2027 12:38:59.289   05 Jun 2027 12:41:01.318           122.029               CapeTown          3813.406
       458   05 Jun 2027 12:43:47.347   05 Jun 2027 12:44:38.285            50.938               CapeTown          1591.813
       459   05 Jun 2027 12:58:42.917   05 Jun 2027 12:59:43.673            60.756                 Moscow          1898.625
       460   05 Jun 2027 13:02:10.189   05 Jun 2027 13:03:54.618           104.429              Murmansk1          3263.406
       461   05 Jun 2027 13:03:54.618   05 Jun 2027 13:05:01.617            66.999              Murmansk2          2093.719
       462   05 Jun 2027 13:12:12.504   05 Jun 2027 13:12:15.317             2.813              Murmansk2            87.906
       463   05 Jun 2027 13:17:17.992   05 Jun 2027 13:20:58.775           220.783                Anadyr1          6899.469
       464   05 Jun 2027 13:21:59.622   05 Jun 2027 13:24:00.886           121.264                Anadyr2          3789.500
       465   05 Jun 2027 14:42:39.686   05 Jun 2027 14:42:46.367             6.681              Murmansk2           208.781
       466   05 Jun 2027 14:42:56.667   05 Jun 2027 14:44:09.756            73.089              Murmansk2          2284.031
       467   05 Jun 2027 14:52:24.294   05 Jun 2027 14:53:56.886            92.592                Anadyr1          2893.500
       468   05 Jun 2027 14:55:36.919   05 Jun 2027 14:56:09.800            32.881                Anadyr1          1027.531
       469   05 Jun 2027 14:57:51.900   05 Jun 2027 14:59:51.749           119.849               Magadan1          3745.281
       470   05 Jun 2027 16:22:50.818   05 Jun 2027 16:24:25.353            94.535              Murmansk1          2954.219
       471   05 Jun 2027 16:28:15.031   05 Jun 2027 16:30:51.367           156.336                Anadyr1          4885.500
       472   05 Jun 2027 16:31:04.745   05 Jun 2027 16:33:22.221           137.476               Magadan2          4296.125
       473   05 Jun 2027 16:33:48.644   05 Jun 2027 16:34:47.639            58.995               Magadan2          1843.594
       474   05 Jun 2027 18:04:09.364   05 Jun 2027 18:05:42.524            93.160                Anadyr2          2911.250
       475   05 Jun 2027 18:05:46.164   05 Jun 2027 18:06:53.523            67.359                Anadyr1          2104.969
       476   05 Jun 2027 18:06:56.989   05 Jun 2027 18:10:32.142           215.153                Norilsk          6723.531
       477   05 Jun 2027 18:58:39.606   05 Jun 2027 19:01:08.486           148.880            RioGallegos          4652.500
       478   05 Jun 2027 19:02:22.581   05 Jun 2027 19:02:44.661            22.080            RioGallegos           690.000
       479   05 Jun 2027 19:42:01.302   05 Jun 2027 19:43:45.782           104.480                Norilsk          3265.000
       480   05 Jun 2027 19:43:46.536   05 Jun 2027 19:44:14.388            27.852               Magadan2           870.375
       481   05 Jun 2027 19:45:02.598   05 Jun 2027 19:45:15.004            12.406               Magadan2           387.688
       482   05 Jun 2027 19:46:11.003   05 Jun 2027 19:46:37.386            26.383                Norilsk           824.469
