uniorb/output/strategy_1/Drop/Drop_KinoSat_111603.txt

KinoSat_111603
-------------------------
    Access    *     Start Time (UTCG)     *     Stop Time (UTCG)  *   Duration (s)        *       Station  *  Data (Mbytes)
         1   01 Jun 2027 03:35:04.107   01 Jun 2027 03:35:21.319            17.212                Irkutsk           537.875
         2   01 Jun 2027 03:36:20.440   01 Jun 2027 03:36:41.932            21.492              Murmansk2           671.625
         3   01 Jun 2027 03:36:41.932   01 Jun 2027 03:37:11.808            29.876              Murmansk1           933.625
         4   01 Jun 2027 03:37:16.565   01 Jun 2027 03:39:03.334           106.769                Novosib          3336.531
         5   01 Jun 2027 03:39:07.148   01 Jun 2027 03:39:36.291            29.143                Norilsk           910.719
         6   01 Jun 2027 03:39:50.379   01 Jun 2027 03:42:27.642           157.263                Novosib          4914.469
         7   01 Jun 2027 03:42:35.578   01 Jun 2027 03:44:48.185           132.607                  Delhi          4143.969
         8   01 Jun 2027 05:12:31.209   01 Jun 2027 05:13:01.377            30.168                Novosib           942.750
         9   01 Jun 2027 05:14:29.664   01 Jun 2027 05:14:53.571            23.907              Murmansk2           747.094
        10   01 Jun 2027 05:15:11.946   01 Jun 2027 05:16:55.298           103.352              Murmansk2          3229.750
        11   01 Jun 2027 06:36:13.232   01 Jun 2027 06:37:15.501            62.269               Magadan1          1945.906
        12   01 Jun 2027 06:37:21.746   01 Jun 2027 06:38:02.262            40.516                Anadyr1          1266.125
        13   01 Jun 2027 08:13:57.513   01 Jun 2027 08:15:30.382            92.869                Norilsk          2902.156
        14   01 Jun 2027 08:15:31.178   01 Jun 2027 08:18:07.297           156.119                Anadyr2          4878.719
        15   01 Jun 2027 08:22:18.710   01 Jun 2027 08:22:49.534            30.824                 Moscow           963.250
        16   01 Jun 2027 08:23:05.962   01 Jun 2027 08:23:29.874            23.912                 Moscow           747.250
        17   01 Jun 2027 09:44:54.103   01 Jun 2027 09:47:27.708           153.605               Magadan2          4800.156
        18   01 Jun 2027 09:48:05.352   01 Jun 2027 09:48:13.583             8.231               Magadan2           257.219
        19   01 Jun 2027 09:49:01.971   01 Jun 2027 09:50:01.406            59.435               Magadan1          1857.344
        20   01 Jun 2027 09:50:34.944   01 Jun 2027 09:51:40.544            65.600                Irkutsk          2050.000
        21   01 Jun 2027 09:51:44.240   01 Jun 2027 09:52:51.769            67.529                Novosib          2110.281
        22   01 Jun 2027 09:52:52.622   01 Jun 2027 09:53:22.967            30.345               Magadan1           948.281
        23   01 Jun 2027 09:53:22.967   01 Jun 2027 09:53:33.005            10.038               Magadan2           313.688
        24   01 Jun 2027 09:54:59.541   01 Jun 2027 09:55:54.414            54.873              Murmansk2          1714.781
        25   01 Jun 2027 10:28:29.694   01 Jun 2027 10:30:38.272           128.578            RioGallegos          4018.062
        26   01 Jun 2027 11:04:23.838   01 Jun 2027 11:04:56.552            32.714                Sumatra          1022.313
        27   01 Jun 2027 11:25:02.824   01 Jun 2027 11:25:19.191            16.367                Irkutsk           511.469
        28   01 Jun 2027 11:25:55.461   01 Jun 2027 11:29:40.272           224.811                Novosib          7025.344
        29   01 Jun 2027 11:29:47.279   01 Jun 2027 11:30:09.102            21.823              Murmansk2           681.969
        30   01 Jun 2027 11:30:31.229   01 Jun 2027 11:30:58.835            27.606              Murmansk2           862.687
        31   01 Jun 2027 11:32:16.286   01 Jun 2027 11:32:30.652            14.366              Murmansk2           448.938
        32   01 Jun 2027 11:33:55.317   01 Jun 2027 11:34:18.932            23.615              Murmansk2           737.969
        33   01 Jun 2027 12:05:35.174   01 Jun 2027 12:06:31.893            56.719            RioGallegos          1772.469
        34   01 Jun 2027 12:07:15.080   01 Jun 2027 12:08:17.419            62.339            RioGallegos          1948.094
        35   01 Jun 2027 12:09:37.770   01 Jun 2027 12:10:31.336            53.566            RioGallegos          1673.938
        36   01 Jun 2027 12:39:49.927   01 Jun 2027 12:41:16.724            86.797                Sumatra          2712.406
        37   01 Jun 2027 12:44:16.727   01 Jun 2027 12:44:52.645            35.918                Sumatra          1122.438
        38   01 Jun 2027 12:54:25.582   01 Jun 2027 12:55:38.023            72.441                Novosib          2263.781
        39   01 Jun 2027 12:55:42.972   01 Jun 2027 12:56:26.612            43.640                Novosib          1363.750
        40   01 Jun 2027 12:56:37.811   01 Jun 2027 12:59:56.023           198.212                Irkutsk          6194.125
        41   01 Jun 2027 14:24:46.920   01 Jun 2027 14:27:44.680           177.760                  Delhi          5555.000
        42   01 Jun 2027 14:28:12.818   01 Jun 2027 14:29:52.794            99.976                  Delhi          3124.250
        43   01 Jun 2027 14:33:11.953   01 Jun 2027 14:37:23.838           251.885                Novosib          7871.406
        44   01 Jun 2027 16:08:03.224   01 Jun 2027 16:08:40.182            36.958                 Moscow          1154.938
        45   01 Jun 2027 16:09:54.935   01 Jun 2027 16:11:07.838            72.903                 Moscow          2278.219
        46   01 Jun 2027 16:11:34.318   01 Jun 2027 16:12:16.275            41.957              Murmansk1          1311.156
        47   01 Jun 2027 16:18:23.590   01 Jun 2027 16:21:31.787           188.197                Norilsk          5881.156
        48   01 Jun 2027 17:21:32.861   01 Jun 2027 17:23:17.982           105.121               CapeTown          3285.031
        49   01 Jun 2027 17:47:20.162   01 Jun 2027 17:52:02.933           282.771                 Moscow          8836.594
        50   01 Jun 2027 17:54:19.054   01 Jun 2027 17:54:46.894            27.840              Murmansk1           870.000
        51   01 Jun 2027 18:57:58.608   01 Jun 2027 19:01:21.019           202.411               CapeTown          6325.344
        52   01 Jun 2027 19:30:18.908   01 Jun 2027 19:35:23.727           304.819              Murmansk1          9525.594
        53   01 Jun 2027 19:41:18.384   01 Jun 2027 19:41:21.769             3.385               Magadan2           105.781
        54   01 Jun 2027 21:13:50.414   01 Jun 2027 21:17:33.676           223.262                Anadyr2          6976.938
        55   01 Jun 2027 21:17:40.247   01 Jun 2027 21:19:01.172            80.925                Anadyr1          2528.906
        56   01 Jun 2027 21:19:09.124   01 Jun 2027 21:22:13.862           184.738               Magadan1          5773.062
        57   01 Jun 2027 22:08:44.775   01 Jun 2027 22:11:54.088           189.313            RioGallegos          5916.031
        58   01 Jun 2027 22:14:48.719   01 Jun 2027 22:15:15.971            27.252            RioGallegos           851.625
        59   01 Jun 2027 22:49:33.668   01 Jun 2027 22:51:08.347            94.679                Anadyr2          2958.719
        60   01 Jun 2027 22:51:33.734   01 Jun 2027 22:51:44.834            11.100                Anadyr2           346.875
        61   01 Jun 2027 22:51:44.917   01 Jun 2027 22:53:18.158            93.241                Norilsk          2913.781
        62   01 Jun 2027 22:53:30.529   01 Jun 2027 22:55:24.421           113.892               Magadan2          3559.125
        63   01 Jun 2027 22:55:24.421   01 Jun 2027 22:55:52.647            28.226               Magadan1           882.062
        64   01 Jun 2027 22:56:06.397   01 Jun 2027 22:57:00.341            53.944                Irkutsk          1685.750
        65   01 Jun 2027 22:58:48.537   01 Jun 2027 22:59:29.742            41.205                Irkutsk          1287.656
        66   01 Jun 2027 23:10:10.448   01 Jun 2027 23:13:14.184           183.736                Sumatra          5741.750
        67   02 Jun 2027 00:24:33.233   02 Jun 2027 00:24:35.414             2.181                Anadyr1            68.156
        68   02 Jun 2027 00:24:50.710   02 Jun 2027 00:25:09.097            18.387                Anadyr2           574.594
        69   02 Jun 2027 00:25:52.270   02 Jun 2027 00:27:06.714            74.444                Anadyr1          2326.375
        70   02 Jun 2027 00:27:25.279   02 Jun 2027 00:27:26.870             1.591                Anadyr2            49.719
        71   02 Jun 2027 00:27:35.226   02 Jun 2027 00:29:18.598           103.372                Norilsk          3230.375
        72   02 Jun 2027 00:30:10.990   02 Jun 2027 00:30:25.001            14.011               Magadan2           437.844
        73   02 Jun 2027 00:31:27.440   02 Jun 2027 00:33:35.353           127.913                Irkutsk          3997.281
        74   02 Jun 2027 00:33:37.874   02 Jun 2027 00:34:12.140            34.266                Novosib          1070.812
        75   02 Jun 2027 00:40:07.158   02 Jun 2027 00:42:59.468           172.310                  Delhi          5384.688
        76   02 Jun 2027 01:21:20.402   02 Jun 2027 01:22:12.733            52.331            RioGallegos          1635.344
        77   02 Jun 2027 01:26:54.035   02 Jun 2027 01:27:13.946            19.911            RioGallegos           622.219
        78   02 Jun 2027 01:29:26.170   02 Jun 2027 01:29:38.031            11.861            RioGallegos           370.656
        79   02 Jun 2027 01:29:56.667   02 Jun 2027 01:30:30.845            34.178            RioGallegos          1068.063
        80   02 Jun 2027 01:58:19.070   02 Jun 2027 01:58:21.184             2.114                Anadyr1            66.063
        81   02 Jun 2027 01:58:44.202   02 Jun 2027 01:58:59.327            15.125                Anadyr2           472.656
        82   02 Jun 2027 01:59:08.658   02 Jun 2027 01:59:45.541            36.883                Anadyr1          1152.594
        83   02 Jun 2027 02:00:38.138   02 Jun 2027 02:00:41.011             2.873                Anadyr1            89.781
        84   02 Jun 2027 02:03:19.821   02 Jun 2027 02:03:37.325            17.504                Anadyr1           547.000
        85   02 Jun 2027 02:03:52.701   02 Jun 2027 02:05:13.106            80.405                Norilsk          2512.656
        86   02 Jun 2027 02:05:46.511   02 Jun 2027 02:05:55.311             8.800               Magadan1           275.000
        87   02 Jun 2027 02:06:05.406   02 Jun 2027 02:07:27.991            82.585              Murmansk2          2580.781
        88   02 Jun 2027 02:07:31.799   02 Jun 2027 02:07:35.578             3.779                Novosib           118.094
        89   02 Jun 2027 02:07:50.346   02 Jun 2027 02:08:46.424            56.078                Irkutsk          1752.437
        90   02 Jun 2027 02:08:55.002   02 Jun 2027 02:09:49.044            54.042                Irkutsk          1688.813
        91   02 Jun 2027 02:16:12.444   02 Jun 2027 02:16:52.668            40.224                  Delhi          1257.000
        92   02 Jun 2027 02:23:44.353   02 Jun 2027 02:24:27.694            43.341                  Delhi          1354.406
        93   02 Jun 2027 02:57:45.393   02 Jun 2027 02:58:17.374            31.981            RioGallegos           999.406
        94   02 Jun 2027 02:58:39.076   02 Jun 2027 02:59:30.803            51.727            RioGallegos          1616.469
        95   02 Jun 2027 03:00:25.978   02 Jun 2027 03:00:58.992            33.014            RioGallegos          1031.688
        96   02 Jun 2027 03:47:53.627   02 Jun 2027 03:48:44.815            51.188                 Moscow          1599.625
        97   02 Jun 2027 03:48:46.233   02 Jun 2027 03:49:13.723            27.490              Murmansk2           859.063
        98   02 Jun 2027 03:49:20.392   02 Jun 2027 03:49:35.486            15.094              Murmansk2           471.688
        99   02 Jun 2027 03:49:55.782   02 Jun 2027 03:54:04.252           248.470                Novosib          7764.687
       100   02 Jun 2027 03:56:12.861   02 Jun 2027 03:56:38.761            25.900                 Moscow           809.375
       101   02 Jun 2027 03:57:01.933   02 Jun 2027 03:57:05.425             3.492                 Moscow           109.125
       102   02 Jun 2027 04:10:31.784   02 Jun 2027 04:10:45.878            14.094               CapeTown           440.437
       103   02 Jun 2027 04:11:06.291   02 Jun 2027 04:11:23.333            17.042               CapeTown           532.562
       104   02 Jun 2027 04:15:23.921   02 Jun 2027 04:15:37.683            13.762               CapeTown           430.063
       105   02 Jun 2027 04:16:21.997   02 Jun 2027 04:16:52.733            30.736               CapeTown           960.500
       106   02 Jun 2027 05:25:16.025   02 Jun 2027 05:25:53.077            37.052                Norilsk          1157.875
       107   02 Jun 2027 05:26:06.606   02 Jun 2027 05:28:33.570           146.964                 Moscow          4592.625
       108   02 Jun 2027 05:28:56.217   02 Jun 2027 05:29:35.129            38.912              Murmansk2          1216.000
       109   02 Jun 2027 05:29:54.379   02 Jun 2027 05:30:26.042            31.663              Murmansk2           989.469
       110   02 Jun 2027 05:56:25.211   02 Jun 2027 05:57:18.506            53.295               CapeTown          1665.469
       111   02 Jun 2027 06:48:41.212   02 Jun 2027 06:51:29.126           167.914                Anadyr1          5247.313
       112   02 Jun 2027 08:25:52.658   02 Jun 2027 08:28:31.978           159.320                Anadyr1          4978.750
       113   02 Jun 2027 08:28:31.978   02 Jun 2027 08:28:47.030            15.052                Anadyr2           470.375
       114   02 Jun 2027 08:29:44.785   02 Jun 2027 08:30:03.916            19.131                Anadyr2           597.844
       115   02 Jun 2027 10:00:15.071   02 Jun 2027 10:00:30.262            15.191               Magadan2           474.719
       116   02 Jun 2027 10:00:30.262   02 Jun 2027 10:00:40.939            10.677               Magadan1           333.656
       117   02 Jun 2027 10:01:13.451   02 Jun 2027 10:05:25.976           252.525               Magadan1          7891.406
       118   02 Jun 2027 11:37:21.709   02 Jun 2027 11:39:37.713           136.004                Norilsk          4250.125
       119   02 Jun 2027 11:39:44.877   02 Jun 2027 11:43:10.561           205.684              Murmansk2          6427.625
       120   02 Jun 2027 11:43:41.008   02 Jun 2027 11:44:39.776            58.768                Norilsk          1836.500
       121   02 Jun 2027 12:18:05.216   02 Jun 2027 12:19:12.777            67.561            RioGallegos          2111.281
       122   02 Jun 2027 12:21:36.370   02 Jun 2027 12:22:14.187            37.817            RioGallegos          1181.781
       123   02 Jun 2027 12:52:18.122   02 Jun 2027 12:55:22.802           184.680                Sumatra          5771.250
       124   02 Jun 2027 12:56:27.546   02 Jun 2027 12:57:30.353            62.807                Sumatra          1962.719
       125   02 Jun 2027 13:07:48.246   02 Jun 2027 13:08:41.907            53.661                Irkutsk          1676.906
       126   02 Jun 2027 13:09:47.543   02 Jun 2027 13:11:57.151           129.608                Irkutsk          4050.250
       127   02 Jun 2027 14:37:30.481   02 Jun 2027 14:42:20.042           289.561                  Delhi          9048.781
       128   02 Jun 2027 14:46:00.704   02 Jun 2027 14:49:24.119           203.415                Novosib          6356.719
       129   02 Jun 2027 16:01:47.623   02 Jun 2027 16:02:52.847            65.224               CapeTown          2038.250
       130   02 Jun 2027 16:20:15.105   02 Jun 2027 16:21:20.105            65.000                 Moscow          2031.250
       131   02 Jun 2027 16:23:44.354   02 Jun 2027 16:25:22.750            98.396              Murmansk2          3074.875
       132   02 Jun 2027 16:25:39.554   02 Jun 2027 16:26:17.976            38.422              Murmansk1          1200.687
       133   02 Jun 2027 16:39:06.132   02 Jun 2027 16:40:22.073            75.941                Anadyr1          2373.156
       134   02 Jun 2027 16:40:56.141   02 Jun 2027 16:41:02.691             6.550                Anadyr1           204.687
       135   02 Jun 2027 16:41:47.021   02 Jun 2027 16:42:41.065            54.044                Anadyr1          1688.875
       136   02 Jun 2027 16:44:45.235   02 Jun 2027 16:45:34.296            49.061                Anadyr2          1533.156
       137   02 Jun 2027 17:33:27.896   02 Jun 2027 17:35:28.712           120.816               CapeTown          3775.500
       138   02 Jun 2027 17:42:01.461   02 Jun 2027 17:42:41.977            40.516               CapeTown          1266.125
       139   02 Jun 2027 17:45:38.077   02 Jun 2027 17:46:08.199            30.122               CapeTown           941.312
       140   02 Jun 2027 18:00:17.993   02 Jun 2027 18:04:03.725           225.732                 Moscow          7054.125
       141   02 Jun 2027 18:10:56.110   02 Jun 2027 18:12:12.748            76.638              Murmansk1          2394.938
       142   02 Jun 2027 18:22:57.150   02 Jun 2027 18:23:17.413            20.263                Anadyr1           633.219
       143   02 Jun 2027 18:25:14.831   02 Jun 2027 18:25:47.599            32.768                Anadyr2          1024.000
       144   02 Jun 2027 19:10:20.514   02 Jun 2027 19:11:28.183            67.669               CapeTown          2114.656
       145   02 Jun 2027 19:14:19.954   02 Jun 2027 19:15:29.574            69.620               CapeTown          2175.625
       146   02 Jun 2027 19:43:23.941   02 Jun 2027 19:47:02.298           218.357              Murmansk1          6823.656
       147   02 Jun 2027 19:52:31.034   02 Jun 2027 19:53:22.661            51.627               Magadan2          1613.344
       148   02 Jun 2027 19:55:09.939   02 Jun 2027 19:55:11.992             2.053               Magadan2            64.156
       149   02 Jun 2027 19:55:36.860   02 Jun 2027 19:56:06.198            29.338               Magadan2           916.813
       150   02 Jun 2027 19:57:22.430   02 Jun 2027 19:57:50.208            27.778               Magadan2           868.063
       151   02 Jun 2027 19:58:46.686   02 Jun 2027 19:58:50.314             3.628               Magadan2           113.375
       152   02 Jun 2027 19:59:11.673   02 Jun 2027 19:59:26.151            14.478               Magadan2           452.437
       153   02 Jun 2027 20:00:58.342   02 Jun 2027 20:01:32.416            34.074               Magadan2          1064.813
       154   02 Jun 2027 20:02:40.590   02 Jun 2027 20:03:00.413            19.823               Magadan1           619.469
       155   02 Jun 2027 20:03:35.812   02 Jun 2027 20:03:42.802             6.990               Magadan2           218.437
       156   02 Jun 2027 21:25:51.602   02 Jun 2027 21:29:34.193           222.591                Anadyr1          6955.969
       157   02 Jun 2027 21:29:35.300   02 Jun 2027 21:31:52.957           137.657               Magadan2          4301.781
       158   02 Jun 2027 21:31:56.361   02 Jun 2027 21:32:55.876            59.515               Magadan1          1859.844
       159   02 Jun 2027 21:34:31.140   02 Jun 2027 21:35:33.629            62.489                Anadyr2          1952.781
       160   02 Jun 2027 21:36:41.986   02 Jun 2027 21:37:11.131            29.145               Magadan2           910.781
       161   02 Jun 2027 21:37:43.143   02 Jun 2027 21:38:20.185            37.042               Magadan1          1157.563
       162   02 Jun 2027 21:40:16.339   02 Jun 2027 21:41:03.184            46.845               Magadan2          1463.906
       163   02 Jun 2027 22:20:28.309   02 Jun 2027 22:21:20.022            51.713            RioGallegos          1616.031
       164   02 Jun 2027 22:22:32.389   02 Jun 2027 22:22:47.155            14.766            RioGallegos           461.438
       165   02 Jun 2027 22:23:21.240   02 Jun 2027 22:23:45.798            24.558            RioGallegos           767.438
       166   02 Jun 2027 22:26:01.711   02 Jun 2027 22:26:37.807            36.096            RioGallegos          1128.000
       167   02 Jun 2027 22:28:57.423   02 Jun 2027 22:29:12.195            14.772            RioGallegos           461.625
       168   02 Jun 2027 22:29:52.657   02 Jun 2027 22:29:58.691             6.034            RioGallegos           188.562
       169   02 Jun 2027 23:01:31.429   02 Jun 2027 23:03:36.505           125.076                Anadyr2          3908.625
       170   02 Jun 2027 23:03:36.505   02 Jun 2027 23:04:12.344            35.839                Anadyr1          1119.969
       171   02 Jun 2027 23:04:18.304   02 Jun 2027 23:04:38.874            20.570                Norilsk           642.813
       172   02 Jun 2027 23:04:45.652   02 Jun 2027 23:06:21.853            96.201               Magadan2          3006.281
       173   02 Jun 2027 23:08:31.914   02 Jun 2027 23:08:52.455            20.541                Irkutsk           641.906
       174   02 Jun 2027 23:09:11.607   02 Jun 2027 23:09:31.169            19.562                Irkutsk           611.312
       175   02 Jun 2027 23:09:50.298   02 Jun 2027 23:10:12.373            22.075                Irkutsk           689.844
       176   02 Jun 2027 23:10:39.207   02 Jun 2027 23:12:38.044           118.837                Novosib          3713.656
       177   02 Jun 2027 23:18:56.477   02 Jun 2027 23:19:12.196            15.719                Irkutsk           491.219
       178   02 Jun 2027 23:25:05.627   02 Jun 2027 23:25:38.755            33.128                Sumatra          1035.250
       179   02 Jun 2027 23:28:34.806   02 Jun 2027 23:28:51.875            17.069                Sumatra           533.406
       180   02 Jun 2027 23:28:58.417   02 Jun 2027 23:29:18.477            20.060                Sumatra           626.875
       181   02 Jun 2027 23:31:12.801   02 Jun 2027 23:31:52.258            39.457                Sumatra          1233.031
       182   02 Jun 2027 23:33:53.104   02 Jun 2027 23:33:55.019             1.915                Sumatra            59.844
       183   03 Jun 2027 00:02:51.265   03 Jun 2027 00:03:09.881            18.616            RioGallegos           581.750
       184   03 Jun 2027 00:04:33.795   03 Jun 2027 00:05:07.896            34.101            RioGallegos          1065.656
       185   03 Jun 2027 00:05:42.225   03 Jun 2027 00:05:53.897            11.672            RioGallegos           364.750
       186   03 Jun 2027 00:07:05.899   03 Jun 2027 00:07:13.816             7.917            RioGallegos           247.406
       187   03 Jun 2027 00:08:02.259   03 Jun 2027 00:08:27.306            25.047            RioGallegos           782.719
       188   03 Jun 2027 00:36:40.484   03 Jun 2027 00:36:59.418            18.934                Anadyr2           591.687
       189   03 Jun 2027 00:36:59.418   03 Jun 2027 00:37:40.428            41.010                Anadyr1          1281.562
       190   03 Jun 2027 00:38:32.001   03 Jun 2027 00:38:47.850            15.849                Anadyr2           495.281
       191   03 Jun 2027 00:39:37.482   03 Jun 2027 00:41:20.509           103.027                Norilsk          3219.594
       192   03 Jun 2027 00:41:40.235   03 Jun 2027 00:42:33.302            53.067               Magadan2          1658.344
       193   03 Jun 2027 00:43:29.659   03 Jun 2027 00:44:56.045            86.386                Irkutsk          2699.562
       194   03 Jun 2027 00:48:39.558   03 Jun 2027 00:48:48.695             9.137                Irkutsk           285.531
       195   03 Jun 2027 00:49:10.508   03 Jun 2027 00:49:18.755             8.247                Irkutsk           257.719
       196   03 Jun 2027 00:49:40.333   03 Jun 2027 00:50:11.274            30.941                Irkutsk           966.906
       197   03 Jun 2027 00:51:00.795   03 Jun 2027 00:51:25.148            24.353                Novosib           761.031
       198   03 Jun 2027 00:52:36.906   03 Jun 2027 00:53:21.198            44.292                Irkutsk          1384.125
       199   03 Jun 2027 00:55:42.110   03 Jun 2027 00:56:14.511            32.401                Irkutsk          1012.531
       200   03 Jun 2027 00:58:54.331   03 Jun 2027 01:00:25.615            91.284                  Delhi          2852.625
       201   03 Jun 2027 01:36:29.975   03 Jun 2027 01:37:21.764            51.789            RioGallegos          1618.406
       202   03 Jun 2027 01:42:13.344   03 Jun 2027 01:42:34.278            20.934            RioGallegos           654.187
       203   03 Jun 2027 02:10:00.449   03 Jun 2027 02:10:02.646             2.197                Anadyr1            68.656
       204   03 Jun 2027 02:10:08.597   03 Jun 2027 02:10:53.756            45.159                Anadyr1          1411.219
       205   03 Jun 2027 02:12:01.470   03 Jun 2027 02:12:26.332            24.862                Anadyr2           776.937
       206   03 Jun 2027 02:14:24.398   03 Jun 2027 02:15:20.553            56.155                Anadyr1          1754.844
       207   03 Jun 2027 02:15:37.712   03 Jun 2027 02:15:45.012             7.300                Norilsk           228.125
       208   03 Jun 2027 02:15:57.631   03 Jun 2027 02:16:08.483            10.852               Magadan1           339.125
       209   03 Jun 2027 02:16:27.857   03 Jun 2027 02:16:33.817             5.960               Magadan2           186.250
       210   03 Jun 2027 02:16:38.947   03 Jun 2027 02:16:52.542            13.595                Norilsk           424.844
       211   03 Jun 2027 02:18:01.492   03 Jun 2027 02:18:48.029            46.537              Murmansk1          1454.281
       212   03 Jun 2027 02:19:06.803   03 Jun 2027 02:20:10.439            63.636              Murmansk2          1988.625
       213   03 Jun 2027 02:22:55.007   03 Jun 2027 02:23:15.743            20.736                Irkutsk           648.000
       214   03 Jun 2027 02:25:29.214   03 Jun 2027 02:25:38.113             8.899                Novosib           278.094
       215   03 Jun 2027 02:25:58.656   03 Jun 2027 02:26:26.671            28.015                Irkutsk           875.469
       216   03 Jun 2027 02:28:09.556   03 Jun 2027 02:28:26.194            16.638                Novosib           519.938
       217   03 Jun 2027 02:30:07.044   03 Jun 2027 02:30:21.438            14.394                Novosib           449.813
       218   03 Jun 2027 02:31:33.683   03 Jun 2027 02:31:54.678            20.995                  Delhi           656.094
       219   03 Jun 2027 02:34:36.408   03 Jun 2027 02:35:41.793            65.385                  Delhi          2043.281
       220   03 Jun 2027 02:38:21.315   03 Jun 2027 02:38:56.313            34.998                  Delhi          1093.687
       221   03 Jun 2027 04:00:18.290   03 Jun 2027 04:03:43.358           205.068                Norilsk          6408.375
       222   03 Jun 2027 04:04:18.677   03 Jun 2027 04:05:39.117            80.440              Murmansk1          2513.750
       223   03 Jun 2027 04:06:25.058   03 Jun 2027 04:09:23.284           178.226                 Moscow          5569.563
       224   03 Jun 2027 04:21:42.985   03 Jun 2027 04:33:25.157           702.172               CapeTown         21942.875
       225   03 Jun 2027 05:37:11.960   03 Jun 2027 05:38:03.701            51.741                Norilsk          1616.906
       226   03 Jun 2027 05:38:09.421   03 Jun 2027 05:39:53.789           104.368              Murmansk2          3261.500
       227   03 Jun 2027 05:39:53.789   03 Jun 2027 05:40:06.933            13.144              Murmansk1           410.750
       228   03 Jun 2027 05:41:53.139   03 Jun 2027 05:42:13.390            20.251              Murmansk1           632.844
       229   03 Jun 2027 05:43:47.150   03 Jun 2027 05:44:13.845            26.695                 Moscow           834.219
       230   03 Jun 2027 06:08:23.488   03 Jun 2027 06:09:07.159            43.671               CapeTown          1364.719
       231   03 Jun 2027 07:01:53.880   03 Jun 2027 07:06:27.683           273.803                Anadyr2          8556.344
       232   03 Jun 2027 08:36:39.339   03 Jun 2027 08:38:09.228            89.889                Anadyr2          2809.031
       233   03 Jun 2027 08:38:58.450   03 Jun 2027 08:41:59.095           180.645                Anadyr1          5645.156
       234   03 Jun 2027 10:11:00.991   03 Jun 2027 10:12:16.151            75.160               Magadan1          2348.750
       235   03 Jun 2027 10:12:59.269   03 Jun 2027 10:13:34.765            35.496               Magadan1          1109.250
       236   03 Jun 2027 10:13:53.091   03 Jun 2027 10:17:16.481           203.390               Magadan2          6355.938
       237   03 Jun 2027 10:17:36.350   03 Jun 2027 10:18:08.492            32.142              Murmansk1          1004.437
       238   03 Jun 2027 10:52:28.631   03 Jun 2027 10:53:30.013            61.382            RioGallegos          1918.187
       239   03 Jun 2027 10:53:49.734   03 Jun 2027 10:54:51.309            61.575            RioGallegos          1924.219
       240   03 Jun 2027 11:34:03.923   03 Jun 2027 11:35:02.933            59.010                Sumatra          1844.063
       241   03 Jun 2027 11:47:22.128   03 Jun 2027 11:47:55.205            33.077                Norilsk          1033.656
       242   03 Jun 2027 11:47:57.919   03 Jun 2027 11:48:56.498            58.579                Irkutsk          1830.594
       243   03 Jun 2027 11:49:10.337   03 Jun 2027 11:49:41.974            31.637                Norilsk           988.656
       244   03 Jun 2027 11:49:56.876   03 Jun 2027 11:51:04.095            67.219                Novosib          2100.594
       245   03 Jun 2027 11:51:10.153   03 Jun 2027 11:51:11.817             1.664                Norilsk            52.000
       246   03 Jun 2027 11:51:12.463   03 Jun 2027 11:51:55.051            42.588                Irkutsk          1330.875
       247   03 Jun 2027 11:51:57.719   03 Jun 2027 11:53:06.858            69.139                Novosib          2160.594
       248   03 Jun 2027 11:53:14.918   03 Jun 2027 11:53:55.788            40.870                Novosib          1277.187
       249   03 Jun 2027 11:54:31.921   03 Jun 2027 11:54:52.276            20.355              Murmansk2           636.094
       250   03 Jun 2027 12:30:41.738   03 Jun 2027 12:32:14.751            93.013            RioGallegos          2906.656
       251   03 Jun 2027 12:35:05.506   03 Jun 2027 12:35:32.803            27.297            RioGallegos           853.031
       252   03 Jun 2027 12:35:39.974   03 Jun 2027 12:36:22.350            42.376            RioGallegos          1324.250
       253   03 Jun 2027 13:04:58.235   03 Jun 2027 13:07:32.654           154.419                Sumatra          4825.594
       254   03 Jun 2027 13:11:05.001   03 Jun 2027 13:11:30.487            25.486                Sumatra           796.438
       255   03 Jun 2027 13:18:47.466   03 Jun 2027 13:18:48.478             1.012                Novosib            31.625
       256   03 Jun 2027 13:20:42.256   03 Jun 2027 13:23:57.315           195.059                Irkutsk          6095.594
       257   03 Jun 2027 13:25:07.574   03 Jun 2027 13:25:15.126             7.552                Irkutsk           236.000
       258   03 Jun 2027 13:27:43.380   03 Jun 2027 13:27:59.984            16.604                Irkutsk           518.875
       259   03 Jun 2027 14:50:31.545   03 Jun 2027 14:54:32.506           240.961                  Delhi          7530.031
       260   03 Jun 2027 14:59:01.624   03 Jun 2027 15:01:23.566           141.942                Novosib          4435.688
       261   03 Jun 2027 15:01:53.748   03 Jun 2027 15:02:23.356            29.608                Norilsk           925.250
       262   03 Jun 2027 15:02:30.097   03 Jun 2027 15:03:08.225            38.128                Novosib          1191.500
       263   03 Jun 2027 15:06:50.540   03 Jun 2027 15:07:11.180            20.640                Norilsk           645.000
       264   03 Jun 2027 16:12:13.125   03 Jun 2027 16:13:29.269            76.144               CapeTown          2379.500
       265   03 Jun 2027 16:14:55.854   03 Jun 2027 16:15:31.466            35.612               CapeTown          1112.875
       266   03 Jun 2027 16:32:30.486   03 Jun 2027 16:33:19.628            49.142                 Moscow          1535.688
       267   03 Jun 2027 16:35:56.238   03 Jun 2027 16:36:39.018            42.780              Murmansk1          1336.875
       268   03 Jun 2027 16:37:27.742   03 Jun 2027 16:38:16.004            48.262              Murmansk1          1508.187
       269   03 Jun 2027 16:41:54.664   03 Jun 2027 16:42:30.245            35.581              Murmansk2          1111.906
       270   03 Jun 2027 16:44:34.103   03 Jun 2027 16:44:39.571             5.468              Murmansk1           170.875
       271   03 Jun 2027 16:46:14.402   03 Jun 2027 16:46:28.555            14.153              Murmansk2           442.281
       272   03 Jun 2027 16:47:07.137   03 Jun 2027 16:47:48.054            40.917              Murmansk1          1278.656
       273   03 Jun 2027 16:50:52.074   03 Jun 2027 16:51:52.513            60.439                Anadyr1          1888.719
       274   03 Jun 2027 16:52:36.526   03 Jun 2027 16:52:46.387             9.861                Anadyr2           308.156
       275   03 Jun 2027 16:53:35.689   03 Jun 2027 16:54:37.323            61.634                Anadyr2          1926.062
       276   03 Jun 2027 17:45:25.993   03 Jun 2027 17:46:05.223            39.230               CapeTown          1225.937
       277   03 Jun 2027 17:49:44.112   03 Jun 2027 17:51:04.858            80.746               CapeTown          2523.312
       278   03 Jun 2027 18:13:35.454   03 Jun 2027 18:16:58.545           203.091                 Moscow          6346.594
       279   03 Jun 2027 18:18:03.283   03 Jun 2027 18:19:29.201            85.918              Murmansk2          2684.938
       280   03 Jun 2027 18:30:50.875   03 Jun 2027 18:31:35.117            44.242               Magadan2          1382.563
       281   03 Jun 2027 19:22:49.765   03 Jun 2027 19:23:21.401            31.636               CapeTown           988.625
       282   03 Jun 2027 19:26:06.693   03 Jun 2027 19:27:54.725           108.032               CapeTown          3376.000
       283   03 Jun 2027 19:57:10.908   03 Jun 2027 19:58:00.982            50.074              Murmansk2          1564.813
       284   03 Jun 2027 20:01:57.653   03 Jun 2027 20:05:18.481           200.828                Anadyr2          6275.875
       285   03 Jun 2027 20:05:26.290   03 Jun 2027 20:05:46.251            19.961               Magadan2           623.781
       286   03 Jun 2027 20:06:56.396   03 Jun 2027 20:06:59.476             3.080               Magadan2            96.250
       287   03 Jun 2027 20:07:05.640   03 Jun 2027 20:07:47.167            41.527               Magadan2          1297.719
       288   03 Jun 2027 20:13:57.006   03 Jun 2027 20:14:12.583            15.577               Magadan2           486.781
       289   03 Jun 2027 21:37:52.558   03 Jun 2027 21:41:34.356           221.798                Anadyr1          6931.187
       290   03 Jun 2027 21:41:52.653   03 Jun 2027 21:43:46.808           114.155                Norilsk          3567.344
       291   03 Jun 2027 21:43:47.596   03 Jun 2027 21:43:59.008            11.412               Magadan1           356.625
       292   03 Jun 2027 21:43:59.008   03 Jun 2027 21:44:37.068            38.060               Magadan2          1189.375
       293   03 Jun 2027 21:45:14.082   03 Jun 2027 21:45:54.209            40.127               Magadan2          1253.969
       294   03 Jun 2027 21:46:35.155   03 Jun 2027 21:46:50.531            15.376               Magadan1           480.500
       295   03 Jun 2027 21:47:18.213   03 Jun 2027 21:47:22.338             4.125               Magadan1           128.906
       296   03 Jun 2027 21:47:22.338   03 Jun 2027 21:47:24.758             2.420               Magadan2            75.625
       297   03 Jun 2027 21:47:32.667   03 Jun 2027 21:48:00.532            27.865               Magadan2           870.781
       298   03 Jun 2027 21:52:03.252   03 Jun 2027 21:52:04.731             1.479               Magadan1            46.219
       299   03 Jun 2027 21:52:59.232   03 Jun 2027 21:53:03.215             3.983               Magadan1           124.469
       300   03 Jun 2027 22:32:16.112   03 Jun 2027 22:34:18.544           122.432            RioGallegos          3826.000
       301   03 Jun 2027 22:34:26.504   03 Jun 2027 22:35:26.652            60.148            RioGallegos          1879.625
       302   03 Jun 2027 22:40:22.058   03 Jun 2027 22:40:49.247            27.189            RioGallegos           849.656
       303   03 Jun 2027 23:13:28.434   03 Jun 2027 23:14:15.544            47.110                Anadyr2          1472.188
       304   03 Jun 2027 23:15:41.275   03 Jun 2027 23:16:36.519            55.244                Anadyr2          1726.375
       305   03 Jun 2027 23:16:50.977   03 Jun 2027 23:16:58.684             7.707                Anadyr2           240.844
       306   03 Jun 2027 23:17:16.432   03 Jun 2027 23:17:27.956            11.524               Magadan1           360.125
       307   03 Jun 2027 23:17:31.152   03 Jun 2027 23:18:00.454            29.302               Magadan1           915.687
       308   03 Jun 2027 23:18:06.025   03 Jun 2027 23:18:15.280             9.255               Magadan2           289.219
       309   03 Jun 2027 23:19:13.129   03 Jun 2027 23:19:50.770            37.641               Magadan2          1176.281
       310   03 Jun 2027 23:19:51.762   03 Jun 2027 23:20:41.240            49.478                Irkutsk          1546.187
       311   03 Jun 2027 23:21:39.046   03 Jun 2027 23:22:22.328            43.282                Novosib          1352.563
       312   03 Jun 2027 23:23:00.214   03 Jun 2027 23:23:15.597            15.383               Magadan1           480.719
       313   03 Jun 2027 23:23:16.202   03 Jun 2027 23:24:20.764            64.562                Novosib          2017.562
       314   03 Jun 2027 23:26:28.079   03 Jun 2027 23:27:27.661            59.582                Novosib          1861.937
       315   03 Jun 2027 23:36:23.470   03 Jun 2027 23:37:08.667            45.197                Sumatra          1412.406
       316   03 Jun 2027 23:41:38.809   03 Jun 2027 23:41:47.480             8.671                Sumatra           270.969
       317   03 Jun 2027 23:43:40.559   03 Jun 2027 23:45:06.621            86.062                Sumatra          2689.437
       318   04 Jun 2027 00:19:16.421   04 Jun 2027 00:20:26.481            70.060            RioGallegos          2189.375
       319   04 Jun 2027 00:49:44.368   04 Jun 2027 00:50:05.377            21.009                Anadyr1           656.531
       320   04 Jun 2027 00:50:15.726   04 Jun 2027 00:50:24.897             9.171                Anadyr2           286.594
       321   04 Jun 2027 00:50:29.280   04 Jun 2027 00:50:33.335             4.055                Anadyr2           126.719
       322   04 Jun 2027 00:51:39.780   04 Jun 2027 00:53:22.297           102.517                Norilsk          3203.656
       323   04 Jun 2027 00:54:52.500   04 Jun 2027 00:55:35.206            42.706               Magadan1          1334.563
       324   04 Jun 2027 00:55:38.751   04 Jun 2027 00:57:20.382           101.631                Novosib          3175.969
       325   04 Jun 2027 00:59:20.049   04 Jun 2027 00:59:36.585            16.536                Novosib           516.750
       326   04 Jun 2027 01:00:46.062   04 Jun 2027 01:01:08.259            22.197                Irkutsk           693.656
       327   04 Jun 2027 01:02:21.719   04 Jun 2027 01:02:53.955            32.236                Novosib          1007.375
       328   04 Jun 2027 01:07:29.517   04 Jun 2027 01:07:41.738            12.221                  Delhi           381.906
       329   04 Jun 2027 01:09:38.153   04 Jun 2027 01:09:46.692             8.539                  Delhi           266.844
       330   04 Jun 2027 01:10:09.483   04 Jun 2027 01:10:18.797             9.314                  Delhi           291.062
       331   04 Jun 2027 01:10:33.502   04 Jun 2027 01:12:46.728           133.226                  Delhi          4163.312
       332   04 Jun 2027 01:50:39.752   04 Jun 2027 01:50:49.937            10.185            RioGallegos           318.281
       333   04 Jun 2027 01:53:45.419   04 Jun 2027 01:54:07.009            21.590            RioGallegos           674.687
       334   04 Jun 2027 02:21:41.545   04 Jun 2027 02:21:45.211             3.666                Anadyr1           114.562
       335   04 Jun 2027 02:21:54.714   04 Jun 2027 02:22:52.781            58.067                Anadyr1          1814.594
       336   04 Jun 2027 02:26:24.070   04 Jun 2027 02:26:36.311            12.241                Anadyr1           382.531
       337   04 Jun 2027 02:26:54.390   04 Jun 2027 02:27:04.775            10.385                Anadyr1           324.531
       338   04 Jun 2027 02:27:22.276   04 Jun 2027 02:27:40.427            18.151                Anadyr1           567.219
       339   04 Jun 2027 02:27:48.627   04 Jun 2027 02:28:24.070            35.443               Magadan1          1107.594
       340   04 Jun 2027 02:28:38.799   04 Jun 2027 02:28:49.873            11.074                Norilsk           346.063
       341   04 Jun 2027 02:29:13.247   04 Jun 2027 02:29:28.029            14.782                Norilsk           461.937
       342   04 Jun 2027 02:29:59.063   04 Jun 2027 02:30:48.212            49.149              Murmansk1          1535.906
       343   04 Jun 2027 02:31:12.000   04 Jun 2027 02:31:44.237            32.237              Murmansk2          1007.406
       344   04 Jun 2027 02:31:52.853   04 Jun 2027 02:32:35.558            42.705                Novosib          1334.531
       345   04 Jun 2027 02:36:44.166   04 Jun 2027 02:37:09.640            25.474                Novosib           796.062
       346   04 Jun 2027 02:38:35.825   04 Jun 2027 02:39:36.647            60.822                Irkutsk          1900.688
       347   04 Jun 2027 02:45:34.783   04 Jun 2027 02:46:37.852            63.069                  Delhi          1970.906
       348   04 Jun 2027 04:12:23.163   04 Jun 2027 04:12:57.767            34.604              Murmansk1          1081.375
       349   04 Jun 2027 04:13:08.815   04 Jun 2027 04:15:34.675           145.860                Norilsk          4558.125
       350   04 Jun 2027 04:15:59.187   04 Jun 2027 04:18:39.724           160.537                 Moscow          5016.781
       351   04 Jun 2027 04:19:29.777   04 Jun 2027 04:21:37.477           127.700                 Moscow          3990.625
       352   04 Jun 2027 04:39:36.921   04 Jun 2027 04:39:48.184            11.263               CapeTown           351.969
       353   04 Jun 2027 04:39:51.632   04 Jun 2027 04:40:27.176            35.544               CapeTown          1110.750
       354   04 Jun 2027 04:40:48.345   04 Jun 2027 04:41:02.584            14.239               CapeTown           444.969
       355   04 Jun 2027 04:41:23.574   04 Jun 2027 04:42:47.521            83.947               CapeTown          2623.344
       356   04 Jun 2027 05:40:28.058   04 Jun 2027 05:41:18.200            50.142                Anadyr2          1566.938
       357   04 Jun 2027 05:48:43.247   04 Jun 2027 05:52:33.610           230.363                 Moscow          7198.844
       358   04 Jun 2027 05:53:15.786   04 Jun 2027 05:54:42.836            87.050              Murmansk2          2720.312
       359   04 Jun 2027 05:55:56.346   04 Jun 2027 05:56:34.368            38.022                 Moscow          1188.188
       360   04 Jun 2027 06:10:10.069   04 Jun 2027 06:10:52.611            42.542               CapeTown          1329.438
       361   04 Jun 2027 07:12:44.916   04 Jun 2027 07:15:18.416           153.500                Anadyr1          4796.875
       362   04 Jun 2027 07:15:25.921   04 Jun 2027 07:15:40.542            14.621               Magadan2           456.906
       363   04 Jun 2027 08:46:12.674   04 Jun 2027 08:46:53.748            41.074                Irkutsk          1283.563
       364   04 Jun 2027 08:47:42.423   04 Jun 2027 08:50:14.682           152.259                Anadyr1          4758.094
       365   04 Jun 2027 08:50:21.304   04 Jun 2027 08:50:24.118             2.814               Magadan2            87.937
       366   04 Jun 2027 08:50:24.622   04 Jun 2027 08:52:32.871           128.249                Anadyr1          4007.781
       367   04 Jun 2027 08:52:32.871   04 Jun 2027 08:53:52.334            79.463                Anadyr2          2483.219
       368   04 Jun 2027 10:22:38.739   04 Jun 2027 10:24:16.750            98.011               Magadan1          3062.844
       369   04 Jun 2027 10:24:58.669   04 Jun 2027 10:25:18.351            19.682                Norilsk           615.063
       370   04 Jun 2027 10:25:32.943   04 Jun 2027 10:25:45.539            12.596               Magadan1           393.625
       371   04 Jun 2027 10:25:45.539   04 Jun 2027 10:29:03.543           198.004               Magadan2          6187.625
       372   04 Jun 2027 10:29:29.958   04 Jun 2027 10:30:04.048            34.090              Murmansk1          1065.312
       373   04 Jun 2027 10:30:24.982   04 Jun 2027 10:30:42.978            17.996                Norilsk           562.375
       374   04 Jun 2027 11:04:33.168   04 Jun 2027 11:05:13.944            40.776            RioGallegos          1274.250
       375   04 Jun 2027 11:05:47.094   04 Jun 2027 11:06:42.848            55.754            RioGallegos          1742.313
       376   04 Jun 2027 11:39:31.749   04 Jun 2027 11:40:10.292            38.543                Sumatra          1204.469
       377   04 Jun 2027 11:52:29.134   04 Jun 2027 11:52:33.532             4.398                  Delhi           137.438
       378   04 Jun 2027 11:59:41.004   04 Jun 2027 11:59:56.427            15.423                Irkutsk           481.969
       379   04 Jun 2027 12:00:23.764   04 Jun 2027 12:01:49.623            85.859                Norilsk          2683.094
       380   04 Jun 2027 12:02:02.772   04 Jun 2027 12:02:32.250            29.478                Irkutsk           921.188
       381   04 Jun 2027 12:03:02.518   04 Jun 2027 12:04:31.362            88.844                Irkutsk          2776.375
       382   04 Jun 2027 12:06:32.832   04 Jun 2027 12:07:00.996            28.164                 Moscow           880.125
       383   04 Jun 2027 12:08:30.729   04 Jun 2027 12:08:41.218            10.489              Murmansk1           327.781
       384   04 Jun 2027 12:09:34.206   04 Jun 2027 12:10:31.260            57.054              Murmansk1          1782.937
       385   04 Jun 2027 12:45:15.120   04 Jun 2027 12:47:33.977           138.857            RioGallegos          4339.281
       386   04 Jun 2027 13:17:58.350   04 Jun 2027 13:19:20.694            82.344                Sumatra          2573.250
       387   04 Jun 2027 13:23:02.000   04 Jun 2027 13:23:08.024             6.024                Sumatra           188.250
       388   04 Jun 2027 13:31:53.123   04 Jun 2027 13:32:27.704            34.581                Novosib          1080.656
       389   04 Jun 2027 13:33:34.129   04 Jun 2027 13:34:08.478            34.349                Novosib          1073.406
       390   04 Jun 2027 13:35:56.421   04 Jun 2027 13:36:51.175            54.754                Irkutsk          1711.063
       391   04 Jun 2027 13:40:25.454   04 Jun 2027 13:40:38.171            12.717                Novosib           397.406
       392   04 Jun 2027 13:41:29.236   04 Jun 2027 13:42:06.720            37.484                Novosib          1171.375
       393   04 Jun 2027 13:46:05.929   04 Jun 2027 13:46:14.783             8.854                Norilsk           276.687
       394   04 Jun 2027 13:47:59.139   04 Jun 2027 13:48:09.689            10.550              Murmansk1           329.687
       395   04 Jun 2027 13:48:31.019   04 Jun 2027 13:48:32.400             1.381              Murmansk2            43.156
       396   04 Jun 2027 15:04:11.849   04 Jun 2027 15:07:00.451           168.602                  Delhi          5268.812
       397   04 Jun 2027 15:07:34.973   04 Jun 2027 15:07:47.215            12.242                  Delhi           382.563
       398   04 Jun 2027 15:09:32.647   04 Jun 2027 15:10:04.649            32.002                 Moscow          1000.062
       399   04 Jun 2027 15:11:18.068   04 Jun 2027 15:11:31.624            13.556                 Moscow           423.625
       400   04 Jun 2027 15:12:26.112   04 Jun 2027 15:14:12.510           106.398                Novosib          3324.938
       401   04 Jun 2027 15:14:30.392   04 Jun 2027 15:15:17.635            47.243                Norilsk          1476.344
       402   04 Jun 2027 15:16:28.568   04 Jun 2027 15:16:37.893             9.325                Norilsk           291.406
       403   04 Jun 2027 15:17:00.061   04 Jun 2027 15:18:46.484           106.423                Norilsk          3325.719
       404   04 Jun 2027 16:27:07.390   04 Jun 2027 16:27:12.665             5.275               CapeTown           164.844
       405   04 Jun 2027 16:29:13.661   04 Jun 2027 16:30:08.109            54.448               CapeTown          1701.500
       406   04 Jun 2027 16:44:49.628   04 Jun 2027 16:45:25.522            35.894                 Moscow          1121.687
       407   04 Jun 2027 16:48:10.036   04 Jun 2027 16:48:40.259            30.223              Murmansk2           944.469
       408   04 Jun 2027 16:49:15.945   04 Jun 2027 16:49:31.671            15.726                 Moscow           491.437
       409   04 Jun 2027 16:50:46.995   04 Jun 2027 16:51:13.405            26.410              Murmansk1           825.312
       410   04 Jun 2027 16:53:45.416   04 Jun 2027 16:54:31.882            46.466              Murmansk1          1452.063
       411   04 Jun 2027 17:02:42.306   04 Jun 2027 17:04:11.694            89.388                Anadyr1          2793.375
       412   04 Jun 2027 17:04:48.590   04 Jun 2027 17:05:23.076            34.486                Anadyr1          1077.688
       413   04 Jun 2027 17:09:28.059   04 Jun 2027 17:09:42.379            14.320                Anadyr2           447.500
       414   04 Jun 2027 17:57:26.947   04 Jun 2027 17:59:48.585           141.638               CapeTown          4426.188
       415   04 Jun 2027 18:27:00.540   04 Jun 2027 18:30:13.767           193.227              Murmansk2          6038.344
       416   04 Jun 2027 18:33:29.362   04 Jun 2027 18:33:39.889            10.527              Murmansk2           328.969
       417   04 Jun 2027 18:40:09.062   04 Jun 2027 18:40:35.311            26.249                Anadyr2           820.281
       418   04 Jun 2027 18:40:54.528   04 Jun 2027 18:41:16.170            21.642                Anadyr2           676.313
       419   04 Jun 2027 18:42:05.204   04 Jun 2027 18:43:09.600            64.396               Magadan1          2012.375
       420   04 Jun 2027 18:43:28.905   04 Jun 2027 18:43:39.798            10.893               Magadan1           340.406
       421   04 Jun 2027 18:46:34.657   04 Jun 2027 18:47:10.796            36.139               Magadan1          1129.344
       422   04 Jun 2027 19:35:31.267   04 Jun 2027 19:35:50.892            19.625               CapeTown           613.281
       423   04 Jun 2027 19:37:47.923   04 Jun 2027 19:38:01.839            13.916               CapeTown           434.875
       424   04 Jun 2027 19:40:20.906   04 Jun 2027 19:40:25.003             4.097               CapeTown           128.031
       425   04 Jun 2027 20:13:59.406   04 Jun 2027 20:15:37.341            97.935                Anadyr1          3060.469
       426   04 Jun 2027 20:16:00.756   04 Jun 2027 20:17:44.220           103.464                Anadyr2          3233.250
       427   04 Jun 2027 20:18:29.794   04 Jun 2027 20:21:12.826           163.032               Magadan2          5094.750
       428   04 Jun 2027 20:21:50.883   04 Jun 2027 20:21:58.857             7.974               Magadan2           249.187
       429   04 Jun 2027 20:26:59.171   04 Jun 2027 20:27:03.894             4.723               Magadan1           147.594
       430   04 Jun 2027 20:28:06.459   04 Jun 2027 20:28:18.539            12.080               Magadan2           377.500
       431   04 Jun 2027 21:49:53.228   04 Jun 2027 21:51:57.304           124.076                Anadyr2          3877.375
       432   04 Jun 2027 21:52:02.198   04 Jun 2027 21:53:34.117            91.919                Anadyr1          2872.469
       433   04 Jun 2027 21:53:41.765   04 Jun 2027 21:56:36.386           174.621                Norilsk          5456.906
       434   04 Jun 2027 21:57:23.926   04 Jun 2027 21:58:07.006            43.080               Magadan2          1346.250
       435   04 Jun 2027 21:58:27.649   04 Jun 2027 21:59:23.574            55.925                Irkutsk          1747.656
       436   04 Jun 2027 22:00:25.214   04 Jun 2027 22:00:43.270            18.056                Irkutsk           564.250
       437   04 Jun 2027 22:44:07.043   04 Jun 2027 22:45:39.646            92.603            RioGallegos          2893.844
       438   04 Jun 2027 22:49:30.313   04 Jun 2027 22:50:12.566            42.253            RioGallegos          1320.406
       439   04 Jun 2027 22:53:35.905   04 Jun 2027 22:54:05.438            29.533            RioGallegos           922.906
       440   04 Jun 2027 23:25:24.592   04 Jun 2027 23:26:04.442            39.850                Anadyr1          1245.313
       441   04 Jun 2027 23:26:12.074   04 Jun 2027 23:26:15.241             3.167                Anadyr2            98.969
       442   04 Jun 2027 23:26:39.743   04 Jun 2027 23:27:43.606            63.863                Anadyr1          1995.719
       443   04 Jun 2027 23:27:45.059   04 Jun 2027 23:29:24.209            99.150                Norilsk          3098.437
       444   04 Jun 2027 23:29:48.203   04 Jun 2027 23:30:02.875            14.672               Magadan2           458.500
       445   04 Jun 2027 23:30:46.555   04 Jun 2027 23:31:53.466            66.911               Magadan2          2090.969
       446   04 Jun 2027 23:32:33.842   04 Jun 2027 23:32:47.088            13.246                Irkutsk           413.937
       447   04 Jun 2027 23:33:06.645   04 Jun 2027 23:34:30.563            83.918                Novosib          2622.437
       448   04 Jun 2027 23:36:15.920   04 Jun 2027 23:37:37.735            81.815                Novosib          2556.719
       449   04 Jun 2027 23:54:07.676   04 Jun 2027 23:55:01.294            53.618                Sumatra          1675.562
       450   05 Jun 2027 00:29:13.707   05 Jun 2027 00:29:24.074            10.367            RioGallegos           323.969
       451   05 Jun 2027 00:32:13.998   05 Jun 2027 00:32:22.381             8.383            RioGallegos           261.969
       452   05 Jun 2027 00:59:57.265   05 Jun 2027 01:00:56.264            58.999                Anadyr1          1843.719
       453   05 Jun 2027 01:01:38.035   05 Jun 2027 01:02:05.385            27.350                Anadyr2           854.688
       454   05 Jun 2027 01:02:11.210   05 Jun 2027 01:02:13.456             2.246                Anadyr2            70.187
       455   05 Jun 2027 01:02:34.620   05 Jun 2027 01:02:38.912             4.292                Anadyr2           134.125
       456   05 Jun 2027 01:02:41.414   05 Jun 2027 01:02:50.798             9.384                Anadyr1           293.250
       457   05 Jun 2027 01:03:42.094   05 Jun 2027 01:05:31.851           109.757                Norilsk          3429.906
       458   05 Jun 2027 01:06:35.756   05 Jun 2027 01:06:44.652             8.896               Magadan2           278.000
       459   05 Jun 2027 01:07:03.336   05 Jun 2027 01:07:16.306            12.970               Magadan2           405.312
       460   05 Jun 2027 01:07:36.455   05 Jun 2027 01:09:34.132           117.677                Irkutsk          3677.406
       461   05 Jun 2027 01:09:37.454   05 Jun 2027 01:10:23.109            45.655                Novosib          1426.719
       462   05 Jun 2027 01:15:10.133   05 Jun 2027 01:15:39.324            29.191                  Delhi           912.219
       463   05 Jun 2027 01:17:05.851   05 Jun 2027 01:17:36.421            30.570                  Delhi           955.312
       464   05 Jun 2027 01:21:46.817   05 Jun 2027 01:22:05.897            19.080                  Delhi           596.250
       465   05 Jun 2027 01:24:43.435   05 Jun 2027 01:25:17.026            33.591                Sumatra          1049.719
       466   05 Jun 2027 01:28:18.020   05 Jun 2027 01:28:48.126            30.106                Sumatra           940.812
       467   05 Jun 2027 01:56:13.453   05 Jun 2027 01:56:17.119             3.666            RioGallegos           114.562
       468   05 Jun 2027 01:56:26.585   05 Jun 2027 01:56:46.909            20.324            RioGallegos           635.125
       469   05 Jun 2027 01:59:07.822   05 Jun 2027 01:59:24.126            16.304            RioGallegos           509.500
       470   05 Jun 2027 02:00:27.294   05 Jun 2027 02:00:35.069             7.775            RioGallegos           242.969
       471   05 Jun 2027 02:02:11.497   05 Jun 2027 02:02:39.205            27.708            RioGallegos           865.875
       472   05 Jun 2027 02:33:22.571   05 Jun 2027 02:33:38.529            15.958                Anadyr2           498.688
       473   05 Jun 2027 02:34:52.299   05 Jun 2027 02:35:12.755            20.456                Anadyr2           639.250
       474   05 Jun 2027 02:35:12.755   05 Jun 2027 02:36:06.714            53.959                Anadyr1          1686.219
       475   05 Jun 2027 02:39:34.168   05 Jun 2027 02:39:35.139             0.971                Anadyr2            30.344
       476   05 Jun 2027 02:39:35.445   05 Jun 2027 02:40:12.258            36.813               Magadan1          1150.406
       477   05 Jun 2027 02:40:12.258   05 Jun 2027 02:40:21.826             9.568               Magadan2           299.000
       478   05 Jun 2027 02:40:33.615   05 Jun 2027 02:40:59.082            25.467                Norilsk           795.844
       479   05 Jun 2027 02:41:57.720   05 Jun 2027 02:42:48.088            50.368              Murmansk2          1574.000
       480   05 Jun 2027 02:43:15.583   05 Jun 2027 02:43:52.326            36.743              Murmansk1          1148.219
       481   05 Jun 2027 02:44:03.586   05 Jun 2027 02:44:46.668            43.082                Novosib          1346.313
       482   05 Jun 2027 02:45:30.644   05 Jun 2027 02:46:32.360            61.716                Irkutsk          1928.625
