uniorb/output/strategy_1/Drop/Drop_KinoSat_110401.txt

KinoSat_110401
-------------------------
    Access    *     Start Time (UTCG)     *     Stop Time (UTCG)  *   Duration (s)        *       Station  *  Data (Mbytes)
         1   01 Jun 2027 04:32:18.998   01 Jun 2027 04:32:34.500            15.502                Irkutsk          1937.750
         2   01 Jun 2027 04:32:41.139   01 Jun 2027 04:35:17.263           156.124                Irkutsk         19515.500
         3   01 Jun 2027 04:35:54.977   01 Jun 2027 04:36:10.886            15.909               Magadan2          1988.625
         4   01 Jun 2027 04:36:10.886   01 Jun 2027 04:36:29.467            18.581               Magadan1          2322.625
         5   01 Jun 2027 04:36:34.856   01 Jun 2027 04:36:40.207             5.351              Murmansk1           668.875
         6   01 Jun 2027 04:36:48.528   01 Jun 2027 04:37:19.215            30.687                Irkutsk          3835.875
         7   01 Jun 2027 04:37:23.983   01 Jun 2027 04:37:34.423            10.440                Norilsk          1305.000
         8   01 Jun 2027 04:38:10.155   01 Jun 2027 04:38:18.880             8.725                Novosib          1090.625
         9   01 Jun 2027 05:12:10.904   01 Jun 2027 05:13:30.619            79.715            RioGallegos          9964.375
        10   01 Jun 2027 05:47:17.456   01 Jun 2027 05:47:24.563             7.107                Sumatra           888.375
        11   01 Jun 2027 05:48:56.928   01 Jun 2027 05:50:03.705            66.777                Sumatra          8347.125
        12   01 Jun 2027 05:59:03.074   01 Jun 2027 06:00:11.412            68.338                  Delhi          8542.250
        13   01 Jun 2027 06:09:41.910   01 Jun 2027 06:11:57.484           135.574                Irkutsk         16946.750
        14   01 Jun 2027 06:12:28.728   01 Jun 2027 06:13:39.604            70.876                Novosib          8859.500
        15   01 Jun 2027 07:31:16.709   01 Jun 2027 07:32:54.728            98.019                  Delhi         12252.375
        16   01 Jun 2027 07:48:07.939   01 Jun 2027 07:48:28.415            20.476                Norilsk          2559.500
        17   01 Jun 2027 07:48:36.556   01 Jun 2027 07:49:26.066            49.510              Murmansk2          6188.750
        18   01 Jun 2027 07:49:35.263   01 Jun 2027 07:50:47.360            72.097                Novosib          9012.125
        19   01 Jun 2027 09:11:51.450   01 Jun 2027 09:13:10.548            79.098                  Delhi          9887.250
        20   01 Jun 2027 09:20:39.329   01 Jun 2027 09:21:27.157            47.828              Murmansk1          5978.500
        21   01 Jun 2027 09:21:48.551   01 Jun 2027 09:23:11.383            82.832                 Moscow         10354.000
        22   01 Jun 2027 09:23:36.119   01 Jun 2027 09:24:34.323            58.204                Novosib          7275.500
        23   01 Jun 2027 09:24:52.441   01 Jun 2027 09:26:34.293           101.852                Norilsk         12731.500
        24   01 Jun 2027 09:26:44.490   01 Jun 2027 09:27:12.275            27.785                Norilsk          3473.125
        25   01 Jun 2027 10:31:30.694   01 Jun 2027 10:34:23.354           172.660               CapeTown         21582.500
        26   01 Jun 2027 10:36:49.733   01 Jun 2027 10:38:35.547           105.814               CapeTown         13226.750
        27   01 Jun 2027 11:10:30.941   01 Jun 2027 11:14:41.860           250.919                Anadyr2         31364.875
        28   01 Jun 2027 11:15:08.293   01 Jun 2027 11:16:27.658            79.365                Anadyr1          9920.625
        29   01 Jun 2027 12:50:12.643   01 Jun 2027 12:54:48.202           275.559               Magadan2         34444.875
        30   01 Jun 2027 16:07:10.077   01 Jun 2027 16:09:22.801           132.724                Irkutsk         16590.500
        31   01 Jun 2027 16:56:04.352   01 Jun 2027 16:56:17.629            13.277            RioGallegos          1659.625
        32   01 Jun 2027 17:00:44.298   01 Jun 2027 17:01:21.196            36.898            RioGallegos          4612.250
        33   01 Jun 2027 17:39:30.991   01 Jun 2027 17:41:38.262           127.271                Irkutsk         15908.875
        34   01 Jun 2027 17:43:55.755   01 Jun 2027 17:47:36.986           221.231                Novosib         27653.875
        35   01 Jun 2027 19:22:57.801   01 Jun 2027 19:27:09.288           251.487                  Delhi         31435.875
        36   01 Jun 2027 19:28:09.475   01 Jun 2027 19:29:02.699            53.224                  Delhi          6653.000
        37   01 Jun 2027 20:50:22.052   01 Jun 2027 20:51:22.227            60.175              Murmansk1          7521.875
        38   01 Jun 2027 20:54:14.866   01 Jun 2027 20:57:26.564           191.698                 Moscow         14437.125
        39   02 Jun 2027 03:11:04.252   02 Jun 2027 03:11:41.120            36.868               Magadan1          4608.500
        40   02 Jun 2027 03:11:45.296   02 Jun 2027 03:13:16.318            91.022                Anadyr2         11377.750
        41   02 Jun 2027 04:44:08.866   02 Jun 2027 04:45:14.518            65.652                Norilsk          8206.500
        42   02 Jun 2027 04:45:51.918   02 Jun 2027 04:47:17.845            85.927                Norilsk         10740.875
        43   02 Jun 2027 04:47:23.730   02 Jun 2027 04:47:58.251            34.521               Magadan2          4315.125
        44   02 Jun 2027 04:47:58.251   02 Jun 2027 04:48:15.563            17.312               Magadan1          2164.000
        45   02 Jun 2027 04:48:15.877   02 Jun 2027 04:48:33.218            17.341               Magadan1          2167.625
        46   02 Jun 2027 04:48:54.374   02 Jun 2027 04:49:56.350            61.976                Novosib          7747.000
        47   02 Jun 2027 05:24:16.787   02 Jun 2027 05:25:17.278            60.491            RioGallegos          7561.375
        48   02 Jun 2027 05:59:09.410   02 Jun 2027 06:00:34.027            84.617                Sumatra         10577.125
        49   02 Jun 2027 06:10:04.231   02 Jun 2027 06:12:27.535           143.304                  Delhi         17913.000
        50   02 Jun 2027 06:21:57.069   02 Jun 2027 06:23:00.353            63.284              Murmansk2          7910.500
        51   02 Jun 2027 06:23:13.362   02 Jun 2027 06:24:15.338            61.976              Murmansk1          7747.000
        52   02 Jun 2027 06:24:41.574   02 Jun 2027 06:25:25.988            44.414              Murmansk1          5551.750
        53   02 Jun 2027 07:38:17.114   02 Jun 2027 07:38:46.897            29.783                Sumatra          3722.875
        54   02 Jun 2027 07:43:18.454   02 Jun 2027 07:45:15.629           117.175                  Delhi         14646.875
        55   02 Jun 2027 07:59:20.293   02 Jun 2027 07:59:28.214             7.921                Norilsk           990.125
        56   02 Jun 2027 07:59:29.965   02 Jun 2027 08:00:38.826            68.861                 Moscow          8607.625
        57   02 Jun 2027 08:00:46.945   02 Jun 2027 08:02:26.106            99.161                Novosib         12395.125
        58   02 Jun 2027 09:32:51.399   02 Jun 2027 09:34:31.490           100.091                 Moscow         12511.375
        59   02 Jun 2027 09:34:48.941   02 Jun 2027 09:35:03.064            14.123                 Moscow          1765.375
        60   02 Jun 2027 09:35:06.476   02 Jun 2027 09:35:11.529             5.053                Novosib           631.625
        61   02 Jun 2027 09:35:37.385   02 Jun 2027 09:38:59.998           202.613                 Moscow         25326.625
        62   02 Jun 2027 10:42:49.315   02 Jun 2027 10:46:10.903           201.588               CapeTown         25198.500
        63   02 Jun 2027 10:48:31.944   02 Jun 2027 10:50:35.577           123.633               CapeTown         15454.125
        64   02 Jun 2027 11:22:21.855   02 Jun 2027 11:26:39.042           257.187                Anadyr1         32148.375
        65   02 Jun 2027 11:27:37.755   02 Jun 2027 11:29:33.052           115.297                Anadyr2         14412.125
        66   02 Jun 2027 13:01:36.441   02 Jun 2027 13:01:48.354            11.913               Magadan2          1489.125
        67   02 Jun 2027 13:01:48.354   02 Jun 2027 13:04:42.452           174.098               Magadan1         21762.250
        68   02 Jun 2027 13:05:13.496   02 Jun 2027 13:05:14.266             0.770               Magadan2            96.250
        69   02 Jun 2027 16:17:47.031   02 Jun 2027 16:23:14.035           327.004                Irkutsk         40875.500
        70   02 Jun 2027 17:52:39.213   02 Jun 2027 17:57:26.668           287.455                Novosib         35931.875
        71   02 Jun 2027 21:01:39.730   02 Jun 2027 21:03:00.913            81.183              Murmansk2         10147.875
        72   02 Jun 2027 21:05:54.187   02 Jun 2027 21:09:48.984           234.797                 Moscow         29349.625
        73   02 Jun 2027 21:34:36.217   02 Jun 2027 21:35:34.712            58.495               CapeTown          7311.875
        74   02 Jun 2027 21:36:33.411   02 Jun 2027 21:38:21.594           108.183               CapeTown         13522.875
        75   03 Jun 2027 03:22:26.820   03 Jun 2027 03:23:45.662            78.842                Anadyr2          9855.250
        76   03 Jun 2027 03:24:34.845   03 Jun 2027 03:25:24.798            49.953               Magadan1          6244.125
        77   03 Jun 2027 03:25:38.520   03 Jun 2027 03:25:41.255             2.735               Magadan1           341.875
        78   03 Jun 2027 04:39:52.155   03 Jun 2027 04:40:51.348            59.193                Sumatra          7399.125
        79   03 Jun 2027 04:56:37.551   03 Jun 2027 04:59:09.938           152.387               Magadan1         19048.375
        80   03 Jun 2027 04:59:27.378   03 Jun 2027 05:00:10.773            43.395               Magadan1          5424.375
        81   03 Jun 2027 05:00:34.531   03 Jun 2027 05:01:26.289            51.758                Norilsk          6469.750
        82   03 Jun 2027 05:01:36.579   03 Jun 2027 05:02:06.929            30.350                Norilsk          3793.750
        83   03 Jun 2027 05:36:26.237   03 Jun 2027 05:37:07.108            40.871            RioGallegos          5108.875
        84   03 Jun 2027 06:11:07.052   03 Jun 2027 06:12:54.184           107.132                Sumatra         13391.500
        85   03 Jun 2027 06:21:19.665   03 Jun 2027 06:22:23.596            63.931                  Delhi          7991.375
        86   03 Jun 2027 06:33:07.186   03 Jun 2027 06:34:16.709            69.523                Novosib          8690.375
        87   03 Jun 2027 06:34:29.755   03 Jun 2027 06:35:46.328            76.573                Novosib          9571.625
        88   03 Jun 2027 06:36:14.175   03 Jun 2027 06:37:13.908            59.733                Irkutsk          7466.625
        89   03 Jun 2027 06:37:25.740   03 Jun 2027 06:38:20.581            54.841                Novosib          6855.125
        90   03 Jun 2027 07:55:25.664   03 Jun 2027 07:56:49.218            83.554                  Delhi         10444.250
        91   03 Jun 2027 08:11:26.355   03 Jun 2027 08:11:44.746            18.391              Murmansk1          2298.875
        92   03 Jun 2027 08:11:44.746   03 Jun 2027 08:11:59.117            14.371              Murmansk2          1796.375
        93   03 Jun 2027 08:12:08.771   03 Jun 2027 08:12:46.627            37.856                Norilsk          4732.000
        94   03 Jun 2027 08:13:01.369   03 Jun 2027 08:13:47.516            46.147                Norilsk          5768.375
        95   03 Jun 2027 08:13:52.527   03 Jun 2027 08:14:37.898            45.371                Novosib          5671.375
        96   03 Jun 2027 09:44:40.817   03 Jun 2027 09:45:51.820            71.003                 Moscow          8875.375
        97   03 Jun 2027 09:46:20.690   03 Jun 2027 09:48:05.068           104.378              Murmansk1         13047.250
        98   03 Jun 2027 09:48:14.530   03 Jun 2027 09:48:27.515            12.985              Murmansk1          1623.125
        99   03 Jun 2027 09:48:39.477   03 Jun 2027 09:50:17.830            98.353                 Moscow         12294.125
       100   03 Jun 2027 10:54:20.413   03 Jun 2027 11:00:18.252           357.839               CapeTown         44729.875
       101   03 Jun 2027 11:34:15.234   03 Jun 2027 11:37:52.741           217.507                Anadyr2         27188.375
       102   03 Jun 2027 11:38:06.388   03 Jun 2027 11:40:03.869           117.481                Anadyr2         14685.125
       103   03 Jun 2027 13:13:13.707   03 Jun 2027 13:17:06.923           233.216               Magadan1         29152.000
       104   03 Jun 2027 15:44:13.205   03 Jun 2027 15:44:37.809            24.604            RioGallegos          3075.500
       105   03 Jun 2027 16:29:07.654   03 Jun 2027 16:33:31.888           264.234                Irkutsk         33029.250
       106   03 Jun 2027 16:35:19.522   03 Jun 2027 16:36:28.427            68.905                Irkutsk          8613.125
       107   03 Jun 2027 16:44:55.758   03 Jun 2027 16:46:14.748            78.990                Sumatra          9873.750
       108   03 Jun 2027 16:48:16.049   03 Jun 2027 16:50:35.688           139.639                Sumatra         17454.875
       109   03 Jun 2027 18:05:00.431   03 Jun 2027 18:05:59.156            58.725                Novosib          7340.625
       110   03 Jun 2027 21:13:38.980   03 Jun 2027 21:15:58.460           139.480              Murmansk1         17435.000
       111   03 Jun 2027 21:19:40.039   03 Jun 2027 21:21:43.647           123.608                 Moscow         15451.000
       112   03 Jun 2027 21:23:44.946   03 Jun 2027 21:24:46.901            61.955                 Moscow          7744.375
       113   03 Jun 2027 21:44:36.546   03 Jun 2027 21:46:34.489           117.943               CapeTown         14742.875
       114   03 Jun 2027 21:48:31.329   03 Jun 2027 21:50:12.405           101.076               CapeTown         12634.500
       115   04 Jun 2027 03:34:02.697   04 Jun 2027 03:34:17.913            15.216                Anadyr2          1902.000
       116   04 Jun 2027 03:34:26.515   04 Jun 2027 03:35:46.338            79.823                Anadyr2          9977.875
       117   04 Jun 2027 03:36:33.929   04 Jun 2027 03:36:56.391            22.462                Anadyr2          2807.750
       118   04 Jun 2027 03:37:03.187   04 Jun 2027 03:37:38.723            35.536               Magadan1          4442.000
       119   04 Jun 2027 04:21:16.016   04 Jun 2027 04:21:59.410            43.394            RioGallegos          5424.250
       120   04 Jun 2027 04:50:15.368   04 Jun 2027 04:52:25.136           129.768                Sumatra         16221.000
       121   04 Jun 2027 05:08:57.681   04 Jun 2027 05:12:17.546           199.865                Irkutsk         24983.125
       122   04 Jun 2027 05:12:57.929   04 Jun 2027 05:13:13.968            16.039              Murmansk2          2004.875
       123   04 Jun 2027 05:13:18.983   04 Jun 2027 05:13:42.046            23.063                Norilsk          2882.875
       124   04 Jun 2027 05:48:39.481   04 Jun 2027 05:49:00.099            20.618            RioGallegos          2577.250
       125   04 Jun 2027 05:52:00.255   04 Jun 2027 05:52:09.575             9.320            RioGallegos          1165.000
       126   04 Jun 2027 05:52:55.431   04 Jun 2027 05:53:20.051            24.620            RioGallegos          3077.500
       127   04 Jun 2027 06:23:10.276   04 Jun 2027 06:24:19.414            69.138                Sumatra          8642.250
       128   04 Jun 2027 06:32:45.006   04 Jun 2027 06:34:21.925            96.919                  Delhi         12114.875
       129   04 Jun 2027 06:45:48.213   04 Jun 2027 06:45:53.209             4.996                Novosib           624.500
       130   04 Jun 2027 06:45:54.053   04 Jun 2027 06:49:07.053           193.000                Irkutsk         24125.000
       131   04 Jun 2027 08:07:38.705   04 Jun 2027 08:08:29.376            50.671                  Delhi          6333.875
       132   04 Jun 2027 08:21:53.026   04 Jun 2027 08:24:31.454           158.428                Novosib         19803.500
       133   04 Jun 2027 08:25:05.840   04 Jun 2027 08:26:32.201            86.361              Murmansk1         10795.125
       134   04 Jun 2027 09:55:25.516   04 Jun 2027 09:56:11.368            45.852                 Moscow          5731.500
       135   04 Jun 2027 09:56:19.631   04 Jun 2027 09:56:28.605             8.974                 Moscow          1121.750
       136   04 Jun 2027 09:57:08.519   04 Jun 2027 09:58:37.291            88.772                 Moscow         11096.500
       137   04 Jun 2027 09:59:07.236   04 Jun 2027 09:59:41.275            34.039                 Moscow          4254.875
       138   04 Jun 2027 09:59:56.472   04 Jun 2027 10:01:21.414            84.942                 Moscow         10617.750
       139   04 Jun 2027 10:02:08.331   04 Jun 2027 10:02:13.944             5.613              Murmansk2           701.625
       140   04 Jun 2027 11:05:59.434   04 Jun 2027 11:09:57.273           237.839               CapeTown         29729.875
       141   04 Jun 2027 11:10:06.854   04 Jun 2027 11:10:33.177            26.323               CapeTown          3290.375
       142   04 Jun 2027 11:11:53.965   04 Jun 2027 11:12:21.551            27.586               CapeTown          3448.250
       143   04 Jun 2027 11:46:10.404   04 Jun 2027 11:50:30.644           260.240                Anadyr1         32530.000
       144   04 Jun 2027 13:24:57.789   04 Jun 2027 13:30:17.994           320.205               Magadan1         40025.625
       145   04 Jun 2027 15:54:06.288   04 Jun 2027 15:56:58.289           172.001            RioGallegos         21500.125
       146   04 Jun 2027 16:40:41.779   04 Jun 2027 16:44:03.525           201.746                Irkutsk         25218.250
       147   04 Jun 2027 16:55:43.471   04 Jun 2027 16:58:18.029           154.558                Sumatra         19319.750
       148   04 Jun 2027 17:00:13.498   04 Jun 2027 17:00:38.531            25.033                Sumatra          3129.125
       149   04 Jun 2027 18:18:38.607   04 Jun 2027 18:19:58.175            79.568                Novosib          9946.000
       150   04 Jun 2027 18:26:18.743   04 Jun 2027 18:28:10.121           111.378                  Delhi         13922.250
       151   04 Jun 2027 18:29:11.918   04 Jun 2027 18:30:22.287            70.369                  Delhi          8796.125
       152   04 Jun 2027 21:31:49.817   04 Jun 2027 21:36:05.317           255.500                 Moscow         31937.500
       153   04 Jun 2027 21:55:38.736   04 Jun 2027 21:57:39.057           120.321               CapeTown         15040.125
       154   05 Jun 2027 03:45:43.860   05 Jun 2027 03:46:36.726            52.866               Magadan2          6608.250
       155   05 Jun 2027 03:46:45.021   05 Jun 2027 03:47:47.281            62.260                Anadyr1          7782.500
       156   05 Jun 2027 03:48:06.669   05 Jun 2027 03:48:28.625            21.956                Anadyr1          2744.500
       157   05 Jun 2027 03:49:04.324   05 Jun 2027 03:49:35.141            30.817               Magadan1          3852.125
       158   05 Jun 2027 04:32:27.771   05 Jun 2027 04:32:32.525             4.754            RioGallegos           594.250
       159   05 Jun 2027 04:33:49.148   05 Jun 2027 04:34:03.660            14.512            RioGallegos          1814.000
       160   05 Jun 2027 05:01:17.240   05 Jun 2027 05:04:10.539           173.299                Sumatra         21662.375
       161   05 Jun 2027 05:21:03.321   05 Jun 2027 05:21:28.515            25.194                Irkutsk          3149.250
       162   05 Jun 2027 05:21:32.173   05 Jun 2027 05:21:57.852            25.679               Magadan2          3209.875
       163   05 Jun 2027 05:21:57.852   05 Jun 2027 05:21:59.000             1.148               Magadan1           143.500
       164   05 Jun 2027 05:22:21.233   05 Jun 2027 05:23:58.465            97.232                Irkutsk         12154.000
       165   05 Jun 2027 05:24:20.594   05 Jun 2027 05:24:41.313            20.719                Norilsk          2589.875
       166   05 Jun 2027 05:24:59.945   05 Jun 2027 05:25:11.765            11.820              Murmansk1          1477.500
       167   05 Jun 2027 05:25:14.659   05 Jun 2027 05:26:52.570            97.911                Novosib         12238.875
       168   05 Jun 2027 06:35:19.279   05 Jun 2027 06:36:38.023            78.744                Sumatra          9843.000
       169   05 Jun 2027 06:46:08.427   05 Jun 2027 06:48:05.882           117.455                  Delhi         14681.875
       170   05 Jun 2027 06:58:04.410   05 Jun 2027 06:58:15.514            11.104                Novosib          1388.000
       171   05 Jun 2027 06:58:17.548   05 Jun 2027 06:58:32.769            15.221              Murmansk2          1902.625
       172   05 Jun 2027 06:58:49.012   05 Jun 2027 07:00:00.102            71.090              Murmansk1          8886.250
       173   05 Jun 2027 07:00:10.183   05 Jun 2027 07:00:21.499            11.316                Irkutsk          1414.500
       174   05 Jun 2027 07:00:38.658   05 Jun 2027 07:02:14.188            95.530                 Moscow         11941.250
       175   05 Jun 2027 08:19:58.250   05 Jun 2027 08:20:15.427            17.177                  Delhi          2147.125
       176   05 Jun 2027 08:22:08.425   05 Jun 2027 08:22:21.531            13.106                  Delhi          1638.250
       177   05 Jun 2027 08:23:06.441   05 Jun 2027 08:24:02.232            55.791                  Delhi          6973.875
       178   05 Jun 2027 08:33:16.163   05 Jun 2027 08:34:12.541            56.378              Murmansk1          7047.250
       179   05 Jun 2027 08:34:23.037   05 Jun 2027 08:35:24.929            61.892                Novosib          7736.500
       180   05 Jun 2027 08:35:40.357   05 Jun 2027 08:35:42.495             2.138                 Moscow           267.250
       181   05 Jun 2027 08:35:44.746   05 Jun 2027 08:35:51.270             6.524                 Moscow           815.500
       182   05 Jun 2027 08:36:03.418   05 Jun 2027 08:37:13.889            70.471                 Moscow          8808.875
       183   05 Jun 2027 10:10:17.063   05 Jun 2027 10:11:33.273            76.210                 Moscow          9526.250
       184   05 Jun 2027 10:12:04.709   05 Jun 2027 10:12:24.554            19.845              Murmansk2          2480.625
       185   05 Jun 2027 10:19:00.360   05 Jun 2027 10:19:08.977             8.617              Murmansk1          1077.125
       186   05 Jun 2027 11:17:44.164   05 Jun 2027 11:21:55.145           250.981               CapeTown         31372.625
       187   05 Jun 2027 11:23:23.017   05 Jun 2027 11:23:45.402            22.385               CapeTown          2798.125
       188   05 Jun 2027 11:58:06.913   05 Jun 2027 12:02:21.265           254.352                Anadyr1         31794.000
       189   05 Jun 2027 13:36:46.122   05 Jun 2027 13:40:57.336           251.214               Magadan1         31401.750
       190   05 Jun 2027 16:05:22.267   05 Jun 2027 16:08:45.852           203.585            RioGallegos         25448.125
       191   05 Jun 2027 16:11:27.004   05 Jun 2027 16:12:31.541            64.537            RioGallegos          8067.125
       192   05 Jun 2027 16:54:11.228   05 Jun 2027 16:56:21.391           130.163                Irkutsk         16270.375
       193   05 Jun 2027 16:58:26.698   05 Jun 2027 16:58:38.247            11.549                Irkutsk          1443.625
       194   05 Jun 2027 17:06:55.213   05 Jun 2027 17:11:44.686           289.473                Sumatra         36184.125
       195   05 Jun 2027 17:14:46.566   05 Jun 2027 17:15:22.182            35.616                Sumatra          4452.000
       196   05 Jun 2027 18:32:00.186   05 Jun 2027 18:32:08.369             8.183                Novosib          1022.875
       197   05 Jun 2027 18:37:06.106   05 Jun 2027 18:39:51.761           165.655                  Delhi         20706.875
       198   05 Jun 2027 18:44:04.237   05 Jun 2027 18:44:43.923            39.686                  Delhi          4960.750
       199   05 Jun 2027 21:39:49.339   05 Jun 2027 21:42:44.107           174.768              Murmansk1         21846.000
       200   05 Jun 2027 21:45:32.902   05 Jun 2027 21:45:37.139             4.237                 Moscow           529.625
       201   05 Jun 2027 21:45:56.178   05 Jun 2027 21:48:21.840           145.662                 Moscow         18207.750
       202   05 Jun 2027 22:14:08.920   05 Jun 2027 22:14:32.481            23.561               CapeTown          2945.125
       203   06 Jun 2027 03:58:54.668   06 Jun 2027 03:59:32.837            38.169               Magadan2          4771.125
       204   06 Jun 2027 03:59:35.611   06 Jun 2027 03:59:49.858            14.247               Magadan2          1780.875
       205   06 Jun 2027 04:00:22.424   06 Jun 2027 04:01:30.250            67.826               Magadan2          8478.250
       206   06 Jun 2027 04:36:27.929   06 Jun 2027 04:36:43.139            15.210            RioGallegos          1901.250
       207   06 Jun 2027 04:44:33.479   06 Jun 2027 04:45:13.179            39.700            RioGallegos          4962.500
       208   06 Jun 2027 05:12:36.520   06 Jun 2027 05:13:17.238            40.718                Sumatra          5089.750
       209   06 Jun 2027 05:13:54.407   06 Jun 2027 05:16:00.239           125.832                Sumatra         15729.000
       210   06 Jun 2027 05:33:37.134   06 Jun 2027 05:34:23.550            46.416                Irkutsk          5802.000
       211   06 Jun 2027 05:34:54.512   06 Jun 2027 05:35:08.910            14.398                Norilsk          1799.750
       212   06 Jun 2027 05:35:18.021   06 Jun 2027 05:35:48.451            30.430                Norilsk          3803.750
       213   06 Jun 2027 05:35:50.497   06 Jun 2027 05:37:40.296           109.799                Irkutsk         13724.875
       214   06 Jun 2027 06:47:34.650   06 Jun 2027 06:48:17.474            42.824                Sumatra          5353.000
       215   06 Jun 2027 06:58:07.749   06 Jun 2027 06:58:22.977            15.228                  Delhi          1903.500
       216   06 Jun 2027 07:06:00.603   06 Jun 2027 07:07:31.899            91.296                  Delhi         11412.000
       217   06 Jun 2027 07:10:31.815   06 Jun 2027 07:11:08.229            36.414                Irkutsk          4551.750
       218   06 Jun 2027 07:11:27.586   06 Jun 2027 07:11:51.014            23.428                 Moscow          2928.500
       219   06 Jun 2027 07:12:02.083   06 Jun 2027 07:12:44.529            42.446              Murmansk1          5305.750
       220   06 Jun 2027 07:12:54.516   06 Jun 2027 07:13:00.099             5.583              Murmansk1           697.875
       221   06 Jun 2027 07:13:00.099   06 Jun 2027 07:13:20.462            20.363              Murmansk2          2545.375
       222   06 Jun 2027 07:13:32.940   06 Jun 2027 07:14:19.588            46.648                Novosib          5831.000
       223   06 Jun 2027 08:35:01.544   06 Jun 2027 08:35:13.021            11.477                  Delhi          1434.625
       224   06 Jun 2027 08:44:56.722   06 Jun 2027 08:45:33.706            36.984                 Moscow          4623.000
       225   06 Jun 2027 08:45:47.036   06 Jun 2027 08:47:26.218            99.182                Novosib         12397.750
       226   06 Jun 2027 08:47:56.961   06 Jun 2027 08:48:15.279            18.318                 Moscow          2289.750
       227   06 Jun 2027 08:48:21.121   06 Jun 2027 08:49:29.831            68.710                Norilsk          8588.750
       228   06 Jun 2027 08:50:07.709   06 Jun 2027 08:50:19.551            11.842              Murmansk2          1480.250
       229   06 Jun 2027 10:35:47.489   06 Jun 2027 10:39:46.179           238.690                Anadyr2         29836.250
       230   06 Jun 2027 11:29:33.351   06 Jun 2027 11:31:49.017           135.666               CapeTown         16958.250
       231   06 Jun 2027 12:10:04.460   06 Jun 2027 12:11:14.659            70.199                Anadyr2          8774.875
       232   06 Jun 2027 12:14:33.308   06 Jun 2027 12:14:59.850            26.542                Anadyr1          3317.750
       233   06 Jun 2027 12:19:17.744   06 Jun 2027 12:19:37.641            19.897                Anadyr2          2487.125
       234   06 Jun 2027 13:48:37.390   06 Jun 2027 13:52:54.411           257.021               Magadan2         32127.625
       235   06 Jun 2027 13:53:37.208   06 Jun 2027 13:54:14.930            37.722               Magadan1          4715.250
       236   06 Jun 2027 13:56:04.764   06 Jun 2027 13:57:30.817            86.053               Magadan2         10756.625
       237   06 Jun 2027 16:16:54.049   06 Jun 2027 16:20:36.492           222.443            RioGallegos         27805.375
       238   06 Jun 2027 16:22:09.567   06 Jun 2027 16:23:28.785            79.218            RioGallegos          9902.250
       239   06 Jun 2027 17:07:33.232   06 Jun 2027 17:08:16.689            43.457                Irkutsk          5432.125
       240   06 Jun 2027 17:19:24.254   06 Jun 2027 17:23:57.199           272.945                Sumatra         34118.125
       241   06 Jun 2027 17:25:02.267   06 Jun 2027 17:25:33.454            31.187                Sumatra          3898.375
       242   06 Jun 2027 18:42:26.653   06 Jun 2027 18:44:02.714            96.061                Novosib         12007.625
       243   06 Jun 2027 18:48:21.663   06 Jun 2027 18:51:38.761           197.098                  Delhi         24637.250
       244   06 Jun 2027 21:52:43.204   06 Jun 2027 21:52:44.585             1.381              Murmansk1           172.625
       245   06 Jun 2027 21:53:12.936   06 Jun 2027 21:54:56.806           103.870                 Moscow         12983.750
       246   06 Jun 2027 21:57:35.524   06 Jun 2027 21:58:39.917            64.393                 Moscow          8049.125
       247   06 Jun 2027 22:18:18.511   06 Jun 2027 22:19:09.943            51.432               CapeTown          6429.000
       248   06 Jun 2027 22:19:47.185   06 Jun 2027 22:21:38.728           111.543               CapeTown         13942.875
       249   07 Jun 2027 04:12:05.697   07 Jun 2027 04:13:11.743            66.046               Magadan1          8255.750
       250   07 Jun 2027 04:13:19.123   07 Jun 2027 04:13:23.716             4.593               Magadan1           574.125
       251   07 Jun 2027 04:21:28.548   07 Jun 2027 04:21:39.041            10.493              Murmansk2          1311.625
       252   07 Jun 2027 04:48:23.900   07 Jun 2027 04:49:03.030            39.130            RioGallegos          4891.250
       253   07 Jun 2027 04:56:00.925   07 Jun 2027 04:56:14.759            13.834            RioGallegos          1729.250
       254   07 Jun 2027 05:24:07.046   07 Jun 2027 05:25:39.430            92.384                Sumatra         11548.000
       255   07 Jun 2027 05:46:09.046   07 Jun 2027 05:49:33.555           204.509                Novosib         25563.625
       256   07 Jun 2027 07:23:10.422   07 Jun 2027 07:23:48.913            38.491              Murmansk1          4811.375
       257   07 Jun 2027 07:23:53.714   07 Jun 2027 07:24:47.916            54.202                 Moscow          6775.250
       258   07 Jun 2027 07:25:07.625   07 Jun 2027 07:25:57.929            50.304              Murmansk1          6288.000
       259   07 Jun 2027 07:25:58.781   07 Jun 2027 07:26:31.145            32.364                 Moscow          4045.500
       260   07 Jun 2027 08:45:02.256   07 Jun 2027 08:45:30.962            28.706                  Delhi          3588.250
       261   07 Jun 2027 08:51:23.346   07 Jun 2027 08:51:53.944            30.598                  Delhi          3824.750
       262   07 Jun 2027 08:57:24.609   07 Jun 2027 08:57:48.677            24.068                 Moscow          3008.500
       263   07 Jun 2027 08:58:00.506   07 Jun 2027 08:58:40.284            39.778              Murmansk1          4972.250
       264   07 Jun 2027 08:58:42.225   07 Jun 2027 08:58:53.896            11.671              Murmansk2          1458.875
       265   07 Jun 2027 08:58:56.908   07 Jun 2027 08:59:37.113            40.205                 Moscow          5025.625
       266   07 Jun 2027 08:59:49.400   07 Jun 2027 09:00:20.296            30.896                 Moscow          3862.000
       267   07 Jun 2027 09:00:35.968   07 Jun 2027 09:01:27.309            51.341                Norilsk          6417.625
       268   07 Jun 2027 09:01:29.047   07 Jun 2027 09:01:48.512            19.465                Norilsk          2433.125
       269   07 Jun 2027 10:47:16.732   07 Jun 2027 10:52:56.659           339.927                Anadyr2         42490.875
       270   07 Jun 2027 12:22:02.835   07 Jun 2027 12:23:17.325            74.490                Anadyr2          9311.250
       271   07 Jun 2027 12:24:00.566   07 Jun 2027 12:26:34.711           154.145                Anadyr1         19268.125
       272   07 Jun 2027 14:00:30.817   07 Jun 2027 14:02:56.300           145.483               Magadan1         18185.375
       273   07 Jun 2027 14:03:06.036   07 Jun 2027 14:04:46.578           100.542               Magadan2         12567.750
       274   07 Jun 2027 16:28:34.020   07 Jun 2027 16:34:55.372           381.352            RioGallegos         47669.000
       275   07 Jun 2027 17:15:59.122   07 Jun 2027 17:17:10.650            71.528                Irkutsk          8941.000
       276   07 Jun 2027 17:18:33.725   07 Jun 2027 17:19:46.105            72.380                Irkutsk          9047.500
       277   07 Jun 2027 17:29:55.594   07 Jun 2027 17:31:46.136           110.542                Sumatra         13817.750
       278   07 Jun 2027 17:33:55.599   07 Jun 2027 17:34:08.175            12.576                Sumatra          1572.000
       279   07 Jun 2027 17:35:16.690   07 Jun 2027 17:36:31.805            75.115                Sumatra          9389.375
       280   07 Jun 2027 18:51:41.053   07 Jun 2027 18:53:31.102           110.049                Novosib         13756.125
       281   07 Jun 2027 18:59:50.718   07 Jun 2027 19:01:41.420           110.702                  Delhi         13837.750
       282   07 Jun 2027 19:05:31.852   07 Jun 2027 19:06:22.385            50.533                  Delhi          6316.625
       283   07 Jun 2027 20:31:50.695   07 Jun 2027 20:33:42.312           111.617                 Moscow         13952.125
       284   07 Jun 2027 22:01:41.123   07 Jun 2027 22:02:28.266            47.143              Murmansk2          5892.875
       285   07 Jun 2027 22:08:00.694   07 Jun 2027 22:09:34.795            94.101                 Moscow         11762.625
       286   07 Jun 2027 22:29:50.355   07 Jun 2027 22:31:28.683            98.328               CapeTown         12291.000
       287   08 Jun 2027 04:21:09.590   08 Jun 2027 04:21:34.854            25.264                Irkutsk          3158.000
       288   08 Jun 2027 04:24:33.140   08 Jun 2027 04:25:34.613            61.473                Irkutsk          7684.125
       289   08 Jun 2027 05:35:46.027   08 Jun 2027 05:37:36.476           110.449                Sumatra         13806.125
       290   08 Jun 2027 05:39:29.100   08 Jun 2027 05:39:56.847            27.747                Sumatra          3468.375
       291   08 Jun 2027 05:51:23.257   08 Jun 2027 05:53:08.404           105.147                  Delhi         13143.375
       292   08 Jun 2027 05:58:05.525   08 Jun 2027 05:58:18.986            13.461                Novosib          1682.625
       293   08 Jun 2027 05:58:31.498   08 Jun 2027 05:59:38.890            67.392              Murmansk2          8424.000
       294   08 Jun 2027 05:59:52.143   08 Jun 2027 06:00:56.395            64.252                Norilsk          8031.500
       295   08 Jun 2027 06:01:07.340   08 Jun 2027 06:01:39.174            31.834                Irkutsk          3979.250
       296   08 Jun 2027 06:01:44.645   08 Jun 2027 06:02:08.819            24.174                Norilsk          3021.750
       297   08 Jun 2027 06:03:07.884   08 Jun 2027 06:03:17.254             9.370                Norilsk          1171.250
       298   08 Jun 2027 07:13:03.692   08 Jun 2027 07:13:50.712            47.020                Sumatra          5877.500
       299   08 Jun 2027 07:19:34.821   08 Jun 2027 07:19:40.571             5.750                  Delhi           718.750
       300   08 Jun 2027 07:20:39.660   08 Jun 2027 07:21:35.273            55.613                  Delhi          6951.625
       301   08 Jun 2027 07:22:40.190   08 Jun 2027 07:22:47.620             7.430                  Delhi           928.750
       302   08 Jun 2027 07:35:25.053   08 Jun 2027 07:36:58.932            93.879                 Moscow         11734.875
       303   08 Jun 2027 08:57:52.638   08 Jun 2027 08:58:09.883            17.245                  Delhi          2155.625
       304   08 Jun 2027 09:08:58.680   08 Jun 2027 09:09:52.856            54.176              Murmansk2          6772.000
       305   08 Jun 2027 09:10:08.538   08 Jun 2027 09:10:41.424            32.886                 Moscow          4110.750
       306   08 Jun 2027 09:10:47.676   08 Jun 2027 09:11:25.472            37.796                Novosib          4724.500
       307   08 Jun 2027 09:11:32.503   08 Jun 2027 09:11:50.923            18.420                 Moscow          2302.500
       308   08 Jun 2027 09:12:00.447   08 Jun 2027 09:12:37.793            37.346              Murmansk2          4668.250
       309   08 Jun 2027 09:12:48.714   08 Jun 2027 09:13:26.068            37.354                Novosib          4669.250
       310   08 Jun 2027 09:13:37.871   08 Jun 2027 09:14:24.377            46.506                 Moscow          5813.250
       311   08 Jun 2027 09:14:47.766   08 Jun 2027 09:15:19.961            32.195              Murmansk1          4024.375
       312   08 Jun 2027 10:20:51.244   08 Jun 2027 10:22:55.102           123.858               CapeTown         15482.250
       313   08 Jun 2027 10:25:12.572   08 Jun 2027 10:25:58.257            45.685               CapeTown          5710.625
       314   08 Jun 2027 10:58:58.116   08 Jun 2027 11:05:24.784           386.668                Anadyr2         48333.500
       315   08 Jun 2027 12:40:11.886   08 Jun 2027 12:40:39.891            28.005               Magadan1          3500.625
       316   08 Jun 2027 14:12:25.899   08 Jun 2027 14:14:21.579           115.680               Magadan2         14460.000
       317   08 Jun 2027 14:15:12.795   08 Jun 2027 14:16:48.397            95.602               Magadan1         11950.250
       318   08 Jun 2027 16:40:19.209   08 Jun 2027 16:46:18.482           359.273            RioGallegos         44909.125
       319   08 Jun 2027 17:27:51.326   08 Jun 2027 17:29:38.509           107.183                Irkutsk         13397.875
       320   08 Jun 2027 17:30:05.964   08 Jun 2027 17:32:59.065           173.101                Novosib         21637.625
       321   08 Jun 2027 17:41:38.187   08 Jun 2027 17:43:24.924           106.737                Sumatra         13342.125
       322   08 Jun 2027 17:44:35.531   08 Jun 2027 17:45:59.502            83.971                Sumatra         10496.375
       323   08 Jun 2027 19:11:28.376   08 Jun 2027 19:12:51.680            83.304                  Delhi         10413.000
       324   08 Jun 2027 19:13:35.302   08 Jun 2027 19:15:25.345           110.043                  Delhi         13755.375
       325   08 Jun 2027 20:41:47.422   08 Jun 2027 20:42:26.091            38.669              Murmansk1          4833.625
       326   08 Jun 2027 20:42:59.210   08 Jun 2027 20:45:41.539           162.329                 Moscow         20291.125
       327   08 Jun 2027 22:41:28.472   08 Jun 2027 22:43:39.370           130.898               CapeTown         16362.250
       328   09 Jun 2027 04:36:44.930   09 Jun 2027 04:37:03.438            18.508               Magadan2          2313.500
       329   09 Jun 2027 04:37:04.603   09 Jun 2027 04:37:42.788            38.185                Irkutsk          4773.125
       330   09 Jun 2027 04:37:51.178   09 Jun 2027 04:38:28.108            36.930                Novosib          4616.250
       331   09 Jun 2027 05:12:25.600   09 Jun 2027 05:13:45.070            79.470            RioGallegos          9933.750
       332   09 Jun 2027 05:47:31.954   09 Jun 2027 05:47:52.636            20.682                Sumatra          2585.250
       333   09 Jun 2027 05:50:18.504   09 Jun 2027 05:52:03.611           105.107                Sumatra         13138.375
       334   09 Jun 2027 05:59:16.856   09 Jun 2027 06:00:26.667            69.811                  Delhi          8726.375
       335   09 Jun 2027 06:09:56.707   09 Jun 2027 06:12:11.940           135.233                Irkutsk         16904.125
       336   09 Jun 2027 06:12:42.733   09 Jun 2027 06:13:05.579            22.846              Murmansk2          2855.750
       337   09 Jun 2027 06:13:42.267   09 Jun 2027 06:14:29.179            46.912                 Moscow          5864.000
       338   09 Jun 2027 07:25:17.335   09 Jun 2027 07:25:42.902            25.567                Sumatra          3195.875
       339   09 Jun 2027 07:31:31.339   09 Jun 2027 07:33:07.879            96.540                  Delhi         12067.500
       340   09 Jun 2027 07:47:19.331   09 Jun 2027 07:48:34.226            74.895                Novosib          9361.875
       341   09 Jun 2027 07:48:43.477   09 Jun 2027 07:49:05.587            22.110                Norilsk          2763.750
       342   09 Jun 2027 07:49:07.286   09 Jun 2027 07:49:09.606             2.320                 Moscow           290.000
       343   09 Jun 2027 07:50:41.827   09 Jun 2027 07:51:46.615            64.788                 Moscow          8098.500
       344   09 Jun 2027 09:11:17.918   09 Jun 2027 09:12:06.529            48.611                  Delhi          6076.375
       345   09 Jun 2027 09:19:12.038   09 Jun 2027 09:20:34.567            82.529                 Moscow         10316.125
       346   09 Jun 2027 09:20:44.101   09 Jun 2027 09:21:32.505            48.404                Novosib          6050.500
       347   09 Jun 2027 09:21:42.932   09 Jun 2027 09:22:02.725            19.793                 Moscow          2474.125
       348   09 Jun 2027 09:22:08.068   09 Jun 2027 09:22:21.350            13.282                Norilsk          1660.250
       349   09 Jun 2027 09:22:27.905   09 Jun 2027 09:23:23.822            55.917                Novosib          6989.625
       350   09 Jun 2027 09:23:51.104   09 Jun 2027 09:25:14.814            83.710                 Moscow         10463.750
       351   09 Jun 2027 09:25:18.254   09 Jun 2027 09:25:29.487            11.233              Murmansk1          1404.125
       352   09 Jun 2027 09:25:33.675   09 Jun 2027 09:25:49.362            15.687                Norilsk          1960.875
       353   09 Jun 2027 09:25:52.471   09 Jun 2027 09:27:32.820           100.349                 Moscow         12543.625
       354   09 Jun 2027 10:31:44.700   09 Jun 2027 10:34:11.375           146.675               CapeTown         18334.375
       355   09 Jun 2027 10:38:50.348   09 Jun 2027 10:39:21.500            31.152               CapeTown          3894.000
       356   09 Jun 2027 11:10:45.444   09 Jun 2027 11:14:42.593           237.149                Anadyr2         29643.625
       357   09 Jun 2027 12:50:26.672   09 Jun 2027 12:52:57.994           151.322               Magadan1         18915.250
       358   09 Jun 2027 14:24:22.290   09 Jun 2027 14:25:59.499            97.209               Magadan2         12151.125
       359   09 Jun 2027 14:28:50.439   09 Jun 2027 14:28:50.651             0.212               Magadan1            26.500
       360   09 Jun 2027 16:07:22.675   09 Jun 2027 16:09:39.919           137.244                Irkutsk         17155.500
       361   09 Jun 2027 16:52:08.075   09 Jun 2027 16:56:19.426           251.351            RioGallegos         31418.875
       362   09 Jun 2027 17:41:21.113   09 Jun 2027 17:44:47.237           206.124                Novosib         25765.500
       363   09 Jun 2027 17:47:21.195   09 Jun 2027 17:47:52.452            31.257                Novosib          3907.125
       364   09 Jun 2027 17:56:23.917   09 Jun 2027 17:57:36.118            72.201                Sumatra          9025.125
       365   09 Jun 2027 19:23:12.270   09 Jun 2027 19:27:24.001           251.731                  Delhi         31466.375
       366   09 Jun 2027 19:28:50.063   09 Jun 2027 19:28:51.686             1.623                  Delhi           202.875
       367   09 Jun 2027 20:50:38.344   09 Jun 2027 20:51:36.544            58.200              Murmansk1          7275.000
       368   09 Jun 2027 20:54:29.191   09 Jun 2027 20:57:41.556           192.365                 Moscow         24045.625
       369   10 Jun 2027 03:09:07.318   10 Jun 2027 03:09:34.059            26.741                Anadyr1          3342.625
       370   10 Jun 2027 03:09:55.663   10 Jun 2027 03:10:26.696            31.033                Anadyr1          3879.125
       371   10 Jun 2027 03:10:34.565   10 Jun 2027 03:10:39.812             5.247                Anadyr2           655.875
       372   10 Jun 2027 03:10:41.424   10 Jun 2027 03:12:01.606            80.182                Anadyr2         10022.750
       373   10 Jun 2027 03:13:14.666   10 Jun 2027 03:13:32.355            17.689                Anadyr1          2211.125
       374   10 Jun 2027 04:44:18.477   10 Jun 2027 04:46:06.832           108.355                Novosib         13544.375
       375   10 Jun 2027 04:46:21.115   10 Jun 2027 04:46:47.705            26.590                Irkutsk          3323.750
       376   10 Jun 2027 04:46:54.622   10 Jun 2027 04:47:24.897            30.275                Novosib          3784.375
       377   10 Jun 2027 04:47:32.368   10 Jun 2027 04:47:39.635             7.267                Norilsk           908.375
       378   10 Jun 2027 04:48:03.680   10 Jun 2027 04:48:43.865            40.185              Murmansk1          5023.125
       379   10 Jun 2027 04:49:08.660   10 Jun 2027 04:49:53.168            44.508                Norilsk          5563.500
       380   10 Jun 2027 04:50:10.682   10 Jun 2027 04:50:43.683            33.001                Novosib          4125.125
       381   10 Jun 2027 04:50:51.659   10 Jun 2027 04:51:00.133             8.474                Novosib          1059.250
       382   10 Jun 2027 05:24:31.518   10 Jun 2027 05:25:31.772            60.254            RioGallegos          7531.750
       383   10 Jun 2027 05:59:23.985   10 Jun 2027 06:02:27.823           183.838                Sumatra         22979.750
       384   10 Jun 2027 06:10:18.237   10 Jun 2027 06:12:42.926           144.689                  Delhi         18086.125
       385   10 Jun 2027 06:22:21.116   10 Jun 2027 06:23:38.272            77.156                Irkutsk          9644.500
       386   10 Jun 2027 06:23:59.845   10 Jun 2027 06:24:41.128            41.283                 Moscow          5160.375
       387   10 Jun 2027 06:24:44.266   10 Jun 2027 06:24:56.109            11.843              Murmansk1          1480.375
       388   10 Jun 2027 06:25:08.363   10 Jun 2027 06:25:40.535            32.172              Murmansk1          4021.500
       389   10 Jun 2027 07:03:47.303   10 Jun 2027 07:04:09.982            22.679            RioGallegos          2834.875
       390   10 Jun 2027 07:38:33.043   10 Jun 2027 07:39:01.475            28.432                Sumatra          3554.000
       391   10 Jun 2027 07:43:33.149   10 Jun 2027 07:44:32.257            59.108                  Delhi          7388.500
       392   10 Jun 2027 07:58:36.188   10 Jun 2027 07:58:39.138             2.950              Murmansk2           368.750
       393   10 Jun 2027 07:58:42.597   10 Jun 2027 07:59:44.689            62.092                 Moscow          7761.500
       394   10 Jun 2027 08:00:03.213   10 Jun 2027 08:00:55.295            52.082                 Moscow          6510.250
       395   10 Jun 2027 08:01:09.587   10 Jun 2027 08:01:25.247            15.660                Norilsk          1957.500
       396   10 Jun 2027 08:01:33.336   10 Jun 2027 08:01:40.033             6.697              Murmansk1           837.125
       397   10 Jun 2027 08:02:11.339   10 Jun 2027 08:02:48.011            36.672                 Moscow          4584.000
       398   10 Jun 2027 09:31:14.410   10 Jun 2027 09:32:37.853            83.443                 Moscow         10430.375
       399   10 Jun 2027 09:32:50.487   10 Jun 2027 09:33:34.730            44.243              Murmansk2          5530.375
       400   10 Jun 2027 09:34:04.612   10 Jun 2027 09:36:11.726           127.114              Murmansk2         15889.250
       401   10 Jun 2027 09:36:14.499   10 Jun 2027 09:36:48.211            33.712                 Moscow          4214.000
       402   10 Jun 2027 09:36:57.943   10 Jun 2027 09:37:00.521             2.578              Murmansk1           322.250
       403   10 Jun 2027 09:37:07.278   10 Jun 2027 09:38:05.468            58.190                Norilsk          7273.750
       404   10 Jun 2027 09:38:10.758   10 Jun 2027 09:39:14.423            63.665                 Moscow          7958.125
       405   10 Jun 2027 10:43:03.527   10 Jun 2027 10:46:20.256           196.729               CapeTown         24591.125
       406   10 Jun 2027 10:48:46.949   10 Jun 2027 10:50:50.428           123.479               CapeTown         15434.875
       407   10 Jun 2027 11:25:05.407   10 Jun 2027 11:26:43.428            98.021                Anadyr1         12252.625
       408   10 Jun 2027 13:01:50.731   10 Jun 2027 13:07:56.853           366.122               Magadan1         45765.250
       409   10 Jun 2027 16:18:01.034   10 Jun 2027 16:21:10.789           189.755                Irkutsk         23719.375
       410   10 Jun 2027 16:23:29.168   10 Jun 2027 16:23:34.712             5.544                Irkutsk           693.000
       411   10 Jun 2027 17:52:53.562   10 Jun 2027 17:59:27.421           393.859                Novosib         49232.375
       412   10 Jun 2027 19:37:06.579   10 Jun 2027 19:38:58.583           112.004                  Delhi         14000.500
       413   10 Jun 2027 21:01:54.354   10 Jun 2027 21:02:31.191            36.837              Murmansk2          4604.625
       414   10 Jun 2027 21:06:08.606   10 Jun 2027 21:09:42.261           213.655                 Moscow         26706.875
       415   10 Jun 2027 21:34:41.966   10 Jun 2027 21:35:19.609            37.643               CapeTown          4705.375
       416   10 Jun 2027 21:38:36.224   10 Jun 2027 21:38:55.359            19.135               CapeTown          2391.875
       417   11 Jun 2027 03:20:05.782   11 Jun 2027 03:20:48.924            43.142                Anadyr1          5392.750
       418   11 Jun 2027 03:21:22.556   11 Jun 2027 03:22:12.718            50.162               Magadan2          6270.250
       419   11 Jun 2027 03:22:30.987   11 Jun 2027 03:24:01.984            90.997                Anadyr1         11374.625
       420   11 Jun 2027 03:24:04.803   11 Jun 2027 03:24:54.067            49.264                Anadyr1          6158.000
       421   11 Jun 2027 03:25:41.443   11 Jun 2027 03:25:55.869            14.426               Magadan1          1803.250
       422   11 Jun 2027 04:04:30.295   11 Jun 2027 04:05:13.548            43.253            RioGallegos          5406.625
       423   11 Jun 2027 04:40:05.037   11 Jun 2027 04:40:21.538            16.501                Sumatra          2062.625
       424   11 Jun 2027 04:41:05.652   11 Jun 2027 04:42:16.569            70.917                Sumatra          8864.625
       425   11 Jun 2027 04:56:21.885   11 Jun 2027 04:56:54.166            32.281                Irkutsk          4035.125
       426   11 Jun 2027 04:56:59.487   11 Jun 2027 04:57:29.179            29.692               Magadan2          3711.500
       427   11 Jun 2027 04:57:39.508   11 Jun 2027 04:58:16.614            37.106               Magadan1          4638.250
       428   11 Jun 2027 04:58:16.614   11 Jun 2027 04:59:26.403            69.789               Magadan2          8723.625
       429   11 Jun 2027 04:59:41.846   11 Jun 2027 05:00:25.072            43.226               Magadan2          5403.250
       430   11 Jun 2027 05:00:31.576   11 Jun 2027 05:01:18.876            47.300                Novosib          5912.500
       431   11 Jun 2027 05:36:41.018   11 Jun 2027 05:37:21.637            40.619            RioGallegos          5077.375
       432   11 Jun 2027 05:38:25.973   11 Jun 2027 05:39:19.514            53.541            RioGallegos          6692.625
       433   11 Jun 2027 06:11:21.697   11 Jun 2027 06:13:50.347           148.650                Sumatra         18581.250
       434   11 Jun 2027 06:24:04.313   11 Jun 2027 06:24:36.897            32.584                  Delhi          4073.000
       435   11 Jun 2027 06:33:38.584   11 Jun 2027 06:34:19.886            41.302              Murmansk2          5162.750
       436   11 Jun 2027 06:34:25.542   11 Jun 2027 06:34:51.607            26.065                Norilsk          3258.125
       437   11 Jun 2027 06:34:58.036   11 Jun 2027 06:35:20.429            22.393              Murmansk1          2799.125
       438   11 Jun 2027 06:35:48.858   11 Jun 2027 06:37:33.003           104.145                 Moscow         13018.125
       439   11 Jun 2027 06:37:44.452   11 Jun 2027 06:37:50.326             5.874                Norilsk           734.250
       440   11 Jun 2027 06:37:55.791   11 Jun 2027 06:38:33.769            37.978                 Moscow          4747.250
       441   11 Jun 2027 07:55:40.429   11 Jun 2027 07:57:03.570            83.141                  Delhi         10392.625
       442   11 Jun 2027 08:10:37.413   11 Jun 2027 08:11:15.515            38.102              Murmansk2          4762.750
       443   11 Jun 2027 08:11:23.054   11 Jun 2027 08:12:38.277            75.223                 Moscow          9402.875
       444   11 Jun 2027 08:12:50.343   11 Jun 2027 08:13:26.633            36.290              Murmansk1          4536.250
       445   11 Jun 2027 09:43:24.494   11 Jun 2027 09:44:00.542            36.048              Murmansk1          4506.000
       446   11 Jun 2027 09:44:18.902   11 Jun 2027 09:45:24.438            65.536              Murmansk2          8192.000
       447   11 Jun 2027 09:45:24.438   11 Jun 2027 09:45:51.833            27.395              Murmansk1          3424.375
       448   11 Jun 2027 09:46:03.937   11 Jun 2027 09:47:06.778            62.841                 Moscow          7855.125
       449   11 Jun 2027 09:47:25.913   11 Jun 2027 09:48:17.676            51.763                 Moscow          6470.375
       450   11 Jun 2027 09:48:29.136   11 Jun 2027 09:49:04.407            35.271              Murmansk1          4408.875
       451   11 Jun 2027 09:49:19.997   11 Jun 2027 09:50:33.062            73.065                 Moscow          9133.125
       452   11 Jun 2027 10:54:34.746   11 Jun 2027 10:56:29.387           114.641               CapeTown         14330.125
       453   11 Jun 2027 10:56:30.709   11 Jun 2027 10:58:17.014           106.305               CapeTown         13288.125
       454   11 Jun 2027 11:00:32.786   11 Jun 2027 11:01:30.366            57.580               CapeTown          7197.500
       455   11 Jun 2027 11:34:29.801   11 Jun 2027 11:37:59.277           209.476                Anadyr1         26184.500
       456   11 Jun 2027 11:38:29.691   11 Jun 2027 11:40:18.930           109.239                Anadyr1         13654.875
       457   11 Jun 2027 13:13:28.110   11 Jun 2027 13:16:57.419           209.309               Magadan2         26163.625
       458   11 Jun 2027 15:44:18.733   11 Jun 2027 15:45:01.996            43.263            RioGallegos          5407.875
       459   11 Jun 2027 16:29:21.904   11 Jun 2027 16:32:51.175           209.271                Irkutsk         26158.875
       460   11 Jun 2027 16:33:47.070   11 Jun 2027 16:35:34.587           107.517                Irkutsk         13439.625
       461   11 Jun 2027 16:45:09.241   11 Jun 2027 16:46:52.625           103.384                Sumatra         12923.000
       462   11 Jun 2027 16:48:31.135   11 Jun 2027 16:50:50.512           139.377                Sumatra         17422.125
       463   11 Jun 2027 18:06:14.223   11 Jun 2027 18:08:11.740           117.517                Novosib         14689.625
       464   11 Jun 2027 21:13:53.613   11 Jun 2027 21:15:26.868            93.255              Murmansk1         11656.875
       465   11 Jun 2027 21:19:55.060   11 Jun 2027 21:21:58.287           123.227                 Moscow         15403.375
       466   11 Jun 2027 21:23:59.976   11 Jun 2027 21:25:01.874            61.898                 Moscow          7737.250
       467   11 Jun 2027 21:44:50.352   11 Jun 2027 21:45:42.448            52.096               CapeTown          6512.000
       468   11 Jun 2027 21:46:48.807   11 Jun 2027 21:48:10.579            81.772               CapeTown         10221.500
       469   12 Jun 2027 03:33:31.591   12 Jun 2027 03:33:37.068             5.477               Magadan2           684.625
       470   12 Jun 2027 03:33:45.533   12 Jun 2027 03:34:27.575            42.042               Magadan2          5255.250
       471   12 Jun 2027 03:34:41.215   12 Jun 2027 03:36:02.672            81.457                Anadyr2         10182.125
       472   12 Jun 2027 03:36:37.804   12 Jun 2027 03:37:10.765            32.961                Anadyr2          4120.125
       473   12 Jun 2027 03:37:18.740   12 Jun 2027 03:37:53.325            34.585               Magadan1          4323.125
       474   12 Jun 2027 04:50:29.121   12 Jun 2027 04:52:40.599           131.478                Sumatra         16434.750
       475   12 Jun 2027 05:09:13.681   12 Jun 2027 05:11:13.468           119.787                Irkutsk         14973.375
       476   12 Jun 2027 05:11:25.174   12 Jun 2027 05:12:51.675            86.501                Novosib         10812.625
       477   12 Jun 2027 05:13:25.839   12 Jun 2027 05:13:57.258            31.419                Novosib          3927.375
       478   12 Jun 2027 05:48:54.312   12 Jun 2027 05:49:14.672            20.360            RioGallegos          2545.000
       479   12 Jun 2027 05:51:37.676   12 Jun 2027 05:52:16.163            38.487            RioGallegos          4810.875
       480   12 Jun 2027 06:23:24.991   12 Jun 2027 06:24:31.955            66.964                Sumatra          8370.500
       481   12 Jun 2027 06:32:59.264   12 Jun 2027 06:34:03.725            64.461                  Delhi          8057.625
       482   12 Jun 2027 06:34:36.694   12 Jun 2027 06:36:26.041           109.347                  Delhi         13668.375
