uniorb/output/strategy_1/Drop/Drop_KinoSat_111005.txt

KinoSat_111005
-------------------------
    Access    *     Start Time (UTCG)     *     Stop Time (UTCG)  *   Duration (s)        *       Station  *  Data (Mbytes)
         1   01 Jun 2027 03:28:29.002   01 Jun 2027 03:30:15.487           106.485                Anadyr1          3327.656
         2   01 Jun 2027 03:31:13.624   01 Jun 2027 03:31:37.272            23.648               Magadan2           739.000
         3   01 Jun 2027 05:03:29.125   01 Jun 2027 05:04:18.701            49.576                Anadyr2          1549.250
         4   01 Jun 2027 05:04:23.419   01 Jun 2027 05:04:43.307            19.888                Anadyr1           621.500
         5   01 Jun 2027 05:04:52.072   01 Jun 2027 05:06:09.064            76.992                Anadyr2          2406.000
         6   01 Jun 2027 05:06:09.064   01 Jun 2027 05:08:06.033           116.969                Anadyr1          3655.281
         7   01 Jun 2027 05:08:14.035   01 Jun 2027 05:08:55.270            41.235               Magadan1          1288.594
         8   01 Jun 2027 06:37:58.030   01 Jun 2027 06:38:28.452            30.422               Magadan2           950.687
         9   01 Jun 2027 06:38:29.649   01 Jun 2027 06:39:18.686            49.037                Anadyr1          1532.406
        10   01 Jun 2027 06:39:33.506   01 Jun 2027 06:42:47.786           194.280               Magadan1          6071.250
        11   01 Jun 2027 06:42:50.744   01 Jun 2027 06:43:22.453            31.709               Magadan2           990.906
        12   01 Jun 2027 06:43:28.787   01 Jun 2027 06:43:46.511            17.724               Magadan2           553.875
        13   01 Jun 2027 06:43:46.511   01 Jun 2027 06:44:05.726            19.215               Magadan1           600.469
        14   01 Jun 2027 06:44:23.696   01 Jun 2027 06:44:43.313            19.617                Irkutsk           613.031
        15   01 Jun 2027 06:44:45.557   01 Jun 2027 06:45:55.331            69.774              Murmansk1          2180.438
        16   01 Jun 2027 06:45:57.175   01 Jun 2027 06:46:03.450             6.275                Norilsk           196.094
        17   01 Jun 2027 06:46:54.789   01 Jun 2027 06:47:26.271            31.482              Murmansk2           983.813
        18   01 Jun 2027 07:20:45.409   01 Jun 2027 07:21:56.469            71.060            RioGallegos          2220.625
        19   01 Jun 2027 07:58:53.488   01 Jun 2027 08:00:20.356            86.868                Sumatra          2714.625
        20   01 Jun 2027 08:15:53.806   01 Jun 2027 08:17:28.826            95.020                Irkutsk          2969.375
        21   01 Jun 2027 08:17:48.910   01 Jun 2027 08:19:23.830            94.920               Magadan1          2966.250
        22   01 Jun 2027 08:19:26.705   01 Jun 2027 08:19:51.125            24.420               Magadan2           763.125
        23   01 Jun 2027 08:19:57.644   01 Jun 2027 08:21:45.354           107.710              Murmansk2          3365.937
        24   01 Jun 2027 08:22:10.137   01 Jun 2027 08:22:24.085            13.948                Novosib           435.875
        25   01 Jun 2027 08:23:10.781   01 Jun 2027 08:23:35.318            24.537              Murmansk1           766.781
        26   01 Jun 2027 08:56:24.272   01 Jun 2027 08:56:39.095            14.823            RioGallegos           463.219
        27   01 Jun 2027 08:57:22.036   01 Jun 2027 08:57:39.883            17.847            RioGallegos           557.719
        28   01 Jun 2027 09:00:34.923   01 Jun 2027 09:00:38.330             3.407            RioGallegos           106.469
        29   01 Jun 2027 09:31:00.491   01 Jun 2027 09:31:18.572            18.081                Sumatra           565.031
        30   01 Jun 2027 09:31:57.951   01 Jun 2027 09:33:36.856            98.905                Sumatra          3090.781
        31   01 Jun 2027 09:40:55.950   01 Jun 2027 09:41:27.493            31.543                  Delhi           985.719
        32   01 Jun 2027 09:52:48.645   01 Jun 2027 09:54:33.634           104.989                Norilsk          3280.906
        33   01 Jun 2027 09:54:36.941   01 Jun 2027 09:55:54.414            77.473              Murmansk1          2421.031
        34   01 Jun 2027 09:55:54.414   01 Jun 2027 09:56:40.810            46.396              Murmansk2          1449.875
        35   01 Jun 2027 09:56:47.881   01 Jun 2027 09:57:21.199            33.318                 Moscow          1041.187
        36   01 Jun 2027 09:57:32.702   01 Jun 2027 09:59:11.580            98.878              Murmansk1          3089.937
        37   01 Jun 2027 09:59:37.868   01 Jun 2027 09:59:57.985            20.117              Murmansk1           628.656
        38   01 Jun 2027 10:02:51.408   01 Jun 2027 10:03:19.661            28.253              Murmansk1           882.906
        39   01 Jun 2027 10:37:02.835   01 Jun 2027 10:37:37.663            34.828            RioGallegos          1088.375
        40   01 Jun 2027 10:39:05.020   01 Jun 2027 10:39:52.365            47.345            RioGallegos          1479.531
        41   01 Jun 2027 11:15:23.407   01 Jun 2027 11:16:17.539            54.132                  Delhi          1691.625
        42   01 Jun 2027 11:19:14.288   01 Jun 2027 11:20:08.808            54.520                  Delhi          1703.750
        43   01 Jun 2027 11:30:47.510   01 Jun 2027 11:31:54.756            67.246                 Moscow          2101.438
        44   01 Jun 2027 11:31:59.634   01 Jun 2027 11:32:15.004            15.370                 Moscow           480.312
        45   01 Jun 2027 11:32:16.286   01 Jun 2027 11:33:55.317            99.031              Murmansk1          3094.719
        46   01 Jun 2027 11:34:28.054   01 Jun 2027 11:34:49.133            21.079              Murmansk1           658.719
        47   01 Jun 2027 12:59:36.064   01 Jun 2027 13:01:54.805           138.741                 Moscow          4335.656
        48   01 Jun 2027 13:02:54.941   01 Jun 2027 13:03:44.248            49.307                 Moscow          1540.844
        49   01 Jun 2027 13:03:47.293   01 Jun 2027 13:04:57.983            70.690              Murmansk2          2209.063
        50   01 Jun 2027 13:05:20.079   01 Jun 2027 13:07:39.244           139.165              Murmansk1          4348.906
        51   01 Jun 2027 13:10:18.315   01 Jun 2027 13:10:42.643            24.328                Norilsk           760.250
        52   01 Jun 2027 13:11:06.808   01 Jun 2027 13:11:53.121            46.313                Norilsk          1447.281
        53   01 Jun 2027 14:14:02.631   01 Jun 2027 14:15:28.838            86.207               CapeTown          2693.969
        54   01 Jun 2027 14:15:50.658   01 Jun 2027 14:16:26.451            35.793               CapeTown          1118.531
        55   01 Jun 2027 14:17:20.593   01 Jun 2027 14:18:49.845            89.252               CapeTown          2789.125
        56   01 Jun 2027 14:19:56.861   01 Jun 2027 14:20:36.746            39.885               CapeTown          1246.406
        57   01 Jun 2027 14:40:14.618   01 Jun 2027 14:41:28.640            74.022              Murmansk2          2313.188
        58   01 Jun 2027 14:42:22.099   01 Jun 2027 14:42:28.001             5.902              Murmansk2           184.437
        59   01 Jun 2027 14:42:32.715   01 Jun 2027 14:42:38.717             6.002              Murmansk2           187.562
        60   01 Jun 2027 14:42:47.781   01 Jun 2027 14:44:11.787            84.006              Murmansk2          2625.187
        61   01 Jun 2027 14:54:05.063   01 Jun 2027 14:57:47.106           222.043                Anadyr1          6938.844
        62   01 Jun 2027 16:19:44.556   01 Jun 2027 16:20:29.856            45.300              Murmansk2          1415.625
        63   01 Jun 2027 16:21:43.975   01 Jun 2027 16:22:24.747            40.772              Murmansk2          1274.125
        64   01 Jun 2027 16:24:16.849   01 Jun 2027 16:24:22.275             5.426              Murmansk1           169.562
        65   01 Jun 2027 16:29:39.975   01 Jun 2027 16:32:18.762           158.787                Anadyr2          4962.094
        66   01 Jun 2027 16:32:57.954   01 Jun 2027 16:34:40.280           102.326               Magadan2          3197.688
        67   01 Jun 2027 16:35:42.887   01 Jun 2027 16:37:20.714            97.827               Magadan1          3057.094
        68   01 Jun 2027 16:38:11.017   01 Jun 2027 16:38:53.087            42.070               Magadan1          1314.687
        69   01 Jun 2027 16:39:17.184   01 Jun 2027 16:39:20.887             3.703               Magadan1           115.719
        70   01 Jun 2027 18:05:34.905   01 Jun 2027 18:08:47.304           192.399                Anadyr2          6012.469
        71   01 Jun 2027 18:09:20.427   01 Jun 2027 18:11:06.574           106.147               Magadan1          3317.094
        72   01 Jun 2027 18:11:06.574   01 Jun 2027 18:11:25.839            19.265               Magadan2           602.031
        73   01 Jun 2027 18:13:40.160   01 Jun 2027 18:14:20.592            40.432               Magadan1          1263.500
        74   01 Jun 2027 18:15:04.437   01 Jun 2027 18:15:54.356            49.919               Magadan1          1559.969
        75   01 Jun 2027 19:02:38.265   01 Jun 2027 19:04:39.060           120.795            RioGallegos          3774.844
        76   01 Jun 2027 19:41:25.062   01 Jun 2027 19:41:39.209            14.147                Anadyr2           442.094
        77   01 Jun 2027 19:42:37.454   01 Jun 2027 19:43:20.632            43.178                Anadyr1          1349.313
        78   01 Jun 2027 19:43:38.211   01 Jun 2027 19:47:27.680           229.469                Norilsk          7170.906
        79   01 Jun 2027 19:48:46.954   01 Jun 2027 19:51:56.159           189.205                Irkutsk          5912.656
        80   01 Jun 2027 19:52:30.604   01 Jun 2027 19:52:57.963            27.359                Irkutsk           854.969
        81   01 Jun 2027 19:53:21.772   01 Jun 2027 19:53:46.763            24.991                Irkutsk           780.969
        82   01 Jun 2027 19:54:13.513   01 Jun 2027 19:54:31.134            17.621                Irkutsk           550.656
        83   01 Jun 2027 20:04:11.822   01 Jun 2027 20:06:05.131           113.309                Sumatra          3540.906
        84   01 Jun 2027 20:07:17.105   01 Jun 2027 20:09:17.303           120.198                Sumatra          3756.187
        85   01 Jun 2027 21:23:15.919   01 Jun 2027 21:24:52.997            97.078                Irkutsk          3033.688
        86   01 Jun 2027 21:25:51.599   01 Jun 2027 21:27:30.904            99.305                Novosib          3103.281
        87   01 Jun 2027 21:35:34.370   01 Jun 2027 21:36:05.080            30.710                  Delhi           959.687
        88   01 Jun 2027 21:37:13.603   01 Jun 2027 21:37:31.069            17.466                  Delhi           545.812
        89   01 Jun 2027 22:50:59.603   01 Jun 2027 22:51:47.581            47.978                Anadyr1          1499.312
        90   01 Jun 2027 22:52:21.019   01 Jun 2027 22:53:07.367            46.348                Anadyr1          1448.375
        91   01 Jun 2027 22:55:19.129   01 Jun 2027 22:55:41.655            22.526                Norilsk           703.937
        92   01 Jun 2027 22:55:53.736   01 Jun 2027 22:56:49.487            55.751               Magadan2          1742.219
        93   01 Jun 2027 22:56:49.487   01 Jun 2027 22:57:14.958            25.471               Magadan1           795.969
        94   01 Jun 2027 22:57:55.158   01 Jun 2027 22:59:05.049            69.891               Magadan1          2184.094
        95   01 Jun 2027 22:59:08.193   01 Jun 2027 23:00:45.087            96.894                Novosib          3027.937
        96   01 Jun 2027 23:01:42.593   01 Jun 2027 23:02:03.944            21.351              Murmansk2           667.219
        97   01 Jun 2027 23:06:30.122   01 Jun 2027 23:07:08.130            38.008                  Delhi          1187.750
        98   01 Jun 2027 23:10:28.318   01 Jun 2027 23:11:06.395            38.077                  Delhi          1189.906
        99   01 Jun 2027 23:14:17.894   01 Jun 2027 23:14:55.056            37.162                  Delhi          1161.313
       100   01 Jun 2027 23:14:59.021   01 Jun 2027 23:16:02.876            63.855                  Delhi          1995.469
       101   02 Jun 2027 00:24:18.644   02 Jun 2027 00:24:33.233            14.589                Anadyr1           455.906
       102   02 Jun 2027 00:25:09.097   02 Jun 2027 00:26:04.361            55.264                Anadyr2          1727.000
       103   02 Jun 2027 00:26:30.663   02 Jun 2027 00:26:51.666            21.003                Anadyr2           656.344
       104   02 Jun 2027 00:27:06.714   02 Jun 2027 00:27:11.447             4.733                Anadyr1           147.906
       105   02 Jun 2027 00:30:25.001   02 Jun 2027 00:32:29.539           124.538               Magadan2          3891.813
       106   02 Jun 2027 00:33:31.125   02 Jun 2027 00:37:51.273           260.148              Murmansk1          8129.625
       107   02 Jun 2027 00:37:56.354   02 Jun 2027 00:38:28.677            32.323                 Moscow          1010.094
       108   02 Jun 2027 00:39:02.624   02 Jun 2027 00:39:23.305            20.681                 Moscow           646.281
       109   02 Jun 2027 01:04:01.776   02 Jun 2027 01:06:02.855           121.079               CapeTown          3783.719
       110   02 Jun 2027 01:09:02.535   02 Jun 2027 01:10:37.868            95.333               CapeTown          2979.156
       111   02 Jun 2027 02:02:08.167   02 Jun 2027 02:03:20.201            72.034               Magadan1          2251.062
       112   02 Jun 2027 02:03:58.429   02 Jun 2027 02:04:06.060             7.631               Magadan2           238.469
       113   02 Jun 2027 02:06:55.438   02 Jun 2027 02:06:57.210             1.772                Norilsk            55.375
       114   02 Jun 2027 02:08:11.469   02 Jun 2027 02:08:14.448             2.979               Magadan2            93.094
       115   02 Jun 2027 02:08:23.938   02 Jun 2027 02:08:35.068            11.130               Magadan2           347.813
       116   02 Jun 2027 02:08:41.484   02 Jun 2027 02:08:56.957            15.473                Norilsk           483.531
       117   02 Jun 2027 02:09:25.117   02 Jun 2027 02:10:43.177            78.060              Murmansk1          2439.375
       118   02 Jun 2027 02:10:43.177   02 Jun 2027 02:11:08.290            25.113              Murmansk2           784.781
       119   02 Jun 2027 02:11:49.277   02 Jun 2027 02:12:28.279            39.002                Novosib          1218.813
       120   02 Jun 2027 02:15:00.202   02 Jun 2027 02:15:27.523            27.321                 Moscow           853.781
       121   02 Jun 2027 02:20:46.559   02 Jun 2027 02:20:54.492             7.933                 Moscow           247.906
       122   02 Jun 2027 02:21:23.179   02 Jun 2027 02:21:50.200            27.021                 Moscow           844.406
       123   02 Jun 2027 02:25:05.697   02 Jun 2027 02:25:32.256            26.559                 Moscow           829.969
       124   02 Jun 2027 02:40:46.216   02 Jun 2027 02:41:05.257            19.041               CapeTown           595.031
       125   02 Jun 2027 02:42:25.944   02 Jun 2027 02:43:36.521            70.577               CapeTown          2205.531
       126   02 Jun 2027 03:39:39.730   02 Jun 2027 03:40:12.299            32.569               Magadan1          1017.781
       127   02 Jun 2027 03:40:12.299   02 Jun 2027 03:40:34.322            22.023               Magadan2           688.219
       128   02 Jun 2027 03:40:34.844   02 Jun 2027 03:44:37.758           242.914                Anadyr1          7591.063
       129   02 Jun 2027 03:44:37.758   02 Jun 2027 03:46:11.512            93.754                Anadyr2          2929.813
       130   02 Jun 2027 05:17:47.365   02 Jun 2027 05:18:09.867            22.502                Anadyr2           703.187
       131   02 Jun 2027 05:18:29.369   02 Jun 2027 05:21:45.737           196.368               Magadan2          6136.500
       132   02 Jun 2027 06:02:57.582   02 Jun 2027 06:03:14.038            16.456            RioGallegos           514.250
       133   02 Jun 2027 06:50:35.067   02 Jun 2027 06:50:38.724             3.657                Irkutsk           114.281
       134   02 Jun 2027 06:50:43.645   02 Jun 2027 06:51:05.980            22.335                Norilsk           697.969
       135   02 Jun 2027 06:51:21.628   02 Jun 2027 06:55:00.114           218.486                Anadyr2          6827.687
       136   02 Jun 2027 06:55:00.114   02 Jun 2027 06:56:39.895            99.781                Anadyr1          3118.156
       137   02 Jun 2027 06:56:47.677   02 Jun 2027 06:57:09.731            22.054                Novosib           689.188
       138   02 Jun 2027 06:57:17.240   02 Jun 2027 06:58:45.374            88.134              Murmansk1          2754.188
       139   02 Jun 2027 06:58:58.792   02 Jun 2027 07:00:10.491            71.699                Norilsk          2240.594
       140   02 Jun 2027 07:00:32.993   02 Jun 2027 07:00:50.848            17.855              Murmansk1           557.969
       141   02 Jun 2027 07:32:33.311   02 Jun 2027 07:35:18.654           165.343            RioGallegos          5166.969
       142   02 Jun 2027 08:09:39.172   02 Jun 2027 08:09:48.210             9.038                Sumatra           282.437
       143   02 Jun 2027 08:28:38.308   02 Jun 2027 08:31:04.473           146.165               Magadan1          4567.656
       144   02 Jun 2027 08:31:10.594   02 Jun 2027 08:31:22.411            11.817              Murmansk1           369.281
       145   02 Jun 2027 08:31:22.411   02 Jun 2027 08:32:30.317            67.906              Murmansk2          2122.063
       146   02 Jun 2027 08:32:34.640   02 Jun 2027 08:33:31.358            56.718                Irkutsk          1772.438
       147   02 Jun 2027 08:33:31.406   02 Jun 2027 08:34:29.813            58.407                Novosib          1825.219
       148   02 Jun 2027 08:37:22.630   02 Jun 2027 08:37:51.982            29.352                Norilsk           917.250
       149   02 Jun 2027 09:08:39.370   02 Jun 2027 09:08:54.338            14.968            RioGallegos           467.750
       150   02 Jun 2027 09:09:19.399   02 Jun 2027 09:09:25.927             6.528            RioGallegos           204.000
       151   02 Jun 2027 09:10:59.817   02 Jun 2027 09:11:14.436            14.619            RioGallegos           456.844
       152   02 Jun 2027 09:12:49.552   02 Jun 2027 09:13:10.346            20.794            RioGallegos           649.812
       153   02 Jun 2027 09:43:06.361   02 Jun 2027 09:43:42.118            35.757                Sumatra          1117.406
       154   02 Jun 2027 09:46:04.783   02 Jun 2027 09:47:01.560            56.777                Sumatra          1774.281
       155   02 Jun 2027 09:52:24.942   02 Jun 2027 09:52:59.093            34.151                  Delhi          1067.219
       156   02 Jun 2027 09:56:55.088   02 Jun 2027 09:57:59.410            64.322                  Delhi          2010.063
       157   02 Jun 2027 10:05:21.405   02 Jun 2027 10:06:35.215            73.810                Irkutsk          2306.562
       158   02 Jun 2027 10:06:44.271   02 Jun 2027 10:07:41.972            57.701                Novosib          1803.156
       159   02 Jun 2027 10:07:44.845   02 Jun 2027 10:08:56.385            71.540                Irkutsk          2235.625
       160   02 Jun 2027 10:09:11.469   02 Jun 2027 10:10:40.376            88.907              Murmansk1          2778.344
       161   02 Jun 2027 10:11:09.520   02 Jun 2027 10:11:22.822            13.302                 Moscow           415.688
       162   02 Jun 2027 10:12:41.836   02 Jun 2027 10:12:46.066             4.230              Murmansk2           132.188
       163   02 Jun 2027 10:12:54.985   02 Jun 2027 10:12:57.593             2.608                Norilsk            81.500
       164   02 Jun 2027 10:13:31.176   02 Jun 2027 10:14:19.539            48.363              Murmansk1          1511.344
       165   02 Jun 2027 10:15:44.061   02 Jun 2027 10:16:28.268            44.207              Murmansk2          1381.469
       166   02 Jun 2027 10:51:24.061   02 Jun 2027 10:52:32.290            68.229            RioGallegos          2132.156
       167   02 Jun 2027 11:27:39.334   02 Jun 2027 11:30:02.416           143.082                  Delhi          4471.313
       168   02 Jun 2027 11:30:12.292   02 Jun 2027 11:32:15.263           122.971                  Delhi          3842.844
       169   02 Jun 2027 11:41:51.319   02 Jun 2027 11:42:23.103            31.784              Murmansk1           993.250
       170   02 Jun 2027 11:42:31.430   02 Jun 2027 11:44:29.304           117.874              Murmansk1          3683.563
       171   02 Jun 2027 11:44:33.053   02 Jun 2027 11:47:02.407           149.354                 Moscow          4667.313
       172   02 Jun 2027 13:11:38.207   02 Jun 2027 13:14:39.975           181.768                 Moscow          5680.250
       173   02 Jun 2027 13:14:56.062   02 Jun 2027 13:15:54.646            58.584                 Moscow          1830.750
       174   02 Jun 2027 13:16:29.145   02 Jun 2027 13:19:12.343           163.198              Murmansk1          5099.938
       175   02 Jun 2027 13:23:08.786   02 Jun 2027 13:24:23.768            74.982                Norilsk          2343.188
       176   02 Jun 2027 14:25:44.511   02 Jun 2027 14:27:58.356           133.845               CapeTown          4182.656
       177   02 Jun 2027 14:29:10.102   02 Jun 2027 14:30:09.025            58.923               CapeTown          1841.344
       178   02 Jun 2027 14:49:42.646   02 Jun 2027 14:49:54.617            11.971                 Moscow           374.094
       179   02 Jun 2027 14:52:34.133   02 Jun 2027 14:54:23.349           109.216              Murmansk2          3413.000
       180   02 Jun 2027 14:54:46.336   02 Jun 2027 14:55:32.840            46.504              Murmansk2          1453.250
       181   02 Jun 2027 15:06:01.009   02 Jun 2027 15:08:24.954           143.945                Anadyr1          4498.281
       182   02 Jun 2027 15:11:03.449   02 Jun 2027 15:11:44.154            40.705                Anadyr1          1272.031
       183   02 Jun 2027 15:12:41.901   02 Jun 2027 15:13:25.916            44.015                Anadyr2          1375.469
       184   02 Jun 2027 15:15:37.075   02 Jun 2027 15:16:01.359            24.284                Anadyr2           758.875
       185   02 Jun 2027 16:01:17.228   02 Jun 2027 16:01:47.623            30.395               CapeTown           949.844
       186   02 Jun 2027 16:11:36.473   02 Jun 2027 16:11:39.875             3.402               CapeTown           106.313
       187   02 Jun 2027 16:11:56.771   02 Jun 2027 16:12:02.795             6.024               CapeTown           188.250
       188   02 Jun 2027 16:32:26.836   02 Jun 2027 16:35:50.954           204.118              Murmansk1          6378.687
       189   02 Jun 2027 16:41:40.838   02 Jun 2027 16:42:21.146            40.308                Anadyr2          1259.625
       190   02 Jun 2027 16:42:41.065   02 Jun 2027 16:44:20.030            98.965                Anadyr1          3092.656
       191   02 Jun 2027 16:44:44.329   02 Jun 2027 16:47:28.065           163.736               Magadan1          5116.750
       192   02 Jun 2027 16:53:05.232   02 Jun 2027 16:53:53.634            48.402               Magadan1          1512.562
       193   02 Jun 2027 18:17:36.237   02 Jun 2027 18:21:45.008           248.771                Anadyr1          7774.094
       194   02 Jun 2027 18:21:46.981   02 Jun 2027 18:22:53.760            66.779               Magadan2          2086.844
       195   02 Jun 2027 18:22:53.760   02 Jun 2027 18:24:35.396           101.636               Magadan1          3176.125
       196   02 Jun 2027 18:28:12.673   02 Jun 2027 18:28:38.426            25.753               Magadan1           804.781
       197   02 Jun 2027 18:30:52.459   02 Jun 2027 18:31:04.607            12.148               Magadan2           379.625
       198   02 Jun 2027 18:31:12.405   02 Jun 2027 18:31:23.664            11.259               Magadan2           351.844
       199   02 Jun 2027 18:32:02.969   02 Jun 2027 18:32:09.883             6.914               Magadan2           216.063
       200   02 Jun 2027 18:32:35.302   02 Jun 2027 18:32:36.349             1.047               Magadan2            32.719
       201   02 Jun 2027 19:13:35.484   02 Jun 2027 19:16:19.980           164.496            RioGallegos          5140.500
       202   02 Jun 2027 19:17:03.661   02 Jun 2027 19:17:50.276            46.615            RioGallegos          1456.719
       203   02 Jun 2027 19:55:34.752   02 Jun 2027 19:59:27.095           232.343                Norilsk          7260.719
       204   02 Jun 2027 20:01:07.997   02 Jun 2027 20:01:59.522            51.525                Irkutsk          1610.156
       205   02 Jun 2027 20:03:11.183   02 Jun 2027 20:03:46.268            35.085                Irkutsk          1096.406
       206   02 Jun 2027 20:05:03.506   02 Jun 2027 20:05:52.963            49.457                Irkutsk          1545.531
       207   02 Jun 2027 20:06:15.049   02 Jun 2027 20:06:50.434            35.385                Irkutsk          1105.781
       208   02 Jun 2027 20:15:12.420   02 Jun 2027 20:17:41.297           148.877                Sumatra          4652.406
       209   02 Jun 2027 20:18:37.207   02 Jun 2027 20:19:43.794            66.587                Sumatra          2080.844
       210   02 Jun 2027 20:22:02.261   02 Jun 2027 20:22:59.242            56.981                Sumatra          1780.656
       211   02 Jun 2027 21:35:14.818   02 Jun 2027 21:35:18.495             3.677               Magadan1           114.906
       212   02 Jun 2027 21:35:19.704   02 Jun 2027 21:35:41.897            22.193               Magadan1           693.531
       213   02 Jun 2027 21:35:52.959   02 Jun 2027 21:36:59.275            66.316                Novosib          2072.375
       214   02 Jun 2027 21:38:16.747   02 Jun 2027 21:39:27.632            70.885                Novosib          2215.156
       215   02 Jun 2027 21:42:11.813   02 Jun 2027 21:43:31.083            79.270                Novosib          2477.188
       216   02 Jun 2027 21:45:32.812   02 Jun 2027 21:47:35.585           122.773                  Delhi          3836.656
       217   02 Jun 2027 21:51:42.371   02 Jun 2027 21:51:55.482            13.111                  Delhi           409.719
       218   02 Jun 2027 23:02:50.033   02 Jun 2027 23:03:36.505            46.472                Anadyr1          1452.250
       219   02 Jun 2027 23:06:10.741   02 Jun 2027 23:06:55.846            45.105                Anadyr1          1409.531
       220   02 Jun 2027 23:07:08.093   02 Jun 2027 23:07:53.564            45.471                Anadyr1          1420.969
       221   02 Jun 2027 23:07:54.017   02 Jun 2027 23:08:37.328            43.311               Magadan2          1353.469
       222   02 Jun 2027 23:09:11.645   02 Jun 2027 23:09:23.168            11.523               Magadan2           360.094
       223   02 Jun 2027 23:10:14.366   02 Jun 2027 23:12:15.841           121.475              Murmansk2          3796.094
       224   02 Jun 2027 23:13:05.439   02 Jun 2027 23:13:57.850            52.411              Murmansk1          1637.844
       225   02 Jun 2027 23:14:17.790   02 Jun 2027 23:15:42.361            84.571              Murmansk1          2642.844
       226   02 Jun 2027 23:25:23.909   02 Jun 2027 23:27:10.866           106.957                  Delhi          3342.406
       227   03 Jun 2027 00:36:00.491   03 Jun 2027 00:36:40.484            39.993                Anadyr1          1249.781
       228   03 Jun 2027 00:36:59.418   03 Jun 2027 00:37:40.428            41.010                Anadyr2          1281.562
       229   03 Jun 2027 00:38:32.001   03 Jun 2027 00:38:47.850            15.849                Anadyr1           495.281
       230   03 Jun 2027 00:38:47.850   03 Jun 2027 00:39:10.690            22.840                Anadyr2           713.750
       231   03 Jun 2027 00:41:02.816   03 Jun 2027 00:41:19.620            16.804                Anadyr1           525.125
       232   03 Jun 2027 00:41:48.654   03 Jun 2027 00:42:03.194            14.540                Anadyr1           454.375
       233   03 Jun 2027 00:42:33.302   03 Jun 2027 00:45:43.521           190.219               Magadan2          5944.344
       234   03 Jun 2027 00:46:09.549   03 Jun 2027 00:46:28.121            18.572              Murmansk2           580.375
       235   03 Jun 2027 00:46:49.468   03 Jun 2027 00:47:18.846            29.378              Murmansk1           918.063
       236   03 Jun 2027 00:50:05.139   03 Jun 2027 00:50:35.279            30.140                 Moscow           941.875
       237   03 Jun 2027 00:52:19.305   03 Jun 2027 00:52:25.409             6.104                 Moscow           190.750
       238   03 Jun 2027 00:52:29.469   03 Jun 2027 00:53:26.942            57.473              Murmansk1          1796.031
       239   03 Jun 2027 00:56:23.788   03 Jun 2027 00:56:23.993             0.205              Murmansk1             6.406
       240   03 Jun 2027 00:56:45.925   03 Jun 2027 00:58:44.582           118.657                 Moscow          3708.031
       241   03 Jun 2027 01:20:02.416   03 Jun 2027 01:20:51.289            48.873               CapeTown          1527.281
       242   03 Jun 2027 02:09:53.464   03 Jun 2027 02:10:00.449             6.985                Anadyr1           218.281
       243   03 Jun 2027 02:10:02.646   03 Jun 2027 02:10:08.597             5.951                Anadyr1           185.969
       244   03 Jun 2027 02:10:53.756   03 Jun 2027 02:11:10.021            16.265                Anadyr2           508.281
       245   03 Jun 2027 02:11:10.021   03 Jun 2027 02:11:38.020            27.999                Anadyr1           874.969
       246   03 Jun 2027 02:12:41.890   03 Jun 2027 02:12:57.231            15.341                Anadyr2           479.406
       247   03 Jun 2027 02:13:19.053   03 Jun 2027 02:13:30.462            11.409                Anadyr2           356.531
       248   03 Jun 2027 02:13:38.059   03 Jun 2027 02:14:55.700            77.641               Magadan2          2426.281
       249   03 Jun 2027 02:17:23.039   03 Jun 2027 02:17:47.224            24.185               Magadan1           755.781
       250   03 Jun 2027 02:18:51.422   03 Jun 2027 02:19:23.144            31.722                Norilsk           991.312
       251   03 Jun 2027 02:20:56.288   03 Jun 2027 02:20:59.834             3.546                Norilsk           110.813
       252   03 Jun 2027 02:21:02.485   03 Jun 2027 02:21:26.959            24.474                Norilsk           764.812
       253   03 Jun 2027 02:21:27.949   03 Jun 2027 02:21:53.210            25.261              Murmansk2           789.406
       254   03 Jun 2027 02:22:31.235   03 Jun 2027 02:23:07.704            36.469              Murmansk2          1139.656
       255   03 Jun 2027 02:25:54.948   03 Jun 2027 02:26:00.149             5.201                 Moscow           162.531
       256   03 Jun 2027 02:26:13.499   03 Jun 2027 02:26:23.062             9.563              Murmansk1           298.844
       257   03 Jun 2027 02:26:40.380   03 Jun 2027 02:27:23.748            43.368              Murmansk2          1355.250
       258   03 Jun 2027 02:30:55.102   03 Jun 2027 02:31:02.771             7.669              Murmansk2           239.656
       259   03 Jun 2027 02:31:11.911   03 Jun 2027 02:31:12.714             0.803              Murmansk2            25.094
       260   03 Jun 2027 02:31:22.945   03 Jun 2027 02:31:51.099            28.154              Murmansk2           879.813
       261   03 Jun 2027 02:33:30.369   03 Jun 2027 02:33:42.693            12.324              Murmansk1           385.125
       262   03 Jun 2027 02:34:35.345   03 Jun 2027 02:34:40.305             4.960                 Moscow           155.000
       263   03 Jun 2027 02:35:06.738   03 Jun 2027 02:35:26.587            19.849                 Moscow           620.281
       264   03 Jun 2027 02:36:11.272   03 Jun 2027 02:36:51.033            39.761                 Moscow          1242.531
       265   03 Jun 2027 02:58:22.146   03 Jun 2027 02:58:25.920             3.774               CapeTown           117.938
       266   03 Jun 2027 02:58:45.130   03 Jun 2027 03:00:21.532            96.402               CapeTown          3012.562
       267   03 Jun 2027 03:51:47.066   03 Jun 2027 03:55:13.783           206.717                Anadyr1          6459.906
       268   03 Jun 2027 03:55:13.783   03 Jun 2027 03:56:44.995            91.212                Anadyr2          2850.375
       269   03 Jun 2027 03:56:51.057   03 Jun 2027 03:58:12.762            81.705                Anadyr2          2553.281
       270   03 Jun 2027 05:29:36.802   03 Jun 2027 05:29:55.453            18.651               Magadan1           582.844
       271   03 Jun 2027 05:30:00.370   03 Jun 2027 05:33:36.805           216.435               Magadan1          6763.594
       272   03 Jun 2027 07:03:35.401   03 Jun 2027 07:04:03.998            28.597               Magadan1           893.656
       273   03 Jun 2027 07:04:03.998   03 Jun 2027 07:04:34.375            30.377               Magadan2           949.281
       274   03 Jun 2027 07:04:38.477   03 Jun 2027 07:05:12.531            34.054                Anadyr1          1064.187
       275   03 Jun 2027 07:05:18.487   03 Jun 2027 07:07:51.733           153.246                Anadyr1          4788.937
       276   03 Jun 2027 07:08:02.117   03 Jun 2027 07:08:03.691             1.574                Anadyr1            49.188
       277   03 Jun 2027 07:08:03.692   03 Jun 2027 07:08:10.295             6.603               Magadan2           206.344
       278   03 Jun 2027 07:08:27.309   03 Jun 2027 07:09:38.411            71.102                Novosib          2221.938
       279   03 Jun 2027 07:12:20.498   03 Jun 2027 07:12:48.959            28.461              Murmansk1           889.406
       280   03 Jun 2027 07:13:17.002   03 Jun 2027 07:13:25.866             8.864              Murmansk1           277.000
       281   03 Jun 2027 07:16:23.725   03 Jun 2027 07:16:42.742            19.017              Murmansk2           594.281
       282   03 Jun 2027 07:44:24.389   03 Jun 2027 07:44:37.990            13.601            RioGallegos           425.031
       283   03 Jun 2027 07:45:56.732   03 Jun 2027 07:47:21.132            84.400            RioGallegos          2637.500
       284   03 Jun 2027 08:20:50.007   03 Jun 2027 08:21:58.061            68.054                Sumatra          2126.687
       285   03 Jun 2027 08:40:42.764   03 Jun 2027 08:44:57.869           255.105                Irkutsk          7972.031
       286   03 Jun 2027 08:45:29.912   03 Jun 2027 08:46:10.140            40.228              Murmansk1          1257.125
       287   03 Jun 2027 08:46:29.452   03 Jun 2027 08:46:56.045            26.593                Novosib           831.031
       288   03 Jun 2027 08:47:26.428   03 Jun 2027 08:48:22.930            56.502              Murmansk1          1765.688
       289   03 Jun 2027 09:20:58.723   03 Jun 2027 09:21:02.266             3.543            RioGallegos           110.719
       290   03 Jun 2027 09:21:28.957   03 Jun 2027 09:22:00.807            31.850            RioGallegos           995.313
       291   03 Jun 2027 09:55:18.236   03 Jun 2027 09:57:04.440           106.204                Sumatra          3318.875
       292   03 Jun 2027 10:04:01.174   03 Jun 2027 10:04:58.773            57.599                  Delhi          1799.969
       293   03 Jun 2027 10:06:08.160   03 Jun 2027 10:06:38.562            30.402                  Delhi           950.063
       294   03 Jun 2027 10:16:47.062   03 Jun 2027 10:17:15.524            28.462              Murmansk2           889.437
       295   03 Jun 2027 10:17:16.771   03 Jun 2027 10:18:27.888            71.117                Irkutsk          2222.406
       296   03 Jun 2027 10:18:41.101   03 Jun 2027 10:18:45.337             4.236                Norilsk           132.375
       297   03 Jun 2027 10:18:52.725   03 Jun 2027 10:18:56.529             3.804                Novosib           118.875
       298   03 Jun 2027 10:19:06.887   03 Jun 2027 10:19:18.080            11.193                Novosib           349.781
       299   03 Jun 2027 10:19:23.245   03 Jun 2027 10:19:34.263            11.018                Norilsk           344.312
       300   03 Jun 2027 10:19:47.104   03 Jun 2027 10:21:32.462           105.358                Novosib          3292.438
       301   03 Jun 2027 10:22:51.682   03 Jun 2027 10:23:09.034            17.352                 Moscow           542.250
       302   03 Jun 2027 11:40:02.225   03 Jun 2027 11:41:55.094           112.869                  Delhi          3527.156
       303   03 Jun 2027 11:44:18.354   03 Jun 2027 11:44:44.642            26.288                  Delhi           821.500
       304   03 Jun 2027 11:52:47.243   03 Jun 2027 11:53:49.264            62.021              Murmansk2          1938.156
       305   03 Jun 2027 11:53:55.788   03 Jun 2027 11:54:40.916            45.128                Novosib          1410.250
       306   03 Jun 2027 11:54:41.418   03 Jun 2027 11:54:59.687            18.269                Norilsk           570.906
       307   03 Jun 2027 11:55:01.054   03 Jun 2027 11:55:26.670            25.616                Norilsk           800.500
       308   03 Jun 2027 11:55:47.534   03 Jun 2027 11:57:20.152            92.618                 Moscow          2894.312
       309   03 Jun 2027 12:02:51.947   03 Jun 2027 12:03:16.745            24.798              Murmansk2           774.938
       310   03 Jun 2027 12:03:42.050   03 Jun 2027 12:03:59.921            17.871              Murmansk1           558.469
       311   03 Jun 2027 13:23:43.323   03 Jun 2027 13:28:27.194           283.871                 Moscow          8870.969
       312   03 Jun 2027 13:28:30.105   03 Jun 2027 13:30:27.375           117.270              Murmansk2          3664.687
       313   03 Jun 2027 13:30:34.183   03 Jun 2027 13:30:39.128             4.945              Murmansk1           154.531
       314   03 Jun 2027 13:31:26.560   03 Jun 2027 13:31:35.800             9.240              Murmansk2           288.750
       315   03 Jun 2027 13:33:07.153   03 Jun 2027 13:34:12.033            64.880                Norilsk          2027.500
       316   03 Jun 2027 13:35:12.232   03 Jun 2027 13:36:24.094            71.862                Norilsk          2245.688
       317   03 Jun 2027 13:44:08.280   03 Jun 2027 13:46:44.120           155.840                Anadyr1          4870.000
       318   03 Jun 2027 14:44:40.117   03 Jun 2027 14:45:04.116            23.999               CapeTown           749.969
       319   03 Jun 2027 14:45:29.345   03 Jun 2027 14:46:58.499            89.154               CapeTown          2786.062
       320   03 Jun 2027 15:06:46.174   03 Jun 2027 15:07:00.750            14.576                 Moscow           455.500
       321   03 Jun 2027 15:08:06.329   03 Jun 2027 15:08:49.121            42.792                 Moscow          1337.250
       322   03 Jun 2027 15:12:47.589   03 Jun 2027 15:14:03.073            75.484              Murmansk2          2358.875
       323   03 Jun 2027 15:17:58.145   03 Jun 2027 15:19:04.436            66.291                Anadyr1          2071.594
       324   03 Jun 2027 15:19:32.270   03 Jun 2027 15:20:16.621            44.351                Anadyr1          1385.969
       325   03 Jun 2027 15:23:35.489   03 Jun 2027 15:23:43.191             7.702                Anadyr1           240.688
       326   03 Jun 2027 15:23:52.938   03 Jun 2027 15:24:03.363            10.425                Anadyr2           325.781
       327   03 Jun 2027 15:28:19.952   03 Jun 2027 15:28:39.104            19.152                Anadyr1           598.500
       328   03 Jun 2027 16:20:48.143   03 Jun 2027 16:21:06.442            18.299               CapeTown           571.844
       329   03 Jun 2027 16:23:39.930   03 Jun 2027 16:24:32.031            52.101               CapeTown          1628.156
       330   03 Jun 2027 16:45:14.015   03 Jun 2027 16:47:07.137           113.122              Murmansk1          3535.063
       331   03 Jun 2027 16:48:20.905   03 Jun 2027 16:48:47.488            26.583              Murmansk1           830.719
       332   03 Jun 2027 16:49:57.776   03 Jun 2027 16:50:01.161             3.385              Murmansk2           105.781
       333   03 Jun 2027 16:53:41.899   03 Jun 2027 16:54:14.815            32.916                Anadyr1          1028.625
       334   03 Jun 2027 16:54:37.323   03 Jun 2027 16:55:23.408            46.085                Anadyr2          1440.156
       335   03 Jun 2027 16:55:23.408   03 Jun 2027 16:56:21.206            57.798                Anadyr1          1806.187
       336   03 Jun 2027 16:56:34.247   03 Jun 2027 16:58:39.171           124.924               Magadan1          3903.875
       337   03 Jun 2027 18:29:37.461   03 Jun 2027 18:33:35.408           237.947                Anadyr1          7435.844
       338   03 Jun 2027 18:33:36.318   03 Jun 2027 18:34:08.955            32.637                Anadyr2          1019.906
       339   03 Jun 2027 18:34:21.991   03 Jun 2027 18:35:57.608            95.617               Magadan1          2988.031
       340   03 Jun 2027 18:37:10.588   03 Jun 2027 18:37:24.705            14.117               Magadan2           441.156
       341   03 Jun 2027 18:43:31.076   03 Jun 2027 18:44:13.745            42.669               Magadan1          1333.406
       342   03 Jun 2027 19:25:00.410   03 Jun 2027 19:28:05.832           185.422            RioGallegos          5794.438
       343   03 Jun 2027 19:30:52.901   03 Jun 2027 19:31:43.448            50.547            RioGallegos          1579.594
       344   03 Jun 2027 20:05:23.073   03 Jun 2027 20:05:51.498            28.425                Anadyr2           888.281
       345   03 Jun 2027 20:07:52.520   03 Jun 2027 20:08:48.281            55.761               Magadan2          1742.531
       346   03 Jun 2027 20:08:52.402   03 Jun 2027 20:10:06.616            74.214                Norilsk          2319.187
       347   03 Jun 2027 20:10:40.956   03 Jun 2027 20:11:27.144            46.188                Norilsk          1443.375
       348   03 Jun 2027 20:12:37.549   03 Jun 2027 20:13:12.203            34.654                Irkutsk          1082.938
       349   03 Jun 2027 20:13:26.121   03 Jun 2027 20:13:59.194            33.073                Irkutsk          1033.531
       350   03 Jun 2027 20:14:58.692   03 Jun 2027 20:15:38.863            40.171                Irkutsk          1255.344
       351   03 Jun 2027 20:21:27.992   03 Jun 2027 20:21:33.640             5.648                Irkutsk           176.500
       352   03 Jun 2027 20:22:04.590   03 Jun 2027 20:22:13.550             8.960                Irkutsk           280.000
       353   03 Jun 2027 20:26:31.012   03 Jun 2027 20:28:05.358            94.346                Sumatra          2948.312
       354   03 Jun 2027 20:30:36.072   03 Jun 2027 20:32:02.186            86.114                Sumatra          2691.062
       355   03 Jun 2027 21:44:37.068   03 Jun 2027 21:45:14.082            37.014               Magadan2          1156.688
       356   03 Jun 2027 21:46:35.155   03 Jun 2027 21:46:50.531            15.376               Magadan2           480.500
       357   03 Jun 2027 21:47:05.295   03 Jun 2027 21:47:18.213            12.918               Magadan1           403.688
       358   03 Jun 2027 21:47:22.338   03 Jun 2027 21:47:24.758             2.420               Magadan1            75.625
       359   03 Jun 2027 21:47:24.758   03 Jun 2027 21:47:32.667             7.909               Magadan2           247.156
       360   03 Jun 2027 21:47:43.712   03 Jun 2027 21:48:58.507            74.795                Novosib          2337.344
       361   03 Jun 2027 21:49:06.377   03 Jun 2027 21:50:48.043           101.666                Novosib          3177.063
       362   03 Jun 2027 21:56:36.342   03 Jun 2027 21:59:14.274           157.932                  Delhi          4935.375
       363   03 Jun 2027 22:04:09.215   03 Jun 2027 22:04:33.325            24.110                  Delhi           753.438
       364   03 Jun 2027 23:18:57.082   03 Jun 2027 23:19:49.092            52.010                Anadyr2          1625.313
       365   03 Jun 2027 23:19:49.770   03 Jun 2027 23:20:13.797            24.027                Norilsk           750.844
       366   03 Jun 2027 23:20:23.154   03 Jun 2027 23:21:02.817            39.663               Magadan1          1239.469
       367   03 Jun 2027 23:21:02.817   03 Jun 2027 23:21:12.573             9.756               Magadan2           304.875
       368   03 Jun 2027 23:22:03.996   03 Jun 2027 23:24:16.226           132.230              Murmansk1          4132.188
       369   03 Jun 2027 23:24:23.498   03 Jun 2027 23:25:46.146            82.648              Murmansk2          2582.750
       370   03 Jun 2027 23:27:43.263   03 Jun 2027 23:28:32.992            49.729              Murmansk1          1554.031
       371   03 Jun 2027 23:36:12.992   03 Jun 2027 23:37:09.284            56.292                  Delhi          1759.125
       372   04 Jun 2027 00:47:42.950   04 Jun 2027 00:48:10.563            27.613                Anadyr1           862.906
       373   04 Jun 2027 00:48:31.727   04 Jun 2027 00:49:44.368            72.641                Anadyr2          2270.031
       374   04 Jun 2027 00:50:24.897   04 Jun 2027 00:50:29.280             4.383                Anadyr2           136.969
       375   04 Jun 2027 00:52:50.877   04 Jun 2027 00:53:17.016            26.139                Anadyr1           816.844
       376   04 Jun 2027 00:53:31.138   04 Jun 2027 00:54:52.500            81.362               Magadan1          2542.562
       377   04 Jun 2027 00:55:13.692   04 Jun 2027 00:55:59.886            46.194               Magadan2          1443.563
       378   04 Jun 2027 00:56:27.573   04 Jun 2027 00:57:06.045            38.472               Magadan1          1202.250
       379   04 Jun 2027 00:57:31.921   04 Jun 2027 00:58:27.186            55.265              Murmansk1          1727.031
       380   04 Jun 2027 00:58:27.186   04 Jun 2027 00:58:42.569            15.383              Murmansk2           480.719
       381   04 Jun 2027 01:00:14.161   04 Jun 2027 01:01:30.639            76.478              Murmansk2          2389.937
       382   04 Jun 2027 01:08:23.462   04 Jun 2027 01:08:50.680            27.218                 Moscow           850.563
       383   04 Jun 2027 01:12:17.873   04 Jun 2027 01:12:30.469            12.596                 Moscow           393.625
       384   04 Jun 2027 01:26:30.054   04 Jun 2027 01:27:21.206            51.152               CapeTown          1598.500
       385   04 Jun 2027 01:28:46.547   04 Jun 2027 01:29:14.544            27.997               CapeTown           874.906
       386   04 Jun 2027 01:31:32.534   04 Jun 2027 01:32:25.216            52.682               CapeTown          1646.312
       387   04 Jun 2027 02:21:45.211   04 Jun 2027 02:21:54.714             9.503                Anadyr1           296.969
       388   04 Jun 2027 02:22:03.415   04 Jun 2027 02:22:52.781            49.366                Anadyr2          1542.688
       389   04 Jun 2027 02:25:09.090   04 Jun 2027 02:26:10.461            61.371               Magadan2          1917.844
       390   04 Jun 2027 02:26:23.493   04 Jun 2027 02:26:28.204             4.711               Magadan2           147.219
       391   04 Jun 2027 02:26:58.359   04 Jun 2027 02:27:25.771            27.412               Magadan1           856.625
       392   04 Jun 2027 02:30:13.094   04 Jun 2027 02:30:32.876            19.782               Magadan2           618.188
       393   04 Jun 2027 02:31:00.243   04 Jun 2027 02:31:25.634            25.391                Norilsk           793.469
       394   04 Jun 2027 02:33:28.653   04 Jun 2027 02:33:38.354             9.701              Murmansk2           303.156
       395   04 Jun 2027 02:33:46.716   04 Jun 2027 02:34:15.646            28.930              Murmansk1           904.062
       396   04 Jun 2027 02:35:06.728   04 Jun 2027 02:35:53.424            46.696              Murmansk2          1459.250
       397   04 Jun 2027 02:36:15.639   04 Jun 2027 02:36:16.412             0.773                Novosib            24.156
       398   04 Jun 2027 02:36:41.055   04 Jun 2027 02:37:05.500            24.445                 Moscow           763.906
       399   04 Jun 2027 02:39:33.705   04 Jun 2027 02:40:31.263            57.558                Novosib          1798.687
       400   04 Jun 2027 02:47:21.689   04 Jun 2027 02:48:07.276            45.587                 Moscow          1424.594
       401   04 Jun 2027 03:07:18.329   04 Jun 2027 03:09:02.071           103.742               CapeTown          3241.937
       402   04 Jun 2027 04:03:56.445   04 Jun 2027 04:05:29.599            93.154               Magadan2          2911.062
       403   04 Jun 2027 04:05:29.599   04 Jun 2027 04:05:53.373            23.774               Magadan1           742.938
       404   04 Jun 2027 04:06:11.488   04 Jun 2027 04:07:22.698            71.210               Magadan2          2225.313
       405   04 Jun 2027 04:07:39.291   04 Jun 2027 04:07:44.030             4.739                Anadyr2           148.094
       406   04 Jun 2027 04:08:24.199   04 Jun 2027 04:09:17.937            53.738               Magadan1          1679.312
       407   04 Jun 2027 05:41:36.016   04 Jun 2027 05:42:56.445            80.429                Irkutsk          2513.406
       408   04 Jun 2027 05:43:28.463   04 Jun 2027 05:43:42.067            13.604                Irkutsk           425.125
       409   04 Jun 2027 05:44:10.866   04 Jun 2027 05:44:30.938            20.072               Magadan2           627.250
       410   04 Jun 2027 05:44:35.673   04 Jun 2027 05:45:54.870            79.197                Anadyr1          2474.906
       411   04 Jun 2027 07:17:02.618   04 Jun 2027 07:17:43.284            40.666                Novosib          1270.812
       412   04 Jun 2027 07:17:48.436   04 Jun 2027 07:19:47.848           119.412                Irkutsk          3731.625
       413   04 Jun 2027 07:19:49.404   04 Jun 2027 07:21:20.849            91.445               Magadan2          2857.656
       414   04 Jun 2027 07:21:22.082   04 Jun 2027 07:21:38.507            16.425                Novosib           513.281
       415   04 Jun 2027 07:57:04.813   04 Jun 2027 07:57:55.242            50.429            RioGallegos          1575.906
       416   04 Jun 2027 08:01:49.540   04 Jun 2027 08:02:14.654            25.114            RioGallegos           784.812
       417   04 Jun 2027 08:32:14.853   04 Jun 2027 08:32:46.648            31.795                Sumatra           993.594
       418   04 Jun 2027 08:33:15.364   04 Jun 2027 08:34:14.402            59.038                Sumatra          1844.938
       419   04 Jun 2027 08:52:09.894   04 Jun 2027 08:52:27.562            17.668                Novosib           552.125
       420   04 Jun 2027 08:52:54.732   04 Jun 2027 08:53:16.881            22.149                Novosib           692.156
       421   04 Jun 2027 08:54:12.564   04 Jun 2027 08:54:17.281             4.717                Norilsk           147.406
       422   04 Jun 2027 08:54:18.538   04 Jun 2027 08:55:26.657            68.119                Irkutsk          2128.719
       423   04 Jun 2027 08:55:37.988   04 Jun 2027 08:55:42.876             4.888                Norilsk           152.750
       424   04 Jun 2027 08:56:01.159   04 Jun 2027 08:57:24.640            83.481              Murmansk2          2608.781
       425   04 Jun 2027 09:33:22.793   04 Jun 2027 09:34:07.476            44.683            RioGallegos          1396.344
       426   04 Jun 2027 10:07:36.943   04 Jun 2027 10:08:57.680            80.737                Sumatra          2523.031
       427   04 Jun 2027 10:18:42.175   04 Jun 2027 10:19:02.556            20.381                  Delhi           636.906
       428   04 Jun 2027 10:28:52.251   04 Jun 2027 10:29:03.595            11.344              Murmansk2           354.500
       429   04 Jun 2027 10:29:08.557   04 Jun 2027 10:29:29.786            21.229              Murmansk1           663.406
       430   04 Jun 2027 10:29:39.580   04 Jun 2027 10:30:39.102            59.522                 Moscow          1860.063
       431   04 Jun 2027 10:30:42.978   04 Jun 2027 10:30:44.643             1.665                Norilsk            52.031
       432   04 Jun 2027 10:30:50.972   04 Jun 2027 10:31:45.979            55.007              Murmansk1          1718.969
       433   04 Jun 2027 10:31:55.332   04 Jun 2027 10:32:31.161            35.829                Novosib          1119.656
       434   04 Jun 2027 10:32:44.818   04 Jun 2027 10:32:55.191            10.373                Norilsk           324.156
       435   04 Jun 2027 10:33:01.062   04 Jun 2027 10:33:16.656            15.594              Murmansk1           487.312
       436   04 Jun 2027 10:33:55.086   04 Jun 2027 10:34:12.162            17.076              Murmansk2           533.625
       437   04 Jun 2027 11:52:33.532   04 Jun 2027 11:55:36.983           183.451                  Delhi          5732.844
       438   04 Jun 2027 12:07:01.536   04 Jun 2027 12:07:31.921            30.385                Norilsk           949.531
       439   04 Jun 2027 12:10:10.882   04 Jun 2027 12:10:33.707            22.825                Norilsk           713.281
       440   04 Jun 2027 12:12:07.092   04 Jun 2027 12:12:10.829             3.737              Murmansk2           116.781
       441   04 Jun 2027 12:12:15.093   04 Jun 2027 12:12:50.083            34.990              Murmansk2          1093.438
       442   04 Jun 2027 12:15:50.657   04 Jun 2027 12:16:07.903            17.246              Murmansk1           538.938
       443   04 Jun 2027 13:35:51.535   04 Jun 2027 13:37:34.065           102.530                 Moscow          3204.063
       444   04 Jun 2027 13:38:44.977   04 Jun 2027 13:38:52.333             7.356                 Moscow           229.875
       445   04 Jun 2027 13:39:22.769   04 Jun 2027 13:43:21.358           238.589              Murmansk1          7455.906
       446   04 Jun 2027 13:44:51.436   04 Jun 2027 13:45:08.716            17.280              Murmansk1           540.000
       447   04 Jun 2027 13:46:14.783   04 Jun 2027 13:46:49.128            34.345                Norilsk          1073.281
       448   04 Jun 2027 13:48:23.815   04 Jun 2027 13:48:48.676            24.861                Norilsk           776.906
       449   04 Jun 2027 13:55:22.816   04 Jun 2027 13:56:41.219            78.403                Anadyr1          2450.094
       450   04 Jun 2027 13:57:32.808   04 Jun 2027 13:58:32.185            59.377                Anadyr2          1855.531
       451   04 Jun 2027 13:59:57.138   04 Jun 2027 14:00:14.703            17.565                Anadyr1           548.906
       452   04 Jun 2027 14:55:23.269   04 Jun 2027 14:55:24.669             1.400               CapeTown            43.750
       453   04 Jun 2027 14:58:01.010   04 Jun 2027 14:58:52.320            51.310               CapeTown          1603.437
       454   04 Jun 2027 15:15:07.142   04 Jun 2027 15:15:38.923            31.781                 Moscow           993.156
       455   04 Jun 2027 15:17:19.921   04 Jun 2027 15:17:49.713            29.792              Murmansk2           931.000
       456   04 Jun 2027 15:20:31.933   04 Jun 2027 15:22:18.650           106.717              Murmansk2          3334.906
       457   04 Jun 2027 15:29:56.209   04 Jun 2027 15:31:04.574            68.365                Anadyr1          2136.406
       458   04 Jun 2027 15:31:04.574   04 Jun 2027 15:31:07.651             3.077                Anadyr2            96.156
       459   04 Jun 2027 15:31:19.420   04 Jun 2027 15:31:33.549            14.129                Anadyr2           441.531
       460   04 Jun 2027 15:35:16.897   04 Jun 2027 15:35:41.702            24.805                Anadyr1           775.156
       461   04 Jun 2027 15:36:44.532   04 Jun 2027 15:37:52.193            67.661                Anadyr1          2114.406
       462   04 Jun 2027 16:58:07.929   04 Jun 2027 17:00:48.677           160.748              Murmansk1          5023.375
       463   04 Jun 2027 17:05:43.123   04 Jun 2027 17:07:22.874            99.751                Anadyr2          3117.219
       464   04 Jun 2027 17:08:26.697   04 Jun 2027 17:10:39.428           132.731               Magadan2          4147.844
       465   04 Jun 2027 18:41:38.541   04 Jun 2027 18:43:29.817           111.276                Anadyr1          3477.375
       466   04 Jun 2027 18:43:55.400   04 Jun 2027 18:47:53.999           238.599               Magadan2          7456.219
       467   04 Jun 2027 18:48:45.104   04 Jun 2027 18:49:13.734            28.630               Magadan1           894.688
       468   04 Jun 2027 18:51:12.850   04 Jun 2027 18:51:17.902             5.052               Magadan2           157.875
       469   04 Jun 2027 18:52:19.094   04 Jun 2027 18:52:39.919            20.825               Magadan2           650.781
       470   04 Jun 2027 18:55:50.458   04 Jun 2027 18:56:49.102            58.644               Magadan1          1832.625
       471   04 Jun 2027 19:36:36.592   04 Jun 2027 19:38:06.859            90.267            RioGallegos          2820.844
       472   04 Jun 2027 19:39:09.636   04 Jun 2027 19:39:55.209            45.573            RioGallegos          1424.156
       473   04 Jun 2027 19:41:11.037   04 Jun 2027 19:42:03.247            52.210            RioGallegos          1631.563
       474   04 Jun 2027 20:19:31.597   04 Jun 2027 20:21:41.042           129.445                Norilsk          4045.156
       475   04 Jun 2027 20:23:57.000   04 Jun 2027 20:27:24.937           207.937                Irkutsk          6498.031
       476   04 Jun 2027 20:38:01.108   04 Jun 2027 20:40:25.370           144.262                Sumatra          4508.188
       477   04 Jun 2027 20:44:04.137   04 Jun 2027 20:44:13.802             9.665                Sumatra           302.031
       478   04 Jun 2027 20:44:33.319   04 Jun 2027 20:44:36.814             3.495                Sumatra           109.219
       479   04 Jun 2027 21:56:01.514   04 Jun 2027 21:56:11.743            10.229               Magadan2           319.656
       480   04 Jun 2027 21:56:36.386   04 Jun 2027 21:57:14.065            37.679                Norilsk          1177.469
       481   04 Jun 2027 21:57:23.926   04 Jun 2027 21:58:07.006            43.080               Magadan1          1346.250
       482   04 Jun 2027 21:58:59.364   04 Jun 2027 21:59:25.049            25.685               Magadan2           802.656
