uniorb/output/strategy_1/Drop/Drop_KinoSat_111201.txt

KinoSat_111201
-------------------------
    Access    *     Start Time (UTCG)     *     Stop Time (UTCG)  *   Duration (s)        *       Station  *  Data (Mbytes)
         1   01 Jun 2027 04:01:21.256   01 Jun 2027 04:02:56.660            95.404                Anadyr2          2981.375
         2   01 Jun 2027 04:11:08.430   01 Jun 2027 04:11:13.908             5.478              Murmansk2           171.188
         3   01 Jun 2027 04:11:36.993   01 Jun 2027 04:12:05.329            28.336                Norilsk           885.500
         4   01 Jun 2027 04:12:17.293   01 Jun 2027 04:13:04.118            46.825              Murmansk2          1463.281
         5   01 Jun 2027 04:13:53.393   01 Jun 2027 04:14:51.979            58.586              Murmansk2          1830.812
         6   01 Jun 2027 04:14:51.979   01 Jun 2027 04:15:35.489            43.510              Murmansk1          1359.688
         7   01 Jun 2027 04:16:14.671   01 Jun 2027 04:16:55.750            41.079              Murmansk2          1283.719
         8   01 Jun 2027 05:34:39.562   01 Jun 2027 05:34:44.484             4.922               Magadan1           153.812
         9   01 Jun 2027 05:34:52.929   01 Jun 2027 05:40:30.946           338.017                Anadyr2         10563.031
        10   01 Jun 2027 07:10:51.679   01 Jun 2027 07:13:04.978           133.299               Magadan2          4165.594
        11   01 Jun 2027 07:13:13.970   01 Jun 2027 07:14:02.138            48.168                Anadyr2          1505.250
        12   01 Jun 2027 07:14:02.138   01 Jun 2027 07:15:37.272            95.134                Anadyr1          2972.937
        13   01 Jun 2027 08:46:19.194   01 Jun 2027 08:47:37.463            78.269                Novosib          2445.906
        14   01 Jun 2027 08:47:41.067   01 Jun 2027 08:48:51.312            70.245               Magadan2          2195.156
        15   01 Jun 2027 08:49:04.753   01 Jun 2027 08:49:11.204             6.451                Novosib           201.594
        16   01 Jun 2027 08:49:18.662   01 Jun 2027 08:51:14.257           115.595               Magadan2          3612.344
        17   01 Jun 2027 08:51:16.599   01 Jun 2027 08:51:49.945            33.346                Irkutsk          1042.063
        18   01 Jun 2027 08:51:59.762   01 Jun 2027 08:52:39.807            40.045                Norilsk          1251.406
        19   01 Jun 2027 08:52:50.335   01 Jun 2027 08:53:58.342            68.007                Norilsk          2125.219
        20   01 Jun 2027 08:53:59.915   01 Jun 2027 08:54:28.216            28.301              Murmansk2           884.406
        21   01 Jun 2027 09:26:46.264   01 Jun 2027 09:27:18.887            32.623            RioGallegos          1019.469
        22   01 Jun 2027 09:28:08.806   01 Jun 2027 09:28:56.140            47.334            RioGallegos          1479.187
        23   01 Jun 2027 10:01:44.412   01 Jun 2027 10:02:54.174            69.762                Sumatra          2180.062
        24   01 Jun 2027 10:16:09.511   01 Jun 2027 10:16:17.709             8.198                  Delhi           256.188
        25   01 Jun 2027 10:23:38.609   01 Jun 2027 10:25:05.697            87.088                Novosib          2721.500
        26   01 Jun 2027 10:25:12.480   01 Jun 2027 10:26:19.789            67.309                Irkutsk          2103.406
        27   01 Jun 2027 10:26:32.931   01 Jun 2027 10:30:44.744           251.813              Murmansk1          7869.156
        28   01 Jun 2027 10:31:07.661   01 Jun 2027 10:31:22.600            14.939              Murmansk1           466.844
        29   01 Jun 2027 10:31:26.604   01 Jun 2027 10:31:46.272            19.668              Murmansk1           614.625
        30   01 Jun 2027 11:05:41.750   01 Jun 2027 11:06:51.550            69.800            RioGallegos          2181.250
        31   01 Jun 2027 11:40:13.212   01 Jun 2027 11:41:47.801            94.589                Sumatra          2955.906
        32   01 Jun 2027 11:45:49.506   01 Jun 2027 11:48:30.985           161.479                  Delhi          5046.219
        33   01 Jun 2027 12:02:48.719   01 Jun 2027 12:03:50.104            61.385                 Moscow          1918.281
        34   01 Jun 2027 12:06:07.860   01 Jun 2027 12:06:36.481            28.621                 Moscow           894.406
        35   01 Jun 2027 12:08:50.753   01 Jun 2027 12:10:05.071            74.318              Murmansk1          2322.437
        36   01 Jun 2027 13:39:19.824   01 Jun 2027 13:39:26.788             6.964                 Moscow           217.625
        37   01 Jun 2027 13:41:14.046   01 Jun 2027 13:43:07.414           113.368                 Moscow          3542.750
        38   01 Jun 2027 13:43:15.988   01 Jun 2027 13:44:47.939            91.951                Norilsk          2873.469
        39   01 Jun 2027 13:46:09.274   01 Jun 2027 13:46:36.655            27.381              Murmansk1           855.656
        40   01 Jun 2027 14:51:39.116   01 Jun 2027 14:52:58.642            79.526               CapeTown          2485.188
        41   01 Jun 2027 15:15:28.649   01 Jun 2027 15:16:05.250            36.601                 Moscow          1143.781
        42   01 Jun 2027 15:16:56.003   01 Jun 2027 15:17:21.616            25.613                 Moscow           800.406
        43   01 Jun 2027 15:17:34.877   01 Jun 2027 15:18:45.314            70.437                 Moscow          2201.156
        44   01 Jun 2027 15:18:59.991   01 Jun 2027 15:20:10.401            70.410              Murmansk2          2200.312
        45   01 Jun 2027 15:20:50.991   01 Jun 2027 15:21:01.665            10.674              Murmansk2           333.563
        46   01 Jun 2027 15:21:29.340   01 Jun 2027 15:21:53.691            24.351              Murmansk2           760.969
        47   01 Jun 2027 15:28:22.081   01 Jun 2027 15:30:35.299           133.218                Anadyr2          4163.063
        48   01 Jun 2027 15:31:35.368   01 Jun 2027 15:32:13.841            38.473                Anadyr1          1202.281
        49   01 Jun 2027 15:32:48.114   01 Jun 2027 15:33:01.871            13.757                Anadyr2           429.906
        50   01 Jun 2027 16:31:29.405   01 Jun 2027 16:32:24.999            55.594               CapeTown          1737.312
        51   01 Jun 2027 16:53:30.383   01 Jun 2027 16:54:15.231            44.848              Murmansk2          1401.500
        52   01 Jun 2027 16:55:04.433   01 Jun 2027 16:56:00.796            56.363              Murmansk1          1761.344
        53   01 Jun 2027 16:56:49.527   01 Jun 2027 16:56:51.687             2.160              Murmansk1            67.500
        54   01 Jun 2027 16:57:29.023   01 Jun 2027 16:58:22.674            53.651              Murmansk2          1676.594
        55   01 Jun 2027 17:04:19.444   01 Jun 2027 17:05:37.744            78.300               Magadan1          2446.875
        56   01 Jun 2027 17:08:09.052   01 Jun 2027 17:08:18.562             9.510                Anadyr1           297.187
        57   01 Jun 2027 17:08:49.813   01 Jun 2027 17:08:54.434             4.621                Anadyr2           144.406
        58   01 Jun 2027 17:09:32.766   01 Jun 2027 17:10:07.083            34.317               Magadan1          1072.406
        59   01 Jun 2027 17:10:40.547   01 Jun 2027 17:11:05.692            25.145                Anadyr1           785.781
        60   01 Jun 2027 17:12:00.744   01 Jun 2027 17:12:24.964            24.220                Anadyr1           756.875
        61   01 Jun 2027 18:36:12.172   01 Jun 2027 18:39:27.525           195.353                Anadyr1          6104.781
        62   01 Jun 2027 18:39:49.316   01 Jun 2027 18:40:49.060            59.744               Magadan1          1867.000
        63   01 Jun 2027 18:42:04.200   01 Jun 2027 18:42:34.084            29.884               Magadan2           933.875
        64   01 Jun 2027 18:43:56.448   01 Jun 2027 18:44:17.009            20.561               Magadan1           642.531
        65   01 Jun 2027 18:45:16.247   01 Jun 2027 18:45:34.220            17.973               Magadan2           561.656
        66   01 Jun 2027 18:46:02.266   01 Jun 2027 18:47:12.767            70.501               Magadan1          2203.156
        67   01 Jun 2027 18:49:29.771   01 Jun 2027 18:50:22.972            53.201               Magadan2          1662.531
        68   01 Jun 2027 20:12:05.444   01 Jun 2027 20:15:35.941           210.497                Anadyr2          6578.031
        69   01 Jun 2027 20:15:41.236   01 Jun 2027 20:16:10.794            29.558                Norilsk           923.688
        70   01 Jun 2027 20:16:29.716   01 Jun 2027 20:16:55.886            26.170                Norilsk           817.812
        71   01 Jun 2027 20:18:33.569   01 Jun 2027 20:19:10.196            36.627                Norilsk          1144.594
        72   01 Jun 2027 20:20:41.326   01 Jun 2027 20:21:59.993            78.667                Irkutsk          2458.344
        73   01 Jun 2027 20:22:23.479   01 Jun 2027 20:22:46.846            23.367                Irkutsk           730.219
        74   01 Jun 2027 20:23:02.125   01 Jun 2027 20:23:51.638            49.513                Irkutsk          1547.281
        75   01 Jun 2027 21:07:35.224   01 Jun 2027 21:07:44.222             8.998            RioGallegos           281.187
        76   01 Jun 2027 21:09:14.180   01 Jun 2027 21:09:27.628            13.448            RioGallegos           420.250
        77   01 Jun 2027 21:10:42.806   01 Jun 2027 21:11:20.443            37.637            RioGallegos          1176.156
        78   01 Jun 2027 21:12:11.580   01 Jun 2027 21:12:21.856            10.276            RioGallegos           321.125
        79   01 Jun 2027 21:13:40.276   01 Jun 2027 21:14:53.868            73.592            RioGallegos          2299.750
        80   01 Jun 2027 21:48:04.906   01 Jun 2027 21:48:26.606            21.700                Anadyr2           678.125
        81   01 Jun 2027 21:48:35.748   01 Jun 2027 21:49:48.079            72.331                Anadyr1          2260.344
        82   01 Jun 2027 21:50:33.611   01 Jun 2027 21:50:44.477            10.866                Norilsk           339.563
        83   01 Jun 2027 21:51:08.710   01 Jun 2027 21:51:17.690             8.980               Magadan1           280.625
        84   01 Jun 2027 21:51:55.766   01 Jun 2027 21:52:10.572            14.806                Anadyr1           462.687
        85   01 Jun 2027 21:52:43.044   01 Jun 2027 21:52:44.763             1.719               Magadan1            53.719
        86   01 Jun 2027 21:53:03.363   01 Jun 2027 21:53:42.742            39.379               Magadan1          1230.594
        87   01 Jun 2027 21:54:21.434   01 Jun 2027 21:54:24.453             3.019                Norilsk            94.344
        88   01 Jun 2027 21:54:55.645   01 Jun 2027 21:55:08.139            12.494               Magadan2           390.437
        89   01 Jun 2027 21:55:16.652   01 Jun 2027 21:55:59.690            43.038                Irkutsk          1344.938
        90   01 Jun 2027 21:57:56.002   01 Jun 2027 21:58:34.825            38.823                Novosib          1213.219
        91   01 Jun 2027 21:59:13.425   01 Jun 2027 21:59:45.531            32.106                Novosib          1003.313
        92   01 Jun 2027 22:02:56.893   01 Jun 2027 22:03:32.372            35.479                Irkutsk          1108.719
        93   01 Jun 2027 22:13:46.634   01 Jun 2027 22:14:30.896            44.262                Sumatra          1383.188
        94   01 Jun 2027 22:17:14.057   01 Jun 2027 22:17:58.129            44.072                Sumatra          1377.250
        95   01 Jun 2027 22:20:09.491   01 Jun 2027 22:20:23.586            14.095                Sumatra           440.469
        96   01 Jun 2027 23:22:08.236   01 Jun 2027 23:23:41.091            92.855                Anadyr2          2901.719
        97   01 Jun 2027 23:24:31.244   01 Jun 2027 23:24:45.142            13.898                Anadyr2           434.313
        98   01 Jun 2027 23:24:50.386   01 Jun 2027 23:25:02.798            12.412                Anadyr2           387.875
        99   01 Jun 2027 23:25:55.237   01 Jun 2027 23:26:15.800            20.563                Norilsk           642.594
       100   01 Jun 2027 23:26:33.089   01 Jun 2027 23:27:58.609            85.520               Magadan1          2672.500
       101   01 Jun 2027 23:29:49.045   01 Jun 2027 23:30:34.154            45.109                Irkutsk          1409.656
       102   01 Jun 2027 23:32:27.558   01 Jun 2027 23:32:45.862            18.304                Irkutsk           572.000
       103   01 Jun 2027 23:33:19.071   01 Jun 2027 23:34:59.681           100.610                Novosib          3144.062
       104   01 Jun 2027 23:39:21.801   01 Jun 2027 23:39:34.968            13.167                  Delhi           411.469
       105   01 Jun 2027 23:39:49.764   01 Jun 2027 23:40:55.567            65.803                  Delhi          2056.344
       106   01 Jun 2027 23:47:51.404   01 Jun 2027 23:48:28.533            37.129                  Delhi          1160.281
       107   02 Jun 2027 00:25:08.240   02 Jun 2027 00:25:12.648             4.408            RioGallegos           137.750
       108   02 Jun 2027 00:25:45.722   02 Jun 2027 00:26:10.978            25.256            RioGallegos           789.250
       109   02 Jun 2027 00:27:04.577   02 Jun 2027 00:27:40.970            36.393            RioGallegos          1137.281
       110   02 Jun 2027 00:55:33.773   02 Jun 2027 00:55:38.768             4.995                Anadyr2           156.094
       111   02 Jun 2027 00:56:44.780   02 Jun 2027 00:57:10.852            26.072                Anadyr2           814.750
       112   02 Jun 2027 00:57:10.852   02 Jun 2027 00:57:34.286            23.434                Anadyr1           732.313
       113   02 Jun 2027 00:58:08.240   02 Jun 2027 00:58:20.371            12.131                Anadyr2           379.094
       114   02 Jun 2027 01:01:15.583   02 Jun 2027 01:01:41.017            25.434                Anadyr1           794.813
       115   02 Jun 2027 01:01:43.576   02 Jun 2027 01:04:05.899           142.323               Magadan2          4447.594
       116   02 Jun 2027 01:04:11.669   02 Jun 2027 01:04:56.647            44.978              Murmansk2          1405.563
       117   02 Jun 2027 01:05:43.536   02 Jun 2027 01:06:02.122            18.586                Novosib           580.813
       118   02 Jun 2027 01:07:23.358   02 Jun 2027 01:08:07.374            44.016              Murmansk2          1375.500
       119   02 Jun 2027 01:10:37.079   02 Jun 2027 01:11:27.174            50.095                 Moscow          1565.469
       120   02 Jun 2027 01:14:53.273   02 Jun 2027 01:15:11.384            18.111                Novosib           565.969
       121   02 Jun 2027 01:17:58.467   02 Jun 2027 01:18:02.922             4.455                Novosib           139.219
       122   02 Jun 2027 01:18:38.711   02 Jun 2027 01:19:03.672            24.961                  Delhi           780.031
       123   02 Jun 2027 01:20:54.421   02 Jun 2027 01:20:58.864             4.443                  Delhi           138.844
       124   02 Jun 2027 01:21:31.721   02 Jun 2027 01:23:38.651           126.930                  Delhi          3966.562
       125   02 Jun 2027 02:29:05.143   02 Jun 2027 02:30:00.861            55.718                Anadyr1          1741.188
       126   02 Jun 2027 02:31:19.707   02 Jun 2027 02:31:41.803            22.096                Anadyr2           690.500
       127   02 Jun 2027 02:31:55.531   02 Jun 2027 02:32:06.290            10.759                Anadyr1           336.219
       128   02 Jun 2027 02:33:34.820   02 Jun 2027 02:34:10.902            36.082                Anadyr2          1127.563
       129   02 Jun 2027 02:34:32.595   02 Jun 2027 02:34:54.912            22.317               Magadan1           697.406
       130   02 Jun 2027 02:35:04.348   02 Jun 2027 02:35:25.756            21.408               Magadan1           669.000
       131   02 Jun 2027 02:37:04.499   02 Jun 2027 02:37:11.262             6.763               Magadan2           211.344
       132   02 Jun 2027 02:37:26.443   02 Jun 2027 02:37:35.198             8.755               Magadan1           273.594
       133   02 Jun 2027 02:37:37.968   02 Jun 2027 02:37:41.553             3.585                Norilsk           112.031
       134   02 Jun 2027 02:38:29.373   02 Jun 2027 02:39:04.981            35.608               Magadan2          1112.750
       135   02 Jun 2027 02:40:01.681   02 Jun 2027 02:41:25.957            84.276              Murmansk2          2633.625
       136   02 Jun 2027 02:44:23.041   02 Jun 2027 02:44:42.521            19.480                 Moscow           608.750
       137   02 Jun 2027 02:47:01.621   02 Jun 2027 02:47:50.765            49.144                Novosib          1535.750
       138   02 Jun 2027 02:53:51.078   02 Jun 2027 02:54:02.257            11.179                 Moscow           349.344
       139   02 Jun 2027 02:55:03.467   02 Jun 2027 02:55:04.828             1.361                 Moscow            42.531
       140   02 Jun 2027 03:08:25.877   02 Jun 2027 03:09:05.075            39.198               CapeTown          1224.938
       141   02 Jun 2027 03:11:56.333   02 Jun 2027 03:13:37.438           101.105               CapeTown          3159.531
       142   02 Jun 2027 04:10:37.843   02 Jun 2027 04:10:44.719             6.876               Magadan1           214.875
       143   02 Jun 2027 04:10:52.441   02 Jun 2027 04:14:03.565           191.124               Magadan2          5972.625
       144   02 Jun 2027 04:22:52.522   02 Jun 2027 04:23:32.029            39.507                Norilsk          1234.594
       145   02 Jun 2027 04:23:38.236   02 Jun 2027 04:23:51.791            13.555              Murmansk1           423.594
       146   02 Jun 2027 05:46:41.271   02 Jun 2027 05:48:36.052           114.781               Magadan2          3586.906
       147   02 Jun 2027 05:48:42.889   02 Jun 2027 05:48:47.709             4.820               Magadan1           150.625
       148   02 Jun 2027 05:48:53.480   02 Jun 2027 05:52:11.057           197.577               Magadan2          6174.281
       149   02 Jun 2027 07:20:55.499   02 Jun 2027 07:21:13.321            17.822               Magadan1           556.938
       150   02 Jun 2027 07:21:51.286   02 Jun 2027 07:22:12.211            20.925                Norilsk           653.906
       151   02 Jun 2027 07:22:23.565   02 Jun 2027 07:25:49.017           205.452               Magadan1          6420.375
       152   02 Jun 2027 07:25:49.017   02 Jun 2027 07:26:01.677            12.660               Magadan2           395.625
       153   02 Jun 2027 07:26:07.655   02 Jun 2027 07:27:24.230            76.575                Irkutsk          2392.969
       154   02 Jun 2027 07:27:31.874   02 Jun 2027 07:28:12.380            40.506              Murmansk1          1265.813
       155   02 Jun 2027 07:28:17.042   02 Jun 2027 07:28:33.785            16.743                Norilsk           523.219
       156   02 Jun 2027 07:28:55.688   02 Jun 2027 07:29:48.449            52.761                Norilsk          1648.781
       157   02 Jun 2027 08:03:38.410   02 Jun 2027 08:04:52.909            74.499            RioGallegos          2328.094
       158   02 Jun 2027 08:58:43.601   02 Jun 2027 09:03:14.064           270.463                Irkutsk          8451.969
       159   02 Jun 2027 09:03:44.541   02 Jun 2027 09:06:19.548           155.007              Murmansk2          4843.969
       160   02 Jun 2027 09:06:19.548   02 Jun 2027 09:06:28.209             8.661              Murmansk1           270.656
       161   02 Jun 2027 09:07:41.619   02 Jun 2027 09:08:24.278            42.659              Murmansk1          1333.094
       162   02 Jun 2027 09:38:54.329   02 Jun 2027 09:39:43.696            49.367            RioGallegos          1542.719
       163   02 Jun 2027 09:43:04.896   02 Jun 2027 09:43:17.750            12.854            RioGallegos           401.688
       164   02 Jun 2027 10:13:39.887   02 Jun 2027 10:14:41.315            61.428                Sumatra          1919.625
       165   02 Jun 2027 10:16:28.275   02 Jun 2027 10:16:43.063            14.788                Sumatra           462.125
       166   02 Jun 2027 10:27:11.609   02 Jun 2027 10:28:07.581            55.972                  Delhi          1749.125
       167   02 Jun 2027 10:35:35.269   02 Jun 2027 10:37:28.517           113.248                Norilsk          3539.000
       168   02 Jun 2027 10:37:29.117   02 Jun 2027 10:39:49.224           140.107                Irkutsk          4378.344
       169   02 Jun 2027 10:39:56.804   02 Jun 2027 10:41:13.898            77.094                 Moscow          2409.188
       170   02 Jun 2027 10:41:20.048   02 Jun 2027 10:41:26.123             6.075                Novosib           189.844
       171   02 Jun 2027 11:18:38.228   02 Jun 2027 11:19:00.260            22.032            RioGallegos           688.500
       172   02 Jun 2027 11:19:35.686   02 Jun 2027 11:20:54.080            78.394            RioGallegos          2449.812
       173   02 Jun 2027 11:54:18.354   02 Jun 2027 11:56:33.912           135.558                Sumatra          4236.187
       174   02 Jun 2027 12:07:42.889   02 Jun 2027 12:08:31.375            48.486                Novosib          1515.187
       175   02 Jun 2027 12:08:52.170   02 Jun 2027 12:09:58.518            66.348                Novosib          2073.375
       176   02 Jun 2027 13:45:16.387   02 Jun 2027 13:45:33.407            17.020                 Moscow           531.875
       177   02 Jun 2027 13:46:39.532   02 Jun 2027 13:47:28.582            49.050                 Moscow          1532.812
       178   02 Jun 2027 13:48:02.234   02 Jun 2027 13:48:37.673            35.439              Murmansk1          1107.469
       179   02 Jun 2027 13:49:02.555   02 Jun 2027 13:49:33.946            31.391              Murmansk1           980.969
       180   02 Jun 2027 13:49:39.263   02 Jun 2027 13:51:32.817           113.554                Norilsk          3548.563
       181   02 Jun 2027 13:53:06.722   02 Jun 2027 13:53:32.350            25.628                Norilsk           800.875
       182   02 Jun 2027 13:53:41.162   02 Jun 2027 13:55:11.574            90.412                Norilsk          2825.375
       183   02 Jun 2027 15:01:07.314   02 Jun 2027 15:03:03.422           116.108               CapeTown          3628.375
       184   02 Jun 2027 15:04:46.173   02 Jun 2027 15:06:18.070            91.897               CapeTown          2871.781
       185   02 Jun 2027 15:31:35.842   02 Jun 2027 15:32:09.650            33.808              Murmansk2          1056.500
       186   02 Jun 2027 15:37:49.743   02 Jun 2027 15:38:33.435            43.692                Anadyr1          1365.375
       187   02 Jun 2027 15:39:48.496   02 Jun 2027 15:40:24.501            36.005                Anadyr1          1125.156
       188   02 Jun 2027 15:41:08.827   02 Jun 2027 15:41:28.671            19.844                Anadyr1           620.125
       189   02 Jun 2027 15:43:25.483   02 Jun 2027 15:44:48.087            82.604                Anadyr1          2581.375
       190   02 Jun 2027 17:01:50.880   02 Jun 2027 17:02:58.820            67.940              Murmansk2          2123.125
       191   02 Jun 2027 17:03:14.117   02 Jun 2027 17:04:01.417            47.300              Murmansk1          1478.125
       192   02 Jun 2027 17:06:40.721   02 Jun 2027 17:07:12.690            31.969              Murmansk2           999.031
       193   02 Jun 2027 17:07:12.690   02 Jun 2027 17:07:21.954             9.264              Murmansk1           289.500
       194   02 Jun 2027 17:08:50.919   02 Jun 2027 17:09:34.856            43.937              Murmansk2          1373.031
       195   02 Jun 2027 17:15:54.781   02 Jun 2027 17:16:08.113            13.332                Anadyr1           416.625
       196   02 Jun 2027 17:16:26.682   02 Jun 2027 17:16:51.592            24.910                Anadyr1           778.437
       197   02 Jun 2027 17:17:31.083   02 Jun 2027 17:18:38.959            67.876               Magadan1          2121.125
       198   02 Jun 2027 17:21:18.772   02 Jun 2027 17:22:32.979            74.207               Magadan1          2318.969
       199   02 Jun 2027 18:48:13.698   02 Jun 2027 18:50:19.450           125.752                Anadyr2          3929.750
       200   02 Jun 2027 18:50:29.149   02 Jun 2027 18:51:06.483            37.334                Anadyr1          1166.688
       201   02 Jun 2027 18:51:09.106   02 Jun 2027 18:51:22.837            13.731               Magadan1           429.094
       202   02 Jun 2027 18:51:30.066   02 Jun 2027 18:52:23.537            53.471                Anadyr1          1670.969
       203   02 Jun 2027 18:53:52.396   02 Jun 2027 18:54:06.150            13.754               Magadan1           429.812
       204   02 Jun 2027 18:55:12.192   02 Jun 2027 18:55:44.613            32.421               Magadan1          1013.156
       205   02 Jun 2027 18:56:50.139   02 Jun 2027 18:57:16.149            26.010               Magadan1           812.813
       206   02 Jun 2027 18:58:26.666   02 Jun 2027 18:58:56.887            30.221               Magadan1           944.406
       207   02 Jun 2027 18:59:31.397   02 Jun 2027 18:59:50.318            18.921               Magadan2           591.281
       208   02 Jun 2027 19:00:13.559   02 Jun 2027 19:00:24.380            10.821               Magadan2           338.156
       209   02 Jun 2027 19:00:59.411   02 Jun 2027 19:01:33.824            34.413               Magadan2          1075.406
       210   02 Jun 2027 20:24:05.558   02 Jun 2027 20:27:22.324           196.766                Anadyr2          6148.937
       211   02 Jun 2027 20:27:28.916   02 Jun 2027 20:27:43.492            14.576               Magadan1           455.500
       212   02 Jun 2027 20:27:50.782   02 Jun 2027 20:27:53.334             2.552                Anadyr2            79.750
       213   02 Jun 2027 20:28:03.888   02 Jun 2027 20:28:54.039            50.151                Norilsk          1567.219
       214   02 Jun 2027 20:29:16.016   02 Jun 2027 20:30:00.033            44.017                Norilsk          1375.531
       215   02 Jun 2027 20:31:12.090   02 Jun 2027 20:32:16.272            64.182                Norilsk          2005.688
       216   02 Jun 2027 20:34:19.357   02 Jun 2027 20:34:55.581            36.224                Irkutsk          1132.000
       217   02 Jun 2027 20:35:25.346   02 Jun 2027 20:36:10.299            44.953                Irkutsk          1404.781
       218   02 Jun 2027 20:38:01.647   02 Jun 2027 20:38:04.482             2.835                Irkutsk            88.594
       219   02 Jun 2027 20:48:12.997   02 Jun 2027 20:50:05.760           112.763                Sumatra          3523.844
       220   02 Jun 2027 21:26:57.980   02 Jun 2027 21:27:36.010            38.030            RioGallegos          1188.437
       221   02 Jun 2027 21:59:46.809   02 Jun 2027 21:59:49.319             2.510                Anadyr1            78.438
       222   02 Jun 2027 22:00:04.431   02 Jun 2027 22:00:22.306            17.875                Anadyr1           558.594
       223   02 Jun 2027 22:00:47.801   02 Jun 2027 22:01:05.118            17.317                Anadyr2           541.156
       224   02 Jun 2027 22:01:17.467   02 Jun 2027 22:01:48.371            30.904                Anadyr2           965.750
       225   02 Jun 2027 22:02:36.781   02 Jun 2027 22:02:52.382            15.601                Norilsk           487.531
       226   02 Jun 2027 22:03:24.249   02 Jun 2027 22:03:46.738            22.489                Norilsk           702.781
       227   02 Jun 2027 22:05:10.763   02 Jun 2027 22:06:04.032            53.269               Magadan2          1664.656
       228   02 Jun 2027 22:08:06.105   02 Jun 2027 22:09:25.669            79.564                Novosib          2486.375
       229   02 Jun 2027 22:11:30.991   02 Jun 2027 22:13:28.179           117.188                Novosib          3662.125
       230   02 Jun 2027 22:29:05.928   02 Jun 2027 22:30:20.761            74.833                Sumatra          2338.531
       231   02 Jun 2027 23:34:03.276   02 Jun 2027 23:34:20.107            16.831                Anadyr2           525.969
       232   02 Jun 2027 23:35:42.149   02 Jun 2027 23:36:21.219            39.070                Anadyr1          1220.937
       233   02 Jun 2027 23:36:31.869   02 Jun 2027 23:36:36.582             4.713                Anadyr1           147.281
       234   02 Jun 2027 23:37:57.308   02 Jun 2027 23:38:33.933            36.625                Norilsk          1144.531
       235   02 Jun 2027 23:38:34.260   02 Jun 2027 23:39:56.133            81.873               Magadan1          2558.531
       236   02 Jun 2027 23:39:56.414   02 Jun 2027 23:39:57.965             1.551               Magadan2            48.469
       237   02 Jun 2027 23:40:14.836   02 Jun 2027 23:40:24.669             9.833               Magadan2           307.281
       238   02 Jun 2027 23:41:24.435   02 Jun 2027 23:41:39.284            14.849               Magadan2           464.031
       239   02 Jun 2027 23:41:48.509   02 Jun 2027 23:42:38.245            49.736                Novosib          1554.250
       240   02 Jun 2027 23:42:45.912   02 Jun 2027 23:43:10.179            24.267              Murmansk2           758.344
       241   02 Jun 2027 23:44:27.683   02 Jun 2027 23:44:32.933             5.250              Murmansk1           164.062
       242   02 Jun 2027 23:45:47.632   02 Jun 2027 23:46:51.640            64.008                Novosib          2000.250
       243   02 Jun 2027 23:50:35.477   02 Jun 2027 23:50:55.386            19.909                Novosib           622.156
       244   02 Jun 2027 23:52:21.684   02 Jun 2027 23:52:55.864            34.180                  Delhi          1068.125
       245   02 Jun 2027 23:56:31.754   02 Jun 2027 23:57:02.732            30.978                  Delhi           968.063
       246   02 Jun 2027 23:57:20.437   02 Jun 2027 23:57:26.975             6.538                  Delhi           204.313
       247   02 Jun 2027 23:58:44.725   02 Jun 2027 23:59:39.582            54.857                  Delhi          1714.281
       248   03 Jun 2027 01:07:14.914   03 Jun 2027 01:07:56.313            41.399                Anadyr1          1293.719
       249   03 Jun 2027 01:07:56.313   03 Jun 2027 01:08:12.071            15.758                Anadyr2           492.438
       250   03 Jun 2027 01:08:55.582   03 Jun 2027 01:09:34.330            38.748                Anadyr2          1210.875
       251   03 Jun 2027 01:09:52.525   03 Jun 2027 01:10:13.259            20.734                Anadyr2           647.937
       252   03 Jun 2027 01:10:13.259   03 Jun 2027 01:10:38.454            25.195                Anadyr1           787.344
       253   03 Jun 2027 01:13:25.525   03 Jun 2027 01:16:04.833           159.308               Magadan2          4978.375
       254   03 Jun 2027 01:16:10.884   03 Jun 2027 01:16:17.307             6.423              Murmansk1           200.719
       255   03 Jun 2027 01:17:47.233   03 Jun 2027 01:19:15.444            88.211                Novosib          2756.594
       256   03 Jun 2027 01:25:34.858   03 Jun 2027 01:26:36.395            61.537                 Moscow          1923.031
       257   03 Jun 2027 01:33:12.257   03 Jun 2027 01:35:23.826           131.569                  Delhi          4111.531
       258   03 Jun 2027 02:40:52.838   03 Jun 2027 02:41:28.123            35.285                Anadyr1          1102.656
       259   03 Jun 2027 02:41:34.074   03 Jun 2027 02:41:50.402            16.328                Anadyr1           510.250
       260   03 Jun 2027 02:43:27.623   03 Jun 2027 02:43:57.142            29.519                Anadyr2           922.469
       261   03 Jun 2027 02:45:15.404   03 Jun 2027 02:46:06.378            50.974               Magadan2          1592.938
       262   03 Jun 2027 02:46:33.620   03 Jun 2027 02:46:49.503            15.883               Magadan2           496.344
       263   03 Jun 2027 02:48:32.219   03 Jun 2027 02:48:53.687            21.468               Magadan2           670.875
       264   03 Jun 2027 02:49:36.253   03 Jun 2027 02:49:46.160             9.907                Norilsk           309.594
       265   03 Jun 2027 02:50:31.929   03 Jun 2027 02:50:37.560             5.631               Magadan2           175.969
       266   03 Jun 2027 02:51:49.019   03 Jun 2027 02:52:01.669            12.650                Norilsk           395.313
       267   03 Jun 2027 02:52:03.439   03 Jun 2027 02:52:34.161            30.722              Murmansk2           960.063
       268   03 Jun 2027 02:53:31.992   03 Jun 2027 02:54:05.312            33.320              Murmansk2          1041.250
       269   03 Jun 2027 02:54:21.256   03 Jun 2027 02:54:56.132            34.876                Novosib          1089.875
       270   03 Jun 2027 02:57:08.382   03 Jun 2027 02:57:35.067            26.685                Novosib           833.906
       271   03 Jun 2027 03:00:13.972   03 Jun 2027 03:00:36.664            22.692                Norilsk           709.125
       272   03 Jun 2027 03:00:46.375   03 Jun 2027 03:01:28.026            41.651                Norilsk          1301.594
       273   03 Jun 2027 03:01:28.726   03 Jun 2027 03:02:27.294            58.568              Murmansk1          1830.250
       274   03 Jun 2027 03:02:27.294   03 Jun 2027 03:03:10.109            42.815              Murmansk2          1337.969
       275   03 Jun 2027 03:03:34.949   03 Jun 2027 03:04:23.617            48.668              Murmansk2          1520.875
       276   03 Jun 2027 03:04:23.617   03 Jun 2027 03:04:34.932            11.315              Murmansk1           353.594
       277   03 Jun 2027 03:04:51.182   03 Jun 2027 03:04:53.373             2.191                 Moscow            68.469
       278   03 Jun 2027 03:06:06.443   03 Jun 2027 03:06:31.667            25.224                 Moscow           788.250
       279   03 Jun 2027 03:19:15.129   03 Jun 2027 03:22:22.061           186.932               CapeTown          5841.625
       280   03 Jun 2027 04:22:40.660   03 Jun 2027 04:23:50.208            69.548               Magadan2          2173.375
       281   03 Jun 2027 04:23:57.454   03 Jun 2027 04:25:09.933            72.479               Magadan1          2264.969
       282   03 Jun 2027 04:25:17.212   03 Jun 2027 04:26:10.573            53.361               Magadan1          1667.531
       283   03 Jun 2027 05:57:12.954   03 Jun 2027 05:57:29.590            16.636                Anadyr1           519.875
       284   03 Jun 2027 05:57:31.379   03 Jun 2027 05:58:35.468            64.089               Magadan1          2002.781
       285   03 Jun 2027 05:58:49.977   03 Jun 2027 06:00:31.421           101.444               Magadan1          3170.125
       286   03 Jun 2027 06:00:38.548   03 Jun 2027 06:02:39.220           120.672               Magadan2          3771.000
       287   03 Jun 2027 06:03:04.412   03 Jun 2027 06:03:10.570             6.158                Anadyr2           192.438
       288   03 Jun 2027 06:44:08.176   03 Jun 2027 06:44:11.584             3.408            RioGallegos           106.500
       289   03 Jun 2027 06:48:44.309   03 Jun 2027 06:49:18.754            34.445            RioGallegos          1076.406
       290   03 Jun 2027 07:32:43.369   03 Jun 2027 07:33:04.633            21.264                Irkutsk           664.500
       291   03 Jun 2027 07:33:26.011   03 Jun 2027 07:35:11.589           105.578                Anadyr2          3299.313
       292   03 Jun 2027 07:35:11.589   03 Jun 2027 07:35:45.117            33.528                Anadyr1          1047.750
       293   03 Jun 2027 07:36:15.267   03 Jun 2027 07:39:20.900           185.633                Novosib          5801.031
       294   03 Jun 2027 07:39:21.813   03 Jun 2027 07:39:34.414            12.601              Murmansk1           393.781
       295   03 Jun 2027 07:39:35.581   03 Jun 2027 07:40:02.106            26.525                Norilsk           828.906
       296   03 Jun 2027 07:40:06.241   03 Jun 2027 07:42:18.541           132.300                Norilsk          4134.375
       297   03 Jun 2027 07:43:26.813   03 Jun 2027 07:43:31.382             4.569              Murmansk2           142.781
       298   03 Jun 2027 07:47:31.596   03 Jun 2027 07:47:52.552            20.956              Murmansk2           654.875
       299   03 Jun 2027 08:15:23.574   03 Jun 2027 08:16:21.958            58.384            RioGallegos          1824.500
       300   03 Jun 2027 08:18:21.175   03 Jun 2027 08:18:47.510            26.335            RioGallegos           822.969
       301   03 Jun 2027 08:53:20.286   03 Jun 2027 08:54:53.920            93.634                Sumatra          2926.062
       302   03 Jun 2027 09:10:25.146   03 Jun 2027 09:11:09.485            44.339                Irkutsk          1385.594
       303   03 Jun 2027 09:11:29.412   03 Jun 2027 09:13:09.153            99.741               Magadan1          3116.906
       304   03 Jun 2027 09:13:27.337   03 Jun 2027 09:16:34.534           187.197                Novosib          5849.906
       305   03 Jun 2027 09:16:47.822   03 Jun 2027 09:17:23.035            35.213              Murmansk1          1100.406
       306   03 Jun 2027 09:17:25.695   03 Jun 2027 09:17:26.586             0.891                Novosib            27.844
       307   03 Jun 2027 09:51:06.100   03 Jun 2027 09:52:18.592            72.492            RioGallegos          2265.375
       308   03 Jun 2027 10:25:40.984   03 Jun 2027 10:25:48.821             7.837                Sumatra           244.906
       309   03 Jun 2027 10:27:16.585   03 Jun 2027 10:28:19.078            62.493                Sumatra          1952.906
       310   03 Jun 2027 10:40:43.500   03 Jun 2027 10:40:55.294            11.794                  Delhi           368.563
       311   03 Jun 2027 10:45:43.524   03 Jun 2027 10:45:50.866             7.342                  Delhi           229.438
       312   03 Jun 2027 10:46:58.370   03 Jun 2027 10:47:25.489            27.119                Norilsk           847.469
       313   03 Jun 2027 10:47:29.011   03 Jun 2027 10:47:53.359            24.348                Norilsk           760.875
       314   03 Jun 2027 10:48:10.708   03 Jun 2027 10:48:25.883            15.175                Irkutsk           474.219
       315   03 Jun 2027 10:48:30.515   03 Jun 2027 10:49:41.046            70.531                Norilsk          2204.094
       316   03 Jun 2027 10:49:42.737   03 Jun 2027 10:50:24.317            41.580                Irkutsk          1299.375
       317   03 Jun 2027 10:50:26.317   03 Jun 2027 10:50:49.889            23.572                 Moscow           736.625
       318   03 Jun 2027 10:50:52.281   03 Jun 2027 10:51:32.946            40.665                Norilsk          1270.781
       319   03 Jun 2027 10:51:37.156   03 Jun 2027 10:52:00.553            23.397                Norilsk           731.156
       320   03 Jun 2027 10:52:03.380   03 Jun 2027 10:52:54.330            50.950                 Moscow          1592.188
       321   03 Jun 2027 10:58:03.777   03 Jun 2027 10:58:20.223            16.446              Murmansk1           513.937
       322   03 Jun 2027 11:31:54.922   03 Jun 2027 11:32:52.667            57.745            RioGallegos          1804.531
       323   03 Jun 2027 11:34:02.015   03 Jun 2027 11:34:33.571            31.556            RioGallegos           986.125
       324   03 Jun 2027 12:10:05.271   03 Jun 2027 12:10:20.019            14.748                  Delhi           460.875
       325   03 Jun 2027 12:12:03.634   03 Jun 2027 12:12:55.430            51.796                  Delhi          1618.625
       326   03 Jun 2027 12:13:34.941   03 Jun 2027 12:14:47.484            72.543                  Delhi          2266.969
       327   03 Jun 2027 12:18:01.383   03 Jun 2027 12:18:52.421            51.038                Novosib          1594.938
       328   03 Jun 2027 12:21:58.479   03 Jun 2027 12:23:03.795            65.316                Novosib          2041.125
       329   03 Jun 2027 12:23:17.514   03 Jun 2027 12:24:27.369            69.855              Murmansk2          2182.969
       330   03 Jun 2027 12:29:28.810   03 Jun 2027 12:29:32.524             3.714              Murmansk2           116.062
       331   03 Jun 2027 12:31:23.485   03 Jun 2027 12:31:57.699            34.214                Norilsk          1069.187
       332   03 Jun 2027 13:54:16.192   03 Jun 2027 13:57:30.147           193.955                 Moscow          6061.094
       333   03 Jun 2027 13:57:40.207   03 Jun 2027 13:58:15.044            34.837                 Moscow          1088.656
       334   03 Jun 2027 13:58:19.612   03 Jun 2027 14:00:37.661           138.049              Murmansk2          4314.031
       335   03 Jun 2027 14:02:09.785   03 Jun 2027 14:02:10.230             0.445                Norilsk            13.906
       336   03 Jun 2027 14:02:34.490   03 Jun 2027 14:03:02.179            27.689                Norilsk           865.281
       337   03 Jun 2027 14:03:34.647   03 Jun 2027 14:04:47.169            72.522                Norilsk          2266.312
       338   03 Jun 2027 15:08:39.409   03 Jun 2027 15:11:30.085           170.676               CapeTown          5333.625
       339   03 Jun 2027 15:33:52.679   03 Jun 2027 15:34:21.166            28.487                 Moscow           890.219
       340   03 Jun 2027 15:34:57.091   03 Jun 2027 15:35:08.808            11.717              Murmansk2           366.156
       341   03 Jun 2027 15:35:08.808   03 Jun 2027 15:36:06.946            58.138              Murmansk1          1816.813
       342   03 Jun 2027 15:39:20.142   03 Jun 2027 15:40:20.015            59.873              Murmansk1          1871.031
       343   03 Jun 2027 15:48:43.926   03 Jun 2027 15:50:33.707           109.781                Anadyr1          3430.656
       344   03 Jun 2027 16:43:49.648   03 Jun 2027 16:44:35.624            45.976               CapeTown          1436.750
       345   03 Jun 2027 16:52:42.617   03 Jun 2027 16:52:53.655            11.038               CapeTown           344.938
       346   03 Jun 2027 16:54:24.665   03 Jun 2027 16:55:10.893            46.228               CapeTown          1444.625
       347   03 Jun 2027 17:14:29.739   03 Jun 2027 17:15:04.209            34.470              Murmansk1          1077.188
       348   03 Jun 2027 17:15:16.293   03 Jun 2027 17:16:11.926            55.633              Murmansk2          1738.531
       349   03 Jun 2027 17:17:08.176   03 Jun 2027 17:17:35.452            27.276              Murmansk1           852.375
       350   03 Jun 2027 17:18:39.707   03 Jun 2027 17:19:08.795            29.088              Murmansk1           909.000
       351   03 Jun 2027 17:24:19.953   03 Jun 2027 17:25:18.510            58.557                Anadyr1          1829.906
       352   03 Jun 2027 17:27:15.639   03 Jun 2027 17:27:44.985            29.346                Anadyr2           917.063
       353   03 Jun 2027 17:27:53.834   03 Jun 2027 17:28:09.648            15.814                Anadyr2           494.188
       354   03 Jun 2027 17:28:58.449   03 Jun 2027 17:29:44.471            46.022                Anadyr2          1438.187
       355   03 Jun 2027 17:29:54.263   03 Jun 2027 17:31:05.661            71.398               Magadan2          2231.188
       356   03 Jun 2027 19:00:15.186   03 Jun 2027 19:02:19.452           124.266                Anadyr1          3883.313
       357   03 Jun 2027 19:02:35.198   03 Jun 2027 19:06:11.013           215.815               Magadan1          6744.219
       358   03 Jun 2027 19:06:45.378   03 Jun 2027 19:07:14.010            28.632               Magadan2           894.750
       359   03 Jun 2027 19:10:36.665   03 Jun 2027 19:10:47.400            10.735               Magadan1           335.469
       360   03 Jun 2027 19:57:04.270   03 Jun 2027 19:59:11.497           127.227            RioGallegos          3975.844
       361   03 Jun 2027 20:00:18.829   03 Jun 2027 20:01:11.451            52.622            RioGallegos          1644.438
       362   03 Jun 2027 20:36:05.284   03 Jun 2027 20:36:35.470            30.186                Anadyr1           943.312
       363   03 Jun 2027 20:38:11.038   03 Jun 2027 20:38:17.551             6.513                Anadyr1           203.531
       364   03 Jun 2027 20:38:28.260   03 Jun 2027 20:38:32.542             4.282               Magadan1           133.813
       365   03 Jun 2027 20:38:32.542   03 Jun 2027 20:39:54.036            81.494               Magadan2          2546.688
       366   03 Jun 2027 20:39:54.419   03 Jun 2027 20:41:58.671           124.252                Norilsk          3882.875
       367   03 Jun 2027 20:43:22.731   03 Jun 2027 20:46:00.807           158.076                Irkutsk          4939.875
       368   03 Jun 2027 20:49:06.321   03 Jun 2027 20:49:50.872            44.551                Irkutsk          1392.219
       369   03 Jun 2027 20:58:41.646   03 Jun 2027 21:00:38.370           116.724                Sumatra          3647.625
       370   03 Jun 2027 22:14:02.705   03 Jun 2027 22:15:32.954            90.249                Norilsk          2820.281
       371   03 Jun 2027 22:15:47.243   03 Jun 2027 22:15:56.992             9.749                Norilsk           304.656
       372   03 Jun 2027 22:17:42.043   03 Jun 2027 22:18:04.008            21.965               Magadan2           686.406
       373   03 Jun 2027 22:18:42.803   03 Jun 2027 22:21:53.599           190.796                Novosib          5962.375
       374   03 Jun 2027 22:29:42.620   03 Jun 2027 22:30:38.550            55.930                  Delhi          1747.813
       375   03 Jun 2027 23:45:37.823   03 Jun 2027 23:45:59.224            21.401                Anadyr2           668.781
       376   03 Jun 2027 23:46:07.861   03 Jun 2027 23:46:23.899            16.038                Anadyr2           501.188
       377   03 Jun 2027 23:49:59.342   03 Jun 2027 23:50:42.820            43.478                Norilsk          1358.687
       378   03 Jun 2027 23:51:28.332   03 Jun 2027 23:51:38.224             9.892               Magadan2           309.125
       379   03 Jun 2027 23:52:09.009   03 Jun 2027 23:52:16.708             7.699               Magadan2           240.594
       380   03 Jun 2027 23:52:26.464   03 Jun 2027 23:52:38.547            12.083               Magadan2           377.594
       381   03 Jun 2027 23:53:06.626   03 Jun 2027 23:56:27.982           201.356              Murmansk2          6292.375
       382   03 Jun 2027 23:57:20.174   03 Jun 2027 23:57:44.381            24.207              Murmansk2           756.469
       383   04 Jun 2027 00:01:09.622   04 Jun 2027 00:02:02.022            52.400                  Delhi          1637.500
       384   04 Jun 2027 00:04:52.064   04 Jun 2027 00:06:29.838            97.774                  Delhi          3055.438
       385   04 Jun 2027 00:42:52.573   04 Jun 2027 00:43:23.053            30.480            RioGallegos           952.500
       386   04 Jun 2027 00:49:57.429   04 Jun 2027 00:49:59.694             2.265            RioGallegos            70.781
       387   04 Jun 2027 01:18:56.361   04 Jun 2027 01:19:21.763            25.402                Anadyr2           793.813
       388   04 Jun 2027 01:19:41.188   04 Jun 2027 01:20:44.510            63.322                Anadyr1          1978.812
       389   04 Jun 2027 01:21:08.715   04 Jun 2027 01:21:34.700            25.985                Anadyr1           812.031
       390   04 Jun 2027 01:24:31.071   04 Jun 2027 01:24:46.183            15.112                Anadyr1           472.250
       391   04 Jun 2027 01:25:03.145   04 Jun 2027 01:27:17.006           133.861               Magadan2          4183.156
       392   04 Jun 2027 01:28:03.001   04 Jun 2027 01:28:32.623            29.622               Magadan1           925.688
       393   04 Jun 2027 01:28:41.626   04 Jun 2027 01:28:59.906            18.280              Murmansk1           571.250
       394   04 Jun 2027 01:29:51.418   04 Jun 2027 01:31:19.510            88.092                Novosib          2752.875
       395   04 Jun 2027 01:32:03.989   04 Jun 2027 01:32:13.201             9.212                 Moscow           287.875
       396   04 Jun 2027 01:33:03.453   04 Jun 2027 01:33:33.189            29.736                 Moscow           929.250
       397   04 Jun 2027 01:38:32.915   04 Jun 2027 01:38:57.200            24.285                  Delhi           758.906
       398   04 Jun 2027 01:44:22.277   04 Jun 2027 01:44:46.196            23.919                  Delhi           747.469
       399   04 Jun 2027 01:58:33.871   04 Jun 2027 02:00:36.179           122.308               CapeTown          3822.125
       400   04 Jun 2027 02:52:41.892   04 Jun 2027 02:54:08.049            86.157                Anadyr2          2692.406
       401   04 Jun 2027 02:55:04.580   04 Jun 2027 02:55:14.713            10.133                Anadyr1           316.656
       402   04 Jun 2027 02:55:20.989   04 Jun 2027 02:56:01.257            40.268                Anadyr1          1258.375
       403   04 Jun 2027 02:58:01.955   04 Jun 2027 02:58:31.846            29.891               Magadan1           934.094
       404   04 Jun 2027 03:11:11.107   04 Jun 2027 03:11:38.780            27.673              Murmansk2           864.781
       405   04 Jun 2027 03:11:38.780   04 Jun 2027 03:11:57.886            19.106              Murmansk1           597.062
       406   04 Jun 2027 03:12:02.914   04 Jun 2027 03:13:02.439            59.525                Norilsk          1860.156
       407   04 Jun 2027 03:13:18.665   04 Jun 2027 03:15:51.113           152.448              Murmansk1          4764.000
       408   04 Jun 2027 03:15:51.113   04 Jun 2027 03:16:45.309            54.196              Murmansk2          1693.625
       409   04 Jun 2027 04:27:56.380   04 Jun 2027 04:28:15.947            19.567                Anadyr1           611.469
       410   04 Jun 2027 04:29:13.881   04 Jun 2027 04:29:24.190            10.309                Anadyr2           322.156
       411   04 Jun 2027 04:29:59.269   04 Jun 2027 04:31:11.700            72.431                Anadyr2          2263.469
       412   04 Jun 2027 04:34:18.575   04 Jun 2027 04:38:20.296           241.721               Magadan2          7553.781
       413   04 Jun 2027 06:11:21.393   04 Jun 2027 06:11:57.329            35.936                Anadyr1          1123.000
       414   04 Jun 2027 06:12:17.166   04 Jun 2027 06:15:33.037           195.871               Magadan1          6120.969
       415   04 Jun 2027 07:45:50.339   04 Jun 2027 07:46:33.299            42.960                Norilsk          1342.500
       416   04 Jun 2027 07:46:40.273   04 Jun 2027 07:47:04.079            23.806                Novosib           743.938
       417   04 Jun 2027 07:47:06.629   04 Jun 2027 07:47:26.168            19.539               Magadan2           610.594
       418   04 Jun 2027 07:47:29.038   04 Jun 2027 07:47:37.964             8.926                Irkutsk           278.937
       419   04 Jun 2027 07:47:47.600   04 Jun 2027 07:50:46.653           179.053                Anadyr2          5595.406
       420   04 Jun 2027 07:50:48.365   04 Jun 2027 07:51:17.332            28.967                Anadyr2           905.219
       421   04 Jun 2027 07:51:26.401   04 Jun 2027 07:52:10.161            43.760               Magadan1          1367.500
       422   04 Jun 2027 07:52:12.695   04 Jun 2027 07:53:00.503            47.808              Murmansk2          1494.000
       423   04 Jun 2027 07:55:10.787   04 Jun 2027 07:55:21.266            10.479              Murmansk1           327.469
       424   04 Jun 2027 07:55:52.919   04 Jun 2027 07:56:37.918            44.999              Murmansk2          1406.219
       425   04 Jun 2027 08:27:48.093   04 Jun 2027 08:28:18.345            30.252            RioGallegos           945.375
       426   04 Jun 2027 08:35:46.586   04 Jun 2027 08:35:58.931            12.345            RioGallegos           385.781
       427   04 Jun 2027 09:04:10.892   04 Jun 2027 09:06:25.162           134.270                Sumatra          4195.938
       428   04 Jun 2027 09:22:03.962   04 Jun 2027 09:22:17.283            13.321                Novosib           416.281
       429   04 Jun 2027 09:22:25.116   04 Jun 2027 09:23:08.618            43.502                Novosib          1359.438
       430   04 Jun 2027 09:23:20.271   04 Jun 2027 09:24:54.859            94.588               Magadan2          2955.875
       431   04 Jun 2027 09:25:25.969   04 Jun 2027 09:25:35.812             9.843               Magadan1           307.594
       432   04 Jun 2027 09:26:06.956   04 Jun 2027 09:26:10.393             3.437              Murmansk2           107.406
       433   04 Jun 2027 09:26:10.764   04 Jun 2027 09:26:11.640             0.876                Irkutsk            27.375
       434   04 Jun 2027 09:26:11.812   04 Jun 2027 09:26:36.273            24.461                Norilsk           764.406
       435   04 Jun 2027 09:26:43.476   04 Jun 2027 09:27:29.020            45.544              Murmansk2          1423.250
       436   04 Jun 2027 09:27:34.483   04 Jun 2027 09:27:50.806            16.323                Novosib           510.094
       437   04 Jun 2027 09:27:53.463   04 Jun 2027 09:28:38.711            45.248              Murmansk2          1414.000
       438   04 Jun 2027 10:03:21.847   04 Jun 2027 10:04:04.683            42.836            RioGallegos          1338.625
       439   04 Jun 2027 10:05:54.112   04 Jun 2027 10:06:11.817            17.705            RioGallegos           553.281
       440   04 Jun 2027 10:12:54.840   04 Jun 2027 10:13:11.884            17.044            RioGallegos           532.625
       441   04 Jun 2027 10:37:47.779   04 Jun 2027 10:40:02.616           134.837                Sumatra          4213.656
       442   04 Jun 2027 10:58:37.199   04 Jun 2027 10:59:42.513            65.314                Novosib          2041.062
       443   04 Jun 2027 10:59:48.105   04 Jun 2027 11:00:13.495            25.390                 Moscow           793.438
       444   04 Jun 2027 11:00:16.355   04 Jun 2027 11:00:18.190             1.835                Norilsk            57.344
       445   04 Jun 2027 11:00:18.253   04 Jun 2027 11:00:32.144            13.891                Irkutsk           434.094
       446   04 Jun 2027 11:00:34.722   04 Jun 2027 11:01:10.263            35.541              Murmansk2          1110.656
       447   04 Jun 2027 11:01:12.083   04 Jun 2027 11:01:31.928            19.845                Norilsk           620.156
       448   04 Jun 2027 11:01:35.390   04 Jun 2027 11:01:54.242            18.852                Irkutsk           589.125
       449   04 Jun 2027 11:01:56.619   04 Jun 2027 11:02:04.959             8.340                Norilsk           260.625
       450   04 Jun 2027 11:02:08.103   04 Jun 2027 11:02:48.044            39.941              Murmansk2          1248.156
       451   04 Jun 2027 11:02:48.044   04 Jun 2027 11:02:55.929             7.885              Murmansk1           246.406
       452   04 Jun 2027 11:03:01.090   04 Jun 2027 11:03:18.656            17.566              Murmansk1           548.937
       453   04 Jun 2027 11:03:22.956   04 Jun 2027 11:04:01.059            38.103                Norilsk          1190.719
       454   04 Jun 2027 11:04:14.197   04 Jun 2027 11:05:10.072            55.875              Murmansk2          1746.094
       455   04 Jun 2027 12:22:22.218   04 Jun 2027 12:23:29.262            67.044                  Delhi          2095.125
       456   04 Jun 2027 12:27:02.371   04 Jun 2027 12:27:25.246            22.875                  Delhi           714.844
       457   04 Jun 2027 12:30:30.238   04 Jun 2027 12:32:22.724           112.486                Novosib          3515.187
       458   04 Jun 2027 12:33:57.273   04 Jun 2027 12:34:50.040            52.767                Novosib          1648.969
       459   04 Jun 2027 12:35:12.715   04 Jun 2027 12:35:30.243            17.528                Norilsk           547.750
       460   04 Jun 2027 12:35:42.558   04 Jun 2027 12:35:58.591            16.033              Murmansk2           501.031
       461   04 Jun 2027 12:37:11.439   04 Jun 2027 12:38:00.236            48.797              Murmansk1          1524.906
       462   04 Jun 2027 14:06:18.803   04 Jun 2027 14:10:07.750           228.947                 Moscow          7154.594
       463   04 Jun 2027 14:10:45.282   04 Jun 2027 14:13:10.785           145.503              Murmansk1          4546.969
       464   04 Jun 2027 14:13:27.768   04 Jun 2027 14:13:45.940            18.172              Murmansk2           567.875
       465   04 Jun 2027 14:14:58.655   04 Jun 2027 14:15:36.244            37.589                Norilsk          1174.656
       466   04 Jun 2027 14:17:37.070   04 Jun 2027 14:19:19.273           102.203                Norilsk          3193.844
       467   04 Jun 2027 15:20:22.193   04 Jun 2027 15:22:03.375           101.182               CapeTown          3161.937
       468   04 Jun 2027 15:45:55.378   04 Jun 2027 15:46:24.329            28.951                 Moscow           904.719
       469   04 Jun 2027 15:47:16.983   04 Jun 2027 15:48:27.221            70.238              Murmansk1          2194.937
       470   04 Jun 2027 15:54:40.706   04 Jun 2027 15:55:12.076            31.370              Murmansk1           980.312
       471   04 Jun 2027 16:00:40.178   04 Jun 2027 16:02:34.298           114.120                Anadyr2          3566.250
       472   04 Jun 2027 16:03:12.194   04 Jun 2027 16:03:13.523             1.329                Anadyr1            41.531
       473   04 Jun 2027 16:05:29.863   04 Jun 2027 16:06:01.534            31.671                Anadyr2           989.719
       474   04 Jun 2027 16:55:58.975   04 Jun 2027 16:56:55.671            56.696               CapeTown          1771.750
       475   04 Jun 2027 17:05:40.565   04 Jun 2027 17:05:43.217             2.652               CapeTown            82.875
       476   04 Jun 2027 17:06:41.477   04 Jun 2027 17:06:44.148             2.671               CapeTown            83.469
       477   04 Jun 2027 17:27:12.656   04 Jun 2027 17:30:37.767           205.111              Murmansk1          6409.719
       478   04 Jun 2027 17:36:20.939   04 Jun 2027 17:37:11.229            50.290                Anadyr1          1571.563
       479   04 Jun 2027 17:37:50.516   04 Jun 2027 17:38:26.990            36.474                Anadyr1          1139.813
       480   04 Jun 2027 17:39:22.223   04 Jun 2027 17:40:49.626            87.403               Magadan2          2731.344
       481   04 Jun 2027 17:41:11.235   04 Jun 2027 17:41:43.337            32.102               Magadan1          1003.187
       482   04 Jun 2027 17:44:44.816   04 Jun 2027 17:46:48.807           123.991               Magadan2          3874.719
