uniorb/output/strategy_1/Drop/Drop_KinoSat_110407.txt

KinoSat_110407
-------------------------
    Access    *     Start Time (UTCG)     *     Stop Time (UTCG)  *   Duration (s)        *       Station  *  Data (Mbytes)
         1   01 Jun 2027 03:32:38.405   01 Jun 2027 03:32:56.215            17.810               Magadan1          2226.250
         2   01 Jun 2027 03:33:15.128   01 Jun 2027 03:33:43.057            27.929               Magadan2          3491.125
         3   01 Jun 2027 03:33:43.057   01 Jun 2027 03:34:23.562            40.505               Magadan1          5063.125
         4   01 Jun 2027 03:34:41.142   01 Jun 2027 03:36:31.282           110.140               Magadan1         13767.500
         5   01 Jun 2027 03:36:47.461   01 Jun 2027 03:37:32.108            44.647               Magadan2          5580.875
         6   01 Jun 2027 03:37:46.269   01 Jun 2027 03:38:29.226            42.957               Magadan2          5369.625
         7   01 Jun 2027 03:38:29.226   01 Jun 2027 03:38:30.580             1.354               Magadan1           169.250
         8   01 Jun 2027 03:38:36.549   01 Jun 2027 03:38:52.668            16.119                Anadyr2          2014.875
         9   01 Jun 2027 03:39:21.527   01 Jun 2027 03:39:56.256            34.729               Magadan2          4341.125
        10   01 Jun 2027 04:52:20.267   01 Jun 2027 04:54:41.554           141.287                Sumatra         17660.875
        11   01 Jun 2027 05:10:57.613   01 Jun 2027 05:11:36.621            39.008                Irkutsk          4876.000
        12   01 Jun 2027 05:11:41.962   01 Jun 2027 05:11:52.678            10.716               Magadan2          1339.500
        13   01 Jun 2027 05:12:18.025   01 Jun 2027 05:13:31.014            72.989               Magadan2          9123.625
        14   01 Jun 2027 05:13:37.384   01 Jun 2027 05:13:43.477             6.093               Magadan2           761.625
        15   01 Jun 2027 05:13:59.529   01 Jun 2027 05:15:25.687            86.158                Novosib         10769.750
        16   01 Jun 2027 05:15:54.450   01 Jun 2027 05:17:15.771            81.321                Novosib         10165.125
        17   01 Jun 2027 05:51:00.673   01 Jun 2027 05:51:17.239            16.566            RioGallegos          2070.750
        18   01 Jun 2027 06:25:29.705   01 Jun 2027 06:26:11.163            41.458                Sumatra          5182.250
        19   01 Jun 2027 06:32:02.211   01 Jun 2027 06:33:35.231            93.020                Sumatra         11627.500
        20   01 Jun 2027 06:36:39.272   01 Jun 2027 06:38:28.063           108.791                  Delhi         13598.875
        21   01 Jun 2027 06:48:07.074   01 Jun 2027 06:48:14.768             7.694                Novosib           961.750
        22   01 Jun 2027 06:48:23.818   01 Jun 2027 06:48:51.539            27.721                Novosib          3465.125
        23   01 Jun 2027 06:49:03.621   01 Jun 2027 06:49:23.722            20.101                Norilsk          2512.625
        24   01 Jun 2027 06:49:32.694   01 Jun 2027 06:49:37.709             5.015                 Moscow           626.875
        25   01 Jun 2027 06:49:56.683   01 Jun 2027 06:51:49.504           112.821                Norilsk         14102.625
        26   01 Jun 2027 06:52:44.777   01 Jun 2027 06:53:13.866            29.089              Murmansk2          3636.125
        27   01 Jun 2027 08:10:00.117   01 Jun 2027 08:10:44.356            44.239                  Delhi          5529.875
        28   01 Jun 2027 08:24:39.367   01 Jun 2027 08:24:53.259            13.892                 Moscow          1736.500
        29   01 Jun 2027 08:25:05.699   01 Jun 2027 08:25:26.834            21.135                Novosib          2641.875
        30   01 Jun 2027 08:25:29.275   01 Jun 2027 08:25:58.841            29.566                Norilsk          3695.750
        31   01 Jun 2027 08:26:08.464   01 Jun 2027 08:27:22.248            73.784              Murmansk1          9223.000
        32   01 Jun 2027 08:27:30.199   01 Jun 2027 08:27:42.410            12.211                 Moscow          1526.375
        33   01 Jun 2027 08:28:43.384   01 Jun 2027 08:29:02.290            18.906                 Moscow          2363.250
        34   01 Jun 2027 10:00:51.908   01 Jun 2027 10:01:21.504            29.596                 Moscow          3699.500
        35   01 Jun 2027 10:01:30.343   01 Jun 2027 10:02:32.096            61.753              Murmansk1          7719.125
        36   01 Jun 2027 11:08:14.203   01 Jun 2027 11:12:14.745           240.542               CapeTown         30067.750
        37   01 Jun 2027 11:12:39.873   01 Jun 2027 11:14:31.561           111.688               CapeTown         13961.000
        38   01 Jun 2027 11:48:27.770   01 Jun 2027 11:50:28.335           120.565                Anadyr1         15070.625
        39   01 Jun 2027 11:50:45.458   01 Jun 2027 11:53:51.215           185.757                Anadyr2         23219.625
        40   01 Jun 2027 11:54:57.121   01 Jun 2027 11:57:34.193           157.072                Anadyr1         19634.000
        41   01 Jun 2027 13:27:13.377   01 Jun 2027 13:32:41.401           328.024               Magadan2         41003.000
        42   01 Jun 2027 15:56:13.832   01 Jun 2027 15:59:13.707           179.875            RioGallegos         22484.375
        43   01 Jun 2027 16:42:55.842   01 Jun 2027 16:46:21.812           205.970                Irkutsk         25746.250
        44   01 Jun 2027 16:57:50.814   01 Jun 2027 17:00:33.040           162.226                Sumatra         20278.250
        45   01 Jun 2027 18:21:11.066   01 Jun 2027 18:22:16.523            65.457                Novosib          8182.125
        46   01 Jun 2027 18:28:18.739   01 Jun 2027 18:31:36.901           198.162                  Delhi         24770.250
        47   01 Jun 2027 21:35:32.197   01 Jun 2027 21:35:57.298            25.101                 Moscow          2166.251
        48   02 Jun 2027 03:49:28.118   02 Jun 2027 03:50:28.018            59.900               Magadan2          7487.500
        49   02 Jun 2027 03:50:28.934   02 Jun 2027 03:50:47.185            18.251               Magadan2          2281.375
        50   02 Jun 2027 03:50:56.964   02 Jun 2027 03:51:16.415            19.451               Magadan1          2431.375
        51   02 Jun 2027 03:51:24.382   02 Jun 2027 03:51:52.441            28.059               Magadan2          3507.375
        52   02 Jun 2027 05:03:26.352   02 Jun 2027 05:04:27.868            61.516                Sumatra          7689.500
        53   02 Jun 2027 05:23:48.397   02 Jun 2027 05:24:39.574            51.177                Irkutsk          6397.125
        54   02 Jun 2027 05:25:10.608   02 Jun 2027 05:26:53.149           102.541              Murmansk2         12817.625
        55   02 Jun 2027 05:26:57.560   02 Jun 2027 05:27:29.069            31.509                Norilsk          3938.625
        56   02 Jun 2027 05:27:39.736   02 Jun 2027 05:27:57.824            18.088                Irkutsk          2261.000
        57   02 Jun 2027 05:27:57.871   02 Jun 2027 05:28:02.351             4.480                Norilsk           560.000
        58   02 Jun 2027 05:28:30.602   02 Jun 2027 05:28:56.217            25.615              Murmansk2          3201.875
        59   02 Jun 2027 06:03:27.800   02 Jun 2027 06:03:30.390             2.590            RioGallegos           323.750
        60   02 Jun 2027 06:05:20.762   02 Jun 2027 06:06:30.599            69.837            RioGallegos          8729.625
        61   02 Jun 2027 06:44:25.797   02 Jun 2027 06:45:31.890            66.093                Sumatra          8261.625
        62   02 Jun 2027 06:48:29.770   02 Jun 2027 06:50:23.527           113.757                  Delhi         14219.625
        63   02 Jun 2027 07:00:15.087   02 Jun 2027 07:00:37.534            22.447                Irkutsk          2805.875
        64   02 Jun 2027 07:01:03.650   02 Jun 2027 07:01:18.188            14.538                Norilsk          1817.250
        65   02 Jun 2027 07:01:21.704   02 Jun 2027 07:03:13.914           112.210                Irkutsk         14026.250
        66   02 Jun 2027 08:22:21.048   02 Jun 2027 08:22:31.497            10.449                  Delhi          1306.125
        67   02 Jun 2027 08:24:23.917   02 Jun 2027 08:24:48.588            24.671                  Delhi          3083.875
        68   02 Jun 2027 08:37:05.125   02 Jun 2027 08:37:20.993            15.868                 Moscow          1983.500
        69   02 Jun 2027 08:37:34.313   02 Jun 2027 08:38:13.381            39.068              Murmansk2          4883.500
        70   02 Jun 2027 08:38:24.012   02 Jun 2027 08:39:32.665            68.653                 Moscow          8581.625
        71   02 Jun 2027 10:27:02.442   02 Jun 2027 10:28:33.670            91.228                Anadyr1         11403.500
        72   02 Jun 2027 11:19:59.883   02 Jun 2027 11:22:07.202           127.319               CapeTown         15914.875
        73   02 Jun 2027 11:22:18.444   02 Jun 2027 11:24:13.173           114.729               CapeTown         14341.125
        74   02 Jun 2027 11:25:40.634   02 Jun 2027 11:25:57.853            17.219               CapeTown          2152.375
        75   02 Jun 2027 12:00:24.508   02 Jun 2027 12:02:01.831            97.323                Anadyr1         12165.375
        76   02 Jun 2027 12:02:57.692   02 Jun 2027 12:05:43.586           165.894                Anadyr2         20736.750
        77   02 Jun 2027 12:08:02.704   02 Jun 2027 12:11:07.172           184.468                Anadyr1         23058.500
        78   02 Jun 2027 13:39:02.368   02 Jun 2027 13:43:02.009           239.641               Magadan2         29955.125
        79   02 Jun 2027 13:47:48.929   02 Jun 2027 13:48:30.119            41.190               Magadan1          5148.750
        80   02 Jun 2027 16:07:34.028   02 Jun 2027 16:11:01.942           207.914            RioGallegos         25989.250
        81   02 Jun 2027 16:56:40.011   02 Jun 2027 17:00:48.667           248.656                Irkutsk         31082.000
        82   02 Jun 2027 17:09:05.702   02 Jun 2027 17:12:20.873           195.171                Sumatra         24396.375
        83   02 Jun 2027 17:15:13.839   02 Jun 2027 17:17:10.831           116.992                Sumatra         14624.000
        84   02 Jun 2027 18:34:12.945   02 Jun 2027 18:34:18.632             5.687                Novosib           710.875
        85   02 Jun 2027 18:39:14.111   02 Jun 2027 18:42:06.970           172.859                  Delhi         21607.375
        86   02 Jun 2027 21:42:18.603   02 Jun 2027 21:45:04.857           166.254              Murmansk1         20781.750
        87   02 Jun 2027 21:52:33.810   02 Jun 2027 21:53:05.651            31.841                 Moscow          3980.125
        88   02 Jun 2027 22:09:04.579   02 Jun 2027 22:10:05.128            60.549               CapeTown          7568.625
        89   02 Jun 2027 22:14:43.627   02 Jun 2027 22:16:27.710           104.083               CapeTown         13010.375
        90   03 Jun 2027 04:02:51.803   03 Jun 2027 04:03:45.551            53.748                Irkutsk          6718.500
        91   03 Jun 2027 05:17:20.719   03 Jun 2027 05:18:17.040            56.321                Sumatra          7040.125
        92   03 Jun 2027 05:36:22.519   03 Jun 2027 05:37:26.869            64.350                Irkutsk          8043.750
        93   03 Jun 2027 05:37:57.874   03 Jun 2027 05:39:12.575            74.701                Irkutsk          9337.625
        94   03 Jun 2027 05:39:21.231   03 Jun 2027 05:39:42.261            21.030                Novosib          2628.750
        95   03 Jun 2027 05:41:14.675   03 Jun 2027 05:41:19.463             4.788                Novosib           598.500
        96   03 Jun 2027 05:44:13.570   03 Jun 2027 05:44:34.312            20.742                Norilsk          2592.750
        97   03 Jun 2027 06:15:41.579   03 Jun 2027 06:15:55.022            13.443            RioGallegos          1680.375
        98   03 Jun 2027 06:16:47.896   03 Jun 2027 06:17:03.928            16.032            RioGallegos          2004.000
        99   03 Jun 2027 06:23:48.264   03 Jun 2027 06:24:48.159            59.895            RioGallegos          7486.875
       100   03 Jun 2027 07:00:23.584   03 Jun 2027 07:02:24.280           120.696                  Delhi         15087.000
       101   03 Jun 2027 07:13:46.954   03 Jun 2027 07:14:09.581            22.627                 Moscow          2828.375
       102   03 Jun 2027 07:14:19.993   03 Jun 2027 07:14:35.702            15.709              Murmansk1          1963.625
       103   03 Jun 2027 07:14:42.697   03 Jun 2027 07:15:01.058            18.361                Irkutsk          2295.125
       104   03 Jun 2027 07:15:02.988   03 Jun 2027 07:15:52.225            49.237                 Moscow          6154.625
       105   03 Jun 2027 08:34:49.916   03 Jun 2027 08:36:07.174            77.258                  Delhi          9657.250
       106   03 Jun 2027 08:49:21.626   03 Jun 2027 08:49:45.939            24.313              Murmansk1          3039.125
       107   03 Jun 2027 08:49:48.436   03 Jun 2027 08:50:13.867            25.431              Murmansk2          3178.875
       108   03 Jun 2027 08:50:29.711   03 Jun 2027 08:50:49.391            19.680                Norilsk          2460.000
       109   03 Jun 2027 08:50:52.317   03 Jun 2027 08:51:54.559            62.242              Murmansk1          7780.250
       110   03 Jun 2027 10:37:58.028   03 Jun 2027 10:39:57.381           119.353                Anadyr1         14919.125
       111   03 Jun 2027 10:39:57.381   03 Jun 2027 10:42:19.874           142.493                Anadyr2         17811.625
       112   03 Jun 2027 12:12:22.229   03 Jun 2027 12:13:45.086            82.857                Anadyr1         10357.125
       113   03 Jun 2027 12:15:07.635   03 Jun 2027 12:17:38.013           150.378                Anadyr2         18797.250
       114   03 Jun 2027 13:50:54.106   03 Jun 2027 13:54:09.611           195.505               Magadan1         24438.125
       115   03 Jun 2027 13:54:34.257   03 Jun 2027 13:56:29.940           115.683               Magadan2         14460.375
       116   03 Jun 2027 13:57:27.416   03 Jun 2027 13:58:22.856            55.440               Magadan1          6930.000
       117   03 Jun 2027 16:19:07.772   03 Jun 2027 16:25:46.754           398.982            RioGallegos         49872.750
       118   03 Jun 2027 17:10:04.177   03 Jun 2027 17:10:34.073            29.896                Irkutsk          3737.000
       119   03 Jun 2027 17:20:33.193   03 Jun 2027 17:21:48.632            75.439                Sumatra          9429.875
       120   03 Jun 2027 17:22:16.184   03 Jun 2027 17:24:14.640           118.456                Sumatra         14807.000
       121   03 Jun 2027 17:24:30.780   03 Jun 2027 17:26:26.659           115.879                Sumatra         14484.875
       122   03 Jun 2027 17:27:21.391   03 Jun 2027 17:27:37.438            16.047                Sumatra          2005.875
       123   03 Jun 2027 18:43:28.348   03 Jun 2027 18:44:45.530            77.182                Novosib          9647.750
       124   03 Jun 2027 18:50:32.928   03 Jun 2027 18:52:00.575            87.647                  Delhi         10955.875
       125   03 Jun 2027 18:56:08.806   03 Jun 2027 18:56:28.099            19.293                  Delhi          2411.625
       126   03 Jun 2027 18:58:24.099   03 Jun 2027 18:58:45.096            20.997                  Delhi          2624.625
       127   03 Jun 2027 21:51:58.128   03 Jun 2027 21:52:48.271            50.143              Murmansk1          6267.875
       128   03 Jun 2027 21:55:30.038   03 Jun 2027 21:57:19.745           109.707                 Moscow         13713.375
       129   03 Jun 2027 21:58:18.447   03 Jun 2027 21:59:53.435            94.988                 Moscow         11873.500
       130   03 Jun 2027 22:21:32.152   03 Jun 2027 22:22:05.018            32.866               CapeTown          4108.250
       131   03 Jun 2027 22:25:16.874   03 Jun 2027 22:26:20.464            63.590               CapeTown          7948.750
       132   04 Jun 2027 04:15:23.139   04 Jun 2027 04:15:51.793            28.654                Irkutsk          3581.750
       133   04 Jun 2027 04:50:41.630   04 Jun 2027 04:52:35.371           113.741            RioGallegos         14217.625
       134   04 Jun 2027 05:26:20.488   04 Jun 2027 05:28:02.809           102.321                Sumatra         12790.125
       135   04 Jun 2027 05:48:21.382   04 Jun 2027 05:48:39.660            18.278                Irkutsk          2284.750
       136   04 Jun 2027 05:48:56.631   04 Jun 2027 05:49:09.062            12.431                Norilsk          1553.875
       137   04 Jun 2027 05:49:23.756   04 Jun 2027 05:50:04.331            40.575                Norilsk          5071.875
       138   04 Jun 2027 05:50:08.861   04 Jun 2027 05:51:52.246           103.385                Novosib         12923.125
       139   04 Jun 2027 07:05:09.639   04 Jun 2027 07:06:21.763            72.124                Sumatra          9015.500
       140   04 Jun 2027 07:25:43.358   04 Jun 2027 07:26:42.888            59.530                Novosib          7441.250
       141   04 Jun 2027 07:26:49.565   04 Jun 2027 07:27:41.368            51.803                 Moscow          6475.375
       142   04 Jun 2027 07:29:17.362   04 Jun 2027 07:29:24.314             6.952                Novosib           869.000
       143   04 Jun 2027 08:47:28.978   04 Jun 2027 08:48:50.326            81.348                  Delhi         10168.500
       144   04 Jun 2027 08:59:46.657   04 Jun 2027 09:00:08.631            21.974                 Moscow          2746.750
       145   04 Jun 2027 09:00:23.621   04 Jun 2027 09:01:44.262            80.641                Novosib         10080.125
       146   04 Jun 2027 09:02:07.856   04 Jun 2027 09:02:45.117            37.261                 Moscow          4657.625
       147   04 Jun 2027 09:02:53.042   04 Jun 2027 09:03:17.106            24.064                Norilsk          3008.000
       148   04 Jun 2027 09:03:18.968   04 Jun 2027 09:03:44.769            25.801                Norilsk          3225.125
       149   04 Jun 2027 09:03:52.296   04 Jun 2027 09:04:04.569            12.273                Novosib          1534.125
       150   04 Jun 2027 09:04:04.954   04 Jun 2027 09:05:17.245            72.291                 Moscow          9036.375
       151   04 Jun 2027 10:49:30.597   04 Jun 2027 10:53:22.821           232.224                Anadyr2         29028.000
       152   04 Jun 2027 12:24:20.745   04 Jun 2027 12:26:02.157           101.412                Anadyr1         12676.500
       153   04 Jun 2027 12:26:34.536   04 Jun 2027 12:27:15.386            40.850                Anadyr1          5106.250
       154   04 Jun 2027 12:28:52.984   04 Jun 2027 12:29:33.953            40.969                Anadyr1          5121.125
       155   04 Jun 2027 14:02:47.886   04 Jun 2027 14:05:06.059           138.173               Magadan2         17271.625
       156   04 Jun 2027 14:05:25.619   04 Jun 2027 14:08:16.570           170.951               Magadan1         21368.875
       157   04 Jun 2027 14:10:15.366   04 Jun 2027 14:11:49.404            94.038               Magadan2         11754.750
       158   04 Jun 2027 16:30:48.934   04 Jun 2027 16:34:46.516           237.582            RioGallegos         29697.750
       159   04 Jun 2027 16:36:57.009   04 Jun 2027 16:37:04.897             7.888            RioGallegos           986.000
       160   04 Jun 2027 17:18:15.563   04 Jun 2027 17:19:34.657            79.094                Irkutsk          9886.750
       161   04 Jun 2027 17:20:52.405   04 Jun 2027 17:21:42.166            49.761                Irkutsk          6220.125
       162   04 Jun 2027 17:22:03.939   04 Jun 2027 17:22:43.313            39.374                Novosib          4921.750
       163   04 Jun 2027 17:32:09.793   04 Jun 2027 17:34:00.688           110.895                Sumatra         13861.875
       164   04 Jun 2027 17:34:14.681   04 Jun 2027 17:36:12.365           117.684                Sumatra         14710.500
       165   04 Jun 2027 17:37:46.573   04 Jun 2027 17:38:40.451            53.878                Sumatra          6734.750
       166   04 Jun 2027 18:53:58.219   04 Jun 2027 18:55:53.868           115.649                Novosib         14456.125
       167   04 Jun 2027 19:02:40.388   04 Jun 2027 19:03:58.721            78.333                  Delhi          9791.625
       168   04 Jun 2027 19:06:21.022   04 Jun 2027 19:07:44.715            83.693                  Delhi         10461.625
       169   04 Jun 2027 20:33:55.608   04 Jun 2027 20:36:00.108           124.500                 Moscow         15562.500
       170   04 Jun 2027 22:03:59.153   04 Jun 2027 22:05:56.739           117.586              Murmansk1         14698.250
       171   04 Jun 2027 22:32:03.761   04 Jun 2027 22:33:49.929           106.168               CapeTown         13271.000
       172   05 Jun 2027 04:26:27.787   05 Jun 2027 04:27:57.175            89.388                Irkutsk         11173.500
       173   05 Jun 2027 05:02:41.465   05 Jun 2027 05:03:51.149            69.684            RioGallegos          8710.500
       174   05 Jun 2027 05:38:00.916   05 Jun 2027 05:38:03.961             3.045                Sumatra           380.625
       175   05 Jun 2027 05:39:50.319   05 Jun 2027 05:40:24.530            34.211                Sumatra          4276.375
       176   05 Jun 2027 05:53:40.610   05 Jun 2027 05:55:24.755           104.145                  Delhi         13018.125
       177   05 Jun 2027 06:00:10.366   05 Jun 2027 06:00:53.443            43.077                Irkutsk          5384.625
       178   05 Jun 2027 06:01:16.173   05 Jun 2027 06:01:24.264             8.091                Novosib          1011.375
       179   05 Jun 2027 06:01:31.080   05 Jun 2027 06:01:43.380            12.300              Murmansk2          1537.500
       180   05 Jun 2027 06:01:45.721   05 Jun 2027 06:02:32.406            46.685                Novosib          5835.625
       181   05 Jun 2027 06:02:39.529   05 Jun 2027 06:03:13.494            33.965                Norilsk          4245.625
       182   05 Jun 2027 06:03:34.602   05 Jun 2027 06:03:56.985            22.383                Irkutsk          2797.875
       183   05 Jun 2027 06:04:03.914   05 Jun 2027 06:04:55.080            51.166                Novosib          6395.750
       184   05 Jun 2027 06:44:20.219   05 Jun 2027 06:44:33.827            13.608            RioGallegos          1701.000
       185   05 Jun 2027 07:15:15.017   05 Jun 2027 07:16:20.818            65.801                Sumatra          8225.125
       186   05 Jun 2027 07:21:51.869   05 Jun 2027 07:22:47.603            55.734                  Delhi          6966.750
       187   05 Jun 2027 07:37:45.419   05 Jun 2027 07:37:58.452            13.033                 Moscow          1629.125
       188   05 Jun 2027 07:38:03.185   05 Jun 2027 07:38:20.069            16.884                Irkutsk          2110.500
       189   05 Jun 2027 07:38:23.833   05 Jun 2027 07:38:45.739            21.906              Murmansk2          2738.250
       190   05 Jun 2027 07:38:52.888   05 Jun 2027 07:39:10.405            17.517              Murmansk1          2189.625
       191   05 Jun 2027 07:39:13.945   05 Jun 2027 07:39:36.343            22.398                 Moscow          2799.750
       192   05 Jun 2027 09:00:22.827   05 Jun 2027 09:01:33.964            71.137                  Delhi          8892.125
       193   05 Jun 2027 09:11:15.775   05 Jun 2027 09:12:08.350            52.575              Murmansk2          6571.875
       194   05 Jun 2027 09:12:28.311   05 Jun 2027 09:12:51.750            23.439                 Moscow          2929.875
       195   05 Jun 2027 09:12:57.050   05 Jun 2027 09:13:14.067            17.017              Murmansk2          2127.125
       196   05 Jun 2027 09:13:14.067   05 Jun 2027 09:13:31.268            17.201              Murmansk1          2150.125
       197   05 Jun 2027 09:13:43.339   05 Jun 2027 09:14:20.230            36.891                Novosib          4611.375
       198   05 Jun 2027 09:14:25.709   05 Jun 2027 09:14:44.564            18.855                 Moscow          2356.875
       199   05 Jun 2027 09:14:47.863   05 Jun 2027 09:15:19.609            31.746                Norilsk          3968.250
       200   05 Jun 2027 09:15:35.173   05 Jun 2027 09:16:12.497            37.324              Murmansk2          4665.500
       201   05 Jun 2027 09:16:23.057   05 Jun 2027 09:17:04.105            41.048                Norilsk          5131.000
       202   05 Jun 2027 10:22:52.916   05 Jun 2027 10:25:09.428           136.512               CapeTown         17064.000
       203   05 Jun 2027 10:27:29.421   05 Jun 2027 10:28:36.324            66.903               CapeTown          8362.875
       204   05 Jun 2027 11:01:13.424   05 Jun 2027 11:07:36.688           383.264                Anadyr1         47908.000
       205   05 Jun 2027 12:41:44.741   05 Jun 2027 12:43:51.131           126.390               Magadan1         15798.750
       206   05 Jun 2027 14:14:43.251   05 Jun 2027 14:16:17.914            94.663               Magadan2         11832.875
       207   05 Jun 2027 14:17:31.870   05 Jun 2027 14:19:06.778            94.908               Magadan1         11863.500
       208   05 Jun 2027 16:42:34.929   05 Jun 2027 16:44:55.575           140.646            RioGallegos         17580.750
       209   05 Jun 2027 16:46:06.510   05 Jun 2027 16:48:31.075           144.565            RioGallegos         18070.625
       210   05 Jun 2027 17:30:08.206   05 Jun 2027 17:32:01.479           113.273                Irkutsk         14159.125
       211   05 Jun 2027 17:32:13.010   05 Jun 2027 17:34:29.160           136.150                Novosib         17018.750
       212   05 Jun 2027 17:43:53.715   05 Jun 2027 17:44:17.753            24.038                Sumatra          3004.750
       213   05 Jun 2027 17:45:37.977   05 Jun 2027 17:48:19.040           161.063                Sumatra         20132.875
       214   05 Jun 2027 19:13:42.938   05 Jun 2027 19:15:15.947            93.009                  Delhi         11626.125
       215   05 Jun 2027 19:18:17.594   05 Jun 2027 19:18:44.570            26.976                  Delhi          3372.000
       216   05 Jun 2027 20:41:05.638   05 Jun 2027 20:41:32.579            26.941              Murmansk1          3367.625
       217   05 Jun 2027 20:44:28.967   05 Jun 2027 20:44:44.420            15.453              Murmansk1          1931.625
       218   05 Jun 2027 20:45:10.431   05 Jun 2027 20:48:36.258           205.827                 Moscow         25728.375
       219   05 Jun 2027 22:16:39.286   05 Jun 2027 22:17:14.886            35.600              Murmansk2          4450.000
       220   05 Jun 2027 22:45:56.017   05 Jun 2027 22:46:03.438             7.421               CapeTown           927.625
       221   06 Jun 2027 04:35:41.738   06 Jun 2027 04:35:53.633            11.895               Magadan1          1486.875
       222   06 Jun 2027 04:35:55.659   06 Jun 2027 04:36:56.982            61.323                Norilsk          7665.375
       223   06 Jun 2027 04:37:13.717   06 Jun 2027 04:37:40.815            27.098                Irkutsk          3387.250
       224   06 Jun 2027 04:37:48.580   06 Jun 2027 04:38:30.324            41.744                Novosib          5218.000
       225   06 Jun 2027 04:38:38.004   06 Jun 2027 04:38:48.196            10.192              Murmansk1          1274.000
       226   06 Jun 2027 04:38:56.617   06 Jun 2027 04:39:18.888            22.271               Magadan1          2783.875
       227   06 Jun 2027 04:39:24.679   06 Jun 2027 04:40:49.550            84.871                Novosib         10608.875
       228   06 Jun 2027 05:49:48.084   06 Jun 2027 05:51:23.423            95.339                Sumatra         11917.375
       229   06 Jun 2027 05:52:38.940   06 Jun 2027 05:54:23.728           104.788                Sumatra         13098.500
       230   06 Jun 2027 06:01:22.088   06 Jun 2027 06:02:47.294            85.206                  Delhi         10650.750
       231   06 Jun 2027 06:12:45.675   06 Jun 2027 06:13:08.176            22.501              Murmansk1          2812.625
       232   06 Jun 2027 06:13:12.015   06 Jun 2027 06:15:51.435           159.420                Irkutsk         19927.500
       233   06 Jun 2027 07:49:30.568   06 Jun 2027 07:50:13.130            42.562              Murmansk1          5320.250
       234   06 Jun 2027 07:50:15.802   06 Jun 2027 07:50:43.638            27.836                 Moscow          3479.500
       235   06 Jun 2027 07:50:55.347   06 Jun 2027 07:51:00.324             4.977                Novosib           622.125
       236   06 Jun 2027 07:51:06.484   06 Jun 2027 07:51:48.132            41.648                Norilsk          5206.000
       237   06 Jun 2027 07:52:43.057   06 Jun 2027 07:53:18.745            35.688              Murmansk2          4461.000
       238   06 Jun 2027 09:13:44.548   06 Jun 2027 09:14:27.088            42.540                  Delhi          5317.500
       239   06 Jun 2027 09:21:13.822   06 Jun 2027 09:21:54.343            40.521                 Moscow          5065.125
       240   06 Jun 2027 09:21:55.371   06 Jun 2027 09:22:48.164            52.793              Murmansk2          6599.125
       241   06 Jun 2027 09:23:07.236   06 Jun 2027 09:23:50.426            43.190                Novosib          5398.750
       242   06 Jun 2027 09:23:53.381   06 Jun 2027 09:24:13.726            20.345                 Moscow          2543.125
       243   06 Jun 2027 09:24:32.315   06 Jun 2027 09:25:23.815            51.500              Murmansk2          6437.500
       244   06 Jun 2027 09:25:31.338   06 Jun 2027 09:26:34.313            62.975                Norilsk          7871.875
       245   06 Jun 2027 09:26:46.455   06 Jun 2027 09:27:21.742            35.287                 Moscow          4410.875
       246   06 Jun 2027 09:27:28.876   06 Jun 2027 09:27:39.854            10.978              Murmansk1          1372.250
       247   06 Jun 2027 09:27:44.528   06 Jun 2027 09:28:02.148            17.620              Murmansk1          2202.500
       248   06 Jun 2027 09:28:13.235   06 Jun 2027 09:28:53.392            40.157                Norilsk          5019.625
       249   06 Jun 2027 09:28:53.515   06 Jun 2027 09:28:58.967             5.452              Murmansk2           681.500
       250   06 Jun 2027 09:29:47.172   06 Jun 2027 09:30:02.470            15.298                 Moscow          1912.250
       251   06 Jun 2027 10:33:53.467   06 Jun 2027 10:36:53.216           179.749               CapeTown         22468.625
       252   06 Jun 2027 11:13:01.586   06 Jun 2027 11:17:00.744           239.158                Anadyr2         29894.750
       253   06 Jun 2027 11:17:47.558   06 Jun 2027 11:18:54.020            66.462                Anadyr2          8307.750
       254   06 Jun 2027 12:52:36.089   06 Jun 2027 12:55:54.568           198.479               Magadan2         24809.875
       255   06 Jun 2027 14:27:59.956   06 Jun 2027 14:28:14.197            14.241               Magadan2          1780.125
       256   06 Jun 2027 14:31:08.728   06 Jun 2027 14:31:59.156            50.428               Magadan1          6303.500
       257   06 Jun 2027 16:09:15.920   06 Jun 2027 16:12:29.692           193.772                Irkutsk         24221.500
       258   06 Jun 2027 16:54:24.394   06 Jun 2027 16:55:42.064            77.670            RioGallegos          9708.750
       259   06 Jun 2027 16:56:59.738   06 Jun 2027 16:58:12.501            72.763            RioGallegos          9095.375
       260   06 Jun 2027 17:42:02.792   06 Jun 2027 17:44:23.401           140.609                Irkutsk         17576.125
       261   06 Jun 2027 17:46:28.712   06 Jun 2027 17:49:40.630           191.918                Novosib         23989.750
       262   06 Jun 2027 19:25:27.878   06 Jun 2027 19:29:42.241           254.363                  Delhi         31795.375
       263   06 Jun 2027 20:56:42.749   06 Jun 2027 20:59:59.646           196.897                 Moscow         24612.125
       264   07 Jun 2027 03:11:07.192   07 Jun 2027 03:11:38.370            31.178               Magadan1          3897.250
       265   07 Jun 2027 03:11:51.539   07 Jun 2027 03:12:12.377            20.838                Anadyr2          2604.750
       266   07 Jun 2027 03:12:26.032   07 Jun 2027 03:12:51.594            25.562                Anadyr1          3195.250
       267   07 Jun 2027 03:12:56.403   07 Jun 2027 03:12:59.590             3.187                Anadyr1           398.375
       268   07 Jun 2027 03:13:40.312   07 Jun 2027 03:16:03.838           143.526               Magadan1         17940.750
       269   07 Jun 2027 04:46:26.122   07 Jun 2027 04:46:31.261             5.139                Novosib           642.375
       270   07 Jun 2027 04:46:40.006   07 Jun 2027 04:47:16.543            36.537               Magadan2          4567.125
       271   07 Jun 2027 04:47:16.543   07 Jun 2027 04:47:44.608            28.065               Magadan1          3508.125
       272   07 Jun 2027 04:47:58.219   07 Jun 2027 04:49:41.401           103.182               Magadan1         12897.750
       273   07 Jun 2027 04:49:57.587   07 Jun 2027 04:50:50.169            52.582               Magadan1          6572.750
       274   07 Jun 2027 04:51:23.622   07 Jun 2027 04:52:24.071            60.449                Novosib          7556.125
       275   07 Jun 2027 04:52:57.191   07 Jun 2027 04:53:12.698            15.507                Novosib          1938.375
       276   07 Jun 2027 05:26:51.228   07 Jun 2027 05:27:34.187            42.959            RioGallegos          5369.875
       277   07 Jun 2027 06:01:41.245   07 Jun 2027 06:03:17.446            96.201                Sumatra         12025.125
       278   07 Jun 2027 06:12:26.797   07 Jun 2027 06:15:04.814           158.017                  Delhi         19752.125
       279   07 Jun 2027 06:24:33.900   07 Jun 2027 06:27:32.075           178.175                Irkutsk         22271.875
       280   07 Jun 2027 06:28:08.272   07 Jun 2027 06:28:41.601            33.329              Murmansk1          4166.125
       281   07 Jun 2027 07:45:52.279   07 Jun 2027 07:46:41.490            49.211                  Delhi          6151.375
       282   07 Jun 2027 08:00:55.788   07 Jun 2027 08:01:11.773            15.985              Murmansk1          1998.125
       283   07 Jun 2027 08:01:31.707   07 Jun 2027 08:02:34.900            63.193              Murmansk2          7899.125
       284   07 Jun 2027 08:02:34.900   07 Jun 2027 08:02:46.049            11.149              Murmansk1          1393.625
       285   07 Jun 2027 08:02:53.937   07 Jun 2027 08:03:00.674             6.737                Novosib           842.125
       286   07 Jun 2027 08:03:09.091   07 Jun 2027 08:03:56.130            47.039              Murmansk2          5879.875
       287   07 Jun 2027 08:04:39.044   07 Jun 2027 08:05:20.183            41.139              Murmansk2          5142.375
       288   07 Jun 2027 09:33:32.953   07 Jun 2027 09:34:38.236            65.283                 Moscow          8160.375
       289   07 Jun 2027 09:34:41.554   07 Jun 2027 09:34:52.469            10.915              Murmansk1          1364.375
       290   07 Jun 2027 09:34:59.705   07 Jun 2027 09:35:38.994            39.289                 Moscow          4911.125
       291   07 Jun 2027 09:35:49.938   07 Jun 2027 09:36:19.560            29.622              Murmansk2          3702.750
       292   07 Jun 2027 09:36:34.222   07 Jun 2027 09:37:44.042            69.820              Murmansk2          8727.500
       293   07 Jun 2027 09:38:10.172   07 Jun 2027 09:40:32.818           142.646                 Moscow         17830.750
       294   07 Jun 2027 10:45:15.280   07 Jun 2027 10:48:40.324           205.044               CapeTown         25630.500
       295   07 Jun 2027 10:53:08.831   07 Jun 2027 10:53:10.059             1.228               CapeTown           153.500
       296   07 Jun 2027 11:24:53.088   07 Jun 2027 11:30:16.296           323.208                Anadyr2         40401.000
       297   07 Jun 2027 13:04:03.728   07 Jun 2027 13:07:15.390           191.662               Magadan1         23957.750
       298   07 Jun 2027 16:20:09.911   07 Jun 2027 16:25:48.474           338.563                Irkutsk         42320.375
       299   07 Jun 2027 16:37:17.493   07 Jun 2027 16:38:24.443            66.950                Sumatra          8368.750
       300   07 Jun 2027 16:39:18.187   07 Jun 2027 16:39:52.684            34.497                Sumatra          4312.125
       301   07 Jun 2027 17:55:07.442   07 Jun 2027 17:58:29.013           201.571                Novosib         25196.375
       302   07 Jun 2027 19:39:20.627   07 Jun 2027 19:40:59.628            99.001                  Delhi         12375.125
       303   07 Jun 2027 21:04:12.300   07 Jun 2027 21:05:30.584            78.284              Murmansk1          9785.500
       304   07 Jun 2027 21:08:23.459   07 Jun 2027 21:12:00.480           217.021                 Moscow         27127.625
       305   07 Jun 2027 21:37:31.170   07 Jun 2027 21:38:12.381            41.211               CapeTown          5151.375
       306   07 Jun 2027 23:10:20.400   07 Jun 2027 23:10:30.881            10.481               CapeTown          1310.125
       307   08 Jun 2027 03:22:23.976   08 Jun 2027 03:23:40.608            76.632                Anadyr2          9579.000
       308   08 Jun 2027 03:23:47.306   08 Jun 2027 03:23:59.403            12.097                Anadyr2          1512.125
       309   08 Jun 2027 03:24:14.842   08 Jun 2027 03:24:48.339            33.497                Anadyr2          4187.125
       310   08 Jun 2027 03:24:53.750   08 Jun 2027 03:26:19.570            85.820                Anadyr2         10727.500
       311   08 Jun 2027 03:27:08.448   08 Jun 2027 03:27:43.449            35.001                Anadyr2          4375.125
       312   08 Jun 2027 04:41:58.608   08 Jun 2027 04:42:42.624            44.016                Sumatra          5502.000
       313   08 Jun 2027 04:58:40.987   08 Jun 2027 04:59:08.447            27.460               Magadan2          3432.500
       314   08 Jun 2027 04:59:12.379   08 Jun 2027 05:01:15.804           123.425                Irkutsk         15428.125
       315   08 Jun 2027 05:02:00.643   08 Jun 2027 05:02:37.628            36.985               Magadan1          4623.125
       316   08 Jun 2027 05:02:41.129   08 Jun 2027 05:03:36.914            55.785                Novosib          6973.125
       317   08 Jun 2027 05:04:22.874   08 Jun 2027 05:04:39.630            16.756                Norilsk          2094.500
       318   08 Jun 2027 05:39:01.449   08 Jun 2027 05:39:38.174            36.725            RioGallegos          4590.625
       319   08 Jun 2027 06:13:40.043   08 Jun 2027 06:16:10.186           150.143                Sumatra         18767.875
       320   08 Jun 2027 06:24:56.417   08 Jun 2027 06:26:48.933           112.516                  Delhi         14064.500
       321   08 Jun 2027 06:36:06.594   08 Jun 2027 06:36:40.591            33.997                Norilsk          4249.625
       322   08 Jun 2027 06:36:45.645   08 Jun 2027 06:37:06.160            20.515              Murmansk1          2564.375
       323   08 Jun 2027 06:37:23.157   08 Jun 2027 06:39:45.435           142.278                Irkutsk         17784.750
       324   08 Jun 2027 07:58:00.657   08 Jun 2027 07:59:17.372            76.715                  Delhi          9589.375
       325   08 Jun 2027 08:12:41.400   08 Jun 2027 08:13:58.270            76.870              Murmansk2          9608.750
       326   08 Jun 2027 08:14:06.467   08 Jun 2027 08:14:31.298            24.831              Murmansk1          3103.875
       327   08 Jun 2027 08:14:34.536   08 Jun 2027 08:15:07.243            32.707              Murmansk1          4088.375
       328   08 Jun 2027 08:15:10.327   08 Jun 2027 08:15:34.679            24.352                 Moscow          3044.000
       329   08 Jun 2027 09:45:34.693   08 Jun 2027 09:46:04.194            29.501                 Moscow          3687.625
       330   08 Jun 2027 09:46:21.468   08 Jun 2027 09:47:39.528            78.060              Murmansk1          9757.500
       331   08 Jun 2027 09:48:06.790   08 Jun 2027 09:49:44.385            97.595              Murmansk1         12199.375
       332   08 Jun 2027 09:49:52.175   08 Jun 2027 09:50:09.525            17.350                 Moscow          2168.750
       333   08 Jun 2027 09:50:36.396   08 Jun 2027 09:52:55.941           139.545                 Moscow         17443.125
       334   08 Jun 2027 10:56:48.282   08 Jun 2027 11:00:33.897           225.615               CapeTown         28201.875
       335   08 Jun 2027 11:02:46.586   08 Jun 2027 11:03:35.534            48.948               CapeTown          6118.500
       336   08 Jun 2027 11:36:46.883   08 Jun 2027 11:38:45.937           119.054                Anadyr2         14881.750
       337   08 Jun 2027 11:38:45.937   08 Jun 2027 11:39:30.531            44.594                Anadyr1          5574.250
       338   08 Jun 2027 11:39:30.531   08 Jun 2027 11:39:40.112             9.581                Anadyr2          1197.625
       339   08 Jun 2027 11:41:02.688   08 Jun 2027 11:41:09.645             6.957                Anadyr1           869.625
       340   08 Jun 2027 11:44:15.942   08 Jun 2027 11:45:48.456            92.514                Anadyr1         11564.250
       341   08 Jun 2027 13:15:42.740   08 Jun 2027 13:20:27.581           284.841               Magadan2         35605.125
       342   08 Jun 2027 15:45:48.767   08 Jun 2027 15:47:43.840           115.073            RioGallegos         14384.125
       343   08 Jun 2027 16:31:34.255   08 Jun 2027 16:34:35.689           181.434                Irkutsk         22679.250
       344   08 Jun 2027 16:37:53.247   08 Jun 2027 16:39:13.235            79.988                Irkutsk          9998.500
       345   08 Jun 2027 16:51:03.219   08 Jun 2027 16:53:08.657           125.438                Sumatra         15679.750
       346   08 Jun 2027 18:08:34.945   08 Jun 2027 18:10:29.981           115.036                Novosib         14379.500
       347   08 Jun 2027 21:16:11.685   08 Jun 2027 21:17:19.053            67.368              Murmansk2          8421.000
       348   08 Jun 2027 21:20:09.299   08 Jun 2027 21:22:15.258           125.959                 Moscow         15744.875
       349   08 Jun 2027 21:22:42.204   08 Jun 2027 21:24:01.925            79.721                 Moscow          9965.125
       350   08 Jun 2027 21:26:22.352   08 Jun 2027 21:27:19.728            57.376                 Moscow          7172.000
       351   08 Jun 2027 21:46:55.930   08 Jun 2027 21:48:02.303            66.373               CapeTown          8296.625
       352   08 Jun 2027 21:50:32.128   08 Jun 2027 21:52:44.003           131.875               CapeTown         16484.375
       353   09 Jun 2027 03:35:52.738   09 Jun 2027 03:36:23.808            31.070               Magadan1          3883.750
       354   09 Jun 2027 03:36:43.793   09 Jun 2027 03:38:20.310            96.517                Anadyr2         12064.625
       355   09 Jun 2027 03:38:43.660   09 Jun 2027 03:39:54.399            70.739               Magadan2          8842.375
       356   09 Jun 2027 03:40:01.689   09 Jun 2027 03:40:10.858             9.169               Magadan2          1146.125
       357   09 Jun 2027 05:11:12.316   09 Jun 2027 05:11:50.893            38.577                Irkutsk          4822.125
       358   09 Jun 2027 05:11:59.378   09 Jun 2027 05:12:07.849             8.471               Magadan2          1058.875
       359   09 Jun 2027 05:12:19.476   09 Jun 2027 05:12:47.963            28.487                Norilsk          3560.875
       360   09 Jun 2027 05:12:54.459   09 Jun 2027 05:13:35.729            41.270                Irkutsk          5158.750
       361   09 Jun 2027 05:13:46.422   09 Jun 2027 05:15:42.226           115.804                Irkutsk         14475.500
       362   09 Jun 2027 05:51:15.513   09 Jun 2027 05:51:31.823            16.310            RioGallegos          2038.750
       363   09 Jun 2027 05:54:42.955   09 Jun 2027 05:55:29.988            47.033            RioGallegos          5879.125
       364   09 Jun 2027 06:25:44.440   09 Jun 2027 06:26:24.127            39.687                Sumatra          4960.875
       365   09 Jun 2027 06:35:11.624   09 Jun 2027 06:36:26.138            74.514                  Delhi          9314.250
       366   09 Jun 2027 06:48:02.330   09 Jun 2027 06:48:07.692             5.362                Norilsk           670.250
       367   09 Jun 2027 06:48:21.821   09 Jun 2027 06:49:37.186            75.365              Murmansk1          9420.625
       368   09 Jun 2027 06:49:47.511   09 Jun 2027 06:50:17.953            30.442                 Moscow          3805.250
       369   09 Jun 2027 06:50:33.087   09 Jun 2027 06:53:06.340           153.253                Novosib         19156.625
       370   09 Jun 2027 08:10:14.979   09 Jun 2027 08:10:58.797            43.818                  Delhi          5477.250
       371   09 Jun 2027 08:23:44.563   09 Jun 2027 08:24:06.450            21.887                Norilsk          2735.875
       372   09 Jun 2027 08:24:28.500   09 Jun 2027 08:25:57.339            88.839                Novosib         11104.875
       373   09 Jun 2027 08:26:02.747   09 Jun 2027 08:26:29.006            26.259              Murmansk1          3282.375
       374   09 Jun 2027 08:26:41.194   09 Jun 2027 08:28:00.628            79.434                 Moscow          9929.250
       375   09 Jun 2027 09:58:08.368   09 Jun 2027 09:58:38.422            30.054                 Moscow          3756.750
       376   09 Jun 2027 09:58:54.036   09 Jun 2027 09:59:21.638            27.602                 Moscow          3450.250
       377   09 Jun 2027 09:59:44.981   09 Jun 2027 10:01:06.537            81.556                 Moscow         10194.500
       378   09 Jun 2027 10:01:35.934   09 Jun 2027 10:02:21.716            45.782                 Moscow          5722.750
       379   09 Jun 2027 10:02:38.987   09 Jun 2027 10:04:11.429            92.442                 Moscow         11555.250
       380   09 Jun 2027 11:08:28.632   09 Jun 2027 11:12:29.415           240.783               CapeTown         30097.875
       381   09 Jun 2027 11:12:55.362   09 Jun 2027 11:14:20.964            85.602               CapeTown         10700.250
       382   09 Jun 2027 11:48:42.359   09 Jun 2027 11:50:42.570           120.211                Anadyr1         15026.375
       383   09 Jun 2027 11:51:00.519   09 Jun 2027 11:52:19.732            79.213                Anadyr2          9901.625
       384   09 Jun 2027 13:27:27.854   09 Jun 2027 13:32:56.496           328.642               Magadan2         41080.250
       385   09 Jun 2027 15:56:27.824   09 Jun 2027 15:59:28.217           180.393            RioGallegos         22549.125
       386   09 Jun 2027 16:43:10.225   09 Jun 2027 16:46:36.828           206.603                Irkutsk         25825.375
       387   09 Jun 2027 16:58:04.782   09 Jun 2027 17:00:47.530           162.748                Sumatra         20343.500
       388   09 Jun 2027 17:03:15.054   09 Jun 2027 17:06:52.103           217.049                Sumatra         27131.125
       389   09 Jun 2027 18:28:32.306   09 Jun 2027 18:29:56.702            84.396                  Delhi         10549.500
       390   09 Jun 2027 21:35:47.495   09 Jun 2027 21:38:41.895           174.400                 Moscow         21800.000
       391   09 Jun 2027 21:58:01.338   09 Jun 2027 22:00:15.292           133.954               CapeTown         16744.250
       392   09 Jun 2027 22:02:57.737   09 Jun 2027 22:04:40.823           103.086               CapeTown         12885.750
       393   10 Jun 2027 03:48:47.628   10 Jun 2027 03:49:03.052            15.424               Magadan2          1928.000
       394   10 Jun 2027 03:49:27.301   10 Jun 2027 03:50:21.303            54.002                Anadyr1          6750.250
       395   10 Jun 2027 03:50:37.253   10 Jun 2027 03:50:53.143            15.890                Anadyr1          1986.250
       396   10 Jun 2027 03:51:01.929   10 Jun 2027 03:52:07.026            65.097               Magadan2          8137.125
       397   10 Jun 2027 05:03:40.430   10 Jun 2027 05:06:40.714           180.284                Sumatra         22535.500
       398   10 Jun 2027 05:24:03.258   10 Jun 2027 05:24:15.444            12.186                Irkutsk          1523.250
       399   10 Jun 2027 05:24:20.031   10 Jun 2027 05:24:43.744            23.713                Norilsk          2964.125
       400   10 Jun 2027 05:24:54.231   10 Jun 2027 05:26:27.679            93.448                Irkutsk         11681.000
       401   10 Jun 2027 05:26:51.869   10 Jun 2027 05:27:05.517            13.648                Norilsk          1706.000
       402   10 Jun 2027 05:27:12.135   10 Jun 2027 05:27:44.127            31.992                Norilsk          3999.000
       403   10 Jun 2027 05:27:53.616   10 Jun 2027 05:28:12.478            18.862                Irkutsk          2357.750
       404   10 Jun 2027 06:06:44.653   10 Jun 2027 06:07:18.267            33.614            RioGallegos          4201.750
       405   10 Jun 2027 06:37:54.698   10 Jun 2027 06:39:05.920            71.222                Sumatra          8902.750
       406   10 Jun 2027 06:48:44.605   10 Jun 2027 06:50:38.214           113.609                  Delhi         14201.125
       407   10 Jun 2027 07:00:48.234   10 Jun 2027 07:01:19.450            31.216              Murmansk2          3902.000
       408   10 Jun 2027 07:01:29.900   10 Jun 2027 07:02:21.528            51.628                 Moscow          6453.500
       409   10 Jun 2027 07:02:32.266   10 Jun 2027 07:02:48.921            16.655              Murmansk1          2081.875
       410   10 Jun 2027 07:02:48.921   10 Jun 2027 07:03:24.582            35.661              Murmansk2          4457.625
       411   10 Jun 2027 07:03:27.449   10 Jun 2027 07:03:35.656             8.207                Novosib          1025.875
       412   10 Jun 2027 07:03:37.178   10 Jun 2027 07:03:58.593            21.415                Norilsk          2676.875
       413   10 Jun 2027 07:03:59.244   10 Jun 2027 07:04:57.254            58.010                Novosib          7251.250
       414   10 Jun 2027 08:22:35.996   10 Jun 2027 08:22:46.009            10.013                  Delhi          1251.625
       415   10 Jun 2027 08:25:04.220   10 Jun 2027 08:25:40.878            36.658                  Delhi          4582.250
       416   10 Jun 2027 08:35:40.328   10 Jun 2027 08:36:08.325            27.997                Norilsk          3499.625
       417   10 Jun 2027 08:36:27.886   10 Jun 2027 08:37:58.544            90.658                Novosib         11332.250
       418   10 Jun 2027 08:38:08.916   10 Jun 2027 08:38:24.786            15.870                Norilsk          1983.750
       419   10 Jun 2027 08:38:25.267   10 Jun 2027 08:38:38.938            13.671                 Moscow          1708.875
       420   10 Jun 2027 08:38:48.621   10 Jun 2027 08:39:13.683            25.062                Norilsk          3132.750
       421   10 Jun 2027 08:39:20.631   10 Jun 2027 08:40:03.872            43.241                Norilsk          5405.125
       422   10 Jun 2027 10:13:06.822   10 Jun 2027 10:13:45.833            39.011              Murmansk1          4876.375
       423   10 Jun 2027 10:14:05.480   10 Jun 2027 10:14:41.067            35.587                 Moscow          4448.375
       424   10 Jun 2027 10:14:55.963   10 Jun 2027 10:15:27.871            31.908              Murmansk1          3988.500
       425   10 Jun 2027 10:27:15.281   10 Jun 2027 10:28:50.652            95.371                Anadyr1         11921.375
       426   10 Jun 2027 11:20:14.371   10 Jun 2027 11:22:22.138           127.767               CapeTown         15970.875
       427   10 Jun 2027 11:24:27.881   10 Jun 2027 11:26:12.136           104.255               CapeTown         13031.875
       428   10 Jun 2027 12:00:39.111   10 Jun 2027 12:05:02.427           263.316                Anadyr1         32914.500
       429   10 Jun 2027 13:39:16.887   10 Jun 2027 13:43:17.015           240.128               Magadan2         30016.000
       430   10 Jun 2027 16:07:48.273   10 Jun 2027 16:11:16.501           208.228            RioGallegos         26028.500
       431   10 Jun 2027 16:14:00.652   10 Jun 2027 16:15:16.892            76.240            RioGallegos          9530.000
       432   10 Jun 2027 16:57:04.153   10 Jun 2027 16:58:53.097           108.944                Irkutsk         13618.000
       433   10 Jun 2027 17:09:19.865   10 Jun 2027 17:13:51.726           271.861                Sumatra         33982.625
       434   10 Jun 2027 17:17:21.985   10 Jun 2027 17:17:23.858             1.873                Sumatra           234.125
       435   10 Jun 2027 18:34:28.211   10 Jun 2027 18:34:40.598            12.387                Novosib          1548.375
       436   10 Jun 2027 18:35:57.629   10 Jun 2027 18:36:07.841            10.212                Novosib          1276.500
       437   10 Jun 2027 18:37:45.651   10 Jun 2027 18:39:17.253            91.602                Novosib         11450.250
       438   10 Jun 2027 18:39:28.125   10 Jun 2027 18:42:05.778           157.653                  Delhi         19706.625
       439   10 Jun 2027 21:42:34.099   10 Jun 2027 21:44:49.696           135.597              Murmansk1         16949.625
       440   10 Jun 2027 21:44:59.444   10 Jun 2027 21:45:19.470            20.026              Murmansk2          2503.250
       441   10 Jun 2027 21:48:06.471   10 Jun 2027 21:48:38.705            32.234                 Moscow          4029.250
       442   10 Jun 2027 21:51:16.253   10 Jun 2027 21:52:48.653            92.400                 Moscow         11550.000
       443   10 Jun 2027 22:09:23.710   10 Jun 2027 22:10:19.974            56.264               CapeTown          7033.000
       444   11 Jun 2027 04:02:02.100   11 Jun 2027 04:02:17.476            15.376               Magadan1          1922.000
       445   11 Jun 2027 04:02:52.426   11 Jun 2027 04:04:01.827            69.401               Magadan2          8675.125
       446   11 Jun 2027 04:38:59.613   11 Jun 2027 04:39:19.843            20.230            RioGallegos          2528.750
       447   11 Jun 2027 04:47:07.318   11 Jun 2027 04:47:22.270            14.952            RioGallegos          1869.000
       448   11 Jun 2027 04:47:39.052   11 Jun 2027 04:48:31.204            52.152            RioGallegos          6519.000
       449   11 Jun 2027 05:15:02.379   11 Jun 2027 05:15:46.853            44.474                Sumatra          5559.250
       450   11 Jun 2027 05:17:37.786   11 Jun 2027 05:18:31.660            53.874                Sumatra          6734.250
       451   11 Jun 2027 05:36:03.549   11 Jun 2027 05:36:57.220            53.671                Irkutsk          6708.875
       452   11 Jun 2027 05:37:10.705   11 Jun 2027 05:39:08.760           118.055                Novosib         14756.875
       453   11 Jun 2027 05:39:35.360   11 Jun 2027 05:40:00.730            25.370                Novosib          3171.250
       454   11 Jun 2027 05:41:28.852   11 Jun 2027 05:41:39.375            10.523                Novosib          1315.375
       455   11 Jun 2027 06:15:56.535   11 Jun 2027 06:16:11.179            14.644            RioGallegos          1830.500
       456   11 Jun 2027 06:20:41.984   11 Jun 2027 06:20:45.189             3.205            RioGallegos           400.625
       457   11 Jun 2027 06:22:43.819   11 Jun 2027 06:23:04.571            20.752            RioGallegos          2594.000
       458   11 Jun 2027 06:50:11.518   11 Jun 2027 06:50:46.891            35.373                Sumatra          4421.625
       459   11 Jun 2027 07:00:38.209   11 Jun 2027 07:02:39.038           120.829                  Delhi         15103.625
       460   11 Jun 2027 07:13:53.893   11 Jun 2027 07:14:32.988            39.095                Novosib          4886.875
       461   11 Jun 2027 07:14:42.559   11 Jun 2027 07:15:15.549            32.990              Murmansk2          4123.750
       462   11 Jun 2027 07:15:20.615   11 Jun 2027 07:16:09.642            49.027                 Moscow          6128.375
       463   11 Jun 2027 08:35:04.974   11 Jun 2027 08:36:21.567            76.593                  Delhi          9574.125
       464   11 Jun 2027 08:48:10.153   11 Jun 2027 08:50:02.797           112.644                Norilsk         14080.500
       465   11 Jun 2027 08:50:16.387   11 Jun 2027 08:51:10.172            53.785                Novosib          6723.125
       466   11 Jun 2027 08:51:16.957   11 Jun 2027 08:51:31.098            14.141                Novosib          1767.625
       467   11 Jun 2027 08:51:53.055   11 Jun 2027 08:52:15.283            22.228                 Moscow          2778.500
       468   11 Jun 2027 10:38:12.210   11 Jun 2027 10:41:44.405           212.195                Anadyr2         26524.375
       469   11 Jun 2027 11:34:18.384   11 Jun 2027 11:35:34.358            75.974               CapeTown          9496.750
       470   11 Jun 2027 12:12:36.845   11 Jun 2027 12:13:59.575            82.730                Anadyr2         10341.250
       471   11 Jun 2027 12:15:22.612   11 Jun 2027 12:17:06.593           103.981                Anadyr1         12997.625
       472   11 Jun 2027 13:51:08.654   11 Jun 2027 13:54:22.892           194.238               Magadan2         24279.750
       473   11 Jun 2027 13:54:49.505   11 Jun 2027 13:55:26.744            37.239               Magadan1          4654.875
       474   11 Jun 2027 13:56:50.284   11 Jun 2027 13:57:42.403            52.119               Magadan2          6514.875
       475   11 Jun 2027 16:19:22.136   11 Jun 2027 16:26:01.726           399.590            RioGallegos         49948.750
       476   11 Jun 2027 17:10:19.550   11 Jun 2027 17:12:32.223           132.673                Irkutsk         16584.125
       477   11 Jun 2027 17:22:03.658   11 Jun 2027 17:24:29.301           145.643                Sumatra         18205.375
       478   11 Jun 2027 17:24:46.635   11 Jun 2027 17:25:27.512            40.877                Sumatra          5109.625
       479   11 Jun 2027 17:26:42.965   11 Jun 2027 17:27:51.227            68.262                Sumatra          8532.750
       480   11 Jun 2027 18:42:18.465   11 Jun 2027 18:43:43.336            84.871                Novosib         10608.875
       481   11 Jun 2027 18:50:47.140   11 Jun 2027 18:54:09.452           202.312                  Delhi         25289.000
       482   11 Jun 2027 21:55:44.612   11 Jun 2027 21:58:33.299           168.687                 Moscow         21085.875
