uniorb/output/strategy_1/Drop/Drop_KinoSat_111608.txt

KinoSat_111608
-------------------------
    Access    *     Start Time (UTCG)     *     Stop Time (UTCG)  *   Duration (s)        *       Station  *  Data (Mbytes)
         1   01 Jun 2027 04:25:31.957   01 Jun 2027 04:27:10.351            98.394                Novosib          3074.813
         2   01 Jun 2027 04:27:14.744   01 Jun 2027 04:27:40.358            25.614              Murmansk2           800.437
         3   01 Jun 2027 04:27:56.639   01 Jun 2027 04:31:39.969           223.330                 Moscow          6979.062
         4   01 Jun 2027 04:48:03.849   01 Jun 2027 04:48:32.264            28.415               CapeTown           887.969
         5   01 Jun 2027 05:49:13.715   01 Jun 2027 05:49:56.971            43.256                Anadyr2          1351.750
         6   01 Jun 2027 05:50:23.507   01 Jun 2027 05:51:27.106            63.599               Magadan2          1987.469
         7   01 Jun 2027 05:51:57.962   01 Jun 2027 05:53:58.125           120.163               Magadan2          3755.094
         8   01 Jun 2027 05:54:00.169   01 Jun 2027 05:54:27.596            27.427                Anadyr1           857.094
         9   01 Jun 2027 06:00:38.983   01 Jun 2027 06:02:41.693           122.710              Murmansk1          3834.688
        10   01 Jun 2027 06:03:40.053   01 Jun 2027 06:04:35.547            55.494                 Moscow          1734.187
        11   01 Jun 2027 07:24:37.802   01 Jun 2027 07:25:14.175            36.373                Anadyr1          1136.656
        12   01 Jun 2027 07:25:31.864   01 Jun 2027 07:29:30.413           238.549               Magadan2          7454.656
        13   01 Jun 2027 07:29:30.413   01 Jun 2027 07:29:32.872             2.459               Magadan1            76.844
        14   01 Jun 2027 08:57:59.700   01 Jun 2027 08:58:37.201            37.501                Irkutsk          1171.906
        15   01 Jun 2027 08:59:17.875   01 Jun 2027 09:05:34.825           376.950                Anadyr1         11779.687
        16   01 Jun 2027 10:36:07.849   01 Jun 2027 10:40:37.754           269.905               Magadan1          8434.531
        17   01 Jun 2027 10:40:54.094   01 Jun 2027 10:41:40.155            46.061                Irkutsk          1439.406
        18   01 Jun 2027 12:57:14.691   01 Jun 2027 12:59:25.179           130.488            RioGallegos          4077.750
        19   01 Jun 2027 13:34:12.232   01 Jun 2027 13:34:33.934            21.702                Sumatra           678.188
        20   01 Jun 2027 13:47:40.709   01 Jun 2027 13:49:49.071           128.362                Irkutsk          4011.313
        21   01 Jun 2027 15:27:00.450   01 Jun 2027 15:28:13.198            72.748                Norilsk          2273.375
        22   01 Jun 2027 15:30:36.577   01 Jun 2027 15:32:30.942           114.365                Norilsk          3573.906
        23   01 Jun 2027 16:40:59.572   01 Jun 2027 16:41:33.345            33.773               CapeTown          1055.406
        24   01 Jun 2027 16:57:03.574   01 Jun 2027 16:58:02.657            59.083                 Moscow          1846.344
        25   01 Jun 2027 16:59:42.722   01 Jun 2027 17:01:07.335            84.613                 Moscow          2644.156
        26   01 Jun 2027 17:03:36.884   01 Jun 2027 17:03:38.474             1.590                 Moscow            49.688
        27   01 Jun 2027 17:04:40.420   01 Jun 2027 17:05:23.589            43.169              Murmansk1          1349.031
        28   01 Jun 2027 17:06:53.739   01 Jun 2027 17:06:59.425             5.686                 Moscow           177.688
        29   01 Jun 2027 17:07:55.249   01 Jun 2027 17:08:29.646            34.397              Murmansk2          1074.906
        30   01 Jun 2027 17:14:27.083   01 Jun 2027 17:14:55.912            28.829                Anadyr2           900.906
        31   01 Jun 2027 17:16:09.667   01 Jun 2027 17:16:50.514            40.847                Anadyr1          1276.469
        32   01 Jun 2027 17:19:13.749   01 Jun 2027 17:19:28.477            14.728                Anadyr1           460.250
        33   01 Jun 2027 17:20:15.761   01 Jun 2027 17:20:30.895            15.134                Anadyr1           472.937
        34   01 Jun 2027 17:23:19.376   01 Jun 2027 17:23:33.807            14.431                Anadyr2           450.969
        35   01 Jun 2027 18:15:09.741   01 Jun 2027 18:15:43.091            33.350               CapeTown          1042.188
        36   01 Jun 2027 18:39:26.227   01 Jun 2027 18:40:09.508            43.281              Murmansk2          1352.531
        37   01 Jun 2027 18:40:37.428   01 Jun 2027 18:44:43.747           246.319              Murmansk1          7697.469
        38   01 Jun 2027 18:45:10.143   01 Jun 2027 18:46:22.500            72.357              Murmansk2          2261.156
        39   01 Jun 2027 18:58:33.417   01 Jun 2027 18:59:07.689            34.272               Magadan1          1071.000
        40   01 Jun 2027 19:48:30.825   01 Jun 2027 19:48:47.136            16.311               CapeTown           509.719
        41   01 Jun 2027 19:49:07.408   01 Jun 2027 19:49:15.536             8.128               CapeTown           254.000
        42   01 Jun 2027 19:51:30.163   01 Jun 2027 19:52:16.538            46.375               CapeTown          1449.219
        43   01 Jun 2027 20:25:52.658   01 Jun 2027 20:27:30.070            97.412                Anadyr1          3044.125
        44   01 Jun 2027 20:27:49.063   01 Jun 2027 20:29:32.851           103.788                Anadyr2          3243.375
        45   01 Jun 2027 20:29:52.656   01 Jun 2027 20:31:54.881           122.225               Magadan2          3819.531
        46   01 Jun 2027 20:34:58.720   01 Jun 2027 20:35:02.172             3.452               Magadan1           107.875
        47   01 Jun 2027 20:36:27.848   01 Jun 2027 20:36:34.637             6.789               Magadan2           212.156
        48   01 Jun 2027 20:36:44.327   01 Jun 2027 20:37:13.645            29.318               Magadan1           916.188
        49   01 Jun 2027 22:01:45.134   01 Jun 2027 22:03:50.006           124.872                Anadyr1          3902.250
        50   01 Jun 2027 22:03:58.743   01 Jun 2027 22:07:49.545           230.802                Norilsk          7212.563
        51   01 Jun 2027 22:07:56.194   01 Jun 2027 22:09:22.057            85.863               Magadan1          2683.219
        52   01 Jun 2027 22:11:39.154   01 Jun 2027 22:12:02.572            23.418                Irkutsk           731.812
        53   01 Jun 2027 22:14:47.317   01 Jun 2027 22:15:05.802            18.485                Irkutsk           577.656
        54   01 Jun 2027 22:26:00.130   01 Jun 2027 22:26:53.718            53.588                Sumatra          1674.625
        55   01 Jun 2027 22:28:16.527   01 Jun 2027 22:29:26.062            69.535                Sumatra          2172.969
        56   01 Jun 2027 23:05:03.969   01 Jun 2027 23:05:13.190             9.221            RioGallegos           288.156
        57   01 Jun 2027 23:37:11.558   01 Jun 2027 23:37:44.360            32.802                Anadyr1          1025.062
        58   01 Jun 2027 23:37:51.812   01 Jun 2027 23:39:32.679           100.867                Anadyr2          3152.094
        59   01 Jun 2027 23:39:35.860   01 Jun 2027 23:39:53.876            18.016                Norilsk           563.000
        60   01 Jun 2027 23:40:11.138   01 Jun 2027 23:41:12.330            61.192               Magadan1          1912.250
        61   01 Jun 2027 23:41:12.864   01 Jun 2027 23:41:18.296             5.432                Norilsk           169.750
        62   01 Jun 2027 23:42:14.334   01 Jun 2027 23:42:30.298            15.964               Magadan1           498.875
        63   01 Jun 2027 23:43:15.257   01 Jun 2027 23:43:51.086            35.829               Magadan1          1119.656
        64   01 Jun 2027 23:44:37.153   01 Jun 2027 23:45:45.233            68.080                Novosib          2127.500
        65   01 Jun 2027 23:46:59.904   01 Jun 2027 23:47:06.780             6.876                Novosib           214.875
        66   01 Jun 2027 23:47:49.969   01 Jun 2027 23:48:22.577            32.608                Novosib          1019.000
        67   01 Jun 2027 23:49:54.907   01 Jun 2027 23:50:18.676            23.769                Novosib           742.781
        68   01 Jun 2027 23:52:04.930   01 Jun 2027 23:53:10.987            66.057                Novosib          2064.281
        69   02 Jun 2027 00:06:33.083   02 Jun 2027 00:06:48.550            15.467                Sumatra           483.344
        70   02 Jun 2027 00:33:25.407   02 Jun 2027 00:33:42.030            16.623            RioGallegos           519.469
        71   02 Jun 2027 00:34:26.756   02 Jun 2027 00:34:38.595            11.839            RioGallegos           369.969
        72   02 Jun 2027 00:36:45.533   02 Jun 2027 00:36:54.869             9.336            RioGallegos           291.750
        73   02 Jun 2027 00:37:20.018   02 Jun 2027 00:37:36.407            16.389            RioGallegos           512.156
        74   02 Jun 2027 00:39:20.806   02 Jun 2027 00:40:36.577            75.771            RioGallegos          2367.844
        75   02 Jun 2027 01:12:11.600   02 Jun 2027 01:12:47.884            36.284                Anadyr2          1133.875
        76   02 Jun 2027 01:13:21.917   02 Jun 2027 01:13:45.792            23.875                Anadyr1           746.094
        77   02 Jun 2027 01:14:28.503   02 Jun 2027 01:14:33.150             4.647                Anadyr2           145.219
        78   02 Jun 2027 01:15:35.861   02 Jun 2027 01:17:17.392           101.531                Norilsk          3172.844
        79   02 Jun 2027 01:18:25.114   02 Jun 2027 01:18:39.665            14.551               Magadan2           454.719
        80   02 Jun 2027 01:19:10.214   02 Jun 2027 01:19:37.421            27.207              Murmansk1           850.219
        81   02 Jun 2027 01:19:44.153   02 Jun 2027 01:19:56.210            12.057              Murmansk1           376.781
        82   02 Jun 2027 01:20:01.715   02 Jun 2027 01:21:13.149            71.434                Novosib          2232.313
        83   02 Jun 2027 01:22:29.872   02 Jun 2027 01:22:38.809             8.937                Irkutsk           279.281
        84   02 Jun 2027 01:23:12.696   02 Jun 2027 01:23:23.896            11.200                Novosib           350.000
        85   02 Jun 2027 01:26:47.180   02 Jun 2027 01:27:27.284            40.104                Novosib          1253.250
        86   02 Jun 2027 01:30:28.924   02 Jun 2027 01:30:51.150            22.226                  Delhi           694.562
        87   02 Jun 2027 01:34:22.368   02 Jun 2027 01:34:46.126            23.758                  Delhi           742.437
        88   02 Jun 2027 02:08:17.180   02 Jun 2027 02:09:20.935            63.755            RioGallegos          1992.344
        89   02 Jun 2027 02:10:33.335   02 Jun 2027 02:11:18.262            44.927            RioGallegos          1403.969
        90   02 Jun 2027 02:12:38.840   02 Jun 2027 02:13:33.466            54.626            RioGallegos          1707.062
        91   02 Jun 2027 02:45:56.798   02 Jun 2027 02:46:44.239            47.441                Anadyr1          1482.531
        92   02 Jun 2027 02:49:00.942   02 Jun 2027 02:50:14.456            73.514                Anadyr2          2297.312
        93   02 Jun 2027 02:52:19.444   02 Jun 2027 02:52:57.493            38.049                Norilsk          1189.031
        94   02 Jun 2027 02:53:48.747   02 Jun 2027 02:55:10.108            81.361              Murmansk1          2542.531
        95   02 Jun 2027 02:55:26.368   02 Jun 2027 02:56:08.605            42.237                Novosib          1319.906
        96   02 Jun 2027 02:56:29.393   02 Jun 2027 02:57:00.518            31.125                Irkutsk           972.656
        97   02 Jun 2027 03:00:23.434   02 Jun 2027 03:01:08.822            45.388                Norilsk          1418.375
        98   02 Jun 2027 03:01:11.758   02 Jun 2027 03:01:14.879             3.121              Murmansk1            97.531
        99   02 Jun 2027 03:01:19.333   02 Jun 2027 03:01:59.376            40.043                Irkutsk          1251.344
       100   02 Jun 2027 03:02:01.732   02 Jun 2027 03:02:07.023             5.291              Murmansk2           165.344
       101   02 Jun 2027 03:02:12.224   02 Jun 2027 03:02:55.644            43.420                Novosib          1356.875
       102   02 Jun 2027 03:04:01.913   02 Jun 2027 03:04:17.292            15.379                  Delhi           480.594
       103   02 Jun 2027 03:07:45.149   02 Jun 2027 03:08:56.092            70.943                  Delhi          2216.969
       104   02 Jun 2027 04:36:36.373   02 Jun 2027 04:37:29.703            53.330                Novosib          1666.562
       105   02 Jun 2027 04:37:54.738   02 Jun 2027 04:38:18.624            23.886                Norilsk           746.437
       106   02 Jun 2027 04:38:22.989   02 Jun 2027 04:39:54.889            91.900                Novosib          2871.875
       107   02 Jun 2027 04:39:59.578   02 Jun 2027 04:40:26.676            27.098                 Moscow           846.813
       108   02 Jun 2027 04:40:32.127   02 Jun 2027 04:40:59.352            27.225              Murmansk2           850.781
       109   02 Jun 2027 04:40:59.352   02 Jun 2027 04:42:09.881            70.529              Murmansk1          2204.031
       110   02 Jun 2027 04:56:54.503   02 Jun 2027 04:59:31.313           156.810               CapeTown          4900.313
       111   02 Jun 2027 06:00:38.448   02 Jun 2027 06:01:23.819            45.371                Anadyr1          1417.844
       112   02 Jun 2027 06:03:43.818   02 Jun 2027 06:04:22.344            38.526                Anadyr1          1203.937
       113   02 Jun 2027 06:05:26.619   02 Jun 2027 06:05:47.290            20.671               Magadan1           645.969
       114   02 Jun 2027 06:16:37.470   02 Jun 2027 06:16:48.719            11.249                 Moscow           351.531
       115   02 Jun 2027 06:34:54.640   02 Jun 2027 06:35:02.965             8.325               CapeTown           260.156
       116   02 Jun 2027 07:36:00.329   02 Jun 2027 07:38:37.671           157.342                Anadyr2          4916.938
       117   02 Jun 2027 07:38:48.299   02 Jun 2027 07:39:59.324            71.025               Magadan2          2219.531
       118   02 Jun 2027 07:39:59.736   02 Jun 2027 07:40:35.492            35.756                Anadyr2          1117.375
       119   02 Jun 2027 09:10:25.337   02 Jun 2027 09:11:20.815            55.478               Magadan1          1733.688
       120   02 Jun 2027 09:11:20.815   02 Jun 2027 09:12:52.975            92.160               Magadan2          2880.000
       121   02 Jun 2027 09:12:52.975   02 Jun 2027 09:15:19.898           146.923               Magadan1          4591.344
       122   02 Jun 2027 09:15:20.927   02 Jun 2027 09:17:21.407           120.480                Anadyr1          3765.000
       123   02 Jun 2027 09:53:03.638   02 Jun 2027 09:53:09.532             5.894            RioGallegos           184.188
       124   02 Jun 2027 10:47:29.554   02 Jun 2027 10:47:47.254            17.700                Irkutsk           553.125
       125   02 Jun 2027 10:48:07.260   02 Jun 2027 10:52:11.109           243.849               Magadan2          7620.281
       126   02 Jun 2027 10:52:50.852   02 Jun 2027 10:54:00.656            69.804                Norilsk          2181.375
       127   02 Jun 2027 10:54:39.081   02 Jun 2027 10:55:02.204            23.123                Norilsk           722.594
       128   02 Jun 2027 11:28:44.143   02 Jun 2027 11:29:11.133            26.990            RioGallegos           843.437
       129   02 Jun 2027 11:31:36.800   02 Jun 2027 11:32:12.107            35.307            RioGallegos          1103.344
       130   02 Jun 2027 11:32:54.205   02 Jun 2027 11:33:08.216            14.011            RioGallegos           437.844
       131   02 Jun 2027 11:37:30.839   02 Jun 2027 11:37:59.578            28.739            RioGallegos           898.094
       132   02 Jun 2027 12:03:19.805   02 Jun 2027 12:05:25.471           125.666                Sumatra          3927.062
       133   02 Jun 2027 12:17:44.064   02 Jun 2027 12:18:19.296            35.232                Irkutsk          1101.000
       134   02 Jun 2027 12:18:24.643   02 Jun 2027 12:20:36.353           131.710                Novosib          4115.938
       135   02 Jun 2027 12:21:57.344   02 Jun 2027 12:23:01.383            64.039                Norilsk          2001.219
       136   02 Jun 2027 13:09:26.334   02 Jun 2027 13:13:04.374           218.040            RioGallegos          6813.750
       137   02 Jun 2027 13:55:38.423   02 Jun 2027 13:57:01.332            82.909                Novosib          2590.906
       138   02 Jun 2027 13:57:18.067   02 Jun 2027 13:59:36.712           138.645                Novosib          4332.656
       139   02 Jun 2027 14:02:40.066   02 Jun 2027 14:03:08.501            28.435                Norilsk           888.594
       140   02 Jun 2027 15:31:55.189   02 Jun 2027 15:34:32.345           157.156                 Moscow          4911.125
       141   02 Jun 2027 15:35:14.114   02 Jun 2027 15:35:46.740            32.626                 Moscow          1019.562
       142   02 Jun 2027 15:38:26.345   02 Jun 2027 15:38:43.293            16.948              Murmansk1           529.625
       143   02 Jun 2027 15:39:44.072   02 Jun 2027 15:44:15.582           271.510                Norilsk          8484.688
       144   02 Jun 2027 15:44:32.684   02 Jun 2027 15:44:50.617            17.933                Norilsk           560.406
       145   02 Jun 2027 17:09:31.238   02 Jun 2027 17:10:06.980            35.742                 Moscow          1116.937
       146   02 Jun 2027 17:12:34.580   02 Jun 2027 17:13:43.841            69.261              Murmansk1          2164.406
       147   02 Jun 2027 17:14:01.591   02 Jun 2027 17:14:38.595            37.004                 Moscow          1156.375
       148   02 Jun 2027 17:16:42.601   02 Jun 2027 17:16:57.840            15.239              Murmansk2           476.219
       149   02 Jun 2027 17:26:22.065   02 Jun 2027 17:26:55.877            33.812                Anadyr2          1056.625
       150   02 Jun 2027 17:27:19.442   02 Jun 2027 17:27:56.784            37.342                Anadyr1          1166.938
       151   02 Jun 2027 17:28:29.456   02 Jun 2027 17:28:46.821            17.365                Anadyr1           542.656
       152   02 Jun 2027 18:21:28.502   02 Jun 2027 18:22:01.543            33.041               CapeTown          1032.531
       153   02 Jun 2027 18:25:19.633   02 Jun 2027 18:25:36.555            16.922               CapeTown           528.813
       154   02 Jun 2027 18:29:24.175   02 Jun 2027 18:29:50.118            25.943               CapeTown           810.719
       155   02 Jun 2027 18:52:04.924   02 Jun 2027 18:56:21.613           256.689              Murmansk1          8021.531
       156   02 Jun 2027 18:56:59.320   02 Jun 2027 18:58:23.916            84.596              Murmansk2          2643.625
       157   02 Jun 2027 19:05:13.494   02 Jun 2027 19:05:28.116            14.622               Magadan1           456.937
       158   02 Jun 2027 19:05:59.183   02 Jun 2027 19:06:34.892            35.709               Magadan1          1115.906
       159   02 Jun 2027 20:37:54.365   02 Jun 2027 20:41:37.269           222.904                Anadyr1          6965.750
       160   02 Jun 2027 20:42:27.634   02 Jun 2027 20:43:41.681            74.047               Magadan1          2313.969
       161   02 Jun 2027 20:43:41.681   02 Jun 2027 20:45:02.891            81.210               Magadan2          2537.813
       162   02 Jun 2027 20:45:05.837   02 Jun 2027 20:45:18.442            12.605               Magadan2           393.906
       163   02 Jun 2027 21:34:44.665   02 Jun 2027 21:36:48.331           123.666            RioGallegos          3864.562
       164   02 Jun 2027 22:13:45.101   02 Jun 2027 22:15:00.374            75.273                Anadyr1          2352.281
       165   02 Jun 2027 22:15:01.316   02 Jun 2027 22:15:51.290            49.974                Anadyr2          1561.687
       166   02 Jun 2027 22:15:54.183   02 Jun 2027 22:17:38.897           104.714                Norilsk          3272.312
       167   02 Jun 2027 22:18:18.952   02 Jun 2027 22:19:11.796            52.844               Magadan1          1651.375
       168   02 Jun 2027 22:19:12.342   02 Jun 2027 22:19:21.960             9.618               Magadan2           300.563
       169   02 Jun 2027 22:21:01.714   02 Jun 2027 22:21:24.569            22.855                Irkutsk           714.219
       170   02 Jun 2027 22:21:31.156   02 Jun 2027 22:22:27.957            56.801                Irkutsk          1775.031
       171   02 Jun 2027 22:26:21.794   02 Jun 2027 22:26:37.640            15.846                Irkutsk           495.188
       172   02 Jun 2027 22:36:24.518   02 Jun 2027 22:38:11.995           107.477                Sumatra          3358.656
       173   02 Jun 2027 22:43:31.293   02 Jun 2027 22:43:49.256            17.963                Sumatra           561.344
       174   02 Jun 2027 23:49:05.765   02 Jun 2027 23:50:34.277            88.512                Anadyr2          2766.000
       175   02 Jun 2027 23:51:32.126   02 Jun 2027 23:52:11.104            38.978                Anadyr1          1218.062
       176   02 Jun 2027 23:52:14.308   02 Jun 2027 23:53:50.907            96.599               Magadan1          3018.719
       177   02 Jun 2027 23:53:50.907   02 Jun 2027 23:54:08.815            17.908               Magadan2           559.625
       178   02 Jun 2027 23:54:43.443   02 Jun 2027 23:55:10.791            27.348               Magadan2           854.625
       179   02 Jun 2027 23:56:21.491   02 Jun 2027 23:57:09.638            48.147                Novosib          1504.594
       180   02 Jun 2027 23:59:35.975   03 Jun 2027 00:00:05.331            29.356                Novosib           917.375
       181   03 Jun 2027 00:07:29.668   03 Jun 2027 00:08:18.619            48.951                  Delhi          1529.719
       182   03 Jun 2027 00:09:00.545   03 Jun 2027 00:10:22.366            81.821                  Delhi          2556.906
       183   03 Jun 2027 00:45:43.567   03 Jun 2027 00:45:49.144             5.577            RioGallegos           174.281
       184   03 Jun 2027 00:47:03.926   03 Jun 2027 00:47:30.387            26.461            RioGallegos           826.906
       185   03 Jun 2027 00:54:24.226   03 Jun 2027 00:54:27.039             2.813            RioGallegos            87.906
       186   03 Jun 2027 00:55:06.525   03 Jun 2027 00:55:08.843             2.318            RioGallegos            72.438
       187   03 Jun 2027 01:23:19.182   03 Jun 2027 01:24:07.680            48.498                Anadyr1          1515.562
       188   03 Jun 2027 01:24:07.680   03 Jun 2027 01:24:20.732            13.052                Anadyr2           407.875
       189   03 Jun 2027 01:24:47.553   03 Jun 2027 01:25:09.767            22.214                Anadyr1           694.188
       190   03 Jun 2027 01:25:29.264   03 Jun 2027 01:25:46.443            17.179                Anadyr1           536.844
       191   03 Jun 2027 01:25:46.443   03 Jun 2027 01:25:54.459             8.016                Anadyr2           250.500
       192   03 Jun 2027 01:26:09.567   03 Jun 2027 01:26:19.939            10.372                Anadyr1           324.125
       193   03 Jun 2027 01:27:38.114   03 Jun 2027 01:29:36.765           118.651                Norilsk          3707.844
       194   03 Jun 2027 01:30:20.366   03 Jun 2027 01:30:29.253             8.887               Magadan2           277.719
       195   03 Jun 2027 01:30:43.327   03 Jun 2027 01:30:52.124             8.797              Murmansk2           274.906
       196   03 Jun 2027 01:30:52.641   03 Jun 2027 01:33:00.566           127.925              Murmansk1          3997.656
       197   03 Jun 2027 01:38:48.766   03 Jun 2027 01:39:16.522            27.756                  Delhi           867.375
       198   03 Jun 2027 01:44:37.373   03 Jun 2027 01:44:49.823            12.450                  Delhi           389.062
       199   03 Jun 2027 01:46:06.279   03 Jun 2027 01:46:33.687            27.408                  Delhi           856.500
       200   03 Jun 2027 02:20:32.287   03 Jun 2027 02:22:37.933           125.646            RioGallegos          3926.437
       201   03 Jun 2027 02:23:17.946   03 Jun 2027 02:25:06.893           108.947            RioGallegos          3404.594
       202   03 Jun 2027 03:10:27.613   03 Jun 2027 03:10:43.395            15.782                Irkutsk           493.188
       203   03 Jun 2027 03:10:50.655   03 Jun 2027 03:13:25.384           154.729              Murmansk1          4835.281
       204   03 Jun 2027 03:13:37.174   03 Jun 2027 03:14:41.391            64.217                Norilsk          2006.781
       205   03 Jun 2027 03:14:55.627   03 Jun 2027 03:16:21.179            85.552              Murmansk2          2673.500
       206   03 Jun 2027 03:16:50.652   03 Jun 2027 03:18:36.213           105.561                  Delhi          3298.781
       207   03 Jun 2027 04:48:37.790   03 Jun 2027 04:50:14.913            97.123                Novosib          3035.094
       208   03 Jun 2027 04:50:52.715   03 Jun 2027 04:53:19.724           147.009              Murmansk2          4594.031
       209   03 Jun 2027 04:54:04.740   03 Jun 2027 04:54:08.488             3.748              Murmansk1           117.125
       210   03 Jun 2027 06:12:02.778   03 Jun 2027 06:16:23.240           260.462                Anadyr2          8139.438
       211   03 Jun 2027 06:17:16.197   03 Jun 2027 06:17:38.180            21.983                Anadyr2           686.969
       212   03 Jun 2027 07:49:45.274   03 Jun 2027 07:51:59.629           134.355               Magadan1          4198.594
       213   03 Jun 2027 07:52:37.137   03 Jun 2027 07:52:49.290            12.153                Anadyr1           379.781
       214   03 Jun 2027 09:23:24.636   03 Jun 2027 09:24:18.639            54.003               Magadan1          1687.594
       215   03 Jun 2027 09:24:18.639   03 Jun 2027 09:26:12.839           114.200               Magadan2          3568.750
       216   03 Jun 2027 09:26:30.127   03 Jun 2027 09:28:22.199           112.072                Novosib          3502.250
       217   03 Jun 2027 09:28:25.017   03 Jun 2027 09:28:33.403             8.386                Irkutsk           262.063
       218   03 Jun 2027 09:28:43.004   03 Jun 2027 09:30:44.713           121.709              Murmansk1          3803.406
       219   03 Jun 2027 10:04:51.878   03 Jun 2027 10:05:35.773            43.895            RioGallegos          1371.719
       220   03 Jun 2027 10:10:20.103   03 Jun 2027 10:10:42.043            21.940            RioGallegos           685.625
       221   03 Jun 2027 10:41:52.971   03 Jun 2027 10:43:46.779           113.808                Sumatra          3556.500
       222   03 Jun 2027 10:59:31.002   03 Jun 2027 11:00:21.128            50.126                Norilsk          1566.437
       223   03 Jun 2027 11:00:43.229   03 Jun 2027 11:02:01.358            78.129                Irkutsk          2441.531
       224   03 Jun 2027 11:02:13.275   03 Jun 2027 11:02:22.675             9.400                Novosib           293.750
       225   03 Jun 2027 11:02:33.297   03 Jun 2027 11:03:40.781            67.484                Irkutsk          2108.875
       226   03 Jun 2027 11:03:43.848   03 Jun 2027 11:03:54.695            10.847              Murmansk1           338.969
       227   03 Jun 2027 11:03:54.695   03 Jun 2027 11:03:57.800             3.105              Murmansk2            97.031
       228   03 Jun 2027 11:04:01.180   03 Jun 2027 11:04:40.701            39.521                Novosib          1235.031
       229   03 Jun 2027 11:04:52.688   03 Jun 2027 11:05:43.106            50.418                Norilsk          1575.563
       230   03 Jun 2027 11:05:44.843   03 Jun 2027 11:06:29.086            44.243                Novosib          1382.594
       231   03 Jun 2027 11:11:21.360   03 Jun 2027 11:12:24.774            63.414              Murmansk1          1981.687
       232   03 Jun 2027 11:41:52.711   03 Jun 2027 11:42:28.170            35.459            RioGallegos          1108.094
       233   03 Jun 2027 11:44:41.610   03 Jun 2027 11:45:06.608            24.998            RioGallegos           781.187
       234   03 Jun 2027 12:15:26.500   03 Jun 2027 12:17:41.425           134.925                Sumatra          4216.406
       235   03 Jun 2027 12:30:08.619   03 Jun 2027 12:31:04.948            56.329                Irkutsk          1760.281
       236   03 Jun 2027 12:32:27.637   03 Jun 2027 12:33:06.364            38.727                Novosib          1210.219
       237   03 Jun 2027 12:34:06.099   03 Jun 2027 12:35:18.131            72.032                Norilsk          2251.000
       238   03 Jun 2027 12:35:48.812   03 Jun 2027 12:36:53.247            64.435                Norilsk          2013.594
       239   03 Jun 2027 13:24:08.522   03 Jun 2027 13:24:30.449            21.927            RioGallegos           685.219
       240   03 Jun 2027 14:00:00.226   03 Jun 2027 14:00:18.869            18.643                  Delhi           582.594
       241   03 Jun 2027 14:01:36.505   03 Jun 2027 14:02:26.715            50.210                  Delhi          1569.062
       242   03 Jun 2027 14:04:46.512   03 Jun 2027 14:04:50.229             3.717                  Delhi           116.156
       243   03 Jun 2027 14:07:36.174   03 Jun 2027 14:09:52.828           136.654                  Delhi          4270.438
       244   03 Jun 2027 14:11:35.810   03 Jun 2027 14:13:16.715           100.905                Novosib          3153.281
       245   03 Jun 2027 14:14:14.680   03 Jun 2027 14:16:49.323           154.643                Norilsk          4832.594
       246   03 Jun 2027 15:43:57.741   03 Jun 2027 15:46:56.448           178.707                 Moscow          5584.594
       247   03 Jun 2027 15:47:28.184   03 Jun 2027 15:48:33.678            65.494              Murmansk1          2046.688
       248   03 Jun 2027 15:52:32.440   03 Jun 2027 15:56:45.004           252.564                Norilsk          7892.625
       249   03 Jun 2027 15:56:51.691   03 Jun 2027 15:57:11.211            19.520                Norilsk           610.000
       250   03 Jun 2027 17:22:04.143   03 Jun 2027 17:22:30.151            26.008                 Moscow           812.750
       251   03 Jun 2027 17:24:54.498   03 Jun 2027 17:25:42.310            47.812              Murmansk1          1494.125
       252   03 Jun 2027 17:25:45.472   03 Jun 2027 17:27:02.042            76.570                 Moscow          2392.812
       253   03 Jun 2027 17:29:43.103   03 Jun 2027 17:30:16.601            33.498              Murmansk1          1046.812
       254   03 Jun 2027 17:38:18.531   03 Jun 2027 17:39:16.409            57.878                Anadyr1          1808.688
       255   03 Jun 2027 17:40:41.983   03 Jun 2027 17:40:50.517             8.534                Anadyr1           266.687
       256   03 Jun 2027 18:33:37.956   03 Jun 2027 18:35:25.470           107.514               CapeTown          3359.812
       257   03 Jun 2027 18:37:52.007   03 Jun 2027 18:37:54.851             2.844               CapeTown            88.875
       258   03 Jun 2027 19:04:47.591   03 Jun 2027 19:10:25.003           337.412              Murmansk1         10544.125
       259   03 Jun 2027 19:17:00.744   03 Jun 2027 19:17:23.284            22.540               Magadan2           704.375
       260   03 Jun 2027 20:49:55.998   03 Jun 2027 20:51:30.603            94.605                Anadyr1          2956.406
       261   03 Jun 2027 20:51:31.750   03 Jun 2027 20:53:40.119           128.369                Anadyr2          4011.531
       262   03 Jun 2027 20:54:06.199   03 Jun 2027 20:54:26.482            20.283               Magadan1           633.844
       263   03 Jun 2027 20:54:30.100   03 Jun 2027 20:55:45.933            75.833               Magadan2          2369.781
       264   03 Jun 2027 20:56:13.692   03 Jun 2027 20:56:48.654            34.962               Magadan2          1092.562
       265   03 Jun 2027 20:57:02.383   03 Jun 2027 20:57:31.162            28.779               Magadan1           899.344
       266   03 Jun 2027 20:57:58.531   03 Jun 2027 20:58:42.901            44.370               Magadan2          1386.562
       267   03 Jun 2027 21:02:02.786   03 Jun 2027 21:02:57.425            54.639               Magadan1          1707.469
       268   03 Jun 2027 21:45:47.993   03 Jun 2027 21:47:47.564           119.571            RioGallegos          3736.594
       269   03 Jun 2027 21:47:50.471   03 Jun 2027 21:48:28.035            37.564            RioGallegos          1173.875
       270   03 Jun 2027 22:26:14.456   03 Jun 2027 22:27:37.158            82.702                Anadyr1          2584.437
       271   03 Jun 2027 22:27:51.422   03 Jun 2027 22:29:22.839            91.417                Norilsk          2856.781
       272   03 Jun 2027 22:29:31.884   03 Jun 2027 22:29:54.381            22.497               Magadan1           703.031
       273   03 Jun 2027 22:30:17.575   03 Jun 2027 22:30:29.136            11.561               Magadan1           361.281
       274   03 Jun 2027 22:30:37.365   03 Jun 2027 22:31:01.798            24.433               Magadan1           763.531
       275   03 Jun 2027 22:32:40.913   03 Jun 2027 22:33:21.819            40.906                Irkutsk          1278.312
       276   03 Jun 2027 22:34:35.761   03 Jun 2027 22:35:16.148            40.387                Irkutsk          1262.094
       277   03 Jun 2027 22:41:40.967   03 Jun 2027 22:41:58.613            17.646                Irkutsk           551.438
       278   03 Jun 2027 22:49:16.279   03 Jun 2027 22:50:14.284            58.005                Sumatra          1812.656
       279   03 Jun 2027 22:51:11.077   03 Jun 2027 22:52:13.174            62.097                Sumatra          1940.531
       280   03 Jun 2027 23:28:24.353   03 Jun 2027 23:28:24.357             0.004            RioGallegos             0.125
       281   04 Jun 2027 00:00:58.846   04 Jun 2027 00:03:31.975           153.129                Anadyr2          4785.281
       282   04 Jun 2027 00:03:39.493   04 Jun 2027 00:04:23.046            43.553                Norilsk          1361.031
       283   04 Jun 2027 00:04:35.822   04 Jun 2027 00:05:29.210            53.388               Magadan2          1668.375
       284   04 Jun 2027 00:05:29.210   04 Jun 2027 00:05:36.646             7.436               Magadan1           232.375
       285   04 Jun 2027 00:06:11.442   04 Jun 2027 00:07:12.207            60.765               Magadan1          1898.906
       286   04 Jun 2027 00:07:34.041   04 Jun 2027 00:08:37.013            62.972                Irkutsk          1967.875
       287   04 Jun 2027 00:09:27.768   04 Jun 2027 00:10:29.451            61.683                Novosib          1927.594
       288   04 Jun 2027 00:17:43.920   04 Jun 2027 00:19:03.518            79.598                  Delhi          2487.437
       289   04 Jun 2027 00:24:18.003   04 Jun 2027 00:24:22.969             4.966                  Delhi           155.187
       290   04 Jun 2027 00:29:21.315   04 Jun 2027 00:29:49.009            27.694                Sumatra           865.437
       291   04 Jun 2027 00:55:41.596   04 Jun 2027 00:56:36.984            55.388            RioGallegos          1730.875
       292   04 Jun 2027 01:01:26.526   04 Jun 2027 01:01:46.904            20.378            RioGallegos           636.813
       293   04 Jun 2027 01:35:02.532   04 Jun 2027 01:36:05.520            62.988                Anadyr1          1968.375
       294   04 Jun 2027 01:36:45.708   04 Jun 2027 01:37:13.771            28.063                Anadyr2           876.969
       295   04 Jun 2027 01:37:38.819   04 Jun 2027 01:37:54.995            16.176                Anadyr1           505.500
       296   04 Jun 2027 01:39:40.305   04 Jun 2027 01:41:39.175           118.870                Norilsk          3714.687
       297   04 Jun 2027 01:42:28.756   04 Jun 2027 01:43:59.600            90.844              Murmansk2          2838.875
       298   04 Jun 2027 01:44:16.901   04 Jun 2027 01:45:32.360            75.459                Irkutsk          2358.094
       299   04 Jun 2027 01:47:14.262   04 Jun 2027 01:47:20.373             6.111              Murmansk1           190.969
       300   04 Jun 2027 01:50:47.597   04 Jun 2027 01:51:16.247            28.650                  Delhi           895.312
       301   04 Jun 2027 01:52:23.707   04 Jun 2027 01:53:22.139            58.432                  Delhi          1826.000
       302   04 Jun 2027 02:32:51.155   04 Jun 2027 02:35:27.346           156.191            RioGallegos          4880.969
       303   04 Jun 2027 02:36:59.874   04 Jun 2027 02:37:23.625            23.751            RioGallegos           742.219
       304   04 Jun 2027 03:23:10.594   04 Jun 2027 03:23:29.505            18.911                Irkutsk           590.969
       305   04 Jun 2027 03:23:36.969   04 Jun 2027 03:26:26.710           169.741              Murmansk2          5304.406
       306   04 Jun 2027 03:26:44.668   04 Jun 2027 03:26:55.699            11.031                Norilsk           344.719
       307   04 Jun 2027 03:27:05.538   04 Jun 2027 03:28:12.556            67.018                Norilsk          2094.312
       308   04 Jun 2027 03:28:14.679   04 Jun 2027 03:28:21.545             6.866                Novosib           214.563
       309   04 Jun 2027 03:28:31.569   04 Jun 2027 03:28:42.603            11.034              Murmansk1           344.813
       310   04 Jun 2027 03:28:55.944   04 Jun 2027 03:35:29.474           393.530                  Delhi         12297.812
       311   04 Jun 2027 05:01:12.087   04 Jun 2027 05:02:06.592            54.505                Norilsk          1703.281
       312   04 Jun 2027 05:02:09.547   04 Jun 2027 05:02:34.168            24.621                Novosib           769.406
       313   04 Jun 2027 05:02:42.641   04 Jun 2027 05:03:21.980            39.339              Murmansk1          1229.344
       314   04 Jun 2027 05:03:21.980   04 Jun 2027 05:04:37.588            75.608              Murmansk2          2362.750
       315   04 Jun 2027 05:04:37.588   04 Jun 2027 05:05:03.564            25.976              Murmansk1           811.750
       316   04 Jun 2027 06:24:41.141   04 Jun 2027 06:26:46.659           125.518                Anadyr2          3922.438
       317   04 Jun 2027 06:26:47.303   04 Jun 2027 06:27:40.278            52.975               Magadan1          1655.469
       318   04 Jun 2027 06:27:40.278   04 Jun 2027 06:27:55.208            14.930               Magadan2           466.563
       319   04 Jun 2027 08:01:12.110   04 Jun 2027 08:01:41.440            29.330               Magadan2           916.563
       320   04 Jun 2027 08:01:51.166   04 Jun 2027 08:03:26.122            94.956                Norilsk          2967.375
       321   04 Jun 2027 08:03:48.286   04 Jun 2027 08:04:38.617            50.331                Anadyr2          1572.844
       322   04 Jun 2027 08:05:15.572   04 Jun 2027 08:05:19.617             4.045                Anadyr1           126.406
       323   04 Jun 2027 08:43:40.412   04 Jun 2027 08:44:13.015            32.603            RioGallegos          1018.844
       324   04 Jun 2027 09:32:15.236   04 Jun 2027 09:32:36.793            21.557               Magadan1           673.656
       325   04 Jun 2027 09:33:01.158   04 Jun 2027 09:34:29.357            88.199               Magadan1          2756.219
       326   04 Jun 2027 09:35:27.023   04 Jun 2027 09:35:44.081            17.058               Magadan2           533.063
       327   04 Jun 2027 09:35:44.081   04 Jun 2027 09:36:20.780            36.699               Magadan1          1146.844
       328   04 Jun 2027 09:36:32.730   04 Jun 2027 09:38:11.548            98.818               Magadan2          3088.062
       329   04 Jun 2027 09:38:11.548   04 Jun 2027 09:39:00.343            48.795               Magadan1          1524.844
       330   04 Jun 2027 09:39:23.333   04 Jun 2027 09:39:25.488             2.155                Norilsk            67.344
       331   04 Jun 2027 09:39:25.801   04 Jun 2027 09:39:44.763            18.962                Irkutsk           592.562
       332   04 Jun 2027 09:40:04.963   04 Jun 2027 09:40:25.093            20.130                Anadyr1           629.062
       333   04 Jun 2027 09:40:31.514   04 Jun 2027 09:40:48.078            16.564               Magadan1           517.625
       334   04 Jun 2027 09:40:50.931   04 Jun 2027 09:41:06.235            15.304              Murmansk1           478.250
       335   04 Jun 2027 09:41:07.690   04 Jun 2027 09:41:19.429            11.739              Murmansk2           366.844
       336   04 Jun 2027 09:41:22.706   04 Jun 2027 09:41:33.661            10.955                Irkutsk           342.344
       337   04 Jun 2027 09:41:38.247   04 Jun 2027 09:41:42.119             3.872                Norilsk           121.000
       338   04 Jun 2027 09:41:44.354   04 Jun 2027 09:41:56.382            12.028                Norilsk           375.875
       339   04 Jun 2027 09:42:08.388   04 Jun 2027 09:42:21.970            13.582              Murmansk1           424.437
       340   04 Jun 2027 09:43:06.367   04 Jun 2027 09:43:11.168             4.801              Murmansk2           150.031
       341   04 Jun 2027 09:44:00.098   04 Jun 2027 09:44:02.210             2.112              Murmansk2            66.000
       342   04 Jun 2027 09:44:24.742   04 Jun 2027 09:44:44.918            20.176              Murmansk1           630.500
       343   04 Jun 2027 10:16:43.331   04 Jun 2027 10:17:42.756            59.425            RioGallegos          1857.031
       344   04 Jun 2027 10:27:16.934   04 Jun 2027 10:28:12.588            55.654            RioGallegos          1739.187
       345   04 Jun 2027 10:55:41.765   04 Jun 2027 10:56:13.316            31.551                Sumatra           985.969
       346   04 Jun 2027 11:11:36.394   04 Jun 2027 11:11:59.787            23.393                Irkutsk           731.031
       347   04 Jun 2027 11:12:02.446   04 Jun 2027 11:12:28.506            26.060                Novosib           814.375
       348   04 Jun 2027 11:12:30.863   04 Jun 2027 11:13:01.713            30.850                Irkutsk           964.062
       349   04 Jun 2027 11:13:13.695   04 Jun 2027 11:13:36.789            23.094                Norilsk           721.688
       350   04 Jun 2027 11:13:43.308   04 Jun 2027 11:14:04.997            21.689                Irkutsk           677.781
       351   04 Jun 2027 11:14:42.837   04 Jun 2027 11:14:54.395            11.558                Norilsk           361.187
       352   04 Jun 2027 11:15:01.956   04 Jun 2027 11:15:12.528            10.572              Murmansk2           330.375
       353   04 Jun 2027 11:15:14.874   04 Jun 2027 11:15:20.211             5.337                Novosib           166.781
       354   04 Jun 2027 11:15:20.837   04 Jun 2027 11:15:21.265             0.428                Norilsk            13.375
       355   04 Jun 2027 11:15:24.969   04 Jun 2027 11:15:36.994            12.025                Irkutsk           375.781
       356   04 Jun 2027 11:15:47.906   04 Jun 2027 11:16:06.114            18.208                Irkutsk           569.000
       357   04 Jun 2027 11:16:07.125   04 Jun 2027 11:17:02.838            55.713              Murmansk2          1741.031
       358   04 Jun 2027 11:17:14.906   04 Jun 2027 11:17:27.023            12.117                Norilsk           378.656
       359   04 Jun 2027 11:17:30.342   04 Jun 2027 11:17:39.065             8.723                Irkutsk           272.594
       360   04 Jun 2027 11:18:38.955   04 Jun 2027 11:18:41.040             2.085              Murmansk1            65.156
       361   04 Jun 2027 11:19:27.402   04 Jun 2027 11:19:32.255             4.853              Murmansk1           151.656
       362   04 Jun 2027 11:20:21.990   04 Jun 2027 11:20:40.303            18.313              Murmansk1           572.281
       363   04 Jun 2027 11:53:19.773   04 Jun 2027 11:53:55.862            36.089            RioGallegos          1127.781
       364   04 Jun 2027 11:55:14.866   04 Jun 2027 11:55:29.548            14.682            RioGallegos           458.813
       365   04 Jun 2027 11:59:32.886   04 Jun 2027 11:59:38.467             5.581            RioGallegos           174.406
       366   04 Jun 2027 12:01:55.538   04 Jun 2027 12:03:13.304            77.766            RioGallegos          2430.188
       367   04 Jun 2027 12:36:44.845   04 Jun 2027 12:37:00.428            15.583                  Delhi           486.969
       368   04 Jun 2027 12:42:28.068   04 Jun 2027 12:44:40.393           132.325                Novosib          4135.156
       369   04 Jun 2027 12:46:16.546   04 Jun 2027 12:47:52.934            96.388                Norilsk          3012.125
       370   04 Jun 2027 12:49:06.125   04 Jun 2027 12:49:59.517            53.392              Murmansk2          1668.500
       371   04 Jun 2027 14:12:24.098   04 Jun 2027 14:13:51.310            87.212                  Delhi          2725.375
       372   04 Jun 2027 14:16:11.296   04 Jun 2027 14:16:48.787            37.491                  Delhi          1171.594
       373   04 Jun 2027 14:20:24.196   04 Jun 2027 14:22:23.391           119.195                  Delhi          3724.844
       374   04 Jun 2027 14:23:33.898   04 Jun 2027 14:25:31.834           117.936                Novosib          3685.500
       375   04 Jun 2027 14:26:08.778   04 Jun 2027 14:27:13.109            64.331                Norilsk          2010.344
       376   04 Jun 2027 15:56:03.310   04 Jun 2027 15:59:25.259           201.949                 Moscow          6310.906
       377   04 Jun 2027 15:59:34.763   04 Jun 2027 16:00:29.661            54.898              Murmansk2          1715.562
       378   04 Jun 2027 16:00:29.661   04 Jun 2027 16:00:42.281            12.620              Murmansk1           394.375
       379   04 Jun 2027 16:00:56.562   04 Jun 2027 16:02:25.597            89.035              Murmansk1          2782.344
       380   04 Jun 2027 16:05:27.493   04 Jun 2027 16:08:52.276           204.783                Norilsk          6399.469
       381   04 Jun 2027 17:34:43.289   04 Jun 2027 17:34:49.429             6.140                 Moscow           191.875
       382   04 Jun 2027 17:37:02.114   04 Jun 2027 17:37:22.889            20.775                 Moscow           649.219
       383   04 Jun 2027 17:37:24.505   04 Jun 2027 17:37:24.783             0.278              Murmansk2             8.688
       384   04 Jun 2027 17:38:45.047   04 Jun 2027 17:40:46.845           121.798              Murmansk1          3806.188
       385   04 Jun 2027 17:41:04.740   04 Jun 2027 17:42:02.282            57.542              Murmansk1          1798.187
       386   04 Jun 2027 17:50:16.149   04 Jun 2027 17:51:02.157            46.008                Anadyr1          1437.750
       387   04 Jun 2027 17:51:15.783   04 Jun 2027 17:51:34.858            19.075                Anadyr1           596.094
       388   04 Jun 2027 17:55:53.472   04 Jun 2027 17:56:12.309            18.837                Anadyr1           588.656
       389   04 Jun 2027 18:45:50.795   04 Jun 2027 18:47:26.594            95.799               CapeTown          2993.719
       390   04 Jun 2027 19:17:35.139   04 Jun 2027 19:23:44.214           369.075              Murmansk2         11533.594
       391   04 Jun 2027 19:28:51.376   04 Jun 2027 19:29:16.209            24.833               Magadan2           776.031
       392   04 Jun 2027 21:01:57.524   04 Jun 2027 21:06:10.938           253.414                Anadyr2          7919.188
       393   04 Jun 2027 21:06:31.031   04 Jun 2027 21:09:11.597           160.566               Magadan1          5017.688
       394   04 Jun 2027 21:09:26.619   04 Jun 2027 21:09:28.146             1.527               Magadan2            47.719
       395   04 Jun 2027 21:10:44.039   04 Jun 2027 21:11:17.396            33.357               Magadan2          1042.406
       396   04 Jun 2027 21:57:15.086   04 Jun 2027 22:00:07.204           172.118            RioGallegos          5378.687
       397   04 Jun 2027 22:02:42.946   04 Jun 2027 22:03:27.976            45.030            RioGallegos          1407.188
       398   04 Jun 2027 22:37:43.624   04 Jun 2027 22:39:22.626            99.002                Anadyr1          3093.813
       399   04 Jun 2027 22:39:34.285   04 Jun 2027 22:39:40.304             6.019                Anadyr1           188.094
       400   04 Jun 2027 22:39:49.943   04 Jun 2027 22:39:54.493             4.550                Norilsk           142.187
       401   04 Jun 2027 22:39:58.524   04 Jun 2027 22:40:38.417            39.893                Anadyr1          1246.656
       402   04 Jun 2027 22:41:23.301   04 Jun 2027 22:42:09.608            46.307               Magadan2          1447.094
       403   04 Jun 2027 22:42:55.386   04 Jun 2027 22:43:38.339            42.953               Magadan1          1342.281
       404   04 Jun 2027 22:44:25.773   04 Jun 2027 22:45:20.313            54.540                Irkutsk          1704.375
       405   04 Jun 2027 22:58:46.922   04 Jun 2027 23:01:33.628           166.706                Sumatra          5209.563
       406   04 Jun 2027 23:43:35.120   04 Jun 2027 23:44:27.505            52.385            RioGallegos          1637.031
       407   05 Jun 2027 00:13:09.592   05 Jun 2027 00:14:10.843            61.251                Anadyr1          1914.094
       408   05 Jun 2027 00:14:36.674   05 Jun 2027 00:15:14.703            38.029                Anadyr1          1188.406
       409   05 Jun 2027 00:16:20.481   05 Jun 2027 00:18:00.199            99.718               Magadan2          3116.187
       410   05 Jun 2027 00:18:37.145   05 Jun 2027 00:19:14.039            36.894               Magadan1          1152.937
       411   05 Jun 2027 00:19:34.539   05 Jun 2027 00:20:09.796            35.257                Irkutsk          1101.781
       412   05 Jun 2027 00:20:09.996   05 Jun 2027 00:21:04.391            54.395                Novosib          1699.844
       413   05 Jun 2027 00:22:52.752   05 Jun 2027 00:23:30.167            37.415                Novosib          1169.219
       414   05 Jun 2027 00:28:50.325   05 Jun 2027 00:31:23.756           153.431                  Delhi          4794.719
       415   05 Jun 2027 00:44:00.138   05 Jun 2027 00:45:00.899            60.761                Sumatra          1898.781
       416   05 Jun 2027 01:19:21.048   05 Jun 2027 01:19:25.897             4.849            RioGallegos           151.531
       417   05 Jun 2027 01:46:45.038   05 Jun 2027 01:47:05.415            20.377                Anadyr1           636.781
       418   05 Jun 2027 01:47:14.774   05 Jun 2027 01:47:39.441            24.667                Anadyr2           770.844
       419   05 Jun 2027 01:48:05.176   05 Jun 2027 01:48:47.976            42.800                Anadyr2          1337.500
       420   05 Jun 2027 01:49:13.919   05 Jun 2027 01:49:19.773             5.854                Anadyr2           182.937
       421   05 Jun 2027 01:51:42.398   05 Jun 2027 01:53:29.797           107.399                Norilsk          3356.219
       422   05 Jun 2027 01:54:19.652   05 Jun 2027 01:55:35.505            75.853              Murmansk2          2370.406
       423   05 Jun 2027 01:55:46.174   05 Jun 2027 01:56:17.370            31.196              Murmansk1           974.875
       424   05 Jun 2027 01:56:21.200   05 Jun 2027 01:57:36.111            74.911                Novosib          2340.969
       425   05 Jun 2027 02:02:49.770   05 Jun 2027 02:05:13.088           143.318                  Delhi          4478.687
       426   05 Jun 2027 02:45:16.348   05 Jun 2027 02:46:25.348            69.000            RioGallegos          2156.250
       427   05 Jun 2027 02:46:44.565   05 Jun 2027 02:47:33.230            48.665            RioGallegos          1520.781
       428   05 Jun 2027 02:49:56.068   05 Jun 2027 02:50:31.470            35.402            RioGallegos          1106.313
       429   05 Jun 2027 03:35:36.581   05 Jun 2027 03:36:21.829            45.248                Irkutsk          1414.000
       430   05 Jun 2027 03:36:37.007   05 Jun 2027 03:36:47.352            10.345                Norilsk           323.281
       431   05 Jun 2027 03:36:49.529   05 Jun 2027 03:37:20.005            30.476              Murmansk1           952.375
       432   05 Jun 2027 03:37:22.424   05 Jun 2027 03:39:15.918           113.494                Norilsk          3546.688
       433   05 Jun 2027 03:39:36.006   05 Jun 2027 03:39:57.603            21.597                Novosib           674.906
       434   05 Jun 2027 03:40:01.735   05 Jun 2027 03:40:36.230            34.495                 Moscow          1077.969
       435   05 Jun 2027 03:40:39.301   05 Jun 2027 03:41:09.192            29.891              Murmansk2           934.094
       436   05 Jun 2027 03:41:09.560   05 Jun 2027 03:42:22.485            72.925                Novosib          2278.906
       437   05 Jun 2027 03:43:42.764   05 Jun 2027 03:44:45.530            62.766                 Moscow          1961.437
       438   05 Jun 2027 03:44:57.789   05 Jun 2027 03:45:47.066            49.277                  Delhi          1539.906
       439   05 Jun 2027 05:12:38.696   05 Jun 2027 05:13:46.742            68.046                Novosib          2126.437
       440   05 Jun 2027 05:15:01.279   05 Jun 2027 05:15:19.330            18.051              Murmansk1           564.094
       441   05 Jun 2027 05:15:24.038   05 Jun 2027 05:16:25.042            61.004              Murmansk1          1906.375
       442   05 Jun 2027 06:36:21.611   05 Jun 2027 06:37:36.356            74.745               Magadan1          2335.781
       443   05 Jun 2027 06:38:03.974   05 Jun 2027 06:38:29.318            25.344                Norilsk           792.000
       444   05 Jun 2027 06:38:31.202   05 Jun 2027 06:40:44.042           132.840                Anadyr2          4151.250
       445   05 Jun 2027 06:41:53.413   05 Jun 2027 06:42:10.590            17.177               Magadan1           536.781
       446   05 Jun 2027 08:12:44.493   05 Jun 2027 08:15:38.996           174.503                Anadyr2          5453.219
       447   05 Jun 2027 09:47:35.687   05 Jun 2027 09:48:05.548            29.861               Magadan1           933.156
       448   05 Jun 2027 09:48:14.805   05 Jun 2027 09:48:22.615             7.810               Magadan2           244.063
       449   05 Jun 2027 09:49:11.263   05 Jun 2027 09:50:42.780            91.517               Magadan1          2859.906
       450   05 Jun 2027 09:50:42.780   05 Jun 2027 09:52:16.371            93.591               Magadan2          2924.719
       451   05 Jun 2027 09:52:29.109   05 Jun 2027 09:52:59.796            30.687              Murmansk2           958.969
       452   05 Jun 2027 09:52:59.796   05 Jun 2027 09:53:15.927            16.131              Murmansk1           504.094
       453   05 Jun 2027 09:53:32.213   05 Jun 2027 09:53:41.081             8.868                Irkutsk           277.125
       454   05 Jun 2027 09:53:59.570   05 Jun 2027 09:54:28.178            28.608              Murmansk1           894.000
       455   05 Jun 2027 09:54:44.676   05 Jun 2027 09:55:07.100            22.424              Murmansk2           700.750
       456   05 Jun 2027 10:28:38.001   05 Jun 2027 10:30:38.846           120.845            RioGallegos          3776.406
       457   05 Jun 2027 11:04:31.306   05 Jun 2027 11:05:05.140            33.834                Sumatra          1057.312
       458   05 Jun 2027 11:23:45.250   05 Jun 2027 11:23:59.034            13.784                Irkutsk           430.750
       459   05 Jun 2027 11:24:42.662   05 Jun 2027 11:24:58.468            15.806                Novosib           493.938
       460   05 Jun 2027 11:25:00.936   05 Jun 2027 11:25:39.837            38.901                Norilsk          1215.656
       461   05 Jun 2027 11:25:43.831   05 Jun 2027 11:26:56.504            72.673                Norilsk          2271.031
       462   05 Jun 2027 11:27:00.554   05 Jun 2027 11:27:19.994            19.440              Murmansk2           607.500
       463   05 Jun 2027 11:27:26.050   05 Jun 2027 11:28:30.579            64.529                Novosib          2016.531
       464   05 Jun 2027 11:28:38.539   05 Jun 2027 11:28:44.555             6.016                Novosib           188.000
       465   05 Jun 2027 11:28:48.563   05 Jun 2027 11:29:53.202            64.639                Irkutsk          2019.969
       466   05 Jun 2027 12:05:44.537   05 Jun 2027 12:06:10.923            26.386            RioGallegos           824.563
       467   05 Jun 2027 12:08:26.165   05 Jun 2027 12:09:46.453            80.288            RioGallegos          2509.000
       468   05 Jun 2027 12:48:02.039   05 Jun 2027 12:48:43.987            41.948                  Delhi          1310.875
       469   05 Jun 2027 12:54:34.284   05 Jun 2027 12:57:45.735           191.451                Novosib          5982.844
       470   05 Jun 2027 12:58:43.960   05 Jun 2027 12:59:10.318            26.358                Norilsk           823.688
       471   05 Jun 2027 13:06:40.573   05 Jun 2027 13:06:47.977             7.404              Murmansk1           231.375
       472   05 Jun 2027 13:11:23.312   05 Jun 2027 13:12:12.504            49.192              Murmansk2          1537.250
       473   05 Jun 2027 14:24:56.628   05 Jun 2027 14:27:52.912           176.284                  Delhi          5508.875
       474   05 Jun 2027 14:28:47.695   05 Jun 2027 14:30:02.251            74.556                  Delhi          2329.875
       475   05 Jun 2027 14:33:21.903   05 Jun 2027 14:33:23.496             1.593                Novosib            49.781
       476   05 Jun 2027 14:34:19.327   05 Jun 2027 14:35:30.795            71.468                Novosib          2233.375
       477   05 Jun 2027 14:36:58.492   05 Jun 2027 14:37:01.667             3.175                Norilsk            99.219
       478   05 Jun 2027 14:37:32.821   05 Jun 2027 14:38:39.094            66.273                Novosib          2071.031
       479   05 Jun 2027 14:41:01.798   05 Jun 2027 14:42:33.212            91.414                Norilsk          2856.688
       480   05 Jun 2027 16:08:12.013   05 Jun 2027 16:10:03.585           111.572                 Moscow          3486.625
       481   05 Jun 2027 16:11:43.070   05 Jun 2027 16:12:44.069            60.999              Murmansk1          1906.219
       482   05 Jun 2027 16:12:58.097   05 Jun 2027 16:14:26.733            88.636              Murmansk1          2769.875
