uniorb/output/strategy_1/Drop/Drop_KinoSat_110206.txt

KinoSat_110206
-------------------------
    Access    *     Start Time (UTCG)     *     Stop Time (UTCG)  *   Duration (s)        *       Station  *  Data (Mbytes)
         1   01 Jun 2027 03:53:35.042   01 Jun 2027 03:54:12.440            37.398               Magadan2          4674.750
         2   01 Jun 2027 03:54:12.440   01 Jun 2027 03:54:36.146            23.706               Magadan1          2963.250
         3   01 Jun 2027 03:55:05.690   01 Jun 2027 03:56:36.886            91.196               Magadan1         11399.500
         4   01 Jun 2027 03:57:25.103   01 Jun 2027 03:57:42.865            17.762              Murmansk2          2220.250
         5   01 Jun 2027 03:57:42.865   01 Jun 2027 03:59:00.151            77.286              Murmansk1          9660.750
         6   01 Jun 2027 03:59:56.175   01 Jun 2027 04:00:07.273            11.098                Norilsk          1387.250
         7   01 Jun 2027 04:34:06.624   01 Jun 2027 04:34:47.763            41.139            RioGallegos          5142.375
         8   01 Jun 2027 04:40:59.626   01 Jun 2027 04:41:42.864            43.238            RioGallegos          5404.750
         9   01 Jun 2027 05:08:34.188   01 Jun 2027 05:10:11.126            96.938                Sumatra         12117.250
        10   01 Jun 2027 05:16:23.895   01 Jun 2027 05:18:07.514           103.619                Sumatra         12952.375
        11   01 Jun 2027 05:19:17.899   01 Jun 2027 05:21:40.806           142.907                  Delhi         17863.375
        12   01 Jun 2027 05:32:25.045   01 Jun 2027 05:33:11.846            46.801              Murmansk2          5850.125
        13   01 Jun 2027 05:33:12.766   01 Jun 2027 05:34:19.890            67.124                Irkutsk          8390.500
        14   01 Jun 2027 06:17:17.195   01 Jun 2027 06:18:00.012            42.817            RioGallegos          5352.125
        15   01 Jun 2027 06:53:06.379   01 Jun 2027 06:55:37.092           150.713                  Delhi         18839.125
        16   01 Jun 2027 07:08:01.626   01 Jun 2027 07:08:49.891            48.265                Novosib          6033.125
        17   01 Jun 2027 07:09:17.391   01 Jun 2027 07:11:02.571           105.180                 Moscow         13147.500
        18   01 Jun 2027 08:44:00.799   01 Jun 2027 08:44:47.271            46.472                 Moscow          5809.000
        19   01 Jun 2027 08:45:07.918   01 Jun 2027 08:45:14.006             6.088                 Moscow           761.000
        20   01 Jun 2027 08:45:22.554   01 Jun 2027 08:45:56.269            33.715              Murmansk1          4214.375
        21   01 Jun 2027 09:51:14.397   01 Jun 2027 09:57:27.323           372.926               CapeTown         46615.750
        22   01 Jun 2027 10:32:33.754   01 Jun 2027 10:33:24.245            50.491                Anadyr1          6311.375
        23   01 Jun 2027 12:11:10.160   01 Jun 2027 12:12:55.351           105.191               Magadan2         13148.875
        24   01 Jun 2027 12:13:57.350   01 Jun 2027 12:16:10.817           133.467               Magadan1         16683.375
        25   01 Jun 2027 13:45:23.512   01 Jun 2027 13:48:21.313           177.801               Magadan2         22225.125
        26   01 Jun 2027 14:43:18.923   01 Jun 2027 14:45:09.700           110.777            RioGallegos         13847.125
        27   01 Jun 2027 15:31:52.806   01 Jun 2027 15:32:39.946            47.140                Irkutsk          5892.500
        28   01 Jun 2027 15:40:44.872   01 Jun 2027 15:46:22.983           338.111                Sumatra         42263.875
        29   01 Jun 2027 17:01:31.728   01 Jun 2027 17:03:50.962           139.234                Novosib         17404.250
        30   01 Jun 2027 17:11:07.537   01 Jun 2027 17:13:30.748           143.211                  Delhi         17901.375
        31   01 Jun 2027 17:15:07.689   01 Jun 2027 17:17:16.954           129.265                  Delhi         16158.125
        32   01 Jun 2027 18:44:36.186   01 Jun 2027 18:45:56.743            80.557                  Delhi          3523.499
        33   02 Jun 2027 04:10:46.777   02 Jun 2027 04:10:58.216            11.439                Irkutsk          1429.875
        34   02 Jun 2027 04:11:00.689   02 Jun 2027 04:11:06.183             5.494                Novosib           686.750
        35   02 Jun 2027 04:11:12.140   02 Jun 2027 04:11:31.229            19.089                Norilsk          2386.125
        36   02 Jun 2027 04:14:28.561   02 Jun 2027 04:15:16.314            47.753                Norilsk          5969.125
        37   02 Jun 2027 04:46:25.580   02 Jun 2027 04:47:50.242            84.662            RioGallegos         10582.750
        38   02 Jun 2027 04:49:34.120   02 Jun 2027 04:50:35.829            61.709            RioGallegos          7713.625
        39   02 Jun 2027 05:20:45.493   02 Jun 2027 05:21:39.619            54.126                Sumatra          6765.750
        40   02 Jun 2027 05:23:00.668   02 Jun 2027 05:23:24.006            23.338                Sumatra          2917.250
        41   02 Jun 2027 05:25:49.562   02 Jun 2027 05:26:17.694            28.132                Sumatra          3516.500
        42   02 Jun 2027 05:29:31.252   02 Jun 2027 05:31:35.563           124.311                  Delhi         15538.875
        43   02 Jun 2027 05:43:54.739   02 Jun 2027 05:44:59.216            64.477                Irkutsk          8059.625
        44   02 Jun 2027 05:45:15.075   02 Jun 2027 05:46:56.375           101.300                Novosib         12662.500
        45   02 Jun 2027 07:20:24.825   02 Jun 2027 07:21:29.023            64.198              Murmansk1          8024.750
        46   02 Jun 2027 07:21:49.022   02 Jun 2027 07:22:06.971            17.949                Novosib          2243.625
        47   02 Jun 2027 07:22:12.211   02 Jun 2027 07:22:42.467            30.256                Norilsk          3782.000
        48   02 Jun 2027 07:23:04.439   02 Jun 2027 07:23:09.461             5.022                Norilsk           627.750
        49   02 Jun 2027 07:23:31.813   02 Jun 2027 07:23:55.278            23.465                Norilsk          2933.125
        50   02 Jun 2027 09:09:44.971   02 Jun 2027 09:10:07.384            22.413                Anadyr1          2801.625
        51   02 Jun 2027 10:05:14.406   02 Jun 2027 10:07:28.996           134.590               CapeTown         16823.750
        52   02 Jun 2027 10:08:23.324   02 Jun 2027 10:08:51.893            28.569               CapeTown          3571.125
        53   02 Jun 2027 10:43:27.057   02 Jun 2027 10:47:31.753           244.696                Anadyr1         30587.000
        54   02 Jun 2027 12:22:03.727   02 Jun 2027 12:23:06.326            62.599               Magadan1          7824.875
        55   02 Jun 2027 12:24:16.040   02 Jun 2027 12:25:53.386            97.346               Magadan2         12168.250
        56   02 Jun 2027 14:54:41.511   02 Jun 2027 14:58:14.937           213.426            RioGallegos         26678.250
        57   02 Jun 2027 15:39:25.104   02 Jun 2027 15:41:51.669           146.565                Irkutsk         18320.625
        58   02 Jun 2027 15:52:02.350   02 Jun 2027 15:55:32.773           210.423                Sumatra         26302.875
        59   02 Jun 2027 17:13:13.048   02 Jun 2027 17:14:06.873            53.825                Novosib          6728.125
        60   02 Jun 2027 17:16:55.257   02 Jun 2027 17:18:46.079           110.822                Novosib         13852.750
        61   02 Jun 2027 17:22:08.699   02 Jun 2027 17:25:16.158           187.459                  Delhi         23432.375
        62   02 Jun 2027 18:55:57.986   02 Jun 2027 18:57:23.545            85.559                  Delhi         10694.875
        63   02 Jun 2027 20:26:37.943   02 Jun 2027 20:29:35.455           177.512                 Moscow         22189.000
        64   02 Jun 2027 22:08:32.871   02 Jun 2027 22:08:43.226            10.355              Murmansk2          1294.375
        65   02 Jun 2027 22:26:07.249   02 Jun 2027 22:27:22.866            75.617               CapeTown          9452.125
        66   02 Jun 2027 22:28:52.416   02 Jun 2027 22:30:59.167           126.751               CapeTown         15843.875
        67   03 Jun 2027 03:57:45.756   03 Jun 2027 03:57:54.870             9.114                Sumatra          1139.250
        68   03 Jun 2027 03:59:32.639   03 Jun 2027 04:01:30.327           117.688                Sumatra         14711.000
        69   03 Jun 2027 05:41:13.286   03 Jun 2027 05:43:48.552           155.266                  Delhi         19408.250
        70   03 Jun 2027 05:57:45.027   03 Jun 2027 05:59:07.270            82.243                Novosib         10280.375
        71   03 Jun 2027 07:33:03.012   03 Jun 2027 07:33:42.112            39.100                Norilsk          4887.500
        72   03 Jun 2027 07:33:55.872   03 Jun 2027 07:35:04.522            68.650                Novosib          8581.250
        73   03 Jun 2027 10:55:24.970   03 Jun 2027 10:56:28.597            63.627                Anadyr2          7953.375
        74   03 Jun 2027 10:59:36.736   03 Jun 2027 11:00:28.638            51.902                Anadyr1          6487.750
        75   03 Jun 2027 11:03:08.925   03 Jun 2027 11:04:40.166            91.241                Anadyr2         11405.125
        76   03 Jun 2027 11:04:40.166   03 Jun 2027 11:06:39.362           119.196                Anadyr1         14899.500
        77   03 Jun 2027 12:34:27.748   03 Jun 2027 12:38:26.616           238.868               Magadan2         29858.500
        78   03 Jun 2027 15:02:07.003   03 Jun 2027 15:02:35.266            28.263            RioGallegos          3532.875
        79   03 Jun 2027 15:05:28.493   03 Jun 2027 15:06:05.194            36.701            RioGallegos          4587.625
        80   03 Jun 2027 15:49:26.491   03 Jun 2027 15:52:45.174           198.683                Irkutsk         24835.375
        81   03 Jun 2027 16:04:57.037   03 Jun 2027 16:07:29.289           152.252                Sumatra         19031.500
        82   03 Jun 2027 16:12:47.985   03 Jun 2027 16:14:51.809           123.824                Sumatra         15478.000
        83   03 Jun 2027 17:33:30.171   03 Jun 2027 17:37:06.234           216.063                  Delhi         27007.875
        84   03 Jun 2027 17:39:51.572   03 Jun 2027 17:42:10.194           138.622                  Delhi         17327.750
        85   03 Jun 2027 20:38:32.239   03 Jun 2027 20:40:27.170           114.931                 Moscow         14366.375
        86   03 Jun 2027 21:11:04.959   03 Jun 2027 21:12:31.908            86.949               CapeTown         10868.625
        87   03 Jun 2027 22:38:18.368   03 Jun 2027 22:38:59.745            41.377               CapeTown          5172.125
        88   04 Jun 2027 04:09:19.670   04 Jun 2027 04:13:29.636           249.966                Sumatra         31245.750
        89   04 Jun 2027 05:53:01.072   04 Jun 2027 05:55:57.630           176.558                  Delhi         22069.750
        90   04 Jun 2027 06:09:45.711   04 Jun 2027 06:10:20.039            34.328                Norilsk          4291.000
        91   04 Jun 2027 06:10:32.513   04 Jun 2027 06:11:22.181            49.668              Murmansk1          6208.500
        92   04 Jun 2027 07:30:40.356   04 Jun 2027 07:31:39.308            58.952                  Delhi          7369.000
        93   04 Jun 2027 07:44:34.227   04 Jun 2027 07:44:46.402            12.175                Norilsk          1521.875
        94   04 Jun 2027 07:44:51.105   04 Jun 2027 07:46:01.585            70.480                Novosib          8810.000
        95   04 Jun 2027 07:46:30.869   04 Jun 2027 07:48:05.758            94.889                 Moscow         11861.125
        96   04 Jun 2027 07:48:27.295   04 Jun 2027 07:49:19.120            51.825                 Moscow          6478.125
        97   04 Jun 2027 08:55:42.015   04 Jun 2027 08:56:35.678            53.663               CapeTown          6707.875
        98   04 Jun 2027 10:26:45.725   04 Jun 2027 10:29:22.851           157.126               CapeTown         19640.750
        99   04 Jun 2027 11:07:23.645   04 Jun 2027 11:08:14.937            51.292                Anadyr1          6411.500
       100   04 Jun 2027 11:09:09.394   04 Jun 2027 11:12:09.467           180.073                Anadyr2         22509.125
       101   04 Jun 2027 12:45:50.038   04 Jun 2027 12:51:08.156           318.118               Magadan2         39764.750
       102   04 Jun 2027 15:13:49.203   04 Jun 2027 15:17:59.602           250.399            RioGallegos         31299.875
       103   04 Jun 2027 16:01:17.197   04 Jun 2027 16:02:43.036            85.839                Irkutsk         10729.875
       104   04 Jun 2027 16:05:43.317   04 Jun 2027 16:05:45.744             2.427                Irkutsk           303.375
       105   04 Jun 2027 16:08:44.978   04 Jun 2027 16:10:46.009           121.031                Irkutsk         15128.875
       106   04 Jun 2027 16:15:09.644   04 Jun 2027 16:17:21.543           131.899                Sumatra         16487.375
       107   04 Jun 2027 17:37:00.496   04 Jun 2027 17:39:01.166           120.670                Novosib         15083.750
       108   04 Jun 2027 17:45:02.833   04 Jun 2027 17:47:04.163           121.330                  Delhi         15166.250
       109   04 Jun 2027 19:20:10.293   04 Jun 2027 19:20:42.391            32.098                  Delhi          4012.250
       110   04 Jun 2027 20:49:03.428   04 Jun 2027 20:49:10.208             6.780              Murmansk1           847.500
       111   04 Jun 2027 20:50:28.080   04 Jun 2027 20:52:01.673            93.593                 Moscow         11699.125
       112   04 Jun 2027 20:52:48.510   04 Jun 2027 20:55:08.501           139.991                 Moscow         17498.875
       113   04 Jun 2027 21:15:02.916   04 Jun 2027 21:15:06.903             3.987               CapeTown           498.375
       114   04 Jun 2027 22:54:55.976   04 Jun 2027 22:54:59.955             3.979               CapeTown           497.375
       115   05 Jun 2027 03:07:50.284   05 Jun 2027 03:08:43.155            52.871               Magadan1          6608.875
       116   05 Jun 2027 03:09:03.835   05 Jun 2027 03:10:32.690            88.855               Magadan2         11106.875
       117   05 Jun 2027 03:45:44.994   05 Jun 2027 03:48:38.252           173.258            RioGallegos         21657.250
       118   05 Jun 2027 04:21:01.383   05 Jun 2027 04:25:34.568           273.185                Sumatra         34148.125
       119   05 Jun 2027 04:43:06.191   05 Jun 2027 04:44:03.852            57.661                Irkutsk          7207.625
       120   05 Jun 2027 04:44:28.030   05 Jun 2027 04:44:59.325            31.295                Novosib          3911.875
       121   05 Jun 2027 04:45:04.900   05 Jun 2027 04:45:34.232            29.332                Novosib          3666.500
       122   05 Jun 2027 04:46:10.917   05 Jun 2027 04:46:36.183            25.266              Murmansk2          3158.250
       123   05 Jun 2027 04:46:36.183   05 Jun 2027 04:47:01.339            25.156              Murmansk1          3144.500
       124   05 Jun 2027 05:25:08.955   05 Jun 2027 05:25:42.976            34.021            RioGallegos          4252.625
       125   05 Jun 2027 05:58:07.038   05 Jun 2027 06:00:39.443           152.405                Sumatra         19050.625
       126   05 Jun 2027 06:04:54.279   05 Jun 2027 06:06:18.567            84.288                  Delhi         10536.000
       127   05 Jun 2027 06:21:10.942   05 Jun 2027 06:23:29.276           138.334                Novosib         17291.750
       128   05 Jun 2027 07:56:03.045   05 Jun 2027 07:57:37.287            94.242              Murmansk2         11780.250
       129   05 Jun 2027 07:57:42.173   05 Jun 2027 07:57:59.777            17.604              Murmansk2          2200.500
       130   05 Jun 2027 07:58:03.257   05 Jun 2027 07:58:40.049            36.792                 Moscow          4599.000
       131   05 Jun 2027 07:58:53.691   05 Jun 2027 07:58:57.791             4.100                Norilsk           512.500
       132   05 Jun 2027 07:58:59.665   05 Jun 2027 08:00:11.790            72.125                 Moscow          9015.625
       133   05 Jun 2027 09:05:42.830   05 Jun 2027 09:08:16.587           153.757               CapeTown         19219.625
       134   05 Jun 2027 10:39:13.768   05 Jun 2027 10:40:38.043            84.275               CapeTown         10534.375
       135   05 Jun 2027 10:49:34.131   05 Jun 2027 10:49:47.133            13.002               CapeTown          1625.250
       136   05 Jun 2027 11:19:22.930   05 Jun 2027 11:20:05.260            42.330                Anadyr1          5291.250
       137   05 Jun 2027 11:21:13.314   05 Jun 2027 11:24:10.243           176.929                Anadyr1         22116.125
       138   05 Jun 2027 12:57:45.681   05 Jun 2027 12:59:23.940            98.259               Magadan1         12282.375
       139   05 Jun 2027 12:59:25.610   05 Jun 2027 13:02:48.017           202.407               Magadan2         25300.875
       140   05 Jun 2027 15:25:35.933   05 Jun 2027 15:28:47.070           191.137            RioGallegos         23892.125
       141   05 Jun 2027 16:13:10.249   05 Jun 2027 16:15:08.973           118.724                Irkutsk         14840.500
       142   05 Jun 2027 16:26:54.759   05 Jun 2027 16:29:38.217           163.458                Sumatra         20432.250
       143   05 Jun 2027 17:48:56.621   05 Jun 2027 17:51:21.659           145.038                Novosib         18129.750
       144   05 Jun 2027 17:56:43.042   05 Jun 2027 18:00:57.009           253.967                  Delhi         31745.875
       145   05 Jun 2027 21:02:25.194   05 Jun 2027 21:03:39.549            74.355                 Moscow          9294.375
       146   05 Jun 2027 21:05:05.915   05 Jun 2027 21:07:09.068           123.153                 Moscow         15394.125
       147   06 Jun 2027 03:19:45.575   06 Jun 2027 03:20:49.935            64.360               Magadan2          8045.000
       148   06 Jun 2027 03:20:59.567   06 Jun 2027 03:21:06.583             7.016               Magadan1           877.000
       149   06 Jun 2027 03:21:29.676   06 Jun 2027 03:22:19.778            50.102               Magadan2          6262.750
       150   06 Jun 2027 03:22:59.988   06 Jun 2027 03:23:53.082            53.094              Murmansk2          6636.750
       151   06 Jun 2027 03:57:48.774   06 Jun 2027 04:00:19.861           151.087            RioGallegos         18885.875
       152   06 Jun 2027 04:32:49.677   06 Jun 2027 04:37:45.414           295.737                Sumatra         36967.125
       153   06 Jun 2027 04:54:21.200   06 Jun 2027 04:54:34.670            13.470                Irkutsk          1683.750
       154   06 Jun 2027 04:55:54.846   06 Jun 2027 04:56:25.795            30.949                Novosib          3868.625
       155   06 Jun 2027 04:56:50.703   06 Jun 2027 04:57:27.790            37.087                Novosib          4635.875
       156   06 Jun 2027 04:57:39.726   06 Jun 2027 04:58:02.944            23.218              Murmansk2          2902.250
       157   06 Jun 2027 04:58:07.082   06 Jun 2027 04:58:17.667            10.585                Norilsk          1323.125
       158   06 Jun 2027 04:58:26.378   06 Jun 2027 04:58:57.309            30.931                Irkutsk          3866.375
       159   06 Jun 2027 04:59:53.001   06 Jun 2027 05:00:29.883            36.882                Novosib          4610.250
       160   06 Jun 2027 05:36:36.350   06 Jun 2027 05:37:07.850            31.500            RioGallegos          3937.500
       161   06 Jun 2027 05:38:26.993   06 Jun 2027 05:38:51.401            24.408            RioGallegos          3051.000
       162   06 Jun 2027 06:11:02.137   06 Jun 2027 06:11:38.108            35.971                Sumatra          4496.375
       163   06 Jun 2027 06:16:40.201   06 Jun 2027 06:18:10.386            90.185                Sumatra         11273.125
       164   06 Jun 2027 06:18:58.063   06 Jun 2027 06:19:42.052            43.989                  Delhi          5498.625
       165   06 Jun 2027 06:20:39.550   06 Jun 2027 06:22:07.034            87.484                  Delhi         10935.500
       166   06 Jun 2027 06:33:16.394   06 Jun 2027 06:34:09.254            52.860                 Moscow          6607.500
       167   06 Jun 2027 06:34:34.460   06 Jun 2027 06:35:39.607            65.147                Norilsk          8143.375
       168   06 Jun 2027 06:35:44.155   06 Jun 2027 06:35:58.450            14.295                 Moscow          1786.875
       169   06 Jun 2027 07:57:08.130   06 Jun 2027 07:58:08.632            60.502                  Delhi          7562.750
       170   06 Jun 2027 08:04:42.952   06 Jun 2027 08:05:15.350            32.398              Murmansk1          4049.750
       171   06 Jun 2027 08:05:18.346   06 Jun 2027 08:06:11.815            53.469                 Moscow          6683.625
       172   06 Jun 2027 08:06:30.767   06 Jun 2027 08:07:15.166            44.399              Murmansk1          5549.875
       173   06 Jun 2027 08:07:42.987   06 Jun 2027 08:09:14.215            91.228                Norilsk         11403.500
       174   06 Jun 2027 08:09:16.691   06 Jun 2027 08:09:29.545            12.854              Murmansk1          1606.750
       175   06 Jun 2027 08:09:32.068   06 Jun 2027 08:09:54.892            22.824                 Moscow          2853.000
       176   06 Jun 2027 08:10:08.141   06 Jun 2027 08:10:50.634            42.493                 Moscow          5311.625
       177   06 Jun 2027 08:10:59.084   06 Jun 2027 08:11:21.477            22.393              Murmansk2          2799.125
       178   06 Jun 2027 08:11:39.285   06 Jun 2027 08:12:10.545            31.260                Norilsk          3907.500
       179   06 Jun 2027 08:12:18.446   06 Jun 2027 08:13:04.954            46.508                 Moscow          5813.500
       180   06 Jun 2027 09:16:48.656   06 Jun 2027 09:20:02.784           194.128               CapeTown         24266.000
       181   06 Jun 2027 09:58:06.525   06 Jun 2027 10:00:28.157           141.632                Anadyr2         17704.000
       182   06 Jun 2027 11:31:22.715   06 Jun 2027 11:31:58.222            35.507                Anadyr2          4438.375
       183   06 Jun 2027 11:33:48.388   06 Jun 2027 11:34:17.418            29.030                Anadyr2          3628.750
       184   06 Jun 2027 11:34:17.418   06 Jun 2027 11:37:40.926           203.508                Anadyr1         25438.500
       185   06 Jun 2027 13:09:42.531   06 Jun 2027 13:10:59.342            76.811               Magadan1          9601.375
       186   06 Jun 2027 13:11:48.317   06 Jun 2027 13:15:23.711           215.394               Magadan2         26924.250
       187   06 Jun 2027 15:37:25.954   06 Jun 2027 15:41:47.896           261.942            RioGallegos         32742.750
       188   06 Jun 2027 16:38:46.067   06 Jun 2027 16:42:56.928           250.861                Sumatra         31357.625
       189   06 Jun 2027 18:08:28.919   06 Jun 2027 18:10:49.262           140.343                  Delhi         17542.875
       190   06 Jun 2027 19:39:44.926   06 Jun 2027 19:39:58.344            13.418                 Moscow          1677.250
       191   06 Jun 2027 19:46:59.553   06 Jun 2027 19:47:26.855            27.302                 Moscow          3412.750
       192   06 Jun 2027 21:11:12.157   06 Jun 2027 21:11:20.925             8.768              Murmansk1          1096.000
       193   06 Jun 2027 21:18:34.687   06 Jun 2027 21:19:07.922            33.235              Murmansk2          4154.375
       194   06 Jun 2027 21:19:10.277   06 Jun 2027 21:19:26.440            16.163                 Moscow          2020.375
       195   06 Jun 2027 21:21:22.395   06 Jun 2027 21:22:28.935            66.540                 Moscow          8317.500
       196   06 Jun 2027 21:38:28.911   06 Jun 2027 21:41:18.113           169.202               CapeTown         21150.250
       197   07 Jun 2027 03:32:24.354   07 Jun 2027 03:33:09.273            44.919               Magadan2          5614.875
       198   07 Jun 2027 03:33:19.266   07 Jun 2027 03:34:01.941            42.675               Magadan2          5334.375
       199   07 Jun 2027 03:34:21.825   07 Jun 2027 03:34:50.192            28.367                Irkutsk          3545.875
       200   07 Jun 2027 03:39:41.440   07 Jun 2027 03:39:45.088             3.648                Norilsk           456.000
       201   07 Jun 2027 04:09:56.023   07 Jun 2027 04:13:02.683           186.660            RioGallegos         23332.500
       202   07 Jun 2027 04:44:43.883   07 Jun 2027 04:47:51.193           187.310                Sumatra         23413.750
       203   07 Jun 2027 05:07:19.409   07 Jun 2027 05:07:39.904            20.495                Novosib          2561.875
       204   07 Jun 2027 05:07:49.055   07 Jun 2027 05:08:33.801            44.746                Novosib          5593.250
       205   07 Jun 2027 05:08:35.025   07 Jun 2027 05:10:03.489            88.464                Irkutsk         11058.000
       206   07 Jun 2027 05:10:40.288   07 Jun 2027 05:11:06.756            26.468              Murmansk2          3308.500
       207   07 Jun 2027 05:49:30.111   07 Jun 2027 05:49:50.852            20.741            RioGallegos          2592.625
       208   07 Jun 2027 05:50:35.817   07 Jun 2027 05:51:00.917            25.100            RioGallegos          3137.500
       209   07 Jun 2027 06:24:41.579   07 Jun 2027 06:25:29.797            48.218                Sumatra          6027.250
       210   07 Jun 2027 06:28:56.617   07 Jun 2027 06:30:32.959            96.342                  Delhi         12042.750
       211   07 Jun 2027 06:31:26.116   07 Jun 2027 06:32:04.443            38.327                  Delhi          4790.875
       212   07 Jun 2027 06:45:07.319   07 Jun 2027 06:45:35.881            28.562                 Moscow          3570.250
       213   07 Jun 2027 06:45:48.800   07 Jun 2027 06:46:36.117            47.317              Murmansk2          5914.625
       214   07 Jun 2027 06:46:47.721   07 Jun 2027 06:48:07.192            79.471              Murmansk1          9933.875
       215   07 Jun 2027 08:17:10.743   07 Jun 2027 08:19:03.496           112.753              Murmansk1         14094.125
       216   07 Jun 2027 08:20:00.506   07 Jun 2027 08:23:38.671           218.165              Murmansk1         27270.625
       217   07 Jun 2027 08:26:23.336   07 Jun 2027 08:26:42.067            18.731              Murmansk2          2341.375
       218   07 Jun 2027 09:28:12.940   07 Jun 2027 09:31:53.179           220.239               CapeTown         27529.875
       219   07 Jun 2027 09:34:33.354   07 Jun 2027 09:36:26.699           113.345               CapeTown         14168.125
       220   07 Jun 2027 11:43:22.895   07 Jun 2027 11:43:53.085            30.190                Anadyr2          3773.750
       221   07 Jun 2027 11:46:03.963   07 Jun 2027 11:46:07.788             3.825                Anadyr1           478.125
       222   07 Jun 2027 11:47:09.902   07 Jun 2027 11:48:12.399            62.497                Anadyr2          7812.125
       223   07 Jun 2027 13:21:40.361   07 Jun 2027 13:22:42.356            61.995               Magadan2          7749.375
       224   07 Jun 2027 13:22:56.262   07 Jun 2027 13:26:24.775           208.513               Magadan1         26064.125
       225   07 Jun 2027 15:08:03.749   07 Jun 2027 15:09:24.802            81.053                Irkutsk         10131.625
       226   07 Jun 2027 15:19:45.667   07 Jun 2027 15:21:55.752           130.085                Sumatra         16260.625
       227   07 Jun 2027 15:49:18.500   07 Jun 2027 15:51:16.870           118.370            RioGallegos         14796.250
       228   07 Jun 2027 16:37:01.660   07 Jun 2027 16:38:27.985            86.325                Irkutsk         10790.625
       229   07 Jun 2027 16:43:38.436   07 Jun 2027 16:45:03.528            85.092                Irkutsk         10636.500
       230   07 Jun 2027 16:50:43.099   07 Jun 2027 16:51:10.927            27.828                Sumatra          3478.500
       231   07 Jun 2027 16:56:03.275   07 Jun 2027 16:58:00.005           116.730                Sumatra         14591.250
       232   07 Jun 2027 17:01:40.396   07 Jun 2027 17:02:28.749            48.353                Sumatra          6044.125
       233   07 Jun 2027 18:20:19.376   07 Jun 2027 18:24:22.402           243.026                  Delhi         30378.250
       234   07 Jun 2027 19:51:23.693   07 Jun 2027 19:53:09.697           106.004                 Moscow         13250.500
       235   07 Jun 2027 21:50:19.764   07 Jun 2027 21:53:24.601           184.837               CapeTown         23104.625
       236   08 Jun 2027 03:24:42.790   08 Jun 2027 03:26:22.422            99.632                Sumatra         12454.000
       237   08 Jun 2027 03:28:09.497   08 Jun 2027 03:30:28.823           139.326                Sumatra         17415.750
       238   08 Jun 2027 03:44:59.334   08 Jun 2027 03:45:11.880            12.546               Magadan1          1568.250
       239   08 Jun 2027 03:46:33.910   08 Jun 2027 03:47:19.283            45.373                Norilsk          5671.625
       240   08 Jun 2027 03:47:27.301   08 Jun 2027 03:47:28.617             1.316              Murmansk2           164.500
       241   08 Jun 2027 03:47:50.259   08 Jun 2027 03:48:06.483            16.224                Norilsk          2028.000
       242   08 Jun 2027 03:51:44.950   08 Jun 2027 03:52:10.915            25.965                Norilsk          3245.625
       243   08 Jun 2027 04:22:06.930   08 Jun 2027 04:22:36.686            29.756            RioGallegos          3719.500
       244   08 Jun 2027 04:28:24.582   08 Jun 2027 04:29:57.202            92.620            RioGallegos         11577.500
       245   08 Jun 2027 04:31:38.556   08 Jun 2027 04:31:52.937            14.381            RioGallegos          1797.625
       246   08 Jun 2027 04:56:43.707   08 Jun 2027 04:59:08.762           145.055                Sumatra         18131.875
       247   08 Jun 2027 05:09:20.782   08 Jun 2027 05:12:58.090           217.308                  Delhi         27163.500
       248   08 Jun 2027 05:19:54.891   08 Jun 2027 05:20:30.822            35.931                Novosib          4491.375
       249   08 Jun 2027 05:20:41.610   08 Jun 2027 05:21:11.371            29.761                Norilsk          3720.125
       250   08 Jun 2027 05:21:21.581   08 Jun 2027 05:22:04.872            43.291                Norilsk          5411.375
       251   08 Jun 2027 05:22:12.776   08 Jun 2027 05:22:48.564            35.788                 Moscow          4473.500
       252   08 Jun 2027 05:22:55.639   08 Jun 2027 05:23:21.026            25.387                Norilsk          3173.375
       253   08 Jun 2027 05:24:23.734   08 Jun 2027 05:24:41.995            18.261                Novosib          2282.625
       254   08 Jun 2027 05:25:52.584   08 Jun 2027 05:26:11.481            18.897                Norilsk          2362.125
       255   08 Jun 2027 06:02:41.584   08 Jun 2027 06:02:48.884             7.300            RioGallegos           912.500
       256   08 Jun 2027 06:04:14.790   08 Jun 2027 06:04:42.767            27.977            RioGallegos          3497.125
       257   08 Jun 2027 06:41:06.045   08 Jun 2027 06:43:46.893           160.848                  Delhi         20106.000
       258   08 Jun 2027 06:57:01.166   08 Jun 2027 06:57:29.146            27.980                 Moscow          3497.500
       259   08 Jun 2027 06:57:45.844   08 Jun 2027 06:58:54.680            68.836              Murmansk1          8604.500
       260   08 Jun 2027 06:58:56.084   08 Jun 2027 07:00:11.517            75.433                Novosib          9429.125
       261   08 Jun 2027 08:30:52.234   08 Jun 2027 08:30:59.509             7.275              Murmansk1           909.375
       262   08 Jun 2027 08:30:59.509   08 Jun 2027 08:31:56.481            56.972              Murmansk2          7121.500
       263   08 Jun 2027 08:32:20.740   08 Jun 2027 08:33:26.278            65.538              Murmansk2          8192.250
       264   08 Jun 2027 08:33:31.937   08 Jun 2027 08:33:42.713            10.776                 Moscow          1347.000
       265   08 Jun 2027 08:33:49.611   08 Jun 2027 08:34:07.342            17.731                Norilsk          2216.375
       266   08 Jun 2027 08:34:11.803   08 Jun 2027 08:34:40.723            28.920              Murmansk1          3615.000
       267   08 Jun 2027 08:34:40.723   08 Jun 2027 08:34:43.563             2.840              Murmansk2           355.000
       268   08 Jun 2027 09:39:47.488   08 Jun 2027 09:43:47.104           239.616               CapeTown         29952.000
       269   08 Jun 2027 10:24:21.815   08 Jun 2027 10:25:06.462            44.647                Anadyr2          5580.875
       270   08 Jun 2027 11:55:23.406   08 Jun 2027 11:55:49.355            25.949                Anadyr1          3243.625
       271   08 Jun 2027 11:56:22.544   08 Jun 2027 11:58:17.105           114.561                Anadyr1         14320.125
       272   08 Jun 2027 11:59:39.250   08 Jun 2027 12:00:29.529            50.279               Magadan1          6284.875
       273   08 Jun 2027 12:03:57.949   08 Jun 2027 12:06:48.881           170.932               Magadan2         21366.500
       274   08 Jun 2027 13:33:39.000   08 Jun 2027 13:33:49.755            10.755               Magadan2          1344.375
       275   08 Jun 2027 13:33:49.755   08 Jun 2027 13:36:23.445           153.690               Magadan1         19211.250
       276   08 Jun 2027 15:29:59.714   08 Jun 2027 15:34:20.996           261.282                Sumatra         32660.250
       277   08 Jun 2027 16:49:49.827   08 Jun 2027 16:51:58.097           128.270                Novosib         16033.750
       278   08 Jun 2027 17:01:39.126   08 Jun 2027 17:03:00.901            81.775                  Delhi         10221.875
       279   08 Jun 2027 17:04:16.682   08 Jun 2027 17:04:45.220            28.538                Sumatra          3567.250
       280   08 Jun 2027 17:05:51.297   08 Jun 2027 17:07:48.631           117.334                Sumatra         14666.750
       281   08 Jun 2027 18:29:14.360   08 Jun 2027 18:31:25.010           130.650                Novosib         16331.250
       282   08 Jun 2027 18:32:13.746   08 Jun 2027 18:34:59.056           165.310                  Delhi         20663.750
       283   08 Jun 2027 20:03:10.304   08 Jun 2027 20:05:21.649           131.345                 Moscow         16418.125
       284   08 Jun 2027 21:41:37.319   08 Jun 2027 21:42:15.776            38.457                 Moscow          4807.125
       285   08 Jun 2027 21:47:57.314   08 Jun 2027 21:48:31.644            34.330                 Moscow          4291.250
       286   08 Jun 2027 22:02:15.588   08 Jun 2027 22:04:21.281           125.693               CapeTown         15711.625
       287   09 Jun 2027 03:35:26.202   09 Jun 2027 03:38:03.602           157.400                Sumatra         19675.000
       288   09 Jun 2027 03:40:30.513   09 Jun 2027 03:43:39.042           188.529                Sumatra         23566.125
       289   09 Jun 2027 03:58:29.992   09 Jun 2027 03:59:06.572            36.580                Irkutsk          4572.500
       290   09 Jun 2027 04:02:55.363   09 Jun 2027 04:03:34.782            39.419                Norilsk          4927.375
       291   09 Jun 2027 04:41:57.573   09 Jun 2027 04:42:14.287            16.714            RioGallegos          2089.250
       292   09 Jun 2027 04:42:26.121   09 Jun 2027 04:43:01.696            35.575            RioGallegos          4446.875
       293   09 Jun 2027 05:08:49.151   09 Jun 2027 05:10:25.308            96.157                Sumatra         12019.625
       294   09 Jun 2027 05:18:09.905   09 Jun 2027 05:19:33.066            83.161                  Delhi         10395.125
       295   09 Jun 2027 05:32:02.405   09 Jun 2027 05:33:52.130           109.725                Novosib         13715.625
       296   09 Jun 2027 05:34:23.503   09 Jun 2027 05:34:32.850             9.347                Novosib          1168.375
       297   09 Jun 2027 05:34:33.866   09 Jun 2027 05:34:40.038             6.172                Irkutsk           771.500
       298   09 Jun 2027 05:34:49.542   09 Jun 2027 05:35:22.645            33.103                Norilsk          4137.875
       299   09 Jun 2027 05:39:00.876   09 Jun 2027 05:39:14.226            13.350                Norilsk          1668.750
       300   09 Jun 2027 06:16:50.699   09 Jun 2027 06:17:32.577            41.878            RioGallegos          5234.750
       301   09 Jun 2027 06:53:21.522   09 Jun 2027 06:55:51.747           150.225                  Delhi         18778.125
       302   09 Jun 2027 07:08:18.998   09 Jun 2027 07:08:22.695             3.697                Novosib           462.125
       303   09 Jun 2027 07:08:27.698   09 Jun 2027 07:08:32.515             4.817                Norilsk           602.125
       304   09 Jun 2027 07:08:33.888   09 Jun 2027 07:09:32.427            58.539                 Moscow          7317.375
       305   09 Jun 2027 07:09:44.227   09 Jun 2027 07:10:28.136            43.909              Murmansk1          5488.625
       306   09 Jun 2027 07:10:37.229   09 Jun 2027 07:11:05.056            27.827              Murmansk2          3478.375
       307   09 Jun 2027 07:11:20.096   09 Jun 2027 07:11:39.483            19.387                 Moscow          2423.375
       308   09 Jun 2027 08:41:55.120   09 Jun 2027 08:42:41.639            46.519              Murmansk1          5814.875
       309   09 Jun 2027 08:43:14.463   09 Jun 2027 08:45:02.793           108.330                 Moscow         13541.250
       310   09 Jun 2027 08:45:10.183   09 Jun 2027 08:45:16.345             6.162              Murmansk2           770.250
       311   09 Jun 2027 08:45:16.345   09 Jun 2027 08:46:11.501            55.156              Murmansk1          6894.500
       312   09 Jun 2027 09:51:28.945   09 Jun 2027 09:55:44.128           255.183               CapeTown         31897.875
       313   09 Jun 2027 10:32:45.636   09 Jun 2027 10:33:38.243            52.607                Anadyr2          6575.875
       314   09 Jun 2027 10:39:33.472   09 Jun 2027 10:41:16.869           103.397                Anadyr2         12924.625
       315   09 Jun 2027 12:07:24.184   09 Jun 2027 12:07:46.722            22.538                Anadyr1          2817.250
       316   09 Jun 2027 12:08:51.300   09 Jun 2027 12:09:14.572            23.272                Anadyr2          2909.000
       317   09 Jun 2027 12:10:27.920   09 Jun 2027 12:12:15.035           107.115                Anadyr1         13389.375
       318   09 Jun 2027 12:14:10.929   09 Jun 2027 12:14:46.960            36.031               Magadan2          4503.875
       319   09 Jun 2027 13:45:38.326   09 Jun 2027 13:46:20.759            42.433               Magadan1          5304.125
       320   09 Jun 2027 13:46:28.915   09 Jun 2027 13:48:36.332           127.417               Magadan2         15927.125
       321   09 Jun 2027 14:43:33.954   09 Jun 2027 14:45:25.843           111.889            RioGallegos         13986.125
       322   09 Jun 2027 15:32:08.295   09 Jun 2027 15:32:53.482            45.187                Irkutsk          5648.375
       323   09 Jun 2027 15:40:58.839   09 Jun 2027 15:46:38.252           339.413                Sumatra         42426.625
       324   09 Jun 2027 17:01:47.214   09 Jun 2027 17:04:06.742           139.528                Novosib         17441.000
       325   09 Jun 2027 17:11:21.049   09 Jun 2027 17:13:45.360           144.311                  Delhi         18038.875
       326   09 Jun 2027 17:15:23.291   09 Jun 2027 17:17:33.303           130.012                  Delhi         16251.500
       327   09 Jun 2027 18:49:22.017   09 Jun 2027 18:49:22.801             0.784                  Delhi            98.000
       328   09 Jun 2027 18:53:46.869   09 Jun 2027 18:55:11.898            85.029                  Delhi         10628.625
       329   09 Jun 2027 20:15:00.239   09 Jun 2027 20:15:46.254            46.015                 Moscow          5751.875
       330   09 Jun 2027 20:18:29.662   09 Jun 2027 20:19:26.410            56.748                 Moscow          7093.500
       331   09 Jun 2027 20:22:05.834   09 Jun 2027 20:24:28.526           142.692                 Moscow         17836.500
       332   09 Jun 2027 22:17:29.253   09 Jun 2027 22:19:22.747           113.494               CapeTown         14186.750
       333   10 Jun 2027 03:46:35.951   10 Jun 2027 03:49:51.442           195.491                Sumatra         24436.375
       334   10 Jun 2027 03:52:44.341   10 Jun 2027 03:55:40.917           176.576                Sumatra         22072.000
       335   10 Jun 2027 05:21:00.567   10 Jun 2027 05:21:53.925            53.358                Sumatra          6669.750
       336   10 Jun 2027 05:23:15.678   10 Jun 2027 05:23:38.613            22.935                Sumatra          2866.875
       337   10 Jun 2027 05:29:45.721   10 Jun 2027 05:33:53.809           248.088                  Delhi         31011.000
       338   10 Jun 2027 05:44:26.539   10 Jun 2027 05:46:00.267            93.728                Novosib         11716.000
       339   10 Jun 2027 05:46:10.203   10 Jun 2027 05:46:21.709            11.506                Novosib          1438.250
       340   10 Jun 2027 07:07:39.187   10 Jun 2027 07:08:13.515            34.328                  Delhi          4291.000
       341   10 Jun 2027 07:20:23.835   10 Jun 2027 07:20:51.267            27.432                 Moscow          3429.000
       342   10 Jun 2027 07:21:05.539   10 Jun 2027 07:21:56.265            50.726                Novosib          6340.750
       343   10 Jun 2027 07:22:19.650   10 Jun 2027 07:23:41.677            82.027              Murmansk2         10253.375
       344   10 Jun 2027 07:24:13.433   10 Jun 2027 07:25:05.300            51.867              Murmansk2          6483.375
       345   10 Jun 2027 08:56:38.633   10 Jun 2027 08:57:07.115            28.482              Murmansk2          3560.250
       346   10 Jun 2027 08:57:19.832   10 Jun 2027 08:57:30.924            11.092                 Moscow          1386.500
       347   10 Jun 2027 08:57:51.018   10 Jun 2027 08:58:05.325            14.307                 Moscow          1788.375
       348   10 Jun 2027 08:58:24.605   10 Jun 2027 08:58:26.213             1.608              Murmansk1           201.000
       349   10 Jun 2027 08:59:52.410   10 Jun 2027 09:00:16.781            24.371              Murmansk2          3046.375
       350   10 Jun 2027 10:03:15.552   10 Jun 2027 10:07:44.004           268.452               CapeTown         33556.500
       351   10 Jun 2027 10:43:41.827   10 Jun 2027 10:45:03.295            81.468                Anadyr2         10183.500
       352   10 Jun 2027 10:48:06.259   10 Jun 2027 10:48:23.746            17.487                Anadyr1          2185.875
       353   10 Jun 2027 12:19:25.164   10 Jun 2027 12:19:44.951            19.787                Anadyr2          2473.375
       354   10 Jun 2027 12:22:18.384   10 Jun 2027 12:26:43.758           265.374               Magadan1         33171.750
       355   10 Jun 2027 13:57:38.229   10 Jun 2027 13:58:13.812            35.583               Magadan2          4447.875
       356   10 Jun 2027 14:00:46.351   10 Jun 2027 14:02:28.252           101.901               Magadan1         12737.625
       357   10 Jun 2027 14:54:54.768   10 Jun 2027 14:58:30.736           215.968            RioGallegos         26996.000
       358   10 Jun 2027 15:37:53.403   10 Jun 2027 15:39:41.246           107.843                Irkutsk         13480.375
       359   10 Jun 2027 15:52:16.561   10 Jun 2027 15:55:47.623           211.062                Sumatra         26382.750
       360   10 Jun 2027 17:13:27.721   10 Jun 2027 17:17:55.189           267.468                Novosib         33433.500
       361   10 Jun 2027 17:22:22.724   10 Jun 2027 17:25:30.881           188.157                  Delhi         23519.625
       362   10 Jun 2027 18:56:12.860   10 Jun 2027 18:57:31.975            79.115                  Delhi          9889.375
       363   10 Jun 2027 20:26:52.646   10 Jun 2027 20:29:48.887           176.241                 Moscow         22030.125
       364   10 Jun 2027 22:26:22.218   10 Jun 2027 22:27:37.182            74.964               CapeTown          9370.500
       365   11 Jun 2027 03:58:00.062   11 Jun 2027 03:58:56.545            56.483                Sumatra          7060.375
       366   11 Jun 2027 03:59:52.489   11 Jun 2027 04:01:45.237           112.748                Sumatra         14093.500
       367   11 Jun 2027 04:22:30.789   11 Jun 2027 04:23:16.054            45.265                Irkutsk          5658.125
       368   11 Jun 2027 05:00:46.904   11 Jun 2027 05:01:22.696            35.792            RioGallegos          4474.000
       369   11 Jun 2027 05:33:18.718   11 Jun 2027 05:33:31.401            12.683                Sumatra          1585.375
       370   11 Jun 2027 05:35:22.354   11 Jun 2027 05:35:40.725            18.371                Sumatra          2296.375
       371   11 Jun 2027 05:37:27.283   11 Jun 2027 05:37:38.080            10.797                Sumatra          1349.625
       372   11 Jun 2027 05:39:16.420   11 Jun 2027 05:39:59.084            42.664                Sumatra          5333.000
       373   11 Jun 2027 05:41:27.856   11 Jun 2027 05:44:03.559           155.703                  Delhi         19462.875
       374   11 Jun 2027 05:57:24.470   11 Jun 2027 05:58:59.551            95.081                Novosib         11885.125
       375   11 Jun 2027 07:32:49.921   11 Jun 2027 07:33:00.025            10.104                Norilsk          1263.000
       376   11 Jun 2027 07:33:04.616   11 Jun 2027 07:34:40.457            95.841                 Moscow         11980.125
       377   11 Jun 2027 10:15:06.281   11 Jun 2027 10:17:48.660           162.379               CapeTown         20297.375
       378   11 Jun 2027 10:55:39.757   11 Jun 2027 10:56:43.030            63.273                Anadyr1          7909.125
       379   11 Jun 2027 10:57:00.901   11 Jun 2027 10:59:53.123           172.222                Anadyr2         21527.750
       380   11 Jun 2027 11:03:24.227   11 Jun 2027 11:03:39.479            15.252                Anadyr2          1906.500
       381   11 Jun 2027 12:34:10.606   11 Jun 2027 12:38:41.553           270.947               Magadan1         33868.375
       382   11 Jun 2027 14:09:38.624   11 Jun 2027 14:11:31.479           112.855               Magadan1         14106.875
       383   11 Jun 2027 15:02:21.460   11 Jun 2027 15:03:09.656            48.196            RioGallegos          6024.500
       384   11 Jun 2027 15:05:33.208   11 Jun 2027 15:06:20.034            46.826            RioGallegos          5853.250
       385   11 Jun 2027 15:49:41.124   11 Jun 2027 15:53:00.834           199.710                Irkutsk         24963.750
       386   11 Jun 2027 16:05:12.352   11 Jun 2027 16:07:44.259           151.907                Sumatra         18988.375
       387   11 Jun 2027 17:25:20.564   11 Jun 2027 17:29:53.533           272.969                Novosib         34121.125
       388   11 Jun 2027 17:33:44.441   11 Jun 2027 17:37:21.049           216.608                  Delhi         27076.000
       389   11 Jun 2027 20:38:46.973   11 Jun 2027 20:40:42.400           115.427                 Moscow         14428.375
       390   11 Jun 2027 21:11:14.527   11 Jun 2027 21:12:53.783            99.256               CapeTown         12407.000
       391   11 Jun 2027 22:38:33.431   11 Jun 2027 22:39:14.132            40.701               CapeTown          5087.625
       392   11 Jun 2027 22:41:22.330   11 Jun 2027 22:43:09.784           107.454               CapeTown         13431.750
       393   12 Jun 2027 04:09:34.120   12 Jun 2027 04:11:25.626           111.506                Sumatra         13938.250
       394   12 Jun 2027 05:45:45.102   12 Jun 2027 05:46:58.736            73.634                Sumatra          9204.250
       395   12 Jun 2027 05:47:57.823   12 Jun 2027 05:49:43.722           105.899                Sumatra         13237.375
       396   12 Jun 2027 05:53:15.737   12 Jun 2027 05:56:12.576           176.839                  Delhi         22104.875
       397   12 Jun 2027 06:09:06.232   12 Jun 2027 06:10:34.277            88.045                Novosib         11005.625
       398   12 Jun 2027 07:44:50.872   12 Jun 2027 07:46:05.545            74.673                Norilsk          9334.125
       399   12 Jun 2027 07:46:20.036   12 Jun 2027 07:47:21.350            61.314                 Moscow          7664.250
       400   12 Jun 2027 08:55:52.210   12 Jun 2027 08:56:50.184            57.974               CapeTown          7246.750
       401   12 Jun 2027 10:27:00.480   12 Jun 2027 10:29:36.799           156.319               CapeTown         19539.875
       402   12 Jun 2027 11:07:38.445   12 Jun 2027 11:08:29.438            50.993                Anadyr2          6374.125
       403   12 Jun 2027 11:09:24.604   12 Jun 2027 11:12:24.456           179.852                Anadyr1         22481.500
       404   12 Jun 2027 12:46:04.768   12 Jun 2027 12:52:28.374           383.606               Magadan1         47950.750
       405   12 Jun 2027 15:14:03.757   12 Jun 2027 15:18:14.483           250.726            RioGallegos         31340.750
       406   12 Jun 2027 16:01:31.877   12 Jun 2027 16:02:58.352            86.475                Irkutsk         10809.375
       407   12 Jun 2027 16:05:58.759   12 Jun 2027 16:06:00.687             1.928                Irkutsk           241.000
       408   12 Jun 2027 16:15:24.157   12 Jun 2027 16:19:46.480           262.323                Sumatra         32790.375
       409   12 Jun 2027 17:37:15.237   12 Jun 2027 17:39:09.857           114.620                Novosib         14327.500
       410   12 Jun 2027 17:45:17.258   12 Jun 2027 17:46:06.178            48.920                  Delhi          6115.000
       411   12 Jun 2027 17:47:21.460   12 Jun 2027 17:49:15.171           113.711                  Delhi         14213.875
       412   12 Jun 2027 20:47:17.303   12 Jun 2027 20:47:18.366             1.063              Murmansk2           132.875
       413   12 Jun 2027 20:48:23.770   12 Jun 2027 20:49:18.584            54.814              Murmansk1          6851.750
       414   12 Jun 2027 20:50:42.841   12 Jun 2027 20:52:15.983            93.142                 Moscow         11642.750
       415   12 Jun 2027 21:15:17.358   12 Jun 2027 21:15:29.146            11.788               CapeTown          1473.500
       416   12 Jun 2027 22:53:14.462   12 Jun 2027 22:55:10.734           116.272               CapeTown         14534.000
       417   13 Jun 2027 03:08:21.988   13 Jun 2027 03:08:57.981            35.993               Magadan1          4499.125
       418   13 Jun 2027 03:08:57.981   13 Jun 2027 03:09:05.767             7.786               Magadan2           973.250
       419   13 Jun 2027 03:09:18.910   13 Jun 2027 03:10:47.341            88.431               Magadan2         11053.875
       420   13 Jun 2027 03:45:59.855   13 Jun 2027 03:47:15.691            75.836            RioGallegos          9479.500
       421   13 Jun 2027 03:47:57.328   13 Jun 2027 03:48:53.160            55.832            RioGallegos          6979.000
       422   13 Jun 2027 04:21:15.954   13 Jun 2027 04:25:49.717           273.763                Sumatra         34220.375
       423   13 Jun 2027 04:43:38.279   13 Jun 2027 04:45:15.741            97.462                Norilsk         12182.750
       424   13 Jun 2027 04:45:19.931   13 Jun 2027 04:45:48.924            28.993                Novosib          3624.125
       425   13 Jun 2027 04:46:27.785   13 Jun 2027 04:47:16.137            48.352              Murmansk1          6044.000
       426   13 Jun 2027 04:47:53.996   13 Jun 2027 04:48:04.105            10.109                Norilsk          1263.625
       427   13 Jun 2027 04:48:57.731   13 Jun 2027 04:49:16.550            18.819                Norilsk          2352.375
       428   13 Jun 2027 05:24:08.810   13 Jun 2027 05:25:23.587            74.777            RioGallegos          9347.125
       429   13 Jun 2027 05:58:22.632   13 Jun 2027 06:00:08.331           105.699                Sumatra         13212.375
       430   13 Jun 2027 06:05:09.035   13 Jun 2027 06:06:33.805            84.770                  Delhi         10596.250
       431   13 Jun 2027 06:21:25.955   13 Jun 2027 06:22:13.328            47.373              Murmansk1          5921.625
       432   13 Jun 2027 06:22:23.261   13 Jun 2027 06:22:56.282            33.021                 Moscow          4127.625
       433   13 Jun 2027 06:23:43.664   13 Jun 2027 06:23:55.742            12.078                Novosib          1509.750
       434   13 Jun 2027 07:48:32.821   13 Jun 2027 07:49:24.001            51.180                  Delhi          6397.500
       435   13 Jun 2027 07:56:17.890   13 Jun 2027 07:57:52.377            94.487              Murmansk2         11810.875
       436   13 Jun 2027 07:57:57.807   13 Jun 2027 07:58:14.851            17.044              Murmansk1          2130.500
       437   13 Jun 2027 07:58:17.476   13 Jun 2027 07:58:40.973            23.497                 Moscow          2937.125
       438   13 Jun 2027 07:58:57.901   13 Jun 2027 08:00:01.475            63.574                 Moscow          7946.750
       439   13 Jun 2027 09:05:56.457   13 Jun 2027 09:08:31.228           154.771               CapeTown         19346.375
       440   13 Jun 2027 10:38:57.748   13 Jun 2027 10:40:52.227           114.479               CapeTown         14309.875
       441   13 Jun 2027 10:49:49.397   13 Jun 2027 10:50:01.426            12.029               CapeTown          1503.625
       442   13 Jun 2027 11:19:37.741   13 Jun 2027 11:20:19.798            42.057                Anadyr1          5257.125
       443   13 Jun 2027 11:21:28.785   13 Jun 2027 11:24:25.241           176.456                Anadyr2         22057.000
       444   13 Jun 2027 12:58:00.436   13 Jun 2027 13:02:39.479           279.043               Magadan1         34880.375
       445   13 Jun 2027 15:25:50.554   13 Jun 2027 15:30:10.612           260.058            RioGallegos         32507.250
       446   13 Jun 2027 16:13:24.967   13 Jun 2027 16:15:24.201           119.234                Irkutsk         14904.250
       447   13 Jun 2027 16:27:09.385   13 Jun 2027 16:29:53.266           163.881                Sumatra         20485.125
       448   13 Jun 2027 17:49:11.387   13 Jun 2027 17:51:36.802           145.415                Novosib         18176.875
       449   13 Jun 2027 17:56:57.578   13 Jun 2027 18:01:12.838           255.260                  Delhi         31907.500
       450   13 Jun 2027 21:02:39.976   13 Jun 2027 21:03:53.958            73.982                 Moscow          9247.750
       451   13 Jun 2027 21:05:21.007   13 Jun 2027 21:07:24.070           123.063                 Moscow         15382.875
