uniorb/output/strategy_1/Drop/Drop_KinoSat_111505.txt

KinoSat_111505
-------------------------
    Access    *     Start Time (UTCG)     *     Stop Time (UTCG)  *   Duration (s)        *       Station  *  Data (Mbytes)
         1   01 Jun 2027 03:20:05.574   01 Jun 2027 03:20:10.098             4.524                Novosib           141.375
         2   01 Jun 2027 03:20:15.707   01 Jun 2027 03:20:32.304            16.597                 Moscow           518.656
         3   01 Jun 2027 03:20:50.389   01 Jun 2027 03:21:40.344            49.955                Norilsk          1561.094
         4   01 Jun 2027 03:21:43.014   01 Jun 2027 03:22:37.858            54.844                Novosib          1713.875
         5   01 Jun 2027 03:22:55.391   01 Jun 2027 03:24:25.654            90.263                Norilsk          2820.719
         6   01 Jun 2027 03:24:31.186   01 Jun 2027 03:25:08.315            37.129              Murmansk2          1160.281
         7   01 Jun 2027 03:25:08.315   01 Jun 2027 03:25:47.702            39.387              Murmansk1          1230.844
         8   01 Jun 2027 03:25:48.387   01 Jun 2027 03:26:13.193            24.806                Novosib           775.188
         9   01 Jun 2027 03:42:47.775   01 Jun 2027 03:43:06.008            18.233               CapeTown           569.781
        10   01 Jun 2027 03:49:04.012   01 Jun 2027 03:49:36.084            32.072               CapeTown          1002.250
        11   01 Jun 2027 04:58:03.210   01 Jun 2027 04:59:10.582            67.372              Murmansk1          2105.375
        12   01 Jun 2027 04:59:16.627   01 Jun 2027 05:01:05.518           108.891                 Moscow          3402.844
        13   01 Jun 2027 05:01:08.715   01 Jun 2027 05:01:31.169            22.454              Murmansk1           701.688
        14   01 Jun 2027 05:04:11.619   01 Jun 2027 05:04:29.072            17.453                 Moscow           545.406
        15   01 Jun 2027 05:04:44.164   01 Jun 2027 05:05:01.745            17.581                 Moscow           549.406
        16   01 Jun 2027 06:21:06.628   01 Jun 2027 06:24:17.249           190.621                Anadyr2          5956.906
        17   01 Jun 2027 06:24:17.249   01 Jun 2027 06:24:48.857            31.608                Anadyr1           987.750
        18   01 Jun 2027 07:58:29.681   01 Jun 2027 08:02:31.093           241.412                Anadyr1          7544.125
        19   01 Jun 2027 08:02:33.635   01 Jun 2027 08:02:35.732             2.097               Magadan2            65.531
        20   01 Jun 2027 09:32:57.604   01 Jun 2027 09:33:50.726            53.122               Magadan2          1660.062
        21   01 Jun 2027 09:34:31.888   01 Jun 2027 09:38:00.161           208.273               Magadan1          6508.531
        22   01 Jun 2027 09:38:07.328   01 Jun 2027 09:38:17.791            10.463              Murmansk1           326.969
        23   01 Jun 2027 09:39:10.458   01 Jun 2027 09:39:14.596             4.138                Novosib           129.312
        24   01 Jun 2027 10:13:00.144   01 Jun 2027 10:14:06.397            66.253            RioGallegos          2070.406
        25   01 Jun 2027 10:15:14.569   01 Jun 2027 10:15:33.634            19.065            RioGallegos           595.781
        26   01 Jun 2027 10:48:37.330   01 Jun 2027 10:49:52.530            75.200                Sumatra          2350.000
        27   01 Jun 2027 11:10:15.756   01 Jun 2027 11:11:25.259            69.503                Norilsk          2171.969
        28   01 Jun 2027 11:11:39.174   01 Jun 2027 11:14:30.357           171.183                Novosib          5349.469
        29   01 Jun 2027 11:14:37.971   01 Jun 2027 11:14:58.614            20.643              Murmansk1           645.094
        30   01 Jun 2027 11:16:03.929   01 Jun 2027 11:17:07.629            63.700              Murmansk1          1990.625
        31   01 Jun 2027 11:50:29.183   01 Jun 2027 11:51:16.847            47.664            RioGallegos          1489.500
        32   01 Jun 2027 11:54:51.224   01 Jun 2027 11:55:40.938            49.714            RioGallegos          1553.562
        33   01 Jun 2027 12:24:41.996   01 Jun 2027 12:25:54.305            72.309                Sumatra          2259.656
        34   01 Jun 2027 12:28:11.366   01 Jun 2027 12:28:34.511            23.145                Sumatra           723.281
        35   01 Jun 2027 12:29:03.415   01 Jun 2027 12:29:59.468            56.053                Sumatra          1751.656
        36   01 Jun 2027 12:40:08.438   01 Jun 2027 12:40:15.244             6.806                Irkutsk           212.687
        37   01 Jun 2027 12:41:24.387   01 Jun 2027 12:42:29.239            64.852                Irkutsk          2026.625
        38   01 Jun 2027 12:43:10.264   01 Jun 2027 12:43:36.504            26.240                Norilsk           820.000
        39   01 Jun 2027 12:44:39.691   01 Jun 2027 12:45:01.450            21.759                Irkutsk           679.969
        40   01 Jun 2027 12:45:25.161   01 Jun 2027 12:45:40.465            15.304                Norilsk           478.250
        41   01 Jun 2027 12:46:15.444   01 Jun 2027 12:47:23.485            68.041                Norilsk          2126.281
        42   01 Jun 2027 14:09:50.029   01 Jun 2027 14:13:11.330           201.301                  Delhi          6290.656
        43   01 Jun 2027 14:18:19.476   01 Jun 2027 14:19:54.229            94.753                Novosib          2961.031
        44   01 Jun 2027 14:20:16.975   01 Jun 2027 14:20:36.116            19.141              Murmansk1           598.156
        45   01 Jun 2027 14:21:44.210   01 Jun 2027 14:22:46.841            62.631                Norilsk          1957.219
        46   01 Jun 2027 14:23:43.555   01 Jun 2027 14:24:30.294            46.739                Norilsk          1460.594
        47   01 Jun 2027 14:25:35.682   01 Jun 2027 14:26:51.919            76.237                Norilsk          2382.406
        48   01 Jun 2027 15:52:44.049   01 Jun 2027 15:54:30.128           106.079                 Moscow          3314.969
        49   01 Jun 2027 15:56:13.955   01 Jun 2027 15:57:57.647           103.692              Murmansk1          3240.375
        50   01 Jun 2027 15:58:59.710   01 Jun 2027 15:59:30.801            31.091              Murmansk2           971.594
        51   01 Jun 2027 16:04:13.375   01 Jun 2027 16:05:20.754            67.379                Norilsk          2105.594
        52   01 Jun 2027 16:11:43.903   01 Jun 2027 16:12:55.289            71.386                Anadyr1          2230.813
        53   01 Jun 2027 17:06:01.335   01 Jun 2027 17:08:03.553           122.218               CapeTown          3819.312
        54   01 Jun 2027 17:32:34.022   01 Jun 2027 17:36:40.168           246.146                 Moscow          7692.063
        55   01 Jun 2027 17:46:38.152   01 Jun 2027 17:48:14.244            96.092                Anadyr1          3002.875
        56   01 Jun 2027 18:42:46.288   01 Jun 2027 18:44:02.304            76.016               CapeTown          2375.500
        57   01 Jun 2027 18:45:58.076   01 Jun 2027 18:46:57.519            59.443               CapeTown          1857.594
        58   01 Jun 2027 19:15:38.422   01 Jun 2027 19:19:22.943           224.521              Murmansk1          7016.281
        59   01 Jun 2027 19:23:36.413   01 Jun 2027 19:24:10.028            33.615                Anadyr2          1050.469
        60   01 Jun 2027 19:25:04.831   01 Jun 2027 19:26:36.842            92.011               Magadan1          2875.344
        61   01 Jun 2027 19:27:50.851   01 Jun 2027 19:28:28.468            37.617               Magadan1          1175.531
        62   01 Jun 2027 19:29:51.024   01 Jun 2027 19:30:17.511            26.487               Magadan2           827.719
        63   01 Jun 2027 19:31:07.256   01 Jun 2027 19:31:07.607             0.351               Magadan1            10.969
        64   01 Jun 2027 19:31:08.929   01 Jun 2027 19:31:14.966             6.037               Magadan1           188.656
        65   01 Jun 2027 19:31:45.226   01 Jun 2027 19:32:03.781            18.555               Magadan1           579.844
        66   01 Jun 2027 20:58:23.574   01 Jun 2027 21:00:29.198           125.624                Anadyr2          3925.750
        67   01 Jun 2027 21:00:39.815   01 Jun 2027 21:05:04.351           264.536               Magadan2          8266.750
        68   01 Jun 2027 21:05:08.043   01 Jun 2027 21:05:15.956             7.913               Magadan2           247.281
        69   01 Jun 2027 21:05:58.340   01 Jun 2027 21:06:08.655            10.315               Magadan2           322.344
        70   01 Jun 2027 21:07:40.490   01 Jun 2027 21:07:51.456            10.966               Magadan2           342.687
        71   01 Jun 2027 21:53:04.845   01 Jun 2027 21:56:20.188           195.343            RioGallegos          6104.469
        72   01 Jun 2027 22:34:04.226   01 Jun 2027 22:36:20.396           136.170                Anadyr1          4255.312
        73   01 Jun 2027 22:36:40.629   01 Jun 2027 22:37:49.754            69.125                Norilsk          2160.156
        74   01 Jun 2027 22:37:50.063   01 Jun 2027 22:38:36.500            46.437               Magadan2          1451.156
        75   01 Jun 2027 22:40:32.505   01 Jun 2027 22:41:47.392            74.887                Irkutsk          2340.219
        76   01 Jun 2027 22:43:46.676   01 Jun 2027 22:45:32.885           106.209                Novosib          3319.031
        77   01 Jun 2027 22:54:56.860   01 Jun 2027 22:55:28.117            31.257                Sumatra           976.781
        78   01 Jun 2027 22:56:01.467   01 Jun 2027 22:56:34.336            32.869                Sumatra          1027.156
        79   01 Jun 2027 23:00:55.584   01 Jun 2027 23:00:58.471             2.887                Sumatra            90.219
        80   01 Jun 2027 23:06:16.092   01 Jun 2027 23:06:23.467             7.375                Sumatra           230.469
        81   02 Jun 2027 00:08:57.546   02 Jun 2027 00:11:13.840           136.294                Anadyr1          4259.188
        82   02 Jun 2027 00:12:09.366   02 Jun 2027 00:12:19.213             9.847                Norilsk           307.719
        83   02 Jun 2027 00:12:48.904   02 Jun 2027 00:14:21.144            92.240               Magadan1          2882.500
        84   02 Jun 2027 00:16:01.336   02 Jun 2027 00:17:38.234            96.898                Irkutsk          3028.063
        85   02 Jun 2027 00:18:14.567   02 Jun 2027 00:19:27.006            72.439                Novosib          2263.719
        86   02 Jun 2027 00:24:20.033   02 Jun 2027 00:27:15.929           175.896                  Delhi          5496.750
        87   02 Jun 2027 01:05:57.340   02 Jun 2027 01:06:10.998            13.658            RioGallegos           426.813
        88   02 Jun 2027 01:10:57.990   02 Jun 2027 01:11:19.391            21.401            RioGallegos           668.781
        89   02 Jun 2027 01:42:37.508   02 Jun 2027 01:44:08.620            91.112                Anadyr2          2847.250
        90   02 Jun 2027 01:44:57.060   02 Jun 2027 01:45:20.686            23.626                Anadyr1           738.313
        91   02 Jun 2027 01:48:30.865   02 Jun 2027 01:49:38.153            67.288               Magadan2          2102.750
        92   02 Jun 2027 01:49:38.153   02 Jun 2027 01:50:04.872            26.719               Magadan1           834.969
        93   02 Jun 2027 01:50:27.776   02 Jun 2027 01:51:45.327            77.551               Magadan2          2423.469
        94   02 Jun 2027 01:51:54.000   02 Jun 2027 01:52:03.992             9.992              Murmansk1           312.250
        95   02 Jun 2027 01:52:26.669   02 Jun 2027 01:52:57.723            31.054                Novosib           970.438
        96   02 Jun 2027 01:53:04.121   02 Jun 2027 01:53:18.852            14.731                Novosib           460.344
        97   02 Jun 2027 01:54:53.760   02 Jun 2027 01:55:10.667            16.907                Novosib           528.344
        98   02 Jun 2027 01:55:30.270   02 Jun 2027 01:55:44.254            13.984                Novosib           437.000
        99   02 Jun 2027 01:55:46.064   02 Jun 2027 01:55:54.141             8.077              Murmansk2           252.406
       100   02 Jun 2027 01:56:05.439   02 Jun 2027 01:56:12.088             6.649                 Moscow           207.781
       101   02 Jun 2027 01:56:14.493   02 Jun 2027 01:56:32.590            18.097                 Moscow           565.531
       102   02 Jun 2027 01:59:25.101   02 Jun 2027 01:59:49.593            24.492                  Delhi           765.375
       103   02 Jun 2027 02:00:05.170   02 Jun 2027 02:01:24.380            79.210                  Delhi          2475.312
       104   02 Jun 2027 02:43:49.761   02 Jun 2027 02:44:01.566            11.805            RioGallegos           368.906
       105   02 Jun 2027 03:17:24.732   02 Jun 2027 03:17:34.771            10.039                Anadyr2           313.719
       106   02 Jun 2027 03:33:10.051   02 Jun 2027 03:35:10.550           120.499              Murmansk1          3765.594
       107   02 Jun 2027 03:35:20.412   02 Jun 2027 03:36:56.321            95.909                 Moscow          2997.156
       108   02 Jun 2027 03:36:58.173   02 Jun 2027 03:37:32.487            34.314                Novosib          1072.312
       109   02 Jun 2027 03:37:54.468   02 Jun 2027 03:38:16.322            21.854                 Moscow           682.938
       110   02 Jun 2027 03:38:31.994   02 Jun 2027 03:40:19.445           107.451                 Moscow          3357.844
       111   02 Jun 2027 03:54:21.270   02 Jun 2027 03:57:23.476           182.206               CapeTown          5693.938
       112   02 Jun 2027 04:01:43.369   02 Jun 2027 04:02:00.482            17.113               CapeTown           534.781
       113   02 Jun 2027 04:51:32.227   02 Jun 2027 04:51:48.202            15.975                Anadyr1           499.219
       114   02 Jun 2027 05:06:03.633   02 Jun 2027 05:06:45.418            41.785                Novosib          1305.781
       115   02 Jun 2027 05:10:05.230   02 Jun 2027 05:11:18.727            73.497              Murmansk2          2296.781
       116   02 Jun 2027 05:11:26.867   02 Jun 2027 05:13:54.562           147.695              Murmansk1          4615.469
       117   02 Jun 2027 05:14:36.057   02 Jun 2027 05:15:30.456            54.399                 Moscow          1699.969
       118   02 Jun 2027 05:15:56.548   02 Jun 2027 05:16:24.522            27.974                 Moscow           874.188
       119   02 Jun 2027 05:29:48.542   02 Jun 2027 05:30:39.520            50.978               CapeTown          1593.062
       120   02 Jun 2027 06:33:25.578   02 Jun 2027 06:35:10.002           104.424                Anadyr1          3263.250
       121   02 Jun 2027 06:38:00.349   02 Jun 2027 06:38:59.706            59.357                Anadyr2          1854.906
       122   02 Jun 2027 08:10:09.340   02 Jun 2027 08:10:45.924            36.584                Anadyr1          1143.250
       123   02 Jun 2027 08:11:00.112   02 Jun 2027 08:14:32.567           212.455                Anadyr2          6639.219
       124   02 Jun 2027 09:44:58.651   02 Jun 2027 09:45:25.558            26.907               Magadan2           840.844
       125   02 Jun 2027 09:45:51.977   02 Jun 2027 09:49:51.318           239.341               Magadan1          7479.406
       126   02 Jun 2027 09:50:11.781   02 Jun 2027 09:50:56.592            44.811                Novosib          1400.344
       127   02 Jun 2027 09:51:03.551   02 Jun 2027 09:51:10.535             6.984              Murmansk2           218.250
       128   02 Jun 2027 10:25:00.356   02 Jun 2027 10:27:28.847           148.491            RioGallegos          4640.344
       129   02 Jun 2027 11:00:18.420   02 Jun 2027 11:00:54.806            36.386                Sumatra          1137.063
       130   02 Jun 2027 11:21:28.848   02 Jun 2027 11:22:29.247            60.399                Novosib          1887.469
       131   02 Jun 2027 11:22:35.739   02 Jun 2027 11:26:16.159           220.420                Irkutsk          6888.125
       132   02 Jun 2027 12:03:03.826   02 Jun 2027 12:03:31.819            27.993            RioGallegos           874.781
       133   02 Jun 2027 12:04:17.054   02 Jun 2027 12:04:57.267            40.213            RioGallegos          1256.656
       134   02 Jun 2027 12:06:09.778   02 Jun 2027 12:06:29.413            19.635            RioGallegos           613.594
       135   02 Jun 2027 12:37:18.366   02 Jun 2027 12:38:57.371            99.005                Sumatra          3093.906
       136   02 Jun 2027 12:40:15.551   02 Jun 2027 12:40:59.858            44.307                Sumatra          1384.594
       137   02 Jun 2027 12:50:27.805   02 Jun 2027 12:51:00.963            33.158                  Delhi          1036.188
       138   02 Jun 2027 12:51:16.169   02 Jun 2027 12:51:19.043             2.874                Novosib            89.812
       139   02 Jun 2027 12:51:42.684   02 Jun 2027 12:52:28.598            45.914                Novosib          1434.812
       140   02 Jun 2027 12:53:42.553   02 Jun 2027 12:56:39.834           177.281                Irkutsk          5540.031
       141   02 Jun 2027 13:00:22.356   02 Jun 2027 13:00:28.614             6.258                Irkutsk           195.562
       142   02 Jun 2027 13:03:57.887   02 Jun 2027 13:05:13.504            75.617                Norilsk          2363.031
       143   02 Jun 2027 14:22:45.411   02 Jun 2027 14:25:03.684           138.273                  Delhi          4321.031
       144   02 Jun 2027 14:27:14.977   02 Jun 2027 14:27:20.555             5.578                  Delhi           174.312
       145   02 Jun 2027 14:29:41.175   02 Jun 2027 14:30:25.097            43.922                 Moscow          1372.563
       146   02 Jun 2027 14:31:16.593   02 Jun 2027 14:34:06.075           169.482                Novosib          5296.313
       147   02 Jun 2027 14:34:17.151   02 Jun 2027 14:34:45.020            27.869                Norilsk           870.906
       148   02 Jun 2027 14:37:40.080   02 Jun 2027 14:38:18.546            38.466                Norilsk          1202.062
       149   02 Jun 2027 15:45:03.906   02 Jun 2027 15:46:40.746            96.840               CapeTown          3026.250
       150   02 Jun 2027 16:04:58.443   02 Jun 2027 16:05:47.837            49.394                 Moscow          1543.563
       151   02 Jun 2027 16:07:38.050   02 Jun 2027 16:08:21.346            43.296                 Moscow          1353.000
       152   02 Jun 2027 16:08:25.299   02 Jun 2027 16:08:40.950            15.651              Murmansk2           489.094
       153   02 Jun 2027 16:08:40.950   02 Jun 2027 16:09:11.663            30.713              Murmansk1           959.781
       154   02 Jun 2027 16:10:57.703   02 Jun 2027 16:11:55.225            57.522              Murmansk2          1797.562
       155   02 Jun 2027 16:23:28.146   02 Jun 2027 16:24:28.031            59.885                Anadyr1          1871.406
       156   02 Jun 2027 16:24:37.825   02 Jun 2027 16:26:28.670           110.845                Anadyr1          3463.906
       157   02 Jun 2027 17:17:58.585   02 Jun 2027 17:19:41.104           102.519               CapeTown          3203.719
       158   02 Jun 2027 17:45:44.772   02 Jun 2027 17:49:56.747           251.975                 Moscow          7874.219
       159   02 Jun 2027 17:51:14.019   02 Jun 2027 17:52:45.489            91.470              Murmansk1          2858.438
       160   02 Jun 2027 18:03:45.675   02 Jun 2027 18:05:52.070           126.395               Magadan1          3949.844
       161   02 Jun 2027 18:55:21.881   02 Jun 2027 18:56:11.282            49.401               CapeTown          1543.781
       162   02 Jun 2027 19:29:04.044   02 Jun 2027 19:31:00.099           116.055              Murmansk1          3626.719
       163   02 Jun 2027 19:35:24.215   02 Jun 2027 19:35:49.042            24.827                Anadyr1           775.844
       164   02 Jun 2027 19:35:52.573   02 Jun 2027 19:36:11.271            18.698                Anadyr1           584.313
       165   02 Jun 2027 19:37:00.706   02 Jun 2027 19:38:37.771            97.065               Magadan2          3033.281
       166   02 Jun 2027 19:40:23.195   02 Jun 2027 19:41:43.903            80.708               Magadan2          2522.125
       167   02 Jun 2027 21:10:24.541   02 Jun 2027 21:15:32.818           308.277                Anadyr2          9633.656
       168   02 Jun 2027 21:16:01.128   02 Jun 2027 21:18:36.142           155.014               Magadan2          4844.187
       169   02 Jun 2027 21:19:22.532   02 Jun 2027 21:19:38.059            15.527               Magadan2           485.219
       170   02 Jun 2027 21:20:05.050   02 Jun 2027 21:20:26.172            21.122               Magadan1           660.062
       171   02 Jun 2027 21:23:27.779   02 Jun 2027 21:23:33.262             5.483               Magadan1           171.344
       172   02 Jun 2027 21:24:33.109   02 Jun 2027 21:25:02.640            29.531               Magadan1           922.844
       173   02 Jun 2027 22:04:51.573   02 Jun 2027 22:07:04.571           132.998            RioGallegos          4156.187
       174   02 Jun 2027 22:07:31.475   02 Jun 2027 22:08:13.525            42.050            RioGallegos          1314.063
       175   02 Jun 2027 22:46:01.384   02 Jun 2027 22:47:44.673           103.289                Anadyr2          3227.781
       176   02 Jun 2027 22:48:14.157   02 Jun 2027 22:48:23.430             9.273                Norilsk           289.781
       177   02 Jun 2027 22:48:44.686   02 Jun 2027 22:50:10.130            85.444               Magadan2          2670.125
       178   02 Jun 2027 22:50:18.603   02 Jun 2027 22:50:34.742            16.139               Magadan2           504.344
       179   02 Jun 2027 22:52:03.164   02 Jun 2027 22:52:11.139             7.975               Magadan2           249.219
       180   02 Jun 2027 22:52:25.706   02 Jun 2027 22:53:12.427            46.721                Irkutsk          1460.031
       181   02 Jun 2027 22:54:22.561   02 Jun 2027 22:55:18.860            56.299                Irkutsk          1759.344
       182   02 Jun 2027 22:55:46.239   02 Jun 2027 22:57:10.100            83.861                Novosib          2620.656
       183   02 Jun 2027 23:06:11.557   02 Jun 2027 23:08:25.315           133.758                Sumatra          4179.937
       184   02 Jun 2027 23:16:17.071   02 Jun 2027 23:17:57.751           100.680                Sumatra          3146.250
       185   03 Jun 2027 00:20:45.871   03 Jun 2027 00:21:21.031            35.160                Anadyr2          1098.750
       186   03 Jun 2027 00:24:11.600   03 Jun 2027 00:26:14.097           122.497                Norilsk          3828.031
       187   03 Jun 2027 00:27:52.266   03 Jun 2027 00:27:57.774             5.508                Norilsk           172.125
       188   03 Jun 2027 00:28:04.074   03 Jun 2027 00:30:09.132           125.058                Irkutsk          3908.062
       189   03 Jun 2027 00:30:33.958   03 Jun 2027 00:30:58.728            24.770                Novosib           774.063
       190   03 Jun 2027 00:33:45.589   03 Jun 2027 00:34:19.208            33.619                Novosib          1050.594
       191   03 Jun 2027 00:35:37.119   03 Jun 2027 00:35:55.058            17.939                Novosib           560.594
       192   03 Jun 2027 00:35:59.840   03 Jun 2027 00:37:07.903            68.063                  Delhi          2126.969
       193   03 Jun 2027 00:37:37.071   03 Jun 2027 00:38:07.520            30.449                  Delhi           951.531
       194   03 Jun 2027 00:45:22.386   03 Jun 2027 00:45:40.019            17.633                  Delhi           551.031
       195   03 Jun 2027 00:46:03.918   03 Jun 2027 00:46:18.119            14.201                  Delhi           443.781
       196   03 Jun 2027 00:48:48.826   03 Jun 2027 00:49:44.130            55.304                Sumatra          1728.250
       197   03 Jun 2027 01:16:32.297   03 Jun 2027 01:17:32.461            60.164            RioGallegos          1880.125
       198   03 Jun 2027 01:26:14.582   03 Jun 2027 01:26:47.108            32.526            RioGallegos          1016.437
       199   03 Jun 2027 01:54:18.656   03 Jun 2027 01:54:34.753            16.097                Anadyr1           503.031
       200   03 Jun 2027 01:54:34.864   03 Jun 2027 01:55:15.016            40.152                Anadyr2          1254.750
       201   03 Jun 2027 01:56:39.059   03 Jun 2027 01:56:53.645            14.586                Anadyr2           455.813
       202   03 Jun 2027 02:00:11.278   03 Jun 2027 02:01:48.308            97.030                Norilsk          3032.188
       203   03 Jun 2027 02:02:32.289   03 Jun 2027 02:04:05.073            92.784              Murmansk2          2899.500
       204   03 Jun 2027 02:04:11.680   03 Jun 2027 02:04:45.652            33.972                Novosib          1061.625
       205   03 Jun 2027 02:05:12.661   03 Jun 2027 02:05:20.941             8.280                Novosib           258.750
       206   03 Jun 2027 02:05:37.947   03 Jun 2027 02:06:02.549            24.602                Novosib           768.813
       207   03 Jun 2027 02:09:18.778   03 Jun 2027 02:09:51.403            32.625                Novosib          1019.531
       208   03 Jun 2027 02:11:36.742   03 Jun 2027 02:12:26.252            49.510                  Delhi          1547.188
       209   03 Jun 2027 02:18:24.910   03 Jun 2027 02:19:17.164            52.254                  Delhi          1632.938
       210   03 Jun 2027 03:37:28.523   03 Jun 2027 03:38:49.125            80.602                Anadyr1          2518.813
       211   03 Jun 2027 03:45:11.253   03 Jun 2027 03:45:19.278             8.025                 Moscow           250.781
       212   03 Jun 2027 03:45:32.814   03 Jun 2027 03:48:09.474           156.660                Norilsk          4895.625
       213   03 Jun 2027 03:48:16.442   03 Jun 2027 03:50:23.563           127.121              Murmansk2          3972.531
       214   03 Jun 2027 03:51:11.283   03 Jun 2027 03:54:06.320           175.037                 Moscow          5469.906
       215   03 Jun 2027 04:06:00.940   03 Jun 2027 04:12:10.920           369.980               CapeTown         11561.875
       216   03 Jun 2027 04:12:22.678   03 Jun 2027 04:12:58.584            35.906               CapeTown          1122.063
       217   03 Jun 2027 04:13:28.376   03 Jun 2027 04:13:52.914            24.538               CapeTown           766.812
       218   03 Jun 2027 04:15:23.138   03 Jun 2027 04:17:13.970           110.832               CapeTown          3463.500
       219   03 Jun 2027 05:09:45.683   03 Jun 2027 05:10:55.708            70.025                Anadyr2          2188.281
       220   03 Jun 2027 05:20:47.883   03 Jun 2027 05:20:50.568             2.685                Norilsk            83.906
       221   03 Jun 2027 05:21:03.761   03 Jun 2027 05:21:22.362            18.601              Murmansk1           581.281
       222   03 Jun 2027 05:21:40.312   03 Jun 2027 05:22:27.759            47.447                Norilsk          1482.719
       223   03 Jun 2027 05:22:31.287   03 Jun 2027 05:24:46.400           135.113              Murmansk1          4222.281
       224   03 Jun 2027 05:24:57.529   03 Jun 2027 05:27:14.711           137.182              Murmansk2          4286.938
       225   03 Jun 2027 05:28:34.070   03 Jun 2027 05:29:09.580            35.510                 Moscow          1109.688
       226   03 Jun 2027 06:44:14.103   03 Jun 2027 06:45:07.154            53.051                Anadyr1          1657.844
       227   03 Jun 2027 06:45:18.617   03 Jun 2027 06:47:30.857           132.240               Magadan1          4132.500
       228   03 Jun 2027 06:47:35.026   03 Jun 2027 06:48:02.656            27.630                Anadyr2           863.438
       229   03 Jun 2027 06:56:48.482   03 Jun 2027 06:57:09.293            20.811                 Moscow           650.344
       230   03 Jun 2027 06:57:29.397   03 Jun 2027 06:57:46.944            17.547                 Moscow           548.344
       231   03 Jun 2027 08:21:22.973   03 Jun 2027 08:22:40.325            77.352                Anadyr2          2417.250
       232   03 Jun 2027 08:22:40.325   03 Jun 2027 08:25:11.377           151.052                Anadyr1          4720.375
       233   03 Jun 2027 08:25:11.377   03 Jun 2027 08:26:26.296            74.919                Anadyr2          2341.219
       234   03 Jun 2027 09:56:23.283   03 Jun 2027 09:57:47.496            84.213                Norilsk          2631.656
       235   03 Jun 2027 09:57:47.902   03 Jun 2027 09:58:15.407            27.505                Novosib           859.531
       236   03 Jun 2027 09:58:19.600   03 Jun 2027 09:58:57.400            37.800                Norilsk          1181.250
       237   03 Jun 2027 09:59:25.656   03 Jun 2027 10:01:39.335           133.679               Magadan2          4177.469
       238   03 Jun 2027 10:01:41.306   03 Jun 2027 10:01:57.152            15.846                Norilsk           495.188
       239   03 Jun 2027 10:02:06.252   03 Jun 2027 10:03:06.738            60.486              Murmansk1          1890.188
       240   03 Jun 2027 10:03:06.738   03 Jun 2027 10:03:12.983             6.245              Murmansk2           195.156
       241   03 Jun 2027 10:05:32.045   03 Jun 2027 10:05:39.783             7.738              Murmansk2           241.812
       242   03 Jun 2027 10:05:39.783   03 Jun 2027 10:06:21.583            41.800              Murmansk1          1306.250
       243   03 Jun 2027 10:37:03.944   03 Jun 2027 10:39:19.760           135.816            RioGallegos          4244.250
       244   03 Jun 2027 11:12:06.274   03 Jun 2027 11:12:46.330            40.056                Sumatra          1251.750
       245   03 Jun 2027 11:17:35.136   03 Jun 2027 11:18:20.771            45.635                Sumatra          1426.094
       246   03 Jun 2027 11:32:03.226   03 Jun 2027 11:33:29.049            85.823                Irkutsk          2681.969
       247   03 Jun 2027 11:33:46.368   03 Jun 2027 11:34:03.731            17.363                Novosib           542.594
       248   03 Jun 2027 11:34:19.653   03 Jun 2027 11:35:29.403            69.750                Norilsk          2179.688
       249   03 Jun 2027 11:35:38.093   03 Jun 2027 11:38:10.981           152.888                Irkutsk          4777.750
       250   03 Jun 2027 12:15:46.067   03 Jun 2027 12:15:51.050             4.983            RioGallegos           155.719
       251   03 Jun 2027 12:17:57.851   03 Jun 2027 12:20:16.466           138.615            RioGallegos          4331.719
       252   03 Jun 2027 12:50:11.640   03 Jun 2027 12:50:11.809             0.169                Sumatra             5.281
       253   03 Jun 2027 12:52:50.423   03 Jun 2027 12:54:50.966           120.543                Sumatra          3766.969
       254   03 Jun 2027 13:06:46.891   03 Jun 2027 13:07:12.384            25.493                Novosib           796.656
       255   03 Jun 2027 13:07:34.877   03 Jun 2027 13:08:49.689            74.812                Norilsk          2337.875
       256   03 Jun 2027 13:09:44.785   03 Jun 2027 13:10:21.372            36.587                Norilsk          1143.344
       257   03 Jun 2027 13:18:33.281   03 Jun 2027 13:18:47.536            14.255                Norilsk           445.469
       258   03 Jun 2027 14:36:10.263   03 Jun 2027 14:39:18.309           188.046                  Delhi          5876.438
       259   03 Jun 2027 14:41:44.859   03 Jun 2027 14:42:13.857            28.998                 Moscow           906.188
       260   03 Jun 2027 14:43:58.772   03 Jun 2027 14:45:13.309            74.537              Murmansk1          2329.281
       261   03 Jun 2027 14:45:15.315   03 Jun 2027 14:45:32.225            16.910              Murmansk2           528.437
       262   03 Jun 2027 14:45:50.635   03 Jun 2027 14:46:06.180            15.545              Murmansk2           485.781
       263   03 Jun 2027 14:46:50.370   03 Jun 2027 14:48:09.358            78.988                Novosib          2468.375
       264   03 Jun 2027 14:49:10.781   03 Jun 2027 14:50:57.643           106.862                Norilsk          3339.437
       265   03 Jun 2027 15:56:07.347   03 Jun 2027 15:58:33.365           146.018               CapeTown          4563.063
       266   03 Jun 2027 16:18:03.904   03 Jun 2027 16:18:37.250            33.346                 Moscow          1042.063
       267   03 Jun 2027 16:20:38.548   03 Jun 2027 16:21:12.906            34.358              Murmansk1          1073.687
       268   03 Jun 2027 16:21:51.376   03 Jun 2027 16:21:55.625             4.249                 Moscow           132.781
       269   03 Jun 2027 16:23:55.904   03 Jun 2027 16:24:57.954            62.050              Murmansk1          1939.063
       270   03 Jun 2027 16:35:17.311   03 Jun 2027 16:36:27.028            69.717                Anadyr2          2178.656
       271   03 Jun 2027 16:37:10.224   03 Jun 2027 16:37:30.172            19.948                Anadyr1           623.375
       272   03 Jun 2027 16:37:52.308   03 Jun 2027 16:38:18.417            26.109                Anadyr2           815.906
       273   03 Jun 2027 16:38:33.018   03 Jun 2027 16:38:43.837            10.819                Anadyr1           338.094
       274   03 Jun 2027 16:42:09.605   03 Jun 2027 16:42:19.251             9.646                Anadyr2           301.437
       275   03 Jun 2027 17:29:58.722   03 Jun 2027 17:32:26.233           147.511               CapeTown          4609.719
       276   03 Jun 2027 17:59:24.188   03 Jun 2027 18:02:46.433           202.245              Murmansk1          6320.156
       277   03 Jun 2027 18:03:16.179   03 Jun 2027 18:04:30.688            74.509              Murmansk1          2328.406
       278   03 Jun 2027 18:14:47.593   03 Jun 2027 18:15:37.564            49.971               Magadan1          1561.594
       279   03 Jun 2027 18:15:47.181   03 Jun 2027 18:16:04.011            16.830               Magadan1           525.938
       280   03 Jun 2027 18:16:18.732   03 Jun 2027 18:18:28.702           129.970               Magadan1          4061.562
       281   03 Jun 2027 19:46:31.225   03 Jun 2027 19:50:34.459           243.234                Anadyr1          7601.063
       282   03 Jun 2027 19:50:40.398   03 Jun 2027 19:51:19.940            39.542               Magadan1          1235.687
       283   03 Jun 2027 19:51:47.959   03 Jun 2027 19:52:06.639            18.680                Anadyr1           583.750
       284   03 Jun 2027 19:54:42.679   03 Jun 2027 19:54:55.850            13.171               Magadan2           411.594
       285   03 Jun 2027 19:58:27.994   03 Jun 2027 19:59:23.221            55.227               Magadan1          1725.844
       286   03 Jun 2027 21:22:25.236   03 Jun 2027 21:26:06.225           220.989                Anadyr1          6905.906
       287   03 Jun 2027 21:26:52.406   03 Jun 2027 21:28:21.047            88.641               Magadan2          2770.031
       288   03 Jun 2027 21:28:21.047   03 Jun 2027 21:28:42.255            21.208               Magadan1           662.750
       289   03 Jun 2027 21:29:22.520   03 Jun 2027 21:29:52.123            29.603                Norilsk           925.094
       290   03 Jun 2027 21:30:52.491   03 Jun 2027 21:31:33.390            40.899               Magadan2          1278.094
       291   03 Jun 2027 21:31:53.313   03 Jun 2027 21:33:21.954            88.641                Irkutsk          2770.031
       292   03 Jun 2027 22:16:41.685   03 Jun 2027 22:18:28.557           106.872            RioGallegos          3339.750
       293   03 Jun 2027 22:22:15.256   03 Jun 2027 22:22:39.966            24.710            RioGallegos           772.188
       294   03 Jun 2027 22:24:56.995   03 Jun 2027 22:25:08.530            11.535            RioGallegos           360.469
       295   03 Jun 2027 22:25:22.329   03 Jun 2027 22:25:47.788            25.459            RioGallegos           795.594
       296   03 Jun 2027 22:57:57.727   03 Jun 2027 22:58:29.123            31.396                Anadyr2           981.125
       297   03 Jun 2027 22:58:52.107   03 Jun 2027 22:59:11.161            19.054                Anadyr2           595.437
       298   03 Jun 2027 22:59:46.027   03 Jun 2027 23:00:19.203            33.176                Anadyr2          1036.750
       299   03 Jun 2027 23:00:30.139   03 Jun 2027 23:00:55.077            24.938                Norilsk           779.312
       300   03 Jun 2027 23:01:03.020   03 Jun 2027 23:01:20.055            17.035                Norilsk           532.344
       301   03 Jun 2027 23:01:29.058   03 Jun 2027 23:01:56.518            27.460               Magadan1           858.125
       302   03 Jun 2027 23:02:36.275   03 Jun 2027 23:03:46.093            69.818               Magadan2          2181.812
       303   03 Jun 2027 23:04:20.818   03 Jun 2027 23:05:15.846            55.028                Irkutsk          1719.625
       304   03 Jun 2027 23:05:46.718   03 Jun 2027 23:06:03.243            16.525                Novosib           516.406
       305   03 Jun 2027 23:07:12.264   03 Jun 2027 23:08:10.159            57.895                Novosib          1809.219
       306   03 Jun 2027 23:18:02.492   03 Jun 2027 23:18:39.804            37.312                Sumatra          1166.000
       307   03 Jun 2027 23:22:54.443   03 Jun 2027 23:24:12.146            77.703                Sumatra          2428.219
       308   03 Jun 2027 23:30:29.338   03 Jun 2027 23:30:37.336             7.998                Sumatra           249.937
       309   04 Jun 2027 00:01:45.976   04 Jun 2027 00:02:01.569            15.593            RioGallegos           487.281
       310   04 Jun 2027 00:03:51.409   04 Jun 2027 00:04:54.190            62.781            RioGallegos          1961.906
       311   04 Jun 2027 00:32:32.892   04 Jun 2027 00:33:25.896            53.004                Anadyr2          1656.375
       312   04 Jun 2027 00:34:48.902   04 Jun 2027 00:35:05.292            16.390                Anadyr2           512.187
       313   04 Jun 2027 00:36:13.853   04 Jun 2027 00:36:17.974             4.121                Norilsk           128.781
       314   04 Jun 2027 00:36:53.462   04 Jun 2027 00:37:44.163            50.701               Magadan2          1584.406
       315   04 Jun 2027 00:38:50.192   04 Jun 2027 00:39:02.638            12.446               Magadan2           388.938
       316   04 Jun 2027 00:39:02.638   04 Jun 2027 00:39:11.624             8.986               Magadan1           280.812
       317   04 Jun 2027 00:39:25.482   04 Jun 2027 00:39:44.786            19.304               Magadan2           603.250
       318   04 Jun 2027 00:40:07.594   04 Jun 2027 00:40:42.441            34.847                Irkutsk          1088.969
       319   04 Jun 2027 00:41:15.788   04 Jun 2027 00:43:34.156           138.368                Novosib          4324.000
       320   04 Jun 2027 00:47:45.507   04 Jun 2027 00:48:29.378            43.871                  Delhi          1370.969
       321   04 Jun 2027 00:49:16.730   04 Jun 2027 00:49:26.654             9.924                  Delhi           310.125
       322   04 Jun 2027 00:51:32.890   04 Jun 2027 00:51:54.931            22.041                  Delhi           688.781
       323   04 Jun 2027 00:54:02.860   04 Jun 2027 00:54:17.226            14.366                  Delhi           448.938
       324   04 Jun 2027 00:54:54.786   04 Jun 2027 00:55:13.157            18.371                  Delhi           574.094
       325   04 Jun 2027 00:56:48.177   04 Jun 2027 00:57:11.856            23.679                  Delhi           739.969
       326   04 Jun 2027 00:59:00.942   04 Jun 2027 00:59:19.113            18.171                  Delhi           567.844
       327   04 Jun 2027 01:29:06.898   04 Jun 2027 01:29:26.462            19.564            RioGallegos           611.375
       328   04 Jun 2027 01:31:20.202   04 Jun 2027 01:31:25.267             5.065            RioGallegos           158.281
       329   04 Jun 2027 01:32:06.559   04 Jun 2027 01:32:24.737            18.178            RioGallegos           568.062
       330   04 Jun 2027 01:32:54.403   04 Jun 2027 01:33:23.239            28.836            RioGallegos           901.125
       331   04 Jun 2027 01:35:16.889   04 Jun 2027 01:35:21.772             4.883            RioGallegos           152.594
       332   04 Jun 2027 01:35:39.946   04 Jun 2027 01:36:03.035            23.089            RioGallegos           721.531
       333   04 Jun 2027 02:05:59.681   04 Jun 2027 02:06:30.853            31.172                Anadyr1           974.125
       334   04 Jun 2027 02:06:42.953   04 Jun 2027 02:07:15.312            32.359                Anadyr1          1011.219
       335   04 Jun 2027 02:08:44.218   04 Jun 2027 02:08:56.885            12.667                Anadyr1           395.844
       336   04 Jun 2027 02:11:14.742   04 Jun 2027 02:11:40.067            25.325                Anadyr1           791.406
       337   04 Jun 2027 02:11:40.067   04 Jun 2027 02:11:57.284            17.217                Anadyr2           538.031
       338   04 Jun 2027 02:12:10.639   04 Jun 2027 02:12:47.422            36.783               Magadan2          1149.469
       339   04 Jun 2027 02:13:06.582   04 Jun 2027 02:13:34.567            27.985                Norilsk           874.531
       340   04 Jun 2027 02:14:30.604   04 Jun 2027 02:15:59.024            88.420              Murmansk1          2763.125
       341   04 Jun 2027 02:16:02.249   04 Jun 2027 02:16:33.290            31.041                Novosib           970.031
       342   04 Jun 2027 02:17:42.999   04 Jun 2027 02:18:03.738            20.739                Novosib           648.094
       343   04 Jun 2027 02:20:04.196   04 Jun 2027 02:20:04.948             0.752                Irkutsk            23.500
       344   04 Jun 2027 02:20:47.360   04 Jun 2027 02:21:28.467            41.107                 Moscow          1284.594
       345   04 Jun 2027 02:25:12.487   04 Jun 2027 02:25:24.436            11.949                Novosib           373.406
       346   04 Jun 2027 02:25:34.071   04 Jun 2027 02:27:42.498           128.427                  Delhi          4013.344
       347   04 Jun 2027 03:57:16.127   04 Jun 2027 03:58:47.106            90.979              Murmansk2          2843.094
       348   04 Jun 2027 03:58:56.115   04 Jun 2027 03:59:35.563            39.448                Novosib          1232.750
       349   04 Jun 2027 03:59:45.611   04 Jun 2027 04:00:00.247            14.636                Norilsk           457.375
       350   04 Jun 2027 04:00:04.708   04 Jun 2027 04:01:18.538            73.830                Novosib          2307.187
       351   04 Jun 2027 04:01:40.479   04 Jun 2027 04:02:38.418            57.939              Murmansk2          1810.594
       352   04 Jun 2027 04:03:12.766   04 Jun 2027 04:06:17.950           185.184                 Moscow          5787.000
       353   04 Jun 2027 04:17:46.190   04 Jun 2027 04:24:04.315           378.125               CapeTown         11816.406
       354   04 Jun 2027 04:26:34.582   04 Jun 2027 04:27:12.556            37.974               CapeTown          1186.688
       355   04 Jun 2027 04:28:30.109   04 Jun 2027 04:29:37.832            67.723               CapeTown          2116.344
       356   04 Jun 2027 05:21:50.161   04 Jun 2027 05:22:49.950            59.789               Magadan1          1868.406
       357   04 Jun 2027 05:23:00.955   04 Jun 2027 05:23:22.961            22.006                Anadyr1           687.688
       358   04 Jun 2027 05:24:17.346   04 Jun 2027 05:24:46.535            29.189               Magadan2           912.156
       359   04 Jun 2027 05:24:50.659   04 Jun 2027 05:25:02.097            11.438                Anadyr1           357.437
       360   04 Jun 2027 05:32:49.714   04 Jun 2027 05:33:21.224            31.510              Murmansk2           984.687
       361   04 Jun 2027 05:33:40.279   04 Jun 2027 05:34:03.860            23.581                Norilsk           736.906
       362   04 Jun 2027 05:34:22.560   04 Jun 2027 05:34:44.821            22.261              Murmansk1           695.656
       363   04 Jun 2027 05:35:12.056   04 Jun 2027 05:35:29.920            17.864              Murmansk1           558.250
       364   04 Jun 2027 05:35:34.987   04 Jun 2027 05:35:54.805            19.818              Murmansk1           619.313
       365   04 Jun 2027 05:36:31.800   04 Jun 2027 05:37:21.579            49.779                 Moscow          1555.594
       366   04 Jun 2027 05:38:41.140   04 Jun 2027 05:39:15.815            34.675              Murmansk1          1083.594
       367   04 Jun 2027 06:57:06.725   04 Jun 2027 06:57:29.325            22.600                Anadyr1           706.250
       368   04 Jun 2027 06:57:29.325   04 Jun 2027 06:58:01.336            32.011                Anadyr2          1000.344
       369   04 Jun 2027 06:58:16.625   04 Jun 2027 07:02:00.982           224.357                Anadyr1          7011.156
       370   04 Jun 2027 07:02:00.982   04 Jun 2027 07:03:00.755            59.773                Anadyr2          1867.906
       371   04 Jun 2027 08:30:24.221   04 Jun 2027 08:31:18.947            54.726                Anadyr2          1710.188
       372   04 Jun 2027 08:31:49.069   04 Jun 2027 08:33:05.163            76.094               Magadan2          2377.937
       373   04 Jun 2027 08:33:21.775   04 Jun 2027 08:33:39.511            17.736               Magadan1           554.250
       374   04 Jun 2027 08:33:39.511   04 Jun 2027 08:36:00.382           140.871               Magadan2          4402.219
       375   04 Jun 2027 08:36:08.930   04 Jun 2027 08:38:17.545           128.615                Anadyr1          4019.219
       376   04 Jun 2027 10:07:39.492   04 Jun 2027 10:07:50.677            11.185                Irkutsk           349.531
       377   04 Jun 2027 10:07:52.275   04 Jun 2027 10:08:08.186            15.911                Irkutsk           497.219
       378   04 Jun 2027 10:08:10.321   04 Jun 2027 10:08:13.384             3.063                Norilsk            95.719
       379   04 Jun 2027 10:08:15.398   04 Jun 2027 10:08:26.157            10.759                Novosib           336.219
       380   04 Jun 2027 10:08:36.189   04 Jun 2027 10:09:05.511            29.322                Irkutsk           916.313
       381   04 Jun 2027 10:09:42.441   04 Jun 2027 10:09:51.058             8.617                Norilsk           269.281
       382   04 Jun 2027 10:10:10.801   04 Jun 2027 10:10:15.196             4.395                Irkutsk           137.344
       383   04 Jun 2027 10:10:32.708   04 Jun 2027 10:11:23.135            50.427                Irkutsk          1575.844
       384   04 Jun 2027 10:11:31.184   04 Jun 2027 10:12:02.395            31.211                Norilsk           975.344
       385   04 Jun 2027 10:12:10.214   04 Jun 2027 10:12:21.730            11.516                Irkutsk           359.875
       386   04 Jun 2027 10:12:25.241   04 Jun 2027 10:12:43.077            17.836               Magadan2           557.375
       387   04 Jun 2027 10:12:43.077   04 Jun 2027 10:13:22.736            39.659               Magadan1          1239.344
       388   04 Jun 2027 10:13:43.236   04 Jun 2027 10:13:57.465            14.229                Norilsk           444.656
       389   04 Jun 2027 10:14:00.258   04 Jun 2027 10:14:06.785             6.527              Murmansk2           203.969
       390   04 Jun 2027 10:14:06.785   04 Jun 2027 10:14:32.173            25.388              Murmansk1           793.375
       391   04 Jun 2027 10:49:11.021   04 Jun 2027 10:49:54.125            43.104            RioGallegos          1347.000
       392   04 Jun 2027 10:51:06.157   04 Jun 2027 10:51:13.889             7.732            RioGallegos           241.625
       393   04 Jun 2027 10:51:54.672   04 Jun 2027 10:52:19.133            24.461            RioGallegos           764.406
       394   04 Jun 2027 11:01:36.542   04 Jun 2027 11:01:52.566            16.024            RioGallegos           500.750
       395   04 Jun 2027 11:24:00.161   04 Jun 2027 11:24:31.623            31.462                Sumatra           983.187
       396   04 Jun 2027 11:27:06.710   04 Jun 2027 11:27:11.529             4.819                Sumatra           150.594
       397   04 Jun 2027 11:34:43.003   04 Jun 2027 11:35:19.383            36.380                  Delhi          1136.875
       398   04 Jun 2027 11:43:07.761   04 Jun 2027 11:43:33.203            25.442                Irkutsk           795.063
       399   04 Jun 2027 11:44:08.342   04 Jun 2027 11:44:43.992            35.650                Irkutsk          1114.063
       400   04 Jun 2027 11:45:00.970   04 Jun 2027 11:45:26.301            25.331                Novosib           791.594
       401   04 Jun 2027 11:45:41.145   04 Jun 2027 11:45:46.118             4.973                Norilsk           155.406
       402   04 Jun 2027 11:45:54.207   04 Jun 2027 11:46:05.449            11.242                Novosib           351.313
       403   04 Jun 2027 11:46:26.306   04 Jun 2027 11:47:10.824            44.518              Murmansk2          1391.187
       404   04 Jun 2027 11:47:20.562   04 Jun 2027 11:47:35.222            14.660                Novosib           458.125
       405   04 Jun 2027 11:47:35.744   04 Jun 2027 11:47:59.318            23.574                Irkutsk           736.688
       406   04 Jun 2027 11:48:02.474   04 Jun 2027 11:49:09.341            66.867              Murmansk2          2089.594
       407   04 Jun 2027 11:49:20.028   04 Jun 2027 11:49:50.455            30.427              Murmansk2           950.844
       408   04 Jun 2027 11:49:50.455   04 Jun 2027 11:50:00.952            10.497              Murmansk1           328.031
       409   04 Jun 2027 11:50:11.761   04 Jun 2027 11:51:20.339            68.578              Murmansk2          2143.062
       410   04 Jun 2027 12:28:38.571   04 Jun 2027 12:29:05.177            26.606            RioGallegos           831.438
       411   04 Jun 2027 12:29:59.844   04 Jun 2027 12:32:16.580           136.736            RioGallegos          4273.000
       412   04 Jun 2027 13:03:43.965   04 Jun 2027 13:03:57.394            13.429                Sumatra           419.656
       413   04 Jun 2027 13:04:34.561   04 Jun 2027 13:07:03.832           149.271                Sumatra          4664.719
       414   04 Jun 2027 13:18:04.043   04 Jun 2027 13:18:24.651            20.608                Novosib           644.000
       415   04 Jun 2027 13:19:43.637   04 Jun 2027 13:21:07.692            84.055                Irkutsk          2626.719
       416   04 Jun 2027 13:27:05.643   04 Jun 2027 13:27:37.176            31.533                Norilsk           985.406
       417   04 Jun 2027 13:30:37.904   04 Jun 2027 13:30:46.636             8.732                Norilsk           272.875
       418   04 Jun 2027 14:52:36.736   04 Jun 2027 14:55:52.281           195.545                 Moscow          6110.781
       419   04 Jun 2027 14:56:00.137   04 Jun 2027 14:57:36.922            96.785              Murmansk2          3024.531
       420   04 Jun 2027 14:58:04.417   04 Jun 2027 14:59:14.829            70.412              Murmansk2          2200.375
       421   04 Jun 2027 14:59:31.959   04 Jun 2027 15:00:39.874            67.915                Norilsk          2122.344
       422   04 Jun 2027 15:03:30.318   04 Jun 2027 15:04:14.545            44.227                Norilsk          1382.094
       423   04 Jun 2027 16:07:30.687   04 Jun 2027 16:08:34.016            63.329               CapeTown          1979.031
       424   04 Jun 2027 16:10:54.721   04 Jun 2027 16:10:59.317             4.596               CapeTown           143.625
       425   04 Jun 2027 16:11:20.205   04 Jun 2027 16:11:40.718            20.513               CapeTown           641.031
       426   04 Jun 2027 16:13:41.908   04 Jun 2027 16:14:26.577            44.669               CapeTown          1395.906
       427   04 Jun 2027 16:29:38.586   04 Jun 2027 16:30:05.780            27.194                 Moscow           849.812
       428   04 Jun 2027 16:31:49.984   04 Jun 2027 16:32:34.094            44.110                 Moscow          1378.438
       429   04 Jun 2027 16:32:53.751   04 Jun 2027 16:33:13.860            20.109              Murmansk1           628.406
       430   04 Jun 2027 16:34:16.653   04 Jun 2027 16:34:49.648            32.995              Murmansk1          1031.094
       431   04 Jun 2027 16:37:24.283   04 Jun 2027 16:38:15.228            50.945              Murmansk1          1592.031
       432   04 Jun 2027 16:47:09.609   04 Jun 2027 16:48:26.606            76.997                Anadyr1          2406.156
       433   04 Jun 2027 16:49:11.461   04 Jun 2027 16:50:14.507            63.046                Anadyr1          1970.187
       434   04 Jun 2027 16:55:55.394   04 Jun 2027 16:56:07.661            12.267                Anadyr2           383.344
       435   04 Jun 2027 17:42:01.633   04 Jun 2027 17:44:17.361           135.728               CapeTown          4241.500
       436   04 Jun 2027 18:11:58.704   04 Jun 2027 18:12:39.161            40.457              Murmansk1          1264.281
       437   04 Jun 2027 18:13:21.320   04 Jun 2027 18:15:18.256           116.936              Murmansk2          3654.250
       438   04 Jun 2027 18:16:06.034   04 Jun 2027 18:17:04.061            58.027              Murmansk2          1813.344
       439   04 Jun 2027 18:25:14.135   04 Jun 2027 18:25:19.036             4.901                Anadyr2           153.156
       440   04 Jun 2027 18:25:30.977   04 Jun 2027 18:25:57.640            26.663                Anadyr2           833.219
       441   04 Jun 2027 18:26:17.788   04 Jun 2027 18:27:32.060            74.272               Magadan1          2321.000
       442   04 Jun 2027 18:27:49.145   04 Jun 2027 18:27:59.734            10.589               Magadan2           330.906
       443   04 Jun 2027 18:28:34.840   04 Jun 2027 18:29:21.958            47.118               Magadan2          1472.437
       444   04 Jun 2027 19:25:07.888   04 Jun 2027 19:25:22.768            14.880               CapeTown           465.000
       445   04 Jun 2027 19:58:32.918   04 Jun 2027 20:03:07.888           274.970                Anadyr1          8592.813
       446   04 Jun 2027 20:03:20.440   04 Jun 2027 20:04:35.353            74.913               Magadan2          2341.031
       447   04 Jun 2027 20:07:05.767   04 Jun 2027 20:07:36.576            30.809               Magadan1           962.781
       448   04 Jun 2027 20:11:10.954   04 Jun 2027 20:11:36.432            25.478               Magadan2           796.188
       449   04 Jun 2027 20:12:02.503   04 Jun 2027 20:12:16.462            13.959               Magadan2           436.219
       450   04 Jun 2027 21:34:25.615   04 Jun 2027 21:36:33.956           128.341                Anadyr2          4010.656
       451   04 Jun 2027 21:36:41.499   04 Jun 2027 21:41:20.992           279.493                Norilsk          8734.156
       452   04 Jun 2027 21:42:22.231   04 Jun 2027 21:43:20.016            57.785                Irkutsk          1805.781
       453   04 Jun 2027 21:45:01.529   04 Jun 2027 21:45:01.535             0.006                Irkutsk             0.187
       454   04 Jun 2027 21:47:19.697   04 Jun 2027 21:48:03.253            43.556                Irkutsk          1361.125
       455   04 Jun 2027 21:59:19.363   04 Jun 2027 22:00:51.350            91.987                Sumatra          2874.594
       456   04 Jun 2027 22:34:21.995   04 Jun 2027 22:34:39.700            17.705            RioGallegos           553.281
       457   04 Jun 2027 22:36:56.884   04 Jun 2027 22:37:53.380            56.496            RioGallegos          1765.500
       458   04 Jun 2027 23:09:53.152   04 Jun 2027 23:10:29.253            36.101                Anadyr1          1128.156
       459   04 Jun 2027 23:10:30.465   04 Jun 2027 23:11:47.324            76.859                Anadyr2          2401.844
       460   04 Jun 2027 23:12:16.425   04 Jun 2027 23:13:10.402            53.977                Norilsk          1686.781
       461   04 Jun 2027 23:13:17.150   04 Jun 2027 23:13:22.637             5.487                Norilsk           171.469
       462   04 Jun 2027 23:13:24.499   04 Jun 2027 23:14:00.339            35.840               Magadan2          1120.000
       463   04 Jun 2027 23:15:22.688   04 Jun 2027 23:15:30.413             7.725               Magadan2           241.406
       464   04 Jun 2027 23:16:17.520   04 Jun 2027 23:16:27.146             9.626                Irkutsk           300.813
       465   04 Jun 2027 23:17:22.352   04 Jun 2027 23:17:51.328            28.976                Irkutsk           905.500
       466   04 Jun 2027 23:17:59.823   04 Jun 2027 23:19:17.456            77.633                Novosib          2426.031
       467   04 Jun 2027 23:29:59.252   04 Jun 2027 23:30:47.782            48.530                Sumatra          1516.563
       468   04 Jun 2027 23:33:54.550   04 Jun 2027 23:34:23.183            28.633                Sumatra           894.781
       469   04 Jun 2027 23:38:27.986   04 Jun 2027 23:38:51.642            23.656                Sumatra           739.250
       470   04 Jun 2027 23:39:09.053   04 Jun 2027 23:39:19.283            10.230                Sumatra           319.688
       471   05 Jun 2027 00:09:44.622   05 Jun 2027 00:10:01.523            16.901            RioGallegos           528.156
       472   05 Jun 2027 00:10:40.088   05 Jun 2027 00:11:06.770            26.682            RioGallegos           833.812
       473   05 Jun 2027 00:14:28.567   05 Jun 2027 00:15:02.023            33.456            RioGallegos          1045.500
       474   05 Jun 2027 00:44:18.656   05 Jun 2027 00:45:21.170            62.514                Anadyr1          1953.562
       475   05 Jun 2027 00:45:21.170   05 Jun 2027 00:45:42.124            20.954                Anadyr2           654.813
       476   05 Jun 2027 00:46:03.204   05 Jun 2027 00:46:10.198             6.994                Anadyr2           218.562
       477   05 Jun 2027 00:46:32.916   05 Jun 2027 00:46:47.100            14.184                Anadyr1           443.250
       478   05 Jun 2027 00:47:17.824   05 Jun 2027 00:47:18.556             0.732                Anadyr1            22.875
       479   05 Jun 2027 00:48:16.097   05 Jun 2027 00:49:33.281            77.184                Norilsk          2412.000
       480   05 Jun 2027 00:50:54.341   05 Jun 2027 00:50:58.436             4.095               Magadan2           127.969
       481   05 Jun 2027 00:51:05.139   05 Jun 2027 00:51:13.722             8.583               Magadan1           268.219
       482   05 Jun 2027 00:51:20.323   05 Jun 2027 00:51:29.620             9.297                Norilsk           290.531
