uniorb/output/strategy_1/Drop/Drop_KinoSat_110806.txt

KinoSat_110806
-------------------------
    Access    *     Start Time (UTCG)     *     Stop Time (UTCG)  *   Duration (s)        *       Station  *  Data (Mbytes)
         1   01 Jun 2027 03:27:38.878   01 Jun 2027 03:29:11.646            92.768               Magadan1          2899.000
         2   01 Jun 2027 03:29:11.646   01 Jun 2027 03:29:44.832            33.186               Magadan2          1037.062
         3   01 Jun 2027 03:29:44.832   01 Jun 2027 03:30:10.100            25.268               Magadan1           789.625
         4   01 Jun 2027 03:30:15.487   01 Jun 2027 03:32:37.358           141.871                Anadyr1          4433.469
         5   01 Jun 2027 05:03:54.219   01 Jun 2027 05:05:34.107            99.888               Magadan1          3121.500
         6   01 Jun 2027 05:05:42.725   01 Jun 2027 05:05:51.139             8.414               Magadan2           262.937
         7   01 Jun 2027 05:05:54.380   01 Jun 2027 05:06:30.088            35.708               Magadan2          1115.875
         8   01 Jun 2027 05:06:31.271   01 Jun 2027 05:07:14.068            42.797                Norilsk          1337.406
         9   01 Jun 2027 05:07:20.972   01 Jun 2027 05:07:39.051            18.079              Murmansk1           564.969
        10   01 Jun 2027 05:07:43.445   01 Jun 2027 05:08:14.035            30.590               Magadan1           955.937
        11   01 Jun 2027 05:44:24.852   01 Jun 2027 05:46:01.052            96.200            RioGallegos          3006.250
        12   01 Jun 2027 06:38:28.452   01 Jun 2027 06:39:33.506            65.054               Magadan2          2032.937
        13   01 Jun 2027 06:39:35.042   01 Jun 2027 06:42:21.336           166.294                Irkutsk          5196.688
        14   01 Jun 2027 06:42:42.281   01 Jun 2027 06:44:09.549            87.268                Norilsk          2727.125
        15   01 Jun 2027 07:18:38.460   01 Jun 2027 07:19:11.044            32.584            RioGallegos          1018.250
        16   01 Jun 2027 07:19:51.263   01 Jun 2027 07:20:27.573            36.310            RioGallegos          1134.688
        17   01 Jun 2027 07:53:58.520   01 Jun 2027 07:56:20.901           142.381                Sumatra          4449.406
        18   01 Jun 2027 08:06:41.087   01 Jun 2027 08:07:51.432            70.345                  Delhi          2198.281
        19   01 Jun 2027 08:15:30.382   01 Jun 2027 08:16:30.502            60.120                Norilsk          1878.750
        20   01 Jun 2027 08:16:41.528   01 Jun 2027 08:19:57.644           196.116              Murmansk2          6128.625
        21   01 Jun 2027 08:19:57.644   01 Jun 2027 08:21:21.362            83.718              Murmansk1          2616.187
        22   01 Jun 2027 08:56:39.095   01 Jun 2027 08:57:22.036            42.941            RioGallegos          1341.906
        23   01 Jun 2027 09:00:15.980   01 Jun 2027 09:00:34.923            18.943            RioGallegos           591.969
        24   01 Jun 2027 09:30:51.777   01 Jun 2027 09:31:00.491             8.714                Sumatra           272.312
        25   01 Jun 2027 09:31:18.572   01 Jun 2027 09:31:57.951            39.379                Sumatra          1230.594
        26   01 Jun 2027 09:39:14.376   01 Jun 2027 09:40:55.950           101.574                  Delhi          3174.187
        27   01 Jun 2027 09:53:20.318   01 Jun 2027 09:54:18.374            58.056                Irkutsk          1814.250
        28   01 Jun 2027 09:54:34.637   01 Jun 2027 09:55:39.814            65.177                Novosib          2036.781
        29   01 Jun 2027 09:55:49.012   01 Jun 2027 09:57:19.607            90.595                Novosib          2831.094
        30   01 Jun 2027 09:57:21.199   01 Jun 2027 09:57:34.429            13.230                 Moscow           413.438
        31   01 Jun 2027 09:58:28.901   01 Jun 2027 09:58:42.604            13.703                Norilsk           428.219
        32   01 Jun 2027 11:16:17.539   01 Jun 2027 11:19:14.288           176.749                  Delhi          5523.406
        33   01 Jun 2027 11:28:51.780   01 Jun 2027 11:29:47.279            55.499              Murmansk2          1734.344
        34   01 Jun 2027 11:29:57.706   01 Jun 2027 11:32:26.654           148.948                Norilsk          4654.625
        35   01 Jun 2027 11:32:37.640   01 Jun 2027 11:32:46.648             9.008                Norilsk           281.500
        36   01 Jun 2027 11:33:42.250   01 Jun 2027 11:33:54.022            11.772                 Moscow           367.875
        37   01 Jun 2027 11:34:18.932   01 Jun 2027 11:34:28.054             9.122              Murmansk1           285.063
        38   01 Jun 2027 12:38:52.549   01 Jun 2027 12:40:54.123           121.574               CapeTown          3799.187
        39   01 Jun 2027 12:43:39.968   01 Jun 2027 12:44:30.024            50.056               CapeTown          1564.250
        40   01 Jun 2027 12:58:35.359   01 Jun 2027 12:59:36.064            60.705                 Moscow          1897.031
        41   01 Jun 2027 13:02:02.658   01 Jun 2027 13:03:47.293           104.635              Murmansk2          3269.844
        42   01 Jun 2027 13:03:47.293   01 Jun 2027 13:05:20.079            92.786              Murmansk1          2899.563
        43   01 Jun 2027 13:17:10.677   01 Jun 2027 13:23:29.519           378.842                Anadyr1         11838.813
        44   01 Jun 2027 14:42:28.001   01 Jun 2027 14:42:32.715             4.714              Murmansk2           147.313
        45   01 Jun 2027 14:42:38.717   01 Jun 2027 14:42:47.781             9.064              Murmansk2           283.250
        46   01 Jun 2027 14:52:16.873   01 Jun 2027 14:56:24.258           247.385                Anadyr2          7730.781
        47   01 Jun 2027 14:57:45.665   01 Jun 2027 14:59:42.794           117.129               Magadan1          3660.281
        48   01 Jun 2027 16:22:42.229   01 Jun 2027 16:22:56.171            13.942              Murmansk2           435.687
        49   01 Jun 2027 16:23:52.716   01 Jun 2027 16:24:16.849            24.133              Murmansk1           754.156
        50   01 Jun 2027 16:28:07.599   01 Jun 2027 16:30:29.991           142.392                Anadyr1          4449.750
        51   01 Jun 2027 16:30:40.338   01 Jun 2027 16:33:41.329           180.991               Magadan1          5655.969
        52   01 Jun 2027 16:34:40.155   01 Jun 2027 16:35:42.887            62.732               Magadan1          1960.375
        53   01 Jun 2027 16:38:53.087   01 Jun 2027 16:39:17.184            24.097               Magadan1           753.031
        54   01 Jun 2027 18:04:01.944   01 Jun 2027 18:07:25.273           203.329                Anadyr1          6354.031
        55   01 Jun 2027 18:08:00.486   01 Jun 2027 18:09:20.427            79.941               Magadan1          2498.156
        56   01 Jun 2027 18:09:20.427   01 Jun 2027 18:10:03.338            42.911               Magadan2          1340.969
        57   01 Jun 2027 18:10:37.355   01 Jun 2027 18:10:46.432             9.077                Norilsk           283.656
        58   01 Jun 2027 18:14:20.592   01 Jun 2027 18:14:41.574            20.982               Magadan1           655.687
        59   01 Jun 2027 18:58:32.286   01 Jun 2027 19:02:15.258           222.972            RioGallegos          6967.875
        60   01 Jun 2027 19:41:53.873   01 Jun 2027 19:43:38.211           104.338                Norilsk          3260.563
        61   01 Jun 2027 19:44:07.257   01 Jun 2027 19:44:54.370            47.113               Magadan1          1472.281
        62   01 Jun 2027 19:45:07.679   01 Jun 2027 19:45:48.888            41.209               Magadan1          1287.781
        63   01 Jun 2027 19:46:05.392   01 Jun 2027 19:47:33.648            88.256                Irkutsk          2758.000
        64   01 Jun 2027 19:48:11.537   01 Jun 2027 19:53:04.453           292.916                Novosib          9153.625
        65   01 Jun 2027 20:00:46.263   01 Jun 2027 20:02:29.083           102.820                Sumatra          3213.125
        66   01 Jun 2027 20:03:45.498   01 Jun 2027 20:04:11.822            26.324                Sumatra           822.625
        67   01 Jun 2027 21:21:11.131   01 Jun 2027 21:21:12.023             0.892                Norilsk            27.875
        68   01 Jun 2027 21:21:41.681   01 Jun 2027 21:22:15.690            34.009                Irkutsk          1062.781
        69   01 Jun 2027 21:22:26.531   01 Jun 2027 21:24:11.468           104.937                Novosib          3279.281
        70   01 Jun 2027 21:24:52.912   01 Jun 2027 21:25:51.599            58.687                Novosib          1833.969
        71   01 Jun 2027 21:27:30.904   01 Jun 2027 21:27:34.465             3.561                Novosib           111.281
        72   01 Jun 2027 21:29:40.556   01 Jun 2027 21:33:15.784           215.228                  Delhi          6725.875
        73   01 Jun 2027 21:35:18.993   01 Jun 2027 21:35:34.370            15.377                  Delhi           480.531
        74   01 Jun 2027 22:53:56.328   01 Jun 2027 22:55:24.421            88.093               Magadan1          2752.906
        75   01 Jun 2027 22:56:12.855   01 Jun 2027 23:00:15.911           243.056              Murmansk1          7595.500
        76   01 Jun 2027 23:00:37.496   01 Jun 2027 23:01:42.593            65.097              Murmansk2          2034.281
        77   01 Jun 2027 23:02:08.572   01 Jun 2027 23:07:01.183           292.611                 Moscow          9144.094
        78   02 Jun 2027 00:31:57.321   02 Jun 2027 00:33:31.918            94.597              Murmansk2          2956.156
        79   02 Jun 2027 00:35:17.470   02 Jun 2027 00:36:09.049            51.579              Murmansk2          1611.844
        80   02 Jun 2027 00:37:22.684   02 Jun 2027 00:37:56.354            33.670                 Moscow          1052.188
        81   02 Jun 2027 00:38:07.508   02 Jun 2027 00:38:38.836            31.328              Murmansk1           979.000
        82   02 Jun 2027 00:39:23.305   02 Jun 2027 00:39:41.809            18.504                 Moscow           578.250
        83   02 Jun 2027 00:59:40.739   02 Jun 2027 01:01:38.001           117.262               CapeTown          3664.438
        84   02 Jun 2027 01:02:00.020   02 Jun 2027 01:03:17.117            77.097               CapeTown          2409.281
        85   02 Jun 2027 01:58:19.548   02 Jun 2027 01:59:05.909            46.361               Magadan1          1448.781
        86   02 Jun 2027 01:59:14.010   02 Jun 2027 02:00:04.962            50.952               Magadan1          1592.250
        87   02 Jun 2027 02:04:41.477   02 Jun 2027 02:04:45.683             4.206               Magadan2           131.437
        88   02 Jun 2027 02:06:54.154   02 Jun 2027 02:06:55.438             1.284                Norilsk            40.125
        89   02 Jun 2027 02:06:57.210   02 Jun 2027 02:07:04.706             7.496                Norilsk           234.250
        90   02 Jun 2027 02:07:55.391   02 Jun 2027 02:09:06.512            71.121              Murmansk1          2222.531
        91   02 Jun 2027 02:09:36.496   02 Jun 2027 02:09:58.170            21.674              Murmansk2           677.312
        92   02 Jun 2027 02:10:43.177   02 Jun 2027 02:11:08.290            25.113              Murmansk1           784.781
        93   02 Jun 2027 02:11:08.290   02 Jun 2027 02:11:14.683             6.393              Murmansk2           199.781
        94   02 Jun 2027 02:11:27.167   02 Jun 2027 02:12:12.743            45.576                 Moscow          1424.250
        95   02 Jun 2027 02:15:54.323   02 Jun 2027 02:16:18.842            24.519                 Moscow           766.219
        96   02 Jun 2027 02:20:54.492   02 Jun 2027 02:21:03.412             8.920                 Moscow           278.750
        97   02 Jun 2027 02:22:10.400   02 Jun 2027 02:22:13.993             3.593                 Moscow           112.281
        98   02 Jun 2027 02:35:47.189   02 Jun 2027 02:36:26.977            39.788               CapeTown          1243.375
        99   02 Jun 2027 02:39:45.068   02 Jun 2027 02:40:42.471            57.403               CapeTown          1793.844
       100   02 Jun 2027 02:45:57.794   02 Jun 2027 02:46:07.114             9.320               CapeTown           291.250
       101   02 Jun 2027 03:36:56.203   02 Jun 2027 03:39:39.730           163.527               Magadan1          5110.219
       102   02 Jun 2027 03:39:52.294   02 Jun 2027 03:40:12.299            20.005               Magadan2           625.156
       103   02 Jun 2027 03:40:29.782   02 Jun 2027 03:44:37.758           247.976                Anadyr2          7749.250
       104   02 Jun 2027 05:15:28.566   02 Jun 2027 05:17:57.314           148.748               Magadan1          4648.375
       105   02 Jun 2027 05:17:57.314   02 Jun 2027 05:18:29.369            32.055               Magadan2          1001.719
       106   02 Jun 2027 05:18:47.458   02 Jun 2027 05:19:06.742            19.284                Irkutsk           602.625
       107   02 Jun 2027 06:49:39.036   02 Jun 2027 06:49:53.573            14.537                Irkutsk           454.281
       108   02 Jun 2027 06:50:28.238   02 Jun 2027 06:52:32.654           124.416                Novosib          3888.000
       109   02 Jun 2027 06:52:34.336   02 Jun 2027 06:53:01.708            27.372                Irkutsk           855.375
       110   02 Jun 2027 06:53:09.241   02 Jun 2027 06:56:23.697           194.456                Novosib          6076.750
       111   02 Jun 2027 08:07:00.874   02 Jun 2027 08:08:35.596            94.722                Sumatra          2960.062
       112   02 Jun 2027 08:17:21.534   02 Jun 2027 08:18:18.241            56.707                  Delhi          1772.094
       113   02 Jun 2027 08:27:54.430   02 Jun 2027 08:29:54.980           120.550                Irkutsk          3767.188
       114   02 Jun 2027 08:30:01.622   02 Jun 2027 08:30:22.762            21.140                Novosib           660.625
       115   02 Jun 2027 08:30:31.461   02 Jun 2027 08:33:14.867           163.406                 Moscow          5106.437
       116   02 Jun 2027 09:11:14.436   02 Jun 2027 09:11:34.989            20.553            RioGallegos           642.281
       117   02 Jun 2027 09:16:57.644   02 Jun 2027 09:17:04.662             7.018            RioGallegos           219.313
       118   02 Jun 2027 09:43:42.118   02 Jun 2027 09:45:17.244            95.126                Sumatra          2972.687
       119   02 Jun 2027 09:49:46.483   02 Jun 2027 09:49:57.081            10.598                  Delhi           331.187
       120   02 Jun 2027 09:52:59.093   02 Jun 2027 09:53:07.277             8.184                  Delhi           255.750
       121   02 Jun 2027 09:53:50.784   02 Jun 2027 09:54:18.028            27.244                  Delhi           851.375
       122   02 Jun 2027 10:05:30.574   02 Jun 2027 10:10:45.705           315.131                 Moscow          9847.844
       123   02 Jun 2027 11:30:02.416   02 Jun 2027 11:30:12.292             9.876                  Delhi           308.625
       124   02 Jun 2027 11:32:15.263   02 Jun 2027 11:32:21.233             5.970                  Delhi           186.563
       125   02 Jun 2027 11:38:21.533   02 Jun 2027 11:40:09.434           107.901                 Moscow          3371.906
       126   02 Jun 2027 11:40:17.033   02 Jun 2027 11:42:46.020           148.987                Novosib          4655.844
       127   02 Jun 2027 11:42:54.754   02 Jun 2027 11:44:33.053            98.299                 Moscow          3071.844
       128   02 Jun 2027 11:44:46.467   02 Jun 2027 11:44:46.968             0.501                Norilsk            15.656
       129   02 Jun 2027 11:44:53.695   02 Jun 2027 11:44:56.225             2.530                Norilsk            79.062
       130   02 Jun 2027 11:45:41.159   02 Jun 2027 11:46:30.851            49.692                Norilsk          1552.875
       131   02 Jun 2027 12:49:52.004   02 Jun 2027 12:52:34.047           162.043               CapeTown          5063.844
       132   02 Jun 2027 12:56:15.586   02 Jun 2027 12:57:46.963            91.377               CapeTown          2855.531
       133   02 Jun 2027 13:14:15.488   02 Jun 2027 13:16:29.145           133.657              Murmansk1          4176.781
       134   02 Jun 2027 13:16:29.145   02 Jun 2027 13:16:56.274            27.129              Murmansk2           847.781
       135   02 Jun 2027 13:28:58.767   02 Jun 2027 13:32:46.840           228.073                Anadyr1          7127.281
       136   02 Jun 2027 13:32:56.594   02 Jun 2027 13:35:01.507           124.913                Anadyr2          3903.531
       137   02 Jun 2027 14:53:00.099   02 Jun 2027 14:53:21.824            21.725              Murmansk1           678.906
       138   02 Jun 2027 14:54:23.349   02 Jun 2027 14:54:46.336            22.987              Murmansk2           718.344
       139   02 Jun 2027 14:55:32.840   02 Jun 2027 14:56:13.628            40.788              Murmansk1          1274.625
       140   02 Jun 2027 14:56:35.228   02 Jun 2027 14:56:45.867            10.639              Murmansk1           332.469
       141   02 Jun 2027 15:04:16.565   02 Jun 2027 15:07:30.939           194.374                Anadyr2          6074.188
       142   02 Jun 2027 15:08:34.219   02 Jun 2027 15:13:32.649           298.430               Magadan1          9325.938
       143   02 Jun 2027 16:40:08.967   02 Jun 2027 16:40:22.073            13.106                Anadyr2           409.563
       144   02 Jun 2027 16:40:22.073   02 Jun 2027 16:40:56.141            34.068                Anadyr1          1064.625
       145   02 Jun 2027 16:41:02.691   02 Jun 2027 16:41:40.838            38.147                Anadyr2          1192.094
       146   02 Jun 2027 16:42:36.949   02 Jun 2027 16:44:44.329           127.380               Magadan1          3980.625
       147   02 Jun 2027 16:44:48.049   02 Jun 2027 16:45:23.355            35.306               Magadan2          1103.313
       148   02 Jun 2027 16:45:33.257   02 Jun 2027 16:45:42.879             9.622               Magadan2           300.688
       149   02 Jun 2027 16:47:55.027   02 Jun 2027 16:48:59.651            64.624               Magadan1          2019.500
       150   02 Jun 2027 16:54:12.303   02 Jun 2027 16:54:28.317            16.014               Magadan1           500.437
       151   02 Jun 2027 18:16:02.355   02 Jun 2027 18:19:26.759           204.404                Anadyr2          6387.625
       152   02 Jun 2027 18:19:48.839   02 Jun 2027 18:21:37.049           108.210               Magadan2          3381.562
       153   02 Jun 2027 18:21:39.399   02 Jun 2027 18:21:46.981             7.582               Magadan1           236.937
       154   02 Jun 2027 18:22:06.802   02 Jun 2027 18:23:34.190            87.388                Norilsk          2730.875
       155   02 Jun 2027 18:25:16.155   02 Jun 2027 18:28:22.303           186.148                Irkutsk          5817.125
       156   02 Jun 2027 19:10:21.689   02 Jun 2027 19:10:53.256            31.567            RioGallegos           986.469
       157   02 Jun 2027 19:11:38.145   02 Jun 2027 19:11:57.365            19.220            RioGallegos           600.625
       158   02 Jun 2027 19:13:08.991   02 Jun 2027 19:13:35.484            26.493            RioGallegos           827.906
       159   02 Jun 2027 19:18:07.581   02 Jun 2027 19:18:20.108            12.527            RioGallegos           391.469
       160   02 Jun 2027 19:18:33.940   02 Jun 2027 19:19:47.537            73.597            RioGallegos          2299.906
       161   02 Jun 2027 19:53:54.382   02 Jun 2027 19:55:34.752           100.370                Norilsk          3136.563
       162   02 Jun 2027 19:58:19.729   02 Jun 2027 19:59:22.755            63.026                Irkutsk          1969.563
       163   02 Jun 2027 19:59:30.848   02 Jun 2027 20:02:41.096           190.248                Novosib          5945.250
       164   02 Jun 2027 20:03:48.151   02 Jun 2027 20:05:31.306           103.155                Novosib          3223.594
       165   02 Jun 2027 20:11:41.258   02 Jun 2027 20:12:49.793            68.535                Sumatra          2141.719
       166   02 Jun 2027 20:21:12.000   02 Jun 2027 20:22:02.261            50.261                Sumatra          1570.656
       167   02 Jun 2027 20:22:59.242   02 Jun 2027 20:23:06.187             6.945                Sumatra           217.031
       168   02 Jun 2027 21:32:39.136   02 Jun 2027 21:33:10.762            31.626                Norilsk           988.312
       169   02 Jun 2027 21:33:44.745   02 Jun 2027 21:34:01.311            16.566                Irkutsk           517.688
       170   02 Jun 2027 21:34:10.911   02 Jun 2027 21:35:51.757           100.846                Novosib          3151.438
       171   02 Jun 2027 21:39:53.944   02 Jun 2027 21:40:06.507            12.563                Novosib           392.594
       172   02 Jun 2027 21:40:30.817   02 Jun 2027 21:41:07.254            36.437                Novosib          1138.656
       173   02 Jun 2027 21:41:25.345   02 Jun 2027 21:42:58.235            92.890                  Delhi          2902.813
       174   02 Jun 2027 21:43:38.472   02 Jun 2027 21:44:59.923            81.451                  Delhi          2545.344
       175   02 Jun 2027 21:49:38.489   02 Jun 2027 21:50:51.178            72.689                  Delhi          2271.531
       176   02 Jun 2027 23:04:51.396   02 Jun 2027 23:05:03.843            12.447                Anadyr1           388.969
       177   02 Jun 2027 23:05:44.246   02 Jun 2027 23:07:41.107           116.861               Magadan1          3651.906
       178   02 Jun 2027 23:07:41.107   02 Jun 2027 23:07:54.017            12.910               Magadan2           403.438
       179   02 Jun 2027 23:08:10.589   02 Jun 2027 23:10:14.366           123.777              Murmansk2          3868.031
       180   02 Jun 2027 23:10:56.025   02 Jun 2027 23:13:05.439           129.414              Murmansk1          4044.188
       181   02 Jun 2027 23:14:11.203   02 Jun 2027 23:17:38.883           207.680                 Moscow          6490.000
       182   03 Jun 2027 00:37:56.220   03 Jun 2027 00:38:10.802            14.582               Magadan1           455.688
       183   03 Jun 2027 00:38:47.850   03 Jun 2027 00:39:05.728            17.878                Anadyr1           558.687
       184   03 Jun 2027 00:39:08.656   03 Jun 2027 00:39:57.956            49.300               Magadan1          1540.625
       185   03 Jun 2027 00:40:17.769   03 Jun 2027 00:40:28.038            10.269               Magadan2           320.906
       186   03 Jun 2027 00:40:28.038   03 Jun 2027 00:40:31.009             2.971               Magadan1            92.844
       187   03 Jun 2027 00:41:40.235   03 Jun 2027 00:42:33.302            53.067               Magadan1          1658.344
       188   03 Jun 2027 00:43:11.398   03 Jun 2027 00:43:23.859            12.461                Norilsk           389.406
       189   03 Jun 2027 00:43:56.580   03 Jun 2027 00:44:07.503            10.923               Magadan1           341.344
       190   03 Jun 2027 00:44:24.482   03 Jun 2027 00:46:09.549           105.067              Murmansk2          3283.344
       191   03 Jun 2027 00:46:29.616   03 Jun 2027 00:46:49.468            19.852              Murmansk2           620.375
       192   03 Jun 2027 00:47:18.846   03 Jun 2027 00:48:26.608            67.762              Murmansk2          2117.562
       193   03 Jun 2027 00:53:50.800   03 Jun 2027 00:55:01.293            70.493              Murmansk2          2202.906
       194   03 Jun 2027 00:58:57.049   03 Jun 2027 00:59:45.974            48.925                 Moscow          1528.906
       195   03 Jun 2027 01:16:38.442   03 Jun 2027 01:17:35.611            57.169               CapeTown          1786.531
       196   03 Jun 2027 01:20:51.289   03 Jun 2027 01:22:30.145            98.856               CapeTown          3089.250
       197   03 Jun 2027 02:09:56.067   03 Jun 2027 02:10:22.991            26.924               Magadan2           841.375
       198   03 Jun 2027 02:12:58.261   03 Jun 2027 02:13:12.794            14.533               Magadan1           454.156
       199   03 Jun 2027 02:13:59.627   03 Jun 2027 02:14:08.578             8.951               Magadan1           279.719
       200   03 Jun 2027 02:14:55.700   03 Jun 2027 02:15:21.739            26.039               Magadan2           813.719
       201   03 Jun 2027 02:16:08.483   03 Jun 2027 02:16:18.723            10.240               Magadan1           320.000
       202   03 Jun 2027 02:16:52.542   03 Jun 2027 02:17:13.343            20.801                Norilsk           650.031
       203   03 Jun 2027 02:18:16.606   03 Jun 2027 02:18:41.045            24.439               Magadan2           763.719
       204   03 Jun 2027 02:18:44.699   03 Jun 2027 02:18:51.422             6.723                Norilsk           210.094
       205   03 Jun 2027 02:19:56.870   03 Jun 2027 02:20:59.289            62.419              Murmansk1          1950.594
       206   03 Jun 2027 02:22:19.973   03 Jun 2027 02:22:31.235            11.262              Murmansk2           351.938
       207   03 Jun 2027 02:23:15.080   03 Jun 2027 02:23:18.835             3.755                 Moscow           117.344
       208   03 Jun 2027 02:23:50.927   03 Jun 2027 02:24:27.048            36.121                 Moscow          1128.781
       209   03 Jun 2027 02:26:23.062   03 Jun 2027 02:26:40.380            17.318              Murmansk2           541.188
       210   03 Jun 2027 02:28:40.152   03 Jun 2027 02:28:41.769             1.617                 Moscow            50.531
       211   03 Jun 2027 02:28:45.581   03 Jun 2027 02:28:50.029             4.448              Murmansk1           139.000
       212   03 Jun 2027 02:28:50.029   03 Jun 2027 02:29:32.479            42.450              Murmansk2          1326.563
       213   03 Jun 2027 02:32:23.318   03 Jun 2027 02:32:29.184             5.866                 Moscow           183.312
       214   03 Jun 2027 02:32:41.496   03 Jun 2027 02:32:51.827            10.331              Murmansk2           322.844
       215   03 Jun 2027 02:33:32.732   03 Jun 2027 02:34:15.218            42.486                 Moscow          1327.687
       216   03 Jun 2027 02:53:59.945   03 Jun 2027 02:54:16.255            16.310               CapeTown           509.688
       217   03 Jun 2027 02:55:29.288   03 Jun 2027 02:57:26.077           116.789               CapeTown          3649.656
       218   03 Jun 2027 03:48:37.292   03 Jun 2027 03:48:47.695            10.403                Anadyr2           325.094
       219   03 Jun 2027 03:48:55.888   03 Jun 2027 03:52:14.661           198.773               Magadan1          6211.656
       220   03 Jun 2027 03:52:14.851   03 Jun 2027 03:52:48.724            33.873               Magadan1          1058.531
       221   03 Jun 2027 03:52:59.863   03 Jun 2027 03:53:11.636            11.773               Magadan1           367.906
       222   03 Jun 2027 03:53:18.027   03 Jun 2027 03:53:50.514            32.487               Magadan2          1015.219
       223   03 Jun 2027 03:53:50.514   03 Jun 2027 03:56:10.626           140.112               Magadan1          4378.500
       224   03 Jun 2027 05:25:48.439   03 Jun 2027 05:26:30.546            42.107                Irkutsk          1315.844
       225   03 Jun 2027 05:26:40.187   03 Jun 2027 05:29:36.802           176.615               Magadan2          5519.219
       226   03 Jun 2027 05:29:48.056   03 Jun 2027 05:31:53.987           125.931                Anadyr1          3935.344
       227   03 Jun 2027 07:03:07.565   03 Jun 2027 07:05:40.323           152.758                Novosib          4773.688
       228   03 Jun 2027 07:05:43.594   03 Jun 2027 07:06:07.733            24.139               Magadan2           754.344
       229   03 Jun 2027 07:06:07.733   03 Jun 2027 07:07:00.067            52.334               Magadan1          1635.437
       230   03 Jun 2027 07:07:08.624   03 Jun 2027 07:07:50.972            42.348                Novosib          1323.375
       231   03 Jun 2027 07:07:51.343   03 Jun 2027 07:08:02.529            11.186                Irkutsk           349.563
       232   03 Jun 2027 07:08:09.103   03 Jun 2027 07:08:27.774            18.671                Norilsk           583.469
       233   03 Jun 2027 07:08:34.684   03 Jun 2027 07:09:01.031            26.347              Murmansk1           823.344
       234   03 Jun 2027 07:10:59.262   03 Jun 2027 07:11:03.514             4.252              Murmansk2           132.875
       235   03 Jun 2027 07:12:48.959   03 Jun 2027 07:13:17.002            28.043              Murmansk1           876.344
       236   03 Jun 2027 07:13:25.866   03 Jun 2027 07:14:19.993            54.127              Murmansk1          1691.469
       237   03 Jun 2027 07:42:48.024   03 Jun 2027 07:43:15.804            27.780            RioGallegos           868.125
       238   03 Jun 2027 07:44:17.365   03 Jun 2027 07:44:24.389             7.024            RioGallegos           219.500
       239   03 Jun 2027 08:17:38.473   03 Jun 2027 08:18:36.659            58.186                Sumatra          1818.313
       240   03 Jun 2027 08:20:00.634   03 Jun 2027 08:20:13.310            12.676                Sumatra           396.125
       241   03 Jun 2027 08:20:34.658   03 Jun 2027 08:20:43.998             9.340                Sumatra           291.875
       242   03 Jun 2027 08:24:42.568   03 Jun 2027 08:25:53.910            71.342                Sumatra          2229.438
       243   03 Jun 2027 08:28:25.623   03 Jun 2027 08:29:05.333            39.710                  Delhi          1240.937
       244   03 Jun 2027 08:29:35.175   03 Jun 2027 08:30:52.050            76.875                  Delhi          2402.344
       245   03 Jun 2027 08:39:20.382   03 Jun 2027 08:39:54.111            33.729                Irkutsk          1054.031
       246   03 Jun 2027 08:40:34.735   03 Jun 2027 08:42:45.147           130.412                Norilsk          4075.375
       247   03 Jun 2027 08:42:50.608   03 Jun 2027 08:45:11.133           140.525                 Moscow          4391.406
       248   03 Jun 2027 08:45:35.088   03 Jun 2027 08:45:44.448             9.360                 Moscow           292.500
       249   03 Jun 2027 08:48:22.930   03 Jun 2027 08:48:45.603            22.673              Murmansk1           708.531
       250   03 Jun 2027 09:23:09.823   03 Jun 2027 09:23:23.504            13.681            RioGallegos           427.531
       251   03 Jun 2027 09:25:52.674   03 Jun 2027 09:26:10.902            18.228            RioGallegos           569.625
       252   03 Jun 2027 09:57:06.212   03 Jun 2027 09:57:54.552            48.340                Sumatra          1510.625
       253   03 Jun 2027 09:59:54.968   03 Jun 2027 10:00:11.891            16.923                Sumatra           528.844
       254   03 Jun 2027 10:01:49.184   03 Jun 2027 10:02:39.440            50.256                  Delhi          1570.500
       255   03 Jun 2027 10:04:58.773   03 Jun 2027 10:06:08.160            69.387                  Delhi          2168.344
       256   03 Jun 2027 10:16:42.665   03 Jun 2027 10:16:47.062             4.397              Murmansk1           137.406
       257   03 Jun 2027 10:16:52.245   03 Jun 2027 10:18:04.606            72.361                 Moscow          2261.281
       258   03 Jun 2027 10:18:08.492   03 Jun 2027 10:18:53.256            44.764              Murmansk1          1398.875
       259   03 Jun 2027 10:18:56.529   03 Jun 2027 10:19:06.887            10.358                Novosib           323.687
       260   03 Jun 2027 10:19:10.602   03 Jun 2027 10:19:23.245            12.643                Norilsk           395.094
       261   03 Jun 2027 10:19:28.657   03 Jun 2027 10:20:31.994            63.337                 Moscow          1979.281
       262   03 Jun 2027 10:20:43.449   03 Jun 2027 10:20:53.364             9.915                Norilsk           309.844
       263   03 Jun 2027 10:21:05.910   03 Jun 2027 10:21:16.063            10.153              Murmansk2           317.281
       264   03 Jun 2027 10:21:16.063   03 Jun 2027 10:21:45.895            29.832              Murmansk1           932.250
       265   03 Jun 2027 11:49:29.970   03 Jun 2027 11:49:33.600             3.630                 Moscow           113.438
       266   03 Jun 2027 11:49:37.718   03 Jun 2027 11:50:29.567            51.849              Murmansk1          1620.281
       267   03 Jun 2027 11:50:40.304   03 Jun 2027 11:50:47.439             7.135              Murmansk2           222.969
       268   03 Jun 2027 11:50:47.439   03 Jun 2027 11:51:14.734            27.295              Murmansk1           852.969
       269   03 Jun 2027 11:51:22.826   03 Jun 2027 11:52:47.243            84.417              Murmansk1          2638.031
       270   03 Jun 2027 11:52:51.745   03 Jun 2027 11:53:49.264            57.519              Murmansk1          1797.469
       271   03 Jun 2027 11:53:55.600   03 Jun 2027 11:54:58.118            62.518                 Moscow          1953.687
       272   03 Jun 2027 11:54:59.687   03 Jun 2027 11:55:01.054             1.367                Norilsk            42.719
       273   03 Jun 2027 11:55:09.239   03 Jun 2027 11:55:10.549             1.310              Murmansk1            40.938
       274   03 Jun 2027 11:55:10.549   03 Jun 2027 11:55:57.235            46.686              Murmansk2          1458.938
       275   03 Jun 2027 11:56:19.260   03 Jun 2027 11:56:52.222            32.962              Murmansk1          1030.062
       276   03 Jun 2027 11:58:32.397   03 Jun 2027 11:58:46.234            13.837                Norilsk           432.406
       277   03 Jun 2027 12:00:28.824   03 Jun 2027 12:00:42.191            13.367                Norilsk           417.719
       278   03 Jun 2027 12:01:09.161   03 Jun 2027 12:01:20.436            11.275              Murmansk2           352.344
       279   03 Jun 2027 12:01:20.436   03 Jun 2027 12:01:29.753             9.317              Murmansk1           291.156
       280   03 Jun 2027 12:02:20.416   03 Jun 2027 12:02:34.936            14.520              Murmansk1           453.750
       281   03 Jun 2027 13:01:13.352   03 Jun 2027 13:01:42.278            28.926               CapeTown           903.937
       282   03 Jun 2027 13:02:21.334   03 Jun 2027 13:06:06.891           225.557               CapeTown          7048.656
       283   03 Jun 2027 13:08:05.689   03 Jun 2027 13:08:27.385            21.696               CapeTown           678.000
       284   03 Jun 2027 13:26:30.250   03 Jun 2027 13:28:30.105           119.855              Murmansk2          3745.469
       285   03 Jun 2027 13:28:57.351   03 Jun 2027 13:29:13.347            15.996              Murmansk1           499.875
       286   03 Jun 2027 13:29:56.254   03 Jun 2027 13:30:07.118            10.864              Murmansk1           339.500
       287   03 Jun 2027 13:30:27.375   03 Jun 2027 13:31:26.560            59.185              Murmansk2          1849.531
       288   03 Jun 2027 13:34:27.612   03 Jun 2027 13:34:47.633            20.021              Murmansk1           625.656
       289   03 Jun 2027 13:36:07.956   03 Jun 2027 13:36:32.641            24.685              Murmansk2           771.406
       290   03 Jun 2027 13:38:05.421   03 Jun 2027 13:38:33.010            27.589              Murmansk1           862.156
       291   03 Jun 2027 13:40:50.234   03 Jun 2027 13:44:08.280           198.046                Anadyr1          6188.938
       292   03 Jun 2027 13:47:56.021   03 Jun 2027 13:48:52.379            56.358                Anadyr2          1761.187
       293   03 Jun 2027 15:05:34.104   03 Jun 2027 15:06:24.362            50.258              Murmansk2          1570.562
       294   03 Jun 2027 15:06:45.383   03 Jun 2027 15:07:02.635            17.252              Murmansk1           539.125
       295   03 Jun 2027 15:08:15.411   03 Jun 2027 15:08:36.439            21.028              Murmansk1           657.125
       296   03 Jun 2027 15:09:00.827   03 Jun 2027 15:10:01.774            60.947              Murmansk2          1904.594
       297   03 Jun 2027 15:16:16.668   03 Jun 2027 15:17:09.308            52.640                Anadyr1          1645.000
       298   03 Jun 2027 15:17:27.074   03 Jun 2027 15:18:12.599            45.525                Anadyr2          1422.656
       299   03 Jun 2027 15:19:26.385   03 Jun 2027 15:19:32.270             5.885                Anadyr1           183.906
       300   03 Jun 2027 15:19:32.270   03 Jun 2027 15:20:25.867            53.597                Anadyr2          1674.906
       301   03 Jun 2027 15:21:22.673   03 Jun 2027 15:24:28.651           185.978               Magadan1          5811.812
       302   03 Jun 2027 15:24:41.695   03 Jun 2027 15:26:10.210            88.515               Magadan1          2766.094
       303   03 Jun 2027 16:52:10.341   03 Jun 2027 16:52:36.526            26.185                Anadyr2           818.281
       304   03 Jun 2027 16:52:46.387   03 Jun 2027 16:53:24.913            38.526                Anadyr2          1203.937
       305   03 Jun 2027 16:54:34.593   03 Jun 2027 16:56:19.706           105.113               Magadan2          3284.781
       306   03 Jun 2027 16:56:57.544   03 Jun 2027 16:57:26.030            28.486               Magadan2           890.188
       307   03 Jun 2027 17:02:16.361   03 Jun 2027 17:02:31.559            15.198               Magadan2           474.938
       308   03 Jun 2027 17:06:14.741   03 Jun 2027 17:06:30.276            15.535               Magadan1           485.469
       309   03 Jun 2027 18:28:02.458   03 Jun 2027 18:29:37.461            95.003                Anadyr1          2968.844
       310   03 Jun 2027 18:29:47.445   03 Jun 2027 18:31:28.285           100.840                Anadyr2          3151.250
       311   03 Jun 2027 18:31:35.117   03 Jun 2027 18:33:30.386           115.269               Magadan1          3602.156
       312   03 Jun 2027 18:33:37.271   03 Jun 2027 18:33:49.665            12.394               Magadan1           387.313
       313   03 Jun 2027 18:35:46.582   03 Jun 2027 18:36:19.205            32.623                Norilsk          1019.469
       314   03 Jun 2027 18:36:46.360   03 Jun 2027 18:38:58.116           131.756                Irkutsk          4117.375
       315   03 Jun 2027 18:39:50.159   03 Jun 2027 18:42:02.912           132.753                Irkutsk          4148.531
       316   03 Jun 2027 18:53:23.558   03 Jun 2027 18:55:40.961           137.403                Sumatra          4293.844
       317   03 Jun 2027 20:08:20.464   03 Jun 2027 20:08:52.402            31.938                Norilsk           998.063
       318   03 Jun 2027 20:09:56.137   03 Jun 2027 20:11:56.466           120.329                Irkutsk          3760.281
       319   03 Jun 2027 20:12:41.035   03 Jun 2027 20:14:30.884           109.849                Novosib          3432.781
       320   03 Jun 2027 20:15:41.526   03 Jun 2027 20:16:10.266            28.740                Novosib           898.125
       321   03 Jun 2027 20:17:35.454   03 Jun 2027 20:18:26.369            50.915                Novosib          1591.094
       322   03 Jun 2027 20:23:44.732   03 Jun 2027 20:24:21.203            36.471                Sumatra          1139.719
       323   03 Jun 2027 20:33:12.305   03 Jun 2027 20:33:39.679            27.374                Sumatra           855.438
       324   03 Jun 2027 21:42:29.753   03 Jun 2027 21:43:29.079            59.326               Magadan2          1853.937
       325   03 Jun 2027 21:45:46.464   03 Jun 2027 21:47:43.712           117.248                Novosib          3664.000
       326   03 Jun 2027 21:53:14.898   03 Jun 2027 21:56:36.342           201.444                  Delhi          6295.125
       327   03 Jun 2027 22:01:49.593   03 Jun 2027 22:02:43.988            54.395                  Delhi          1699.844
       328   03 Jun 2027 23:17:27.956   03 Jun 2027 23:17:31.152             3.196               Magadan1            99.875
       329   03 Jun 2027 23:17:31.152   03 Jun 2027 23:18:06.025            34.873               Magadan2          1089.781
       330   03 Jun 2027 23:18:52.084   03 Jun 2027 23:19:26.010            33.926                Norilsk          1060.187
       331   03 Jun 2027 23:20:09.275   03 Jun 2027 23:24:23.498           254.223              Murmansk2          7944.469
       332   03 Jun 2027 23:24:44.903   03 Jun 2027 23:27:55.366           190.463                 Moscow          5951.969
       333   03 Jun 2027 23:52:11.502   03 Jun 2027 23:53:25.694            74.192               CapeTown          2318.500
       334   03 Jun 2027 23:55:01.023   03 Jun 2027 23:56:14.425            73.402               CapeTown          2293.813
       335   04 Jun 2027 00:53:08.635   04 Jun 2027 00:53:45.387            36.752               Magadan2          1148.500
       336   04 Jun 2027 00:55:59.886   04 Jun 2027 00:56:02.602             2.716               Magadan2            84.875
       337   04 Jun 2027 00:56:14.135   04 Jun 2027 00:57:25.920            71.785              Murmansk2          2243.281
       338   04 Jun 2027 00:57:25.920   04 Jun 2027 00:57:31.921             6.001              Murmansk1           187.531
       339   04 Jun 2027 00:58:07.940   04 Jun 2027 00:58:27.186            19.246              Murmansk2           601.437
       340   04 Jun 2027 00:58:42.569   04 Jun 2027 00:59:20.077            37.508              Murmansk2          1172.125
       341   04 Jun 2027 01:01:16.263   04 Jun 2027 01:01:35.681            19.418                 Moscow           606.812
       342   04 Jun 2027 01:02:39.857   04 Jun 2027 01:02:43.410             3.553                 Moscow           111.031
       343   04 Jun 2027 01:03:44.790   04 Jun 2027 01:03:49.954             5.164              Murmansk2           161.375
       344   04 Jun 2027 01:04:52.966   04 Jun 2027 01:05:02.613             9.647                 Moscow           301.469
       345   04 Jun 2027 01:07:21.620   04 Jun 2027 01:08:06.999            45.379                 Moscow          1418.094
       346   04 Jun 2027 01:23:15.118   04 Jun 2027 01:24:47.495            92.377               CapeTown          2886.781
       347   04 Jun 2027 01:34:18.631   04 Jun 2027 01:35:38.390            79.759               CapeTown          2492.469
       348   04 Jun 2027 02:20:49.651   04 Jun 2027 02:20:56.689             7.038                Anadyr2           219.937
       349   04 Jun 2027 02:21:12.977   04 Jun 2027 02:21:39.173            26.196                Anadyr1           818.625
       350   04 Jun 2027 02:21:43.266   04 Jun 2027 02:22:15.065            31.799               Magadan1           993.719
       351   04 Jun 2027 02:22:43.179   04 Jun 2027 02:22:50.555             7.376               Magadan2           230.500
       352   04 Jun 2027 02:23:55.550   04 Jun 2027 02:24:08.672            13.122               Magadan2           410.062
       353   04 Jun 2027 02:26:10.461   04 Jun 2027 02:26:23.493            13.032               Magadan2           407.250
       354   04 Jun 2027 02:27:25.771   04 Jun 2027 02:27:48.627            22.856               Magadan1           714.250
       355   04 Jun 2027 02:28:49.873   04 Jun 2027 02:29:13.247            23.374                Norilsk           730.438
       356   04 Jun 2027 02:31:58.225   04 Jun 2027 02:32:26.842            28.617              Murmansk2           894.281
       357   04 Jun 2027 02:33:18.669   04 Jun 2027 02:33:46.716            28.047              Murmansk1           876.469
       358   04 Jun 2027 02:34:15.646   04 Jun 2027 02:35:06.728            51.082              Murmansk1          1596.313
       359   04 Jun 2027 02:35:59.821   04 Jun 2027 02:36:41.055            41.234                 Moscow          1288.562
       360   04 Jun 2027 02:41:50.967   04 Jun 2027 02:42:18.788            27.821                 Moscow           869.406
       361   04 Jun 2027 02:46:56.015   04 Jun 2027 02:47:12.633            16.618                 Moscow           519.313
       362   04 Jun 2027 03:01:07.530   04 Jun 2027 03:01:14.470             6.940               CapeTown           216.875
       363   04 Jun 2027 03:02:44.421   04 Jun 2027 03:02:55.449            11.028               CapeTown           344.625
       364   04 Jun 2027 03:04:47.315   04 Jun 2027 03:05:20.081            32.766               CapeTown          1023.937
       365   04 Jun 2027 04:00:38.520   04 Jun 2027 04:01:22.482            43.962                Anadyr1          1373.813
       366   04 Jun 2027 04:01:23.142   04 Jun 2027 04:01:33.745            10.603               Magadan1           331.344
       367   04 Jun 2027 04:01:36.851   04 Jun 2027 04:01:49.295            12.444                Anadyr1           388.875
       368   04 Jun 2027 04:01:57.863   04 Jun 2027 04:03:56.445           118.582               Magadan1          3705.687
       369   04 Jun 2027 04:04:11.793   04 Jun 2027 04:05:29.599            77.806               Magadan1          2431.437
       370   04 Jun 2027 04:05:53.373   04 Jun 2027 04:08:24.199           150.826               Magadan1          4713.312
       371   04 Jun 2027 04:48:16.618   04 Jun 2027 04:48:45.794            29.176            RioGallegos           911.750
       372   04 Jun 2027 04:49:19.106   04 Jun 2027 04:49:35.295            16.189            RioGallegos           505.906
       373   04 Jun 2027 04:53:27.198   04 Jun 2027 04:53:57.963            30.765            RioGallegos           961.406
       374   04 Jun 2027 05:37:03.357   04 Jun 2027 05:38:51.838           108.481                Irkutsk          3390.031
       375   04 Jun 2027 05:39:08.978   04 Jun 2027 05:40:46.974            97.996                Irkutsk          3062.375
       376   04 Jun 2027 05:40:50.023   04 Jun 2027 05:41:47.648            57.625                Norilsk          1800.781
       377   04 Jun 2027 05:41:54.425   04 Jun 2027 05:44:10.866           136.441               Magadan2          4263.781
       378   04 Jun 2027 05:51:42.523   04 Jun 2027 05:52:20.410            37.887              Murmansk1          1183.969
       379   04 Jun 2027 06:19:54.192   04 Jun 2027 06:20:33.367            39.175            RioGallegos          1224.219
       380   04 Jun 2027 06:22:26.891   04 Jun 2027 06:22:50.014            23.123            RioGallegos           722.594
       381   04 Jun 2027 06:25:14.888   04 Jun 2027 06:25:35.939            21.051            RioGallegos           657.844
       382   04 Jun 2027 06:27:15.209   04 Jun 2027 06:27:43.636            28.427            RioGallegos           888.344
       383   04 Jun 2027 06:29:21.977   04 Jun 2027 06:29:35.271            13.294            RioGallegos           415.437
       384   04 Jun 2027 06:30:32.546   04 Jun 2027 06:31:33.481            60.935            RioGallegos          1904.219
       385   04 Jun 2027 06:57:59.687   04 Jun 2027 06:59:08.913            69.226                Sumatra          2163.312
       386   04 Jun 2027 07:14:50.045   04 Jun 2027 07:15:05.082            15.037               Magadan1           469.906
       387   04 Jun 2027 07:15:21.805   04 Jun 2027 07:16:05.472            43.667                Novosib          1364.594
       388   04 Jun 2027 07:16:05.532   04 Jun 2027 07:18:36.103           150.571               Magadan1          4705.344
       389   04 Jun 2027 07:18:47.234   04 Jun 2027 07:20:57.074           129.840              Murmansk1          4057.500
       390   04 Jun 2027 07:21:31.839   04 Jun 2027 07:21:40.753             8.914              Murmansk1           278.563
       391   04 Jun 2027 07:24:07.768   04 Jun 2027 07:24:41.577            33.809              Murmansk1          1056.531
       392   04 Jun 2027 07:24:41.577   04 Jun 2027 07:24:51.596            10.019              Murmansk2           313.094
       393   04 Jun 2027 07:26:20.332   04 Jun 2027 07:27:04.562            44.230              Murmansk2          1382.187
       394   04 Jun 2027 07:54:58.136   04 Jun 2027 07:55:51.600            53.464            RioGallegos          1670.750
       395   04 Jun 2027 08:02:40.181   04 Jun 2027 08:02:47.692             7.511            RioGallegos           234.719
       396   04 Jun 2027 08:03:34.556   04 Jun 2027 08:04:43.470            68.914            RioGallegos          2153.563
       397   04 Jun 2027 08:29:37.112   04 Jun 2027 08:30:05.672            28.560                Sumatra           892.500
       398   04 Jun 2027 08:39:01.650   04 Jun 2027 08:39:09.959             8.309                Sumatra           259.656
       399   04 Jun 2027 08:39:42.967   04 Jun 2027 08:41:25.945           102.978                  Delhi          3218.063
       400   04 Jun 2027 08:45:01.698   04 Jun 2027 08:46:21.953            80.255                  Delhi          2507.969
       401   04 Jun 2027 08:49:34.645   04 Jun 2027 08:49:52.511            17.866                  Delhi           558.312
       402   04 Jun 2027 08:50:24.339   04 Jun 2027 08:51:28.864            64.525                Irkutsk          2016.406
       403   04 Jun 2027 08:51:41.510   04 Jun 2027 08:52:10.357            28.847                Norilsk           901.469
       404   04 Jun 2027 08:52:11.164   04 Jun 2027 08:52:39.617            28.453              Murmansk1           889.156
       405   04 Jun 2027 08:52:48.661   04 Jun 2027 08:52:55.498             6.837                Norilsk           213.656
       406   04 Jun 2027 08:52:59.294   04 Jun 2027 08:53:04.876             5.582                Irkutsk           174.437
       407   04 Jun 2027 08:53:10.186   04 Jun 2027 08:53:39.306            29.120                Irkutsk           910.000
       408   04 Jun 2027 08:53:47.468   04 Jun 2027 08:54:14.472            27.004                Irkutsk           843.875
       409   04 Jun 2027 08:54:16.950   04 Jun 2027 08:54:43.202            26.252                Novosib           820.375
       410   04 Jun 2027 08:54:45.853   04 Jun 2027 08:55:41.930            56.077              Murmansk1          1752.406
       411   04 Jun 2027 08:55:48.496   04 Jun 2027 08:56:28.551            40.055                 Moscow          1251.719
       412   04 Jun 2027 08:57:24.640   04 Jun 2027 08:57:36.025            11.385              Murmansk1           355.781
       413   04 Jun 2027 08:57:53.910   04 Jun 2027 08:58:07.804            13.894                Norilsk           434.188
       414   04 Jun 2027 09:35:18.080   04 Jun 2027 09:36:09.450            51.370            RioGallegos          1605.312
       415   04 Jun 2027 09:37:12.153   04 Jun 2027 09:37:16.198             4.045            RioGallegos           126.406
       416   04 Jun 2027 10:13:57.395   04 Jun 2027 10:15:38.664           101.269                  Delhi          3164.656
       417   04 Jun 2027 10:23:38.712   04 Jun 2027 10:23:42.689             3.977                  Delhi           124.281
       418   04 Jun 2027 10:27:45.521   04 Jun 2027 10:28:53.672            68.151                 Moscow          2129.719
       419   04 Jun 2027 10:29:01.000   04 Jun 2027 10:29:24.004            23.004                Norilsk           718.875
       420   04 Jun 2027 10:29:29.786   04 Jun 2027 10:29:29.958             0.172              Murmansk1             5.375
       421   04 Jun 2027 10:29:32.262   04 Jun 2027 10:30:24.982            52.720                Norilsk          1647.500
       422   04 Jun 2027 10:30:27.201   04 Jun 2027 10:30:28.657             1.456                Novosib            45.500
       423   04 Jun 2027 10:30:39.102   04 Jun 2027 10:30:53.921            14.819                 Moscow           463.094
       424   04 Jun 2027 10:31:00.262   04 Jun 2027 10:31:08.401             8.139                Novosib           254.344
       425   04 Jun 2027 10:31:10.310   04 Jun 2027 10:31:12.680             2.370                Norilsk            74.063
       426   04 Jun 2027 10:31:32.067   04 Jun 2027 10:31:34.958             2.891                Norilsk            90.344
       427   04 Jun 2027 10:31:37.108   04 Jun 2027 10:32:19.978            42.870                 Moscow          1339.687
       428   04 Jun 2027 10:33:13.710   04 Jun 2027 10:33:20.566             6.856                 Moscow           214.250
       429   04 Jun 2027 11:58:13.198   04 Jun 2027 11:58:41.622            28.424                 Moscow           888.250
       430   04 Jun 2027 12:01:54.561   04 Jun 2027 12:02:32.847            38.286                 Moscow          1196.438
       431   04 Jun 2027 12:03:18.252   04 Jun 2027 12:03:37.699            19.447                 Moscow           607.719
       432   04 Jun 2027 12:04:19.907   04 Jun 2027 12:04:31.290            11.383                 Moscow           355.719
       433   04 Jun 2027 12:05:00.725   04 Jun 2027 12:05:15.059            14.334              Murmansk1           447.937
       434   04 Jun 2027 12:05:36.446   04 Jun 2027 12:06:06.176            29.730              Murmansk2           929.062
       435   04 Jun 2027 12:06:07.148   04 Jun 2027 12:06:32.832            25.684                 Moscow           802.625
       436   04 Jun 2027 12:07:05.651   04 Jun 2027 12:07:47.325            41.674              Murmansk1          1302.313
       437   04 Jun 2027 12:10:40.633   04 Jun 2027 12:10:52.333            11.700              Murmansk2           365.625
       438   04 Jun 2027 12:12:10.829   04 Jun 2027 12:12:15.093             4.264              Murmansk2           133.250
       439   04 Jun 2027 12:12:15.093   04 Jun 2027 12:12:50.083            34.990              Murmansk1          1093.438
       440   04 Jun 2027 13:12:46.086   04 Jun 2027 13:13:49.366            63.280               CapeTown          1977.500
       441   04 Jun 2027 13:14:00.803   04 Jun 2027 13:15:09.024            68.221               CapeTown          2131.906
       442   04 Jun 2027 13:16:45.916   04 Jun 2027 13:17:06.615            20.699               CapeTown           646.844
       443   04 Jun 2027 13:17:57.535   04 Jun 2027 13:19:26.216            88.681               CapeTown          2771.281
       444   04 Jun 2027 13:38:47.035   04 Jun 2027 13:40:31.276           104.241              Murmansk2          3257.531
       445   04 Jun 2027 13:43:21.358   04 Jun 2027 13:43:56.573            35.215              Murmansk1          1100.469
       446   04 Jun 2027 13:46:21.993   04 Jun 2027 13:46:29.272             7.279              Murmansk2           227.469
       447   04 Jun 2027 13:47:02.316   04 Jun 2027 13:47:59.139            56.823              Murmansk2          1775.719
       448   04 Jun 2027 13:52:44.017   04 Jun 2027 13:55:22.816           158.799                Anadyr1          4962.469
       449   04 Jun 2027 13:55:38.694   04 Jun 2027 13:57:32.808           114.114                Anadyr2          3566.062
       450   04 Jun 2027 15:22:18.650   04 Jun 2027 15:22:32.760            14.110              Murmansk1           440.938
       451   04 Jun 2027 15:24:07.365   04 Jun 2027 15:24:23.831            16.466              Murmansk2           514.562
       452   04 Jun 2027 15:24:35.356   04 Jun 2027 15:26:04.949            89.593              Murmansk2          2799.781
       453   04 Jun 2027 15:28:17.122   04 Jun 2027 15:29:04.592            47.470                Anadyr1          1483.438
       454   04 Jun 2027 15:31:04.574   04 Jun 2027 15:31:07.651             3.077                Anadyr1            96.156
       455   04 Jun 2027 15:31:19.420   04 Jun 2027 15:31:33.549            14.129                Anadyr1           441.531
       456   04 Jun 2027 15:31:33.549   04 Jun 2027 15:32:26.957            53.408                Anadyr2          1669.000
       457   04 Jun 2027 15:33:24.315   04 Jun 2027 15:38:08.120           283.805               Magadan1          8868.906
       458   04 Jun 2027 17:06:33.078   04 Jun 2027 17:07:17.110            44.032               Magadan2          1376.000
       459   04 Jun 2027 17:07:36.225   04 Jun 2027 17:07:50.155            13.930               Magadan2           435.313
       460   04 Jun 2027 17:08:40.398   04 Jun 2027 17:09:14.151            33.753               Magadan1          1054.781
       461   04 Jun 2027 17:09:37.200   04 Jun 2027 17:09:46.703             9.503               Magadan1           296.969
       462   04 Jun 2027 17:13:39.411   04 Jun 2027 17:13:52.971            13.560               Magadan1           423.750
       463   04 Jun 2027 17:14:06.258   04 Jun 2027 17:14:18.885            12.627               Magadan1           394.594
       464   04 Jun 2027 18:01:50.460   04 Jun 2027 18:03:27.891            97.431            RioGallegos          3044.719
       465   04 Jun 2027 18:03:59.746   04 Jun 2027 18:04:02.115             2.369            RioGallegos            74.031
       466   04 Jun 2027 18:40:02.197   04 Jun 2027 18:41:38.541            96.344                Anadyr1          3010.750
       467   04 Jun 2027 18:41:48.431   04 Jun 2027 18:43:57.390           128.959                Anadyr2          4029.969
       468   04 Jun 2027 18:44:55.860   04 Jun 2027 18:46:16.549            80.689                Norilsk          2521.531
       469   04 Jun 2027 18:47:32.124   04 Jun 2027 18:50:44.901           192.777                Irkutsk          6024.281
       470   04 Jun 2027 18:52:18.613   04 Jun 2027 18:53:42.415            83.802                Irkutsk          2618.812
       471   04 Jun 2027 19:03:10.360   04 Jun 2027 19:04:53.688           103.328                Sumatra          3229.000
       472   04 Jun 2027 19:06:04.364   04 Jun 2027 19:07:00.579            56.215                Sumatra          1756.719
       473   04 Jun 2027 19:08:16.048   04 Jun 2027 19:09:31.688            75.640                Sumatra          2363.750
       474   04 Jun 2027 20:22:46.875   04 Jun 2027 20:24:44.260           117.385                Novosib          3668.281
       475   04 Jun 2027 20:27:32.212   04 Jun 2027 20:27:45.704            13.492                Novosib           421.625
       476   04 Jun 2027 20:28:18.798   04 Jun 2027 20:29:37.233            78.435                Novosib          2451.094
       477   04 Jun 2027 20:35:41.717   04 Jun 2027 20:35:52.424            10.707                Sumatra           334.594
       478   04 Jun 2027 20:42:18.076   04 Jun 2027 20:44:04.137           106.061                Sumatra          3314.406
       479   04 Jun 2027 21:54:30.247   04 Jun 2027 21:54:47.953            17.706               Magadan2           553.312
       480   04 Jun 2027 21:57:15.926   04 Jun 2027 22:01:11.876           235.950              Murmansk1          7373.438
       481   04 Jun 2027 22:05:08.477   04 Jun 2027 22:06:30.890            82.413                  Delhi          2575.406
       482   04 Jun 2027 22:13:11.470   04 Jun 2027 22:14:40.459            88.989                  Delhi          2780.906
