uniorb/output/strategy_1/Drop/Drop_KinoSat_110608.txt

KinoSat_110608
-------------------------
    Access    *     Start Time (UTCG)     *     Stop Time (UTCG)  *   Duration (s)        *       Station  *  Data (Mbytes)
         1   01 Jun 2027 03:16:14.608   01 Jun 2027 03:16:26.047            11.439               Magadan2           357.469
         2   01 Jun 2027 03:16:33.932   01 Jun 2027 03:17:18.269            44.337               Magadan2          1385.531
         3   01 Jun 2027 03:17:18.269   01 Jun 2027 03:18:23.118            64.849               Magadan1          2026.531
         4   01 Jun 2027 03:18:30.523   01 Jun 2027 03:19:49.921            79.398               Magadan1          2481.188
         5   01 Jun 2027 03:19:49.921   01 Jun 2027 03:20:51.089            61.168               Magadan2          1911.500
         6   01 Jun 2027 03:21:07.416   01 Jun 2027 03:21:13.713             6.297                Anadyr1           196.781
         7   01 Jun 2027 03:21:13.713   01 Jun 2027 03:21:47.344            33.631                Anadyr2          1050.969
         8   01 Jun 2027 04:50:29.232   01 Jun 2027 04:50:35.350             6.118               Magadan1           191.188
         9   01 Jun 2027 04:50:44.825   01 Jun 2027 04:51:16.091            31.266               Magadan2           977.062
        10   01 Jun 2027 04:51:16.091   01 Jun 2027 04:52:21.077            64.986               Magadan1          2030.812
        11   01 Jun 2027 04:52:29.845   01 Jun 2027 04:54:30.482           120.637               Magadan1          3769.906
        12   01 Jun 2027 04:54:35.835   01 Jun 2027 04:55:29.141            53.306               Magadan1          1665.812
        13   01 Jun 2027 04:55:38.655   01 Jun 2027 04:56:14.753            36.098               Magadan1          1128.062
        14   01 Jun 2027 04:56:14.753   01 Jun 2027 04:56:17.878             3.125               Magadan2            97.656
        15   01 Jun 2027 04:56:23.844   01 Jun 2027 04:56:31.341             7.497               Magadan2           234.281
        16   01 Jun 2027 04:56:43.168   01 Jun 2027 04:56:57.512            14.344                Irkutsk           448.250
        17   01 Jun 2027 04:56:57.872   01 Jun 2027 04:57:18.073            20.201               Magadan2           631.281
        18   01 Jun 2027 04:57:20.278   01 Jun 2027 04:57:28.891             8.613              Murmansk1           269.156
        19   01 Jun 2027 04:57:28.891   01 Jun 2027 04:58:03.210            34.319              Murmansk2          1072.469
        20   01 Jun 2027 04:58:13.594   01 Jun 2027 04:59:24.190            70.596                Norilsk          2206.125
        21   01 Jun 2027 05:32:19.893   01 Jun 2027 05:33:53.655            93.762            RioGallegos          2930.063
        22   01 Jun 2027 05:34:35.389   01 Jun 2027 05:35:11.067            35.678            RioGallegos          1114.938
        23   01 Jun 2027 06:09:16.141   01 Jun 2027 06:11:48.967           152.826                Sumatra          4775.812
        24   01 Jun 2027 06:14:03.508   01 Jun 2027 06:15:51.264           107.756                Sumatra          3367.375
        25   01 Jun 2027 06:28:04.534   01 Jun 2027 06:30:08.554           124.020               Magadan1          3875.625
        26   01 Jun 2027 06:30:16.562   01 Jun 2027 06:30:34.197            17.635               Magadan1           551.094
        27   01 Jun 2027 06:30:43.963   01 Jun 2027 06:31:51.133            67.170                Irkutsk          2099.063
        28   01 Jun 2027 06:31:55.895   01 Jun 2027 06:33:15.819            79.924                Norilsk          2497.625
        29   01 Jun 2027 06:33:25.740   01 Jun 2027 06:33:31.191             5.451              Murmansk1           170.344
        30   01 Jun 2027 06:33:54.215   01 Jun 2027 06:34:28.252            34.037              Murmansk1          1063.656
        31   01 Jun 2027 06:34:28.541   01 Jun 2027 06:34:32.207             3.666                Norilsk           114.562
        32   01 Jun 2027 07:08:32.023   01 Jun 2027 07:09:03.892            31.869            RioGallegos           995.906
        33   01 Jun 2027 07:10:38.980   01 Jun 2027 07:11:16.622            37.642            RioGallegos          1176.312
        34   01 Jun 2027 07:42:57.128   01 Jun 2027 07:44:39.225           102.097                Sumatra          3190.531
        35   01 Jun 2027 07:46:29.436   01 Jun 2027 07:46:57.305            27.869                Sumatra           870.906
        36   01 Jun 2027 07:52:08.079   01 Jun 2027 07:53:36.780            88.701                  Delhi          2771.906
        37   01 Jun 2027 07:53:43.972   01 Jun 2027 07:55:37.086           113.114                  Delhi          3534.812
        38   01 Jun 2027 08:05:22.596   01 Jun 2027 08:05:32.192             9.596                Irkutsk           299.875
        39   01 Jun 2027 08:05:35.677   01 Jun 2027 08:06:26.552            50.875                 Moscow          1589.844
        40   01 Jun 2027 08:06:32.463   01 Jun 2027 08:07:05.521            33.058                 Moscow          1033.063
        41   01 Jun 2027 08:07:08.848   01 Jun 2027 08:08:23.542            74.694              Murmansk1          2334.188
        42   01 Jun 2027 08:08:28.407   01 Jun 2027 08:09:57.053            88.646              Murmansk1          2770.188
        43   01 Jun 2027 09:27:32.397   01 Jun 2027 09:28:20.483            48.086                  Delhi          1502.688
        44   01 Jun 2027 09:31:16.865   01 Jun 2027 09:31:28.590            11.725                  Delhi           366.406
        45   01 Jun 2027 09:41:28.647   01 Jun 2027 09:42:13.370            44.723                Novosib          1397.594
        46   01 Jun 2027 09:42:40.119   01 Jun 2027 09:44:51.587           131.468                Novosib          4108.375
        47   01 Jun 2027 09:47:12.172   01 Jun 2027 09:47:17.529             5.357                 Moscow           167.406
        48   01 Jun 2027 09:50:31.445   01 Jun 2027 09:50:39.560             8.115              Murmansk2           253.594
        49   01 Jun 2027 11:19:19.824   01 Jun 2027 11:20:43.384            83.560              Murmansk2          2611.250
        50   01 Jun 2027 11:20:56.820   01 Jun 2027 11:21:03.889             7.069              Murmansk2           220.906
        51   01 Jun 2027 11:21:42.168   01 Jun 2027 11:22:27.343            45.175                Norilsk          1411.719
        52   01 Jun 2027 11:23:11.574   01 Jun 2027 11:23:21.412             9.838                Norilsk           307.437
        53   01 Jun 2027 11:24:04.680   01 Jun 2027 11:24:27.771            23.091              Murmansk1           721.594
        54   01 Jun 2027 11:25:04.811   01 Jun 2027 11:25:17.951            13.140              Murmansk2           410.625
        55   01 Jun 2027 12:25:30.394   01 Jun 2027 12:29:24.341           233.947               CapeTown          7310.844
        56   01 Jun 2027 12:31:03.971   01 Jun 2027 12:31:04.464             0.493               CapeTown            15.406
        57   01 Jun 2027 12:36:09.894   01 Jun 2027 12:36:53.983            44.089               CapeTown          1377.781
        58   01 Jun 2027 12:52:27.583   01 Jun 2027 12:54:12.062           104.479              Murmansk1          3264.969
        59   01 Jun 2027 12:56:48.216   01 Jun 2027 12:57:05.537            17.321              Murmansk1           541.281
        60   01 Jun 2027 12:57:07.607   01 Jun 2027 12:57:32.146            24.539              Murmansk2           766.844
        61   01 Jun 2027 13:05:49.559   01 Jun 2027 13:07:49.392           119.833                Anadyr2          3744.781
        62   01 Jun 2027 13:08:02.556   01 Jun 2027 13:12:02.060           239.504                Anadyr1          7484.500
        63   01 Jun 2027 13:13:58.943   01 Jun 2027 13:15:21.803            82.860                Anadyr1          2589.375
        64   01 Jun 2027 14:41:29.954   01 Jun 2027 14:42:42.974            73.020                Anadyr2          2281.875
        65   01 Jun 2027 14:42:53.838   01 Jun 2027 14:44:35.934           102.096                Anadyr1          3190.500
        66   01 Jun 2027 14:45:28.082   01 Jun 2027 14:45:54.012            25.930                Anadyr1           810.312
        67   01 Jun 2027 14:46:12.673   01 Jun 2027 14:50:37.507           264.834               Magadan1          8276.063
        68   01 Jun 2027 14:50:37.507   01 Jun 2027 14:53:50.298           192.791               Magadan2          6024.719
        69   01 Jun 2027 16:19:43.777   01 Jun 2027 16:22:14.850           151.073               Magadan2          4721.031
        70   01 Jun 2027 17:13:16.373   01 Jun 2027 17:19:50.836           394.463            RioGallegos         12326.969
        71   01 Jun 2027 17:57:02.662   01 Jun 2027 18:03:32.095           389.433                Norilsk         12169.781
        72   01 Jun 2027 18:03:53.634   01 Jun 2027 18:07:55.528           241.894                Irkutsk          7559.188
        73   01 Jun 2027 18:14:51.374   01 Jun 2027 18:23:20.152           508.778                Sumatra         15899.313
        74   01 Jun 2027 19:39:38.113   01 Jun 2027 19:41:04.351            86.238                Novosib          2694.938
        75   01 Jun 2027 19:45:07.772   01 Jun 2027 19:52:01.235           413.463                  Delhi         12920.719
        76   01 Jun 2027 21:10:01.743   01 Jun 2027 21:15:51.263           349.520              Murmansk1         10922.500
        77   01 Jun 2027 22:48:43.475   01 Jun 2027 22:49:19.936            36.461              Murmansk2          1139.406
        78   01 Jun 2027 22:52:21.520   01 Jun 2027 22:52:26.453             4.933              Murmansk1           154.156
        79   01 Jun 2027 23:16:13.646   01 Jun 2027 23:22:29.061           375.415               CapeTown         11731.719
        80   02 Jun 2027 01:45:59.830   02 Jun 2027 01:46:38.428            38.598               Magadan1          1206.188
        81   02 Jun 2027 01:57:12.470   02 Jun 2027 01:57:47.905            35.435              Murmansk2          1107.344
        82   02 Jun 2027 01:57:47.905   02 Jun 2027 01:57:53.160             5.255              Murmansk1           164.219
        83   02 Jun 2027 01:58:07.364   02 Jun 2027 01:58:39.980            32.616              Murmansk2          1019.250
        84   02 Jun 2027 02:00:39.248   02 Jun 2027 02:01:32.773            53.525                 Moscow          1672.656
        85   02 Jun 2027 02:01:42.506   02 Jun 2027 02:01:52.069             9.563                 Moscow           298.844
        86   02 Jun 2027 02:02:11.663   02 Jun 2027 02:03:04.448            52.785                 Moscow          1649.531
        87   02 Jun 2027 02:09:31.298   02 Jun 2027 02:10:18.049            46.751                 Moscow          1460.969
        88   02 Jun 2027 02:29:20.763   02 Jun 2027 02:30:07.056            46.293               CapeTown          1446.656
        89   02 Jun 2027 02:31:35.806   02 Jun 2027 02:32:57.670            81.864               CapeTown          2558.250
        90   02 Jun 2027 03:27:36.199   02 Jun 2027 03:29:04.588            88.389               Magadan1          2762.156
        91   02 Jun 2027 03:29:21.143   02 Jun 2027 03:30:31.115            69.972               Magadan2          2186.625
        92   02 Jun 2027 03:30:42.111   02 Jun 2027 03:33:39.289           177.178               Magadan1          5536.813
        93   02 Jun 2027 05:03:18.017   02 Jun 2027 05:03:40.918            22.901               Magadan1           715.656
        94   02 Jun 2027 05:03:48.965   02 Jun 2027 05:04:31.976            43.011               Magadan1          1344.094
        95   02 Jun 2027 05:04:50.970   02 Jun 2027 05:07:37.378           166.408                Anadyr1          5200.250
        96   02 Jun 2027 05:07:38.395   02 Jun 2027 05:08:02.206            23.811               Magadan1           744.094
        97   02 Jun 2027 05:08:13.042   02 Jun 2027 05:08:28.529            15.487                Novosib           483.969
        98   02 Jun 2027 05:08:30.818   02 Jun 2027 05:08:46.428            15.610                Norilsk           487.813
        99   02 Jun 2027 05:08:50.261   02 Jun 2027 05:09:15.843            25.582                Norilsk           799.438
       100   02 Jun 2027 05:09:22.063   02 Jun 2027 05:10:05.230            43.167              Murmansk2          1348.969
       101   02 Jun 2027 05:10:13.234   02 Jun 2027 05:10:39.265            26.031                Norilsk           813.469
       102   02 Jun 2027 05:44:11.606   02 Jun 2027 05:46:44.793           153.187            RioGallegos          4787.094
       103   02 Jun 2027 05:50:46.662   02 Jun 2027 05:50:59.444            12.782            RioGallegos           399.438
       104   02 Jun 2027 05:52:28.421   02 Jun 2027 05:53:14.340            45.919            RioGallegos          1434.969
       105   02 Jun 2027 06:20:30.485   02 Jun 2027 06:23:34.511           184.026                Sumatra          5750.813
       106   02 Jun 2027 06:27:56.737   02 Jun 2027 06:28:14.031            17.294                Sumatra           540.438
       107   02 Jun 2027 06:40:05.199   02 Jun 2027 06:41:10.672            65.473                Norilsk          2046.031
       108   02 Jun 2027 06:41:11.413   02 Jun 2027 06:41:40.733            29.320                Novosib           916.250
       109   02 Jun 2027 06:42:02.068   02 Jun 2027 06:45:21.692           199.624                Irkutsk          6238.250
       110   02 Jun 2027 06:45:42.494   02 Jun 2027 06:46:28.870            46.376              Murmansk2          1449.250
       111   02 Jun 2027 07:20:52.256   02 Jun 2027 07:21:04.287            12.031            RioGallegos           375.969
       112   02 Jun 2027 07:55:10.237   02 Jun 2027 07:56:20.862            70.625                Sumatra          2207.031
       113   02 Jun 2027 07:58:49.898   02 Jun 2027 08:00:10.023            80.125                Sumatra          2503.906
       114   02 Jun 2027 08:03:45.695   02 Jun 2027 08:07:33.287           227.592                  Delhi          7112.250
       115   02 Jun 2027 08:17:41.303   02 Jun 2027 08:17:54.673            13.370                 Moscow           417.813
       116   02 Jun 2027 08:18:17.468   02 Jun 2027 08:19:37.352            79.884                Novosib          2496.375
       117   02 Jun 2027 08:19:51.598   02 Jun 2027 08:21:44.799           113.201                 Moscow          3537.531
       118   02 Jun 2027 08:21:45.681   02 Jun 2027 08:22:56.422            70.741              Murmansk1          2210.656
       119   02 Jun 2027 09:39:56.818   02 Jun 2027 09:41:25.716            88.898                  Delhi          2778.063
       120   02 Jun 2027 09:44:22.697   02 Jun 2027 09:44:31.906             9.209                  Delhi           287.781
       121   02 Jun 2027 09:53:52.789   02 Jun 2027 09:54:41.369            48.580                 Moscow          1518.125
       122   02 Jun 2027 09:54:45.022   02 Jun 2027 09:56:44.897           119.875              Murmansk1          3746.094
       123   02 Jun 2027 09:56:58.848   02 Jun 2027 09:59:31.656           152.808                Norilsk          4775.250
       124   02 Jun 2027 09:59:41.172   02 Jun 2027 09:59:59.191            18.019              Murmansk2           563.094
       125   02 Jun 2027 10:00:41.936   02 Jun 2027 10:00:51.305             9.369              Murmansk1           292.781
       126   02 Jun 2027 10:00:51.305   02 Jun 2027 10:01:12.407            21.102              Murmansk2           659.437
       127   02 Jun 2027 11:43:45.785   02 Jun 2027 11:46:56.965           191.180                Anadyr2          5974.375
       128   02 Jun 2027 13:19:43.799   02 Jun 2027 13:19:52.535             8.736                Anadyr2           273.000
       129   02 Jun 2027 13:20:01.605   02 Jun 2027 13:21:34.012            92.407                Anadyr2          2887.719
       130   02 Jun 2027 13:22:54.395   02 Jun 2027 13:24:21.321            86.926                Anadyr2          2716.438
       131   02 Jun 2027 14:53:30.953   02 Jun 2027 14:54:40.525            69.572                Anadyr2          2174.125
       132   02 Jun 2027 14:56:21.683   02 Jun 2027 15:02:10.142           348.459               Magadan1         10889.344
       133   02 Jun 2027 15:02:39.268   02 Jun 2027 15:06:25.721           226.453               Magadan2          7076.656
       134   02 Jun 2027 16:31:43.781   02 Jun 2027 16:32:20.390            36.609               Magadan2          1144.031
       135   02 Jun 2027 17:24:44.091   02 Jun 2027 17:32:00.970           436.879            RioGallegos         13652.469
       136   02 Jun 2027 18:09:29.922   02 Jun 2027 18:09:51.029            21.107                Norilsk           659.594
       137   02 Jun 2027 18:11:55.326   02 Jun 2027 18:13:10.769            75.443                Irkutsk          2357.594
       138   02 Jun 2027 18:13:35.092   02 Jun 2027 18:15:07.135            92.043                Irkutsk          2876.344
       139   02 Jun 2027 18:15:27.301   02 Jun 2027 18:20:05.909           278.608                Irkutsk          8706.500
       140   02 Jun 2027 18:29:43.425   02 Jun 2027 18:33:29.743           226.318                Sumatra          7072.437
       141   02 Jun 2027 19:47:31.156   02 Jun 2027 19:48:36.157            65.001                Novosib          2031.281
       142   02 Jun 2027 19:49:35.708   02 Jun 2027 19:50:26.844            51.136                Novosib          1598.000
       143   02 Jun 2027 19:56:16.463   02 Jun 2027 20:05:04.255           527.792                  Delhi         16493.500
       144   02 Jun 2027 21:21:51.995   02 Jun 2027 21:28:40.034           408.039              Murmansk2         12751.219
       145   02 Jun 2027 23:02:29.607   02 Jun 2027 23:03:11.420            41.813                 Moscow          1306.656
       146   02 Jun 2027 23:07:44.424   02 Jun 2027 23:07:54.636            10.212                 Moscow           319.125
       147   02 Jun 2027 23:26:11.267   02 Jun 2027 23:28:53.531           162.264               CapeTown          5070.750
       148   02 Jun 2027 23:30:42.712   02 Jun 2027 23:33:17.634           154.922               CapeTown          4841.313
       149   03 Jun 2027 00:42:12.847   03 Jun 2027 00:43:24.152            71.305                 Moscow          2228.281
       150   03 Jun 2027 01:00:30.178   03 Jun 2027 01:01:00.899            30.721               CapeTown           960.031
       151   03 Jun 2027 01:02:58.240   03 Jun 2027 01:03:31.821            33.581               CapeTown          1049.406
       152   03 Jun 2027 01:05:42.095   03 Jun 2027 01:05:56.393            14.298               CapeTown           446.813
       153   03 Jun 2027 01:09:30.727   03 Jun 2027 01:09:56.542            25.815               CapeTown           806.719
       154   03 Jun 2027 01:57:16.555   03 Jun 2027 01:57:20.515             3.960                Anadyr1           123.750
       155   03 Jun 2027 01:57:40.942   03 Jun 2027 01:57:55.781            14.839                Anadyr1           463.719
       156   03 Jun 2027 01:58:17.996   03 Jun 2027 01:58:50.538            32.542                Anadyr1          1016.937
       157   03 Jun 2027 01:59:05.796   03 Jun 2027 01:59:30.347            24.551               Magadan2           767.219
       158   03 Jun 2027 02:00:04.268   03 Jun 2027 02:00:54.393            50.125               Magadan2          1566.406
       159   03 Jun 2027 02:02:30.784   03 Jun 2027 02:03:16.275            45.491               Magadan1          1421.594
       160   03 Jun 2027 02:05:19.021   03 Jun 2027 02:05:45.777            26.756               Magadan1           836.125
       161   03 Jun 2027 02:06:53.252   03 Jun 2027 02:07:10.935            17.683                Norilsk           552.594
       162   03 Jun 2027 02:08:44.137   03 Jun 2027 02:09:05.560            21.423               Magadan2           669.469
       163   03 Jun 2027 02:09:13.137   03 Jun 2027 02:10:21.182            68.045              Murmansk2          2126.406
       164   03 Jun 2027 02:10:49.534   03 Jun 2027 02:11:05.960            16.426              Murmansk1           513.313
       165   03 Jun 2027 02:11:22.095   03 Jun 2027 02:12:00.329            38.234              Murmansk2          1194.813
       166   03 Jun 2027 02:13:59.258   03 Jun 2027 02:14:06.432             7.174                 Moscow           224.187
       167   03 Jun 2027 02:14:44.628   03 Jun 2027 02:16:34.335           109.707                 Moscow          3428.344
       168   03 Jun 2027 03:37:46.316   03 Jun 2027 03:38:05.188            18.872               Magadan1           589.750
       169   03 Jun 2027 03:39:43.547   03 Jun 2027 03:41:22.449            98.902                Anadyr1          3090.688
       170   03 Jun 2027 03:41:25.557   03 Jun 2027 03:42:55.607            90.050                Anadyr1          2814.063
       171   03 Jun 2027 03:43:00.544   03 Jun 2027 03:43:21.517            20.973                Anadyr2           655.406
       172   03 Jun 2027 03:43:32.563   03 Jun 2027 03:44:02.680            30.117               Magadan1           941.156
       173   03 Jun 2027 03:44:30.692   03 Jun 2027 03:44:42.820            12.128                Anadyr2           379.000
       174   03 Jun 2027 03:44:45.793   03 Jun 2027 03:45:40.054            54.261               Magadan1          1695.656
       175   03 Jun 2027 05:16:32.532   03 Jun 2027 05:17:30.281            57.749                Irkutsk          1804.656
       176   03 Jun 2027 05:17:48.257   03 Jun 2027 05:18:07.266            19.009               Magadan1           594.031
       177   03 Jun 2027 05:18:07.266   03 Jun 2027 05:19:31.065            83.799               Magadan2          2618.719
       178   03 Jun 2027 05:19:50.490   03 Jun 2027 05:20:19.380            28.890               Magadan2           902.812
       179   03 Jun 2027 05:20:19.380   03 Jun 2027 05:21:07.729            48.349               Magadan1          1510.906
       180   03 Jun 2027 05:21:33.126   03 Jun 2027 05:22:16.463            43.337                Novosib          1354.281
       181   03 Jun 2027 05:22:27.759   03 Jun 2027 05:22:54.019            26.260                Norilsk           820.625
       182   03 Jun 2027 05:27:37.642   03 Jun 2027 05:27:50.824            13.182              Murmansk2           411.938
       183   03 Jun 2027 05:56:06.493   03 Jun 2027 05:58:23.328           136.835            RioGallegos          4276.094
       184   03 Jun 2027 05:59:20.244   03 Jun 2027 06:00:28.079            67.835            RioGallegos          2119.844
       185   03 Jun 2027 06:02:08.414   03 Jun 2027 06:02:17.924             9.510            RioGallegos           297.187
       186   03 Jun 2027 06:04:33.266   03 Jun 2027 06:04:45.109            11.843            RioGallegos           370.094
       187   03 Jun 2027 06:05:25.120   03 Jun 2027 06:05:39.251            14.131            RioGallegos           441.594
       188   03 Jun 2027 06:31:57.608   03 Jun 2027 06:35:26.187           208.579                Sumatra          6518.094
       189   03 Jun 2027 06:52:49.505   03 Jun 2027 06:53:14.191            24.686                Novosib           771.437
       190   03 Jun 2027 06:53:14.959   03 Jun 2027 06:53:24.850             9.891                Novosib           309.094
       191   03 Jun 2027 06:53:43.525   03 Jun 2027 06:56:32.389           168.864                Novosib          5277.000
       192   03 Jun 2027 06:56:39.199   03 Jun 2027 06:57:45.071            65.872                Norilsk          2058.500
       193   03 Jun 2027 06:58:29.722   03 Jun 2027 06:59:05.247            35.525              Murmansk2          1110.156
       194   03 Jun 2027 07:34:50.110   03 Jun 2027 07:34:56.769             6.659            RioGallegos           208.094
       195   03 Jun 2027 07:35:57.500   03 Jun 2027 07:36:22.603            25.103            RioGallegos           784.469
       196   03 Jun 2027 08:07:30.400   03 Jun 2027 08:08:09.088            38.688                Sumatra          1209.000
       197   03 Jun 2027 08:09:22.109   03 Jun 2027 08:11:03.259           101.150                Sumatra          3160.938
       198   03 Jun 2027 08:15:29.433   03 Jun 2027 08:17:08.891            99.458                  Delhi          3108.063
       199   03 Jun 2027 08:17:22.389   03 Jun 2027 08:18:11.869            49.480                  Delhi          1546.250
       200   03 Jun 2027 08:30:52.057   03 Jun 2027 08:32:02.980            70.923                Irkutsk          2216.344
       201   03 Jun 2027 08:32:09.692   03 Jun 2027 08:34:21.752           132.060              Murmansk2          4126.875
       202   03 Jun 2027 08:35:40.570   03 Jun 2027 08:35:43.047             2.477                 Moscow            77.406
       203   03 Jun 2027 09:52:30.061   03 Jun 2027 09:55:15.950           165.889                  Delhi          5184.031
       204   03 Jun 2027 09:55:24.775   03 Jun 2027 09:56:20.254            55.479                  Delhi          1733.719
       205   03 Jun 2027 10:05:53.907   03 Jun 2027 10:06:02.217             8.310                Novosib           259.688
       206   03 Jun 2027 10:06:16.151   03 Jun 2027 10:07:26.949            70.798                Novosib          2212.437
       207   03 Jun 2027 10:07:30.857   03 Jun 2027 10:07:37.937             7.080              Murmansk1           221.250
       208   03 Jun 2027 10:07:46.511   03 Jun 2027 10:08:55.180            68.669                Novosib          2145.906
       209   03 Jun 2027 10:09:21.002   03 Jun 2027 10:09:32.857            11.855              Murmansk1           370.469
       210   03 Jun 2027 10:10:11.858   03 Jun 2027 10:10:54.590            42.732                 Moscow          1335.375
       211   03 Jun 2027 11:55:06.867   03 Jun 2027 12:00:16.479           309.612                Anadyr2          9675.375
       212   03 Jun 2027 13:17:14.207   03 Jun 2027 13:17:52.960            38.753              Murmansk2          1211.031
       213   03 Jun 2027 13:18:13.411   03 Jun 2027 13:18:54.920            41.509              Murmansk2          1297.156
       214   03 Jun 2027 13:29:44.900   03 Jun 2027 13:31:22.304            97.404                Anadyr2          3043.875
       215   03 Jun 2027 13:31:58.855   03 Jun 2027 13:35:28.639           209.784                Anadyr1          6555.750
       216   03 Jun 2027 13:36:56.103   03 Jun 2027 13:38:20.520            84.417                Anadyr1          2638.031
       217   03 Jun 2027 15:00:40.797   03 Jun 2027 15:00:46.291             5.494              Murmansk2           171.687
       218   03 Jun 2027 15:02:30.522   03 Jun 2027 15:02:46.470            15.948              Murmansk1           498.375
       219   03 Jun 2027 15:05:32.094   03 Jun 2027 15:06:42.040            69.946                Anadyr1          2185.813
       220   03 Jun 2027 15:07:57.397   03 Jun 2027 15:08:49.769            52.372                Anadyr2          1636.625
       221   03 Jun 2027 15:08:57.695   03 Jun 2027 15:14:40.047           342.352               Magadan2         10698.500
       222   03 Jun 2027 15:16:13.610   03 Jun 2027 15:18:56.212           162.602               Magadan1          5081.312
       223   03 Jun 2027 16:43:44.261   03 Jun 2027 16:44:00.232            15.971               Magadan1           499.094
       224   03 Jun 2027 16:46:20.036   03 Jun 2027 16:47:00.565            40.529               Magadan1          1266.531
       225   03 Jun 2027 16:47:49.358   03 Jun 2027 16:49:50.312           120.954               Magadan2          3779.813
       226   03 Jun 2027 17:36:21.736   03 Jun 2027 17:37:25.522            63.786            RioGallegos          1993.312
       227   03 Jun 2027 17:37:58.772   03 Jun 2027 17:42:51.032           292.260            RioGallegos          9133.125
       228   03 Jun 2027 18:19:20.698   03 Jun 2027 18:24:37.442           316.744                Norilsk          9898.250
       229   03 Jun 2027 18:25:43.576   03 Jun 2027 18:27:09.437            85.861                Irkutsk          2683.156
       230   03 Jun 2027 18:37:44.755   03 Jun 2027 18:39:15.035            90.280                Sumatra          2821.250
       231   03 Jun 2027 18:39:25.341   03 Jun 2027 18:41:24.177           118.836                Sumatra          3713.625
       232   03 Jun 2027 18:43:10.726   03 Jun 2027 18:44:27.674            76.948                Sumatra          2404.625
       233   03 Jun 2027 20:00:49.156   03 Jun 2027 20:03:04.287           135.131                Novosib          4222.844
       234   03 Jun 2027 20:08:57.170   03 Jun 2027 20:14:51.261           354.091                  Delhi         11065.344
       235   03 Jun 2027 21:33:45.480   03 Jun 2027 21:39:26.660           341.180              Murmansk2         10661.875
       236   03 Jun 2027 21:39:40.029   03 Jun 2027 21:41:23.493           103.464              Murmansk1          3233.250
       237   03 Jun 2027 23:14:53.962   03 Jun 2027 23:15:01.422             7.460                 Moscow           233.125
       238   03 Jun 2027 23:17:32.413   03 Jun 2027 23:19:11.019            98.606                 Moscow          3081.438
       239   03 Jun 2027 23:37:40.769   03 Jun 2027 23:41:03.558           202.789               CapeTown          6337.156
       240   03 Jun 2027 23:43:11.613   03 Jun 2027 23:44:24.905            73.292               CapeTown          2290.375
       241   04 Jun 2027 00:51:45.618   04 Jun 2027 00:52:37.221            51.603                 Moscow          1612.594
       242   04 Jun 2027 01:12:42.902   04 Jun 2027 01:13:48.352            65.450               CapeTown          2045.313
       243   04 Jun 2027 01:16:52.489   04 Jun 2027 01:17:26.959            34.470               CapeTown          1077.188
       244   04 Jun 2027 01:20:55.676   04 Jun 2027 01:21:47.936            52.260               CapeTown          1633.125
       245   04 Jun 2027 02:09:31.585   04 Jun 2027 02:10:33.309            61.724               Magadan2          1928.875
       246   04 Jun 2027 02:10:33.309   04 Jun 2027 02:11:09.159            35.850               Magadan1          1120.313
       247   04 Jun 2027 02:14:46.010   04 Jun 2027 02:15:05.011            19.001               Magadan2           593.781
       248   04 Jun 2027 02:16:24.984   04 Jun 2027 02:16:34.440             9.456               Magadan1           295.500
       249   04 Jun 2027 02:17:21.469   04 Jun 2027 02:18:03.762            42.293                Norilsk          1321.656
       250   04 Jun 2027 02:21:13.551   04 Jun 2027 02:21:54.699            41.148              Murmansk1          1285.875
       251   04 Jun 2027 02:22:38.730   04 Jun 2027 02:23:29.514            50.784              Murmansk2          1587.000
       252   04 Jun 2027 02:24:50.636   04 Jun 2027 02:25:35.510            44.874                 Moscow          1402.312
       253   04 Jun 2027 02:28:17.114   04 Jun 2027 02:28:18.763             1.649                 Moscow            51.531
       254   04 Jun 2027 02:28:24.618   04 Jun 2027 02:29:36.066            71.448                 Moscow          2232.750
       255   04 Jun 2027 03:52:04.944   04 Jun 2027 03:53:23.542            78.598                Anadyr2          2456.188
       256   04 Jun 2027 03:53:24.404   04 Jun 2027 03:53:26.590             2.186               Magadan1            68.313
       257   04 Jun 2027 03:53:33.977   04 Jun 2027 03:54:22.306            48.329                Anadyr2          1510.281
       258   04 Jun 2027 03:54:30.135   04 Jun 2027 03:55:30.958            60.823               Magadan1          1900.719
       259   04 Jun 2027 03:55:34.142   04 Jun 2027 03:57:26.243           112.101                Anadyr2          3503.156
       260   04 Jun 2027 04:40:36.185   04 Jun 2027 04:41:09.558            33.373            RioGallegos          1042.906
       261   04 Jun 2027 05:28:14.617   04 Jun 2027 05:28:42.868            28.251                Irkutsk           882.844
       262   04 Jun 2027 05:29:00.908   04 Jun 2027 05:29:31.297            30.389                Irkutsk           949.656
       263   04 Jun 2027 05:29:57.675   04 Jun 2027 05:32:26.707           149.032               Magadan1          4657.250
       264   04 Jun 2027 05:32:49.132   04 Jun 2027 05:33:17.847            28.715                Irkutsk           897.344
       265   04 Jun 2027 05:33:21.224   04 Jun 2027 05:34:44.821            83.597              Murmansk2          2612.406
       266   04 Jun 2027 05:34:44.821   04 Jun 2027 05:35:12.056            27.235              Murmansk1           851.094
       267   04 Jun 2027 05:35:29.920   04 Jun 2027 05:35:34.987             5.067              Murmansk1           158.344
       268   04 Jun 2027 05:35:59.811   04 Jun 2027 05:36:28.079            28.268                Norilsk           883.375
       269   04 Jun 2027 05:37:32.299   04 Jun 2027 05:37:47.217            14.918              Murmansk2           466.188
       270   04 Jun 2027 05:37:47.217   04 Jun 2027 05:37:58.807            11.590              Murmansk1           362.188
       271   04 Jun 2027 05:38:02.160   04 Jun 2027 05:38:41.140            38.980              Murmansk1          1218.125
       272   04 Jun 2027 06:08:04.592   04 Jun 2027 06:10:04.545           119.953            RioGallegos          3748.531
       273   04 Jun 2027 06:12:15.717   04 Jun 2027 06:12:42.234            26.517            RioGallegos           828.656
       274   04 Jun 2027 06:16:19.422   04 Jun 2027 06:16:31.463            12.041            RioGallegos           376.281
       275   04 Jun 2027 06:17:34.313   04 Jun 2027 06:17:39.951             5.638            RioGallegos           176.187
       276   04 Jun 2027 06:43:33.926   04 Jun 2027 06:47:23.562           229.636                Sumatra          7176.125
       277   04 Jun 2027 06:57:08.508   04 Jun 2027 06:57:46.955            38.447                  Delhi          1201.469
       278   04 Jun 2027 07:04:00.226   04 Jun 2027 07:05:06.766            66.540                Irkutsk          2079.375
       279   04 Jun 2027 07:05:58.315   04 Jun 2027 07:06:07.319             9.004                Norilsk           281.375
       280   04 Jun 2027 07:06:09.363   04 Jun 2027 07:07:22.634            73.271              Murmansk1          2289.719
       281   04 Jun 2027 07:07:25.555   04 Jun 2027 07:07:40.835            15.280                Irkutsk           477.500
       282   04 Jun 2027 07:07:57.195   04 Jun 2027 07:10:58.986           181.791              Murmansk2          5680.969
       283   04 Jun 2027 07:10:58.986   04 Jun 2027 07:11:28.986            30.000              Murmansk1           937.500
       284   04 Jun 2027 07:11:28.986   04 Jun 2027 07:12:10.031            41.045              Murmansk2          1282.656
       285   04 Jun 2027 07:45:47.920   04 Jun 2027 07:46:48.488            60.568            RioGallegos          1892.750
       286   04 Jun 2027 07:48:29.718   04 Jun 2027 07:49:42.479            72.761            RioGallegos          2273.781
       287   04 Jun 2027 08:19:59.374   04 Jun 2027 08:20:03.234             3.860                Sumatra           120.625
       288   04 Jun 2027 08:22:03.033   04 Jun 2027 08:23:07.458            64.425                Sumatra          2013.281
       289   04 Jun 2027 08:27:18.798   04 Jun 2027 08:29:56.226           157.428                  Delhi          4919.625
       290   04 Jun 2027 08:41:14.465   04 Jun 2027 08:41:15.161             0.696                Novosib            21.750
       291   04 Jun 2027 08:41:17.934   04 Jun 2027 08:42:07.212            49.278              Murmansk1          1539.937
       292   04 Jun 2027 08:42:07.491   04 Jun 2027 08:42:20.342            12.851              Murmansk1           401.594
       293   04 Jun 2027 08:42:34.583   04 Jun 2027 08:43:03.817            29.234                 Moscow           913.562
       294   04 Jun 2027 08:43:12.189   04 Jun 2027 08:43:24.569            12.380                Irkutsk           386.875
       295   04 Jun 2027 08:43:33.090   04 Jun 2027 08:43:47.526            14.436                Norilsk           451.125
       296   04 Jun 2027 08:43:50.942   04 Jun 2027 08:43:58.297             7.355                Novosib           229.844
       297   04 Jun 2027 08:43:58.967   04 Jun 2027 08:44:43.422            44.455                Novosib          1389.219
       298   04 Jun 2027 08:44:51.090   04 Jun 2027 08:45:33.239            42.149              Murmansk1          1317.156
       299   04 Jun 2027 08:46:06.251   04 Jun 2027 08:47:28.377            82.126                 Moscow          2566.437
       300   04 Jun 2027 10:05:15.175   04 Jun 2027 10:08:28.447           193.272                  Delhi          6039.750
       301   04 Jun 2027 10:16:45.098   04 Jun 2027 10:17:33.281            48.183              Murmansk1          1505.719
       302   04 Jun 2027 10:17:39.978   04 Jun 2027 10:17:53.685            13.707                Novosib           428.344
       303   04 Jun 2027 10:17:54.177   04 Jun 2027 10:19:18.514            84.337                Norilsk          2635.531
       304   04 Jun 2027 10:19:26.566   04 Jun 2027 10:19:34.234             7.668              Murmansk1           239.625
       305   04 Jun 2027 10:19:43.745   04 Jun 2027 10:20:00.546            16.801              Murmansk1           525.031
       306   04 Jun 2027 10:20:01.694   04 Jun 2027 10:20:41.756            40.062                 Moscow          1251.938
       307   04 Jun 2027 10:20:54.050   04 Jun 2027 10:20:56.629             2.579                Norilsk            80.594
       308   04 Jun 2027 10:20:58.834   04 Jun 2027 10:21:06.068             7.234                 Moscow           226.063
       309   04 Jun 2027 10:21:07.048   04 Jun 2027 10:21:16.127             9.079                Norilsk           283.719
       310   04 Jun 2027 10:21:18.271   04 Jun 2027 10:21:44.954            26.683              Murmansk2           833.844
       311   04 Jun 2027 10:23:41.634   04 Jun 2027 10:24:13.066            31.432              Murmansk2           982.250
       312   04 Jun 2027 11:29:09.953   04 Jun 2027 11:30:38.116            88.163               CapeTown          2755.094
       313   04 Jun 2027 11:30:50.865   04 Jun 2027 11:32:18.038            87.173               CapeTown          2724.156
       314   04 Jun 2027 12:06:45.209   04 Jun 2027 12:13:16.206           390.997                Anadyr2         12218.656
       315   04 Jun 2027 13:38:35.578   04 Jun 2027 13:38:58.247            22.669              Murmansk1           708.406
       316   04 Jun 2027 13:41:43.727   04 Jun 2027 13:43:14.304            90.577                Anadyr2          2830.531
       317   04 Jun 2027 13:43:35.866   04 Jun 2027 13:45:36.232           120.366                Anadyr1          3761.437
       318   04 Jun 2027 13:50:21.736   04 Jun 2027 13:50:33.804            12.068                Anadyr2           377.125
       319   04 Jun 2027 13:53:24.118   04 Jun 2027 13:53:26.623             2.505                Anadyr2            78.281
       320   04 Jun 2027 15:11:20.363   04 Jun 2027 15:12:33.311            72.948              Murmansk2          2279.625
       321   04 Jun 2027 15:12:42.722   04 Jun 2027 15:12:46.121             3.399              Murmansk1           106.219
       322   04 Jun 2027 15:13:01.741   04 Jun 2027 15:13:41.688            39.947              Murmansk2          1248.344
       323   04 Jun 2027 15:17:33.342   04 Jun 2027 15:19:51.033           137.691                Anadyr1          4302.844
       324   04 Jun 2027 15:20:09.005   04 Jun 2027 15:22:21.940           132.935               Magadan1          4154.219
       325   04 Jun 2027 15:23:48.453   04 Jun 2027 15:25:58.757           130.304               Magadan2          4072.000
       326   04 Jun 2027 15:26:57.333   04 Jun 2027 15:28:36.167            98.834               Magadan2          3088.563
       327   04 Jun 2027 15:29:18.157   04 Jun 2027 15:29:40.229            22.072               Magadan2           689.750
       328   04 Jun 2027 16:55:45.150   04 Jun 2027 16:56:53.249            68.099               Magadan1          2128.094
       329   04 Jun 2027 16:57:51.948   04 Jun 2027 16:58:39.320            47.372               Magadan2          1480.375
       330   04 Jun 2027 16:59:22.136   04 Jun 2027 16:59:36.912            14.776                Norilsk           461.750
       331   04 Jun 2027 17:04:17.659   04 Jun 2027 17:04:42.366            24.707               Magadan1           772.094
       332   04 Jun 2027 17:48:05.371   04 Jun 2027 17:51:14.625           189.254            RioGallegos          5914.188
       333   04 Jun 2027 17:51:28.921   04 Jun 2027 17:54:13.919           164.998            RioGallegos          5156.188
       334   04 Jun 2027 18:32:27.125   04 Jun 2027 18:35:42.940           195.815                Norilsk          6119.219
       335   04 Jun 2027 18:36:43.078   04 Jun 2027 18:38:25.011           101.933                Irkutsk          3185.406
       336   04 Jun 2027 18:39:10.635   04 Jun 2027 18:41:38.992           148.357                Novosib          4636.156
       337   04 Jun 2027 18:49:24.927   04 Jun 2027 18:51:00.670            95.743                Sumatra          2991.969
       338   04 Jun 2027 18:53:24.339   04 Jun 2027 18:55:06.756           102.417                Sumatra          3200.531
       339   04 Jun 2027 20:11:19.568   04 Jun 2027 20:11:20.054             0.486                Novosib            15.187
       340   04 Jun 2027 20:13:27.674   04 Jun 2027 20:13:44.524            16.850                Novosib           526.562
       341   04 Jun 2027 20:15:56.169   04 Jun 2027 20:16:54.624            58.455                Novosib          1826.719
       342   04 Jun 2027 20:19:16.779   04 Jun 2027 20:22:56.217           219.438                  Delhi          6857.438
       343   04 Jun 2027 20:23:38.224   04 Jun 2027 20:25:51.466           133.242                  Delhi          4163.812
       344   04 Jun 2027 21:45:41.089   04 Jun 2027 21:46:13.684            32.595              Murmansk1          1018.594
       345   04 Jun 2027 21:46:13.684   04 Jun 2027 21:51:15.516           301.832              Murmansk2          9432.250
       346   04 Jun 2027 21:51:56.378   04 Jun 2027 21:54:02.767           126.389              Murmansk1          3949.656
       347   04 Jun 2027 21:55:39.050   04 Jun 2027 21:56:25.748            46.698                 Moscow          1459.312
       348   04 Jun 2027 23:24:47.435   04 Jun 2027 23:25:45.216            57.781                 Moscow          1805.656
       349   04 Jun 2027 23:28:40.487   04 Jun 2027 23:29:02.802            22.315                 Moscow           697.344
       350   04 Jun 2027 23:34:19.809   04 Jun 2027 23:35:10.043            50.234                 Moscow          1569.813
       351   04 Jun 2027 23:49:16.843   04 Jun 2027 23:51:42.148           145.305               CapeTown          4540.781
       352   04 Jun 2027 23:52:57.224   04 Jun 2027 23:54:18.953            81.729               CapeTown          2554.031
       353   05 Jun 2027 00:57:21.026   05 Jun 2027 00:58:37.439            76.413              Murmansk1          2387.906
       354   05 Jun 2027 01:00:34.444   05 Jun 2027 01:00:48.685            14.241                 Moscow           445.031
       355   05 Jun 2027 01:02:37.106   05 Jun 2027 01:02:38.212             1.106              Murmansk1            34.563
       356   05 Jun 2027 01:03:33.049   05 Jun 2027 01:03:40.473             7.424                 Moscow           232.000
       357   05 Jun 2027 01:04:13.634   05 Jun 2027 01:04:24.198            10.564                 Moscow           330.125
       358   05 Jun 2027 01:05:06.167   05 Jun 2027 01:05:50.534            44.367                 Moscow          1386.469
       359   05 Jun 2027 01:10:35.999   05 Jun 2027 01:10:44.084             8.085                 Moscow           252.656
       360   05 Jun 2027 01:25:01.675   05 Jun 2027 01:25:39.153            37.478               CapeTown          1171.188
       361   05 Jun 2027 01:26:59.290   05 Jun 2027 01:27:16.937            17.647               CapeTown           551.469
       362   05 Jun 2027 01:29:20.186   05 Jun 2027 01:29:48.223            28.037               CapeTown           876.156
       363   05 Jun 2027 01:34:56.156   05 Jun 2027 01:35:09.896            13.740               CapeTown           429.375
       364   05 Jun 2027 02:21:20.564   05 Jun 2027 02:23:41.544           140.980               Magadan2          4405.625
       365   05 Jun 2027 02:24:09.208   05 Jun 2027 02:24:35.257            26.049               Magadan2           814.031
       366   05 Jun 2027 02:26:14.718   05 Jun 2027 02:26:34.648            19.930               Magadan2           622.812
       367   05 Jun 2027 02:28:42.460   05 Jun 2027 02:29:08.970            26.510               Magadan1           828.437
       368   05 Jun 2027 02:31:51.510   05 Jun 2027 02:32:06.017            14.507                Norilsk           453.344
       369   05 Jun 2027 02:33:13.677   05 Jun 2027 02:34:27.302            73.625              Murmansk1          2300.781
       370   05 Jun 2027 02:35:50.775   05 Jun 2027 02:35:54.531             3.756              Murmansk2           117.375
       371   05 Jun 2027 02:36:57.296   05 Jun 2027 02:38:26.786            89.490                 Moscow          2796.563
       372   05 Jun 2027 03:15:34.827   05 Jun 2027 03:17:05.838            91.011            RioGallegos          2844.094
       373   05 Jun 2027 03:17:53.463   05 Jun 2027 03:18:38.847            45.384            RioGallegos          1418.250
       374   05 Jun 2027 04:04:17.531   05 Jun 2027 04:09:32.674           315.143                Anadyr2          9848.219
       375   05 Jun 2027 05:40:25.376   05 Jun 2027 05:42:55.832           150.456                Novosib          4701.750
       376   05 Jun 2027 05:43:07.958   05 Jun 2027 05:44:49.350           101.392               Magadan1          3168.500
       377   05 Jun 2027 05:44:49.442   05 Jun 2027 05:45:22.853            33.411                Irkutsk          1044.094
       378   05 Jun 2027 05:45:31.679   05 Jun 2027 05:46:11.678            39.999              Murmansk1          1249.969
       379   05 Jun 2027 05:46:17.172   05 Jun 2027 05:46:32.778            15.606                Novosib           487.688
       380   05 Jun 2027 05:46:36.736   05 Jun 2027 05:46:47.380            10.644                Norilsk           332.625
       381   05 Jun 2027 05:49:19.190   05 Jun 2027 05:49:35.793            16.603              Murmansk1           518.844
       382   05 Jun 2027 05:50:05.940   05 Jun 2027 05:50:30.031            24.091                Norilsk           752.844
       383   05 Jun 2027 06:20:05.958   05 Jun 2027 06:21:49.013           103.055            RioGallegos          3220.469
       384   05 Jun 2027 06:22:18.101   05 Jun 2027 06:22:50.271            32.170            RioGallegos          1005.313
       385   05 Jun 2027 06:23:23.291   05 Jun 2027 06:24:21.457            58.166            RioGallegos          1817.688
       386   05 Jun 2027 06:55:17.612   05 Jun 2027 06:56:50.945            93.333                Sumatra          2916.656
       387   05 Jun 2027 06:57:55.510   05 Jun 2027 06:58:54.917            59.407                Sumatra          1856.469
       388   05 Jun 2027 07:07:23.245   05 Jun 2027 07:09:02.972            99.727                  Delhi          3116.469
       389   05 Jun 2027 07:10:04.263   05 Jun 2027 07:11:04.108            59.845                  Delhi          1870.156
       390   05 Jun 2027 07:17:01.409   05 Jun 2027 07:18:31.151            89.742                Novosib          2804.437
       391   05 Jun 2027 07:18:43.926   05 Jun 2027 07:19:56.937            73.011                Norilsk          2281.594
       392   05 Jun 2027 07:20:02.439   05 Jun 2027 07:20:21.740            19.301              Murmansk1           603.156
       393   05 Jun 2027 07:20:21.740   05 Jun 2027 07:21:10.770            49.030              Murmansk2          1532.188
       394   05 Jun 2027 07:21:10.770   05 Jun 2027 07:22:32.031            81.261              Murmansk1          2539.406
       395   05 Jun 2027 07:58:25.162   05 Jun 2027 07:59:32.334            67.172            RioGallegos          2099.125
       396   05 Jun 2027 08:32:40.756   05 Jun 2027 08:34:34.529           113.773                Sumatra          3555.406
       397   05 Jun 2027 08:39:13.519   05 Jun 2027 08:39:55.163            41.644                  Delhi          1301.375
       398   05 Jun 2027 08:40:49.650   05 Jun 2027 08:42:01.069            71.419                  Delhi          2231.844
       399   05 Jun 2027 08:53:26.094   05 Jun 2027 08:54:01.913            35.819                 Moscow          1119.344
       400   05 Jun 2027 08:54:07.735   05 Jun 2027 08:55:48.673           100.938              Murmansk1          3154.312
       401   05 Jun 2027 08:55:54.749   05 Jun 2027 08:56:42.328            47.579              Murmansk2          1486.844
       402   05 Jun 2027 08:57:00.370   05 Jun 2027 08:57:12.426            12.056                Norilsk           376.750
       403   05 Jun 2027 08:57:21.423   05 Jun 2027 08:57:46.294            24.871              Murmansk2           777.219
       404   05 Jun 2027 08:57:46.294   05 Jun 2027 08:57:51.262             4.968              Murmansk1           155.250
       405   05 Jun 2027 08:58:55.214   05 Jun 2027 09:00:01.052            65.838              Murmansk1          2057.438
       406   05 Jun 2027 10:18:19.196   05 Jun 2027 10:20:48.536           149.340                  Delhi          4666.875
       407   05 Jun 2027 10:26:51.033   05 Jun 2027 10:27:44.023            52.990                Novosib          1655.937
       408   05 Jun 2027 10:27:44.895   05 Jun 2027 10:28:00.569            15.674                 Moscow           489.812
       409   05 Jun 2027 10:28:28.304   05 Jun 2027 10:28:37.548             9.244              Murmansk1           288.875
       410   05 Jun 2027 10:28:42.848   05 Jun 2027 10:28:48.780             5.932                 Moscow           185.375
       411   05 Jun 2027 10:29:31.867   05 Jun 2027 10:30:23.616            51.749              Murmansk1          1617.156
       412   05 Jun 2027 10:30:32.423   05 Jun 2027 10:31:37.197            64.774                Novosib          2024.187
       413   05 Jun 2027 10:31:54.137   05 Jun 2027 10:31:58.572             4.435              Murmansk2           138.594
       414   05 Jun 2027 10:31:58.572   05 Jun 2027 10:32:28.776            30.204              Murmansk1           943.875
       415   05 Jun 2027 10:32:38.218   05 Jun 2027 10:33:18.346            40.128                 Moscow          1254.000
       416   05 Jun 2027 10:33:36.015   05 Jun 2027 10:33:43.953             7.938                Norilsk           248.062
       417   05 Jun 2027 10:33:45.603   05 Jun 2027 10:33:59.608            14.005                Norilsk           437.656
       418   05 Jun 2027 10:34:12.462   05 Jun 2027 10:34:31.169            18.707                 Moscow           584.594
       419   05 Jun 2027 10:35:25.731   05 Jun 2027 10:35:42.276            16.545              Murmansk2           517.031
       420   05 Jun 2027 11:39:44.816   05 Jun 2027 11:42:16.818           152.002               CapeTown          4750.063
       421   05 Jun 2027 11:42:52.950   05 Jun 2027 11:43:30.073            37.123               CapeTown          1160.094
       422   05 Jun 2027 11:44:16.305   05 Jun 2027 11:46:39.168           142.863               CapeTown          4464.469
       423   05 Jun 2027 12:18:30.867   05 Jun 2027 12:26:06.110           455.243                Anadyr1         14226.344
       424   05 Jun 2027 13:53:43.130   05 Jun 2027 13:54:48.688            65.558                Anadyr2          2048.687
       425   05 Jun 2027 13:54:48.688   05 Jun 2027 13:55:48.230            59.542                Anadyr1          1860.688
       426   05 Jun 2027 13:58:27.009   05 Jun 2027 14:02:13.907           226.898               Magadan2          7090.562
       427   05 Jun 2027 15:31:51.728   05 Jun 2027 15:32:21.435            29.707                Anadyr2           928.344
       428   05 Jun 2027 15:33:49.957   05 Jun 2027 15:34:52.664            62.707                Anadyr1          1959.594
       429   05 Jun 2027 15:35:00.608   05 Jun 2027 15:37:37.443           156.835               Magadan2          4901.094
       430   05 Jun 2027 15:37:41.792   05 Jun 2027 15:38:08.231            26.439               Magadan1           826.219
       431   05 Jun 2027 15:39:04.761   05 Jun 2027 15:40:25.449            80.688               Magadan1          2521.500
       432   05 Jun 2027 17:07:45.873   05 Jun 2027 17:07:53.207             7.334                Anadyr2           229.188
       433   05 Jun 2027 17:08:07.317   05 Jun 2027 17:08:33.382            26.065                Norilsk           814.531
       434   05 Jun 2027 17:09:40.005   05 Jun 2027 17:11:05.958            85.953               Magadan1          2686.031
       435   05 Jun 2027 17:11:23.022   05 Jun 2027 17:12:35.189            72.167                Norilsk          2255.219
       436   05 Jun 2027 17:59:53.111   05 Jun 2027 18:03:49.401           236.290            RioGallegos          7384.063
       437   05 Jun 2027 18:09:20.067   05 Jun 2027 18:10:23.892            63.825            RioGallegos          1994.531
       438   05 Jun 2027 18:43:20.617   05 Jun 2027 18:44:41.830            81.213                Norilsk          2537.906
       439   05 Jun 2027 18:47:28.921   05 Jun 2027 18:51:27.038           238.117                Irkutsk          7441.156
       440   05 Jun 2027 18:52:10.274   05 Jun 2027 18:55:10.560           180.286                Novosib          5633.937
       441   05 Jun 2027 19:04:01.996   05 Jun 2027 19:05:19.835            77.839                Sumatra          2432.469
       442   05 Jun 2027 20:24:24.168   05 Jun 2027 20:25:09.332            45.164                Novosib          1411.375
       443   05 Jun 2027 20:25:46.996   05 Jun 2027 20:27:10.434            83.438                Novosib          2607.438
       444   05 Jun 2027 20:30:16.748   05 Jun 2027 20:30:45.598            28.850                Novosib           901.563
       445   05 Jun 2027 20:30:58.736   05 Jun 2027 20:34:52.577           233.841                  Delhi          7307.531
       446   05 Jun 2027 20:36:13.676   05 Jun 2027 20:37:03.396            49.720                  Delhi          1553.750
       447   05 Jun 2027 21:57:38.178   05 Jun 2027 22:03:08.155           329.977              Murmansk2         10311.781
       448   05 Jun 2027 22:03:09.802   05 Jun 2027 22:09:32.807           383.005                 Moscow         11968.906
       449   06 Jun 2027 00:00:58.723   06 Jun 2027 00:03:31.944           153.221               CapeTown          4788.156
       450   06 Jun 2027 00:04:55.831   06 Jun 2027 00:05:08.405            12.574               CapeTown           392.938
       451   06 Jun 2027 00:12:47.831   06 Jun 2027 00:13:13.551            25.720               CapeTown           803.750
       452   06 Jun 2027 01:09:22.519   06 Jun 2027 01:10:27.780            65.261              Murmansk2          2039.406
       453   06 Jun 2027 01:11:45.376   06 Jun 2027 01:11:58.606            13.230              Murmansk2           413.438
       454   06 Jun 2027 01:12:37.388   06 Jun 2027 01:15:13.404           156.016                 Moscow          4875.500
       455   06 Jun 2027 01:37:27.427   06 Jun 2027 01:37:30.270             2.843               CapeTown            88.844
       456   06 Jun 2027 01:40:38.729   06 Jun 2027 01:41:40.981            62.252               CapeTown          1945.375
       457   06 Jun 2027 01:46:43.059   06 Jun 2027 01:47:01.117            18.058               CapeTown           564.313
       458   06 Jun 2027 02:33:11.686   06 Jun 2027 02:35:32.820           141.134               Magadan2          4410.437
       459   06 Jun 2027 02:35:33.080   06 Jun 2027 02:36:10.792            37.712               Magadan1          1178.500
       460   06 Jun 2027 02:40:05.336   06 Jun 2027 02:40:25.200            19.864               Magadan2           620.750
       461   06 Jun 2027 02:42:24.876   06 Jun 2027 02:42:58.055            33.179                Norilsk          1036.844
       462   06 Jun 2027 02:45:13.489   06 Jun 2027 02:45:57.402            43.913              Murmansk1          1372.281
       463   06 Jun 2027 02:46:15.346   06 Jun 2027 02:47:02.487            47.141              Murmansk2          1473.156
       464   06 Jun 2027 02:49:04.754   06 Jun 2027 02:49:46.990            42.236                 Moscow          1319.875
       465   06 Jun 2027 02:55:10.860   06 Jun 2027 02:55:12.365             1.505                 Moscow            47.031
       466   06 Jun 2027 02:57:20.050   06 Jun 2027 02:57:49.181            29.131                 Moscow           910.344
       467   06 Jun 2027 03:26:19.908   06 Jun 2027 03:27:53.145            93.237            RioGallegos          2913.656
       468   06 Jun 2027 03:28:43.591   06 Jun 2027 03:29:28.498            44.907            RioGallegos          1403.344
       469   06 Jun 2027 03:30:47.474   06 Jun 2027 03:31:20.730            33.256            RioGallegos          1039.250
       470   06 Jun 2027 04:14:27.099   06 Jun 2027 04:14:38.283            11.184               Magadan2           349.500
       471   06 Jun 2027 04:14:48.018   06 Jun 2027 04:15:34.405            46.387               Magadan1          1449.594
       472   06 Jun 2027 04:15:39.523   06 Jun 2027 04:17:26.416           106.893               Magadan2          3340.406
       473   06 Jun 2027 04:17:26.416   06 Jun 2027 04:19:06.615           100.199               Magadan1          3131.219
       474   06 Jun 2027 04:19:27.030   06 Jun 2027 04:21:24.961           117.931                Anadyr2          3685.344
       475   06 Jun 2027 04:21:34.215   06 Jun 2027 04:21:39.528             5.313               Magadan1           166.031
       476   06 Jun 2027 04:57:18.204   06 Jun 2027 05:00:26.266           188.062            RioGallegos          5876.937
       477   06 Jun 2027 05:52:20.065   06 Jun 2027 05:52:57.652            37.587                Irkutsk          1174.594
       478   06 Jun 2027 05:53:04.883   06 Jun 2027 05:54:32.398            87.515               Magadan2          2734.844
       479   06 Jun 2027 05:54:34.106   06 Jun 2027 05:56:23.501           109.395               Magadan2          3418.594
       480   06 Jun 2027 05:56:48.408   06 Jun 2027 05:58:39.586           111.178                Novosib          3474.312
       481   06 Jun 2027 05:58:43.109   06 Jun 2027 05:58:46.265             3.156              Murmansk2            98.625
       482   06 Jun 2027 05:59:34.696   06 Jun 2027 06:00:00.711            26.015              Murmansk1           812.969
