uniorb/output/strategy_1/Drop/Drop_KinoSat_111502.txt

KinoSat_111502
-------------------------
    Access    *     Start Time (UTCG)     *     Stop Time (UTCG)  *   Duration (s)        *       Station  *  Data (Mbytes)
         1   01 Jun 2027 03:50:30.260   01 Jun 2027 03:51:28.686            58.426                Norilsk          1825.813
         2   01 Jun 2027 03:51:51.442   01 Jun 2027 03:51:55.760             4.318                Norilsk           134.937
         3   01 Jun 2027 03:51:59.529   01 Jun 2027 03:52:32.163            32.634              Murmansk2          1019.812
         4   01 Jun 2027 03:52:37.137   01 Jun 2027 03:53:21.835            44.698                Novosib          1396.812
         5   01 Jun 2027 03:53:25.628   01 Jun 2027 03:55:12.502           106.874              Murmansk2          3339.812
         6   01 Jun 2027 03:55:56.187   01 Jun 2027 03:58:54.191           178.004                 Moscow          5562.625
         7   01 Jun 2027 04:10:37.699   01 Jun 2027 04:17:01.097           383.398               CapeTown         11981.187
         8   01 Jun 2027 04:18:42.455   01 Jun 2027 04:20:01.511            79.056               CapeTown          2470.500
         9   01 Jun 2027 05:13:59.083   01 Jun 2027 05:14:31.492            32.409                Anadyr1          1012.781
        10   01 Jun 2027 05:15:44.298   01 Jun 2027 05:16:04.857            20.559                Anadyr1           642.469
        11   01 Jun 2027 05:26:05.204   01 Jun 2027 05:26:50.903            45.699              Murmansk2          1428.094
        12   01 Jun 2027 05:27:11.355   01 Jun 2027 05:27:29.187            17.832              Murmansk2           557.250
        13   01 Jun 2027 05:28:01.717   01 Jun 2027 05:28:03.373             1.656              Murmansk1            51.750
        14   01 Jun 2027 05:28:03.373   01 Jun 2027 05:28:36.817            33.444              Murmansk2          1045.125
        15   01 Jun 2027 05:29:25.874   01 Jun 2027 05:29:41.158            15.284              Murmansk1           477.625
        16   01 Jun 2027 05:29:44.935   01 Jun 2027 05:30:28.346            43.411              Murmansk1          1356.594
        17   01 Jun 2027 06:48:58.403   01 Jun 2027 06:49:12.117            13.714               Magadan2           428.563
        18   01 Jun 2027 06:49:36.121   01 Jun 2027 06:49:38.368             2.247               Magadan2            70.219
        19   01 Jun 2027 06:49:38.368   01 Jun 2027 06:51:38.676           120.308               Magadan1          3759.625
        20   01 Jun 2027 06:51:49.504   01 Jun 2027 06:53:51.607           122.103                Norilsk          3815.719
        21   01 Jun 2027 06:54:02.667   01 Jun 2027 06:54:19.374            16.707                Anadyr1           522.094
        22   01 Jun 2027 08:24:52.797   01 Jun 2027 08:26:06.026            73.229                Anadyr1          2288.406
        23   01 Jun 2027 08:26:40.023   01 Jun 2027 08:29:23.843           163.820                Irkutsk          5119.375
        24   01 Jun 2027 08:29:39.630   01 Jun 2027 08:31:18.894            99.264               Magadan1          3102.000
        25   01 Jun 2027 09:59:32.718   01 Jun 2027 10:01:41.989           129.271               Magadan2          4039.719
        26   01 Jun 2027 10:02:54.588   01 Jun 2027 10:06:16.694           202.106               Magadan2          6315.812
        27   01 Jun 2027 10:06:32.615   01 Jun 2027 10:07:05.267            32.652                Irkutsk          1020.375
        28   01 Jun 2027 11:37:23.598   01 Jun 2027 11:39:19.059           115.461                Irkutsk          3608.156
        29   01 Jun 2027 11:40:21.252   01 Jun 2027 11:40:52.355            31.103                Irkutsk           971.969
        30   01 Jun 2027 11:41:12.378   01 Jun 2027 11:41:25.533            13.155                Novosib           411.094
        31   01 Jun 2027 11:41:52.941   01 Jun 2027 11:42:36.073            43.132                Irkutsk          1347.875
        32   01 Jun 2027 11:43:04.678   01 Jun 2027 11:43:12.935             8.257                Norilsk           258.031
        33   01 Jun 2027 11:43:14.060   01 Jun 2027 11:44:13.500            59.440                Novosib          1857.500
        34   01 Jun 2027 12:21:04.319   01 Jun 2027 12:21:45.838            41.519            RioGallegos          1297.469
        35   01 Jun 2027 12:22:24.497   01 Jun 2027 12:22:46.589            22.092            RioGallegos           690.375
        36   01 Jun 2027 12:24:59.329   01 Jun 2027 12:26:00.898            61.569            RioGallegos          1924.031
        37   01 Jun 2027 12:55:22.606   01 Jun 2027 12:56:43.179            80.573                Sumatra          2517.906
        38   01 Jun 2027 12:59:48.498   01 Jun 2027 13:00:13.557            25.059                Sumatra           783.094
        39   01 Jun 2027 13:08:21.098   01 Jun 2027 13:09:47.081            85.983                Novosib          2686.969
        40   01 Jun 2027 13:10:55.984   01 Jun 2027 13:12:56.129           120.145                Novosib          3754.531
        41   01 Jun 2027 13:13:31.143   01 Jun 2027 13:14:03.383            32.240              Murmansk2          1007.500
        42   01 Jun 2027 13:14:03.383   01 Jun 2027 13:14:30.005            26.622              Murmansk1           831.937
        43   01 Jun 2027 13:15:56.602   01 Jun 2027 13:15:59.776             3.174              Murmansk1            99.188
        44   01 Jun 2027 13:16:13.627   01 Jun 2027 13:16:42.918            29.291              Murmansk1           915.344
        45   01 Jun 2027 14:41:45.799   01 Jun 2027 14:44:01.396           135.597                  Delhi          4237.406
        46   01 Jun 2027 14:44:11.673   01 Jun 2027 14:45:00.676            49.003                  Delhi          1531.344
        47   01 Jun 2027 14:46:28.194   01 Jun 2027 14:47:25.907            57.713                 Moscow          1803.531
        48   01 Jun 2027 14:48:33.742   01 Jun 2027 14:49:00.643            26.901                 Moscow           840.656
        49   01 Jun 2027 14:49:59.253   01 Jun 2027 14:50:04.481             5.228              Murmansk1           163.375
        50   01 Jun 2027 14:50:21.159   01 Jun 2027 14:50:53.843            32.684              Murmansk1          1021.375
        51   01 Jun 2027 14:51:25.554   01 Jun 2027 14:53:02.751            97.197                Novosib          3037.406
        52   01 Jun 2027 14:53:47.686   01 Jun 2027 14:54:09.294            21.608              Murmansk2           675.250
        53   01 Jun 2027 14:54:25.974   01 Jun 2027 14:55:55.621            89.647                Norilsk          2801.469
        54   01 Jun 2027 16:00:34.720   01 Jun 2027 16:03:15.091           160.371               CapeTown          5011.594
        55   01 Jun 2027 16:22:07.477   01 Jun 2027 16:23:22.818            75.341                 Moscow          2354.406
        56   01 Jun 2027 16:25:27.143   01 Jun 2027 16:25:46.111            18.968              Murmansk2           592.750
        57   01 Jun 2027 16:25:56.525   01 Jun 2027 16:26:16.648            20.123              Murmansk1           628.844
        58   01 Jun 2027 16:26:54.293   01 Jun 2027 16:27:36.275            41.982              Murmansk1          1311.937
        59   01 Jun 2027 16:29:41.512   01 Jun 2027 16:29:48.499             6.987              Murmansk1           218.344
        60   01 Jun 2027 16:33:25.848   01 Jun 2027 16:33:52.797            26.949              Murmansk1           842.156
        61   01 Jun 2027 16:37:06.427   01 Jun 2027 16:37:38.212            31.785              Murmansk1           993.281
        62   01 Jun 2027 16:39:57.073   01 Jun 2027 16:41:10.085            73.012                Anadyr1          2281.625
        63   01 Jun 2027 16:41:54.309   01 Jun 2027 16:42:17.724            23.415                Anadyr2           731.719
        64   01 Jun 2027 16:42:57.780   01 Jun 2027 16:43:13.864            16.084                Anadyr2           502.625
        65   01 Jun 2027 16:43:20.064   01 Jun 2027 16:43:25.419             5.355                Anadyr1           167.344
        66   01 Jun 2027 16:44:25.121   01 Jun 2027 16:44:38.353            13.232                Anadyr2           413.500
        67   01 Jun 2027 16:44:38.353   01 Jun 2027 16:44:57.322            18.969                Anadyr1           592.781
        68   01 Jun 2027 16:46:32.502   01 Jun 2027 16:46:46.634            14.132                Anadyr1           441.625
        69   01 Jun 2027 16:47:01.837   01 Jun 2027 16:47:18.822            16.985                Anadyr1           530.781
        70   01 Jun 2027 17:34:42.536   01 Jun 2027 17:37:05.281           142.745               CapeTown          4460.781
        71   01 Jun 2027 18:04:20.020   01 Jun 2027 18:04:49.829            29.809              Murmansk2           931.531
        72   01 Jun 2027 18:05:23.309   01 Jun 2027 18:08:36.169           192.860              Murmansk2          6026.875
        73   01 Jun 2027 18:08:36.169   01 Jun 2027 18:09:13.948            37.779              Murmansk1          1180.594
        74   01 Jun 2027 18:19:17.472   01 Jun 2027 18:19:34.120            16.648               Magadan1           520.250
        75   01 Jun 2027 18:20:04.872   01 Jun 2027 18:20:21.564            16.692                Anadyr1           521.625
        76   01 Jun 2027 18:20:25.891   01 Jun 2027 18:22:12.347           106.456               Magadan2          3326.750
        77   01 Jun 2027 19:12:52.195   01 Jun 2027 19:13:12.054            19.859               CapeTown           620.594
        78   01 Jun 2027 19:13:46.872   01 Jun 2027 19:14:39.358            52.486               CapeTown          1640.187
        79   01 Jun 2027 19:51:14.901   01 Jun 2027 19:56:43.506           328.605                Anadyr1         10268.906
        80   01 Jun 2027 19:57:01.148   01 Jun 2027 19:58:14.929            73.781               Magadan1          2305.656
        81   01 Jun 2027 20:04:16.359   01 Jun 2027 20:04:59.807            43.448               Magadan1          1357.750
        82   01 Jun 2027 21:27:08.454   01 Jun 2027 21:30:49.162           220.708                Anadyr1          6897.125
        83   01 Jun 2027 21:30:50.366   01 Jun 2027 21:34:05.684           195.318                Norilsk          6103.687
        84   01 Jun 2027 21:35:15.617   01 Jun 2027 21:35:19.866             4.249                Norilsk           132.781
        85   01 Jun 2027 21:35:23.900   01 Jun 2027 21:35:50.238            26.338               Magadan1           823.063
        86   01 Jun 2027 21:35:59.216   01 Jun 2027 21:36:46.883            47.667                Irkutsk          1489.594
        87   01 Jun 2027 21:37:55.448   01 Jun 2027 21:38:35.871            40.423                Irkutsk          1263.219
        88   01 Jun 2027 22:21:21.641   01 Jun 2027 22:22:34.415            72.774            RioGallegos          2274.187
        89   01 Jun 2027 22:24:27.437   01 Jun 2027 22:24:27.458             0.021            RioGallegos             0.656
        90   01 Jun 2027 22:25:06.440   01 Jun 2027 22:25:56.614            50.174            RioGallegos          1567.937
        91   01 Jun 2027 22:28:28.396   01 Jun 2027 22:29:33.214            64.818            RioGallegos          2025.562
        92   01 Jun 2027 22:32:46.300   01 Jun 2027 22:32:52.700             6.400            RioGallegos           200.000
        93   01 Jun 2027 23:02:39.130   01 Jun 2027 23:03:12.280            33.150                Anadyr1          1035.937
        94   01 Jun 2027 23:03:48.436   01 Jun 2027 23:04:30.099            41.663                Anadyr2          1301.969
        95   01 Jun 2027 23:04:42.429   01 Jun 2027 23:05:01.589            19.160                Anadyr2           598.750
        96   01 Jun 2027 23:05:01.833   01 Jun 2027 23:05:11.181             9.348                Norilsk           292.125
        97   01 Jun 2027 23:05:28.254   01 Jun 2027 23:05:53.768            25.514                Anadyr1           797.312
        98   01 Jun 2027 23:05:59.698   01 Jun 2027 23:06:30.706            31.008                Norilsk           969.000
        99   01 Jun 2027 23:07:01.464   01 Jun 2027 23:07:10.736             9.272               Magadan1           289.750
       100   01 Jun 2027 23:08:20.214   01 Jun 2027 23:08:33.071            12.857               Magadan1           401.781
       101   01 Jun 2027 23:08:46.149   01 Jun 2027 23:09:00.034            13.885               Magadan1           433.906
       102   01 Jun 2027 23:09:02.411   01 Jun 2027 23:09:41.022            38.611                Irkutsk          1206.594
       103   01 Jun 2027 23:10:19.474   01 Jun 2027 23:10:54.316            34.842                Novosib          1088.813
       104   01 Jun 2027 23:11:04.005   01 Jun 2027 23:11:58.099            54.094                Novosib          1690.438
       105   01 Jun 2027 23:16:58.117   01 Jun 2027 23:17:26.978            28.861                Novosib           901.906
       106   01 Jun 2027 23:18:34.851   01 Jun 2027 23:19:40.199            65.348                Irkutsk          2042.125
       107   01 Jun 2027 23:25:55.417   01 Jun 2027 23:25:58.178             2.761                Sumatra            86.281
       108   01 Jun 2027 23:26:45.372   01 Jun 2027 23:26:55.505            10.133                Sumatra           316.656
       109   01 Jun 2027 23:28:49.667   01 Jun 2027 23:29:28.279            38.612                Sumatra          1206.625
       110   01 Jun 2027 23:31:13.198   01 Jun 2027 23:32:16.631            63.433                Sumatra          1982.281
       111   02 Jun 2027 00:07:35.503   02 Jun 2027 00:07:49.172            13.669            RioGallegos           427.156
       112   02 Jun 2027 00:08:34.204   02 Jun 2027 00:09:12.275            38.071            RioGallegos          1189.719
       113   02 Jun 2027 00:37:10.637   02 Jun 2027 00:38:07.428            56.791                Anadyr1          1774.719
       114   02 Jun 2027 00:39:26.574   02 Jun 2027 00:39:41.204            14.630                Anadyr1           457.188
       115   02 Jun 2027 00:40:37.723   02 Jun 2027 00:41:17.257            39.534                Anadyr2          1235.437
       116   02 Jun 2027 00:41:37.197   02 Jun 2027 00:42:15.365            38.168               Magadan2          1192.750
       117   02 Jun 2027 00:43:23.259   02 Jun 2027 00:43:39.440            16.181               Magadan2           505.656
       118   02 Jun 2027 00:43:42.395   02 Jun 2027 00:44:15.818            33.423               Magadan1          1044.469
       119   02 Jun 2027 00:44:46.258   02 Jun 2027 00:45:14.035            27.777               Magadan1           868.031
       120   02 Jun 2027 00:45:21.857   02 Jun 2027 00:46:09.015            47.158                Irkutsk          1473.687
       121   02 Jun 2027 00:46:56.947   02 Jun 2027 00:47:52.533            55.586                Novosib          1737.062
       122   02 Jun 2027 00:48:28.879   02 Jun 2027 00:48:31.872             2.993                Novosib            93.531
       123   02 Jun 2027 00:49:39.617   02 Jun 2027 00:51:46.082           126.465                Novosib          3952.031
       124   02 Jun 2027 00:59:02.728   02 Jun 2027 00:59:18.534            15.806                  Delhi           493.938
       125   02 Jun 2027 01:00:08.820   02 Jun 2027 01:01:06.690            57.870                  Delhi          1808.438
       126   02 Jun 2027 01:04:15.231   02 Jun 2027 01:04:41.548            26.317                  Delhi           822.406
       127   02 Jun 2027 01:35:06.970   02 Jun 2027 01:35:57.439            50.469            RioGallegos          1577.156
       128   02 Jun 2027 01:39:51.969   02 Jun 2027 01:40:13.767            21.798            RioGallegos           681.188
       129   02 Jun 2027 01:40:47.690   02 Jun 2027 01:41:35.067            47.377            RioGallegos          1480.531
       130   02 Jun 2027 02:10:35.473   02 Jun 2027 02:10:49.597            14.124                Anadyr1           441.375
       131   02 Jun 2027 02:11:40.867   02 Jun 2027 02:11:58.947            18.080                Anadyr1           565.000
       132   02 Jun 2027 02:13:23.827   02 Jun 2027 02:13:32.216             8.389                Anadyr1           262.156
       133   02 Jun 2027 02:14:59.618   02 Jun 2027 02:15:58.310            58.692                Anadyr1          1834.125
       134   02 Jun 2027 02:16:47.915   02 Jun 2027 02:17:28.675            40.760               Magadan2          1273.750
       135   02 Jun 2027 02:18:22.527   02 Jun 2027 02:18:30.887             8.360                Norilsk           261.250
       136   02 Jun 2027 02:19:13.225   02 Jun 2027 02:20:42.389            89.164              Murmansk1          2786.375
       137   02 Jun 2027 02:20:46.647   02 Jun 2027 02:21:41.749            55.102                Novosib          1721.938
       138   02 Jun 2027 02:26:03.015   02 Jun 2027 02:27:20.459            77.444                Irkutsk          2420.125
       139   02 Jun 2027 02:34:50.454   02 Jun 2027 02:35:55.649            65.195                  Delhi          2037.344
       140   02 Jun 2027 04:02:21.028   02 Jun 2027 04:02:57.929            36.901                Novosib          1153.156
       141   02 Jun 2027 04:03:03.310   02 Jun 2027 04:04:28.491            85.181                Norilsk          2661.906
       142   02 Jun 2027 04:04:39.937   02 Jun 2027 04:05:14.552            34.615              Murmansk1          1081.719
       143   02 Jun 2027 04:05:36.843   02 Jun 2027 04:07:26.600           109.757              Murmansk1          3429.906
       144   02 Jun 2027 04:07:30.284   02 Jun 2027 04:11:04.550           214.266                 Moscow          6695.812
       145   02 Jun 2027 04:32:45.887   02 Jun 2027 04:34:32.455           106.568               CapeTown          3330.250
       146   02 Jun 2027 05:25:41.464   02 Jun 2027 05:26:18.295            36.831                Anadyr2          1150.969
       147   02 Jun 2027 05:26:39.730   02 Jun 2027 05:28:15.768            96.038                Anadyr2          3001.188
       148   02 Jun 2027 05:28:47.947   02 Jun 2027 05:31:17.324           149.377               Magadan1          4668.031
       149   02 Jun 2027 05:37:30.655   02 Jun 2027 05:38:03.537            32.882              Murmansk1          1027.563
       150   02 Jun 2027 05:38:53.081   02 Jun 2027 05:39:27.860            34.779              Murmansk1          1086.844
       151   02 Jun 2027 05:40:14.242   02 Jun 2027 05:40:40.015            25.773              Murmansk1           805.406
       152   02 Jun 2027 05:41:15.898   02 Jun 2027 05:41:55.990            40.092              Murmansk2          1252.875
       153   02 Jun 2027 05:42:15.524   02 Jun 2027 05:42:26.240            10.716              Murmansk2           334.875
       154   02 Jun 2027 05:42:42.447   02 Jun 2027 05:43:58.868            76.421              Murmansk2          2388.156
       155   02 Jun 2027 07:01:49.531   02 Jun 2027 07:04:39.118           169.587                Anadyr2          5299.594
       156   02 Jun 2027 08:35:54.267   02 Jun 2027 08:36:35.888            41.621               Magadan2          1300.656
       157   02 Jun 2027 08:36:37.621   02 Jun 2027 08:40:56.204           258.583                Anadyr2          8080.719
       158   02 Jun 2027 08:40:56.204   02 Jun 2027 08:42:56.375           120.171                Anadyr1          3755.344
       159   02 Jun 2027 10:13:20.229   02 Jun 2027 10:14:33.438            73.209                Irkutsk          2287.781
       160   02 Jun 2027 10:14:53.003   02 Jun 2027 10:16:19.560            86.557               Magadan2          2704.906
       161   02 Jun 2027 10:17:05.065   02 Jun 2027 10:17:45.820            40.755                Irkutsk          1273.594
       162   02 Jun 2027 10:18:17.564   02 Jun 2027 10:22:32.945           255.381                Norilsk          7980.656
       163   02 Jun 2027 10:23:06.530   02 Jun 2027 10:24:05.318            58.788              Murmansk1          1837.125
       164   02 Jun 2027 10:24:11.105   02 Jun 2027 10:24:17.657             6.552              Murmansk1           204.750
       165   02 Jun 2027 10:25:14.749   02 Jun 2027 10:25:47.609            32.860              Murmansk1          1026.875
       166   02 Jun 2027 10:26:56.257   02 Jun 2027 10:27:16.406            20.149              Murmansk1           629.656
       167   02 Jun 2027 10:53:57.712   02 Jun 2027 10:55:15.633            77.921            RioGallegos          2435.031
       168   02 Jun 2027 10:55:55.371   02 Jun 2027 10:56:41.008            45.637            RioGallegos          1426.156
       169   02 Jun 2027 11:28:42.367   02 Jun 2027 11:29:49.729            67.362                Sumatra          2105.063
       170   02 Jun 2027 11:31:14.470   02 Jun 2027 11:31:33.967            19.497                Sumatra           609.281
       171   02 Jun 2027 11:47:36.585   02 Jun 2027 11:48:16.466            39.881                Irkutsk          1246.281
       172   02 Jun 2027 11:48:48.543   02 Jun 2027 11:49:28.377            39.834                Irkutsk          1244.812
       173   02 Jun 2027 11:50:07.234   02 Jun 2027 11:52:02.954           115.720                Irkutsk          3616.250
       174   02 Jun 2027 11:52:55.979   02 Jun 2027 11:54:45.170           109.191                 Moscow          3412.219
       175   02 Jun 2027 11:54:46.630   02 Jun 2027 11:54:51.851             5.221                Irkutsk           163.156
       176   02 Jun 2027 11:55:16.151   02 Jun 2027 11:56:04.270            48.119              Murmansk1          1503.719
       177   02 Jun 2027 11:56:06.558   02 Jun 2027 11:56:20.127            13.569                Norilsk           424.031
       178   02 Jun 2027 11:56:21.751   02 Jun 2027 11:56:34.391            12.640                 Moscow           395.000
       179   02 Jun 2027 12:33:45.387   02 Jun 2027 12:36:59.032           193.645            RioGallegos          6051.406
       180   02 Jun 2027 12:39:24.914   02 Jun 2027 12:40:39.829            74.915            RioGallegos          2341.094
       181   02 Jun 2027 13:09:49.918   02 Jun 2027 13:11:13.288            83.370                Sumatra          2605.313
       182   02 Jun 2027 13:20:41.489   02 Jun 2027 13:21:17.300            35.811                Novosib          1119.094
       183   02 Jun 2027 13:21:53.969   02 Jun 2027 13:22:45.615            51.646                Novosib          1613.938
       184   02 Jun 2027 13:23:47.506   02 Jun 2027 13:25:03.866            76.360                Novosib          2386.250
       185   02 Jun 2027 13:25:49.438   02 Jun 2027 13:27:11.644            82.206                Norilsk          2568.938
       186   02 Jun 2027 13:34:20.019   02 Jun 2027 13:34:55.606            35.587                Norilsk          1112.094
       187   02 Jun 2027 13:35:34.997   02 Jun 2027 13:36:00.648            25.651                Norilsk           801.594
       188   02 Jun 2027 13:37:08.138   02 Jun 2027 13:37:36.595            28.457              Murmansk1           889.281
       189   02 Jun 2027 13:37:43.174   02 Jun 2027 13:37:47.919             4.745              Murmansk2           148.281
       190   02 Jun 2027 14:57:19.023   02 Jun 2027 14:58:27.992            68.969                 Moscow          2155.281
       191   02 Jun 2027 14:59:42.108   02 Jun 2027 15:02:07.610           145.502                 Moscow          4546.938
       192   02 Jun 2027 15:02:19.870   02 Jun 2027 15:05:20.411           180.541              Murmansk1          5641.906
       193   02 Jun 2027 15:05:45.403   02 Jun 2027 15:08:13.010           147.607                Norilsk          4612.719
       194   02 Jun 2027 15:08:46.131   02 Jun 2027 15:09:23.479            37.348                Norilsk          1167.125
       195   02 Jun 2027 15:09:26.850   02 Jun 2027 15:09:55.955            29.105                Norilsk           909.531
       196   02 Jun 2027 16:12:02.795   02 Jun 2027 16:13:10.088            67.293               CapeTown          2102.906
       197   02 Jun 2027 16:16:10.241   02 Jun 2027 16:16:26.738            16.497               CapeTown           515.531
       198   02 Jun 2027 16:17:01.314   02 Jun 2027 16:17:11.149             9.835               CapeTown           307.344
       199   02 Jun 2027 16:18:23.311   02 Jun 2027 16:18:50.039            26.728               CapeTown           835.250
       200   02 Jun 2027 16:19:20.350   02 Jun 2027 16:20:47.186            86.836               CapeTown          2713.625
       201   02 Jun 2027 16:22:05.849   02 Jun 2027 16:22:06.094             0.245               CapeTown             7.656
       202   02 Jun 2027 16:37:16.078   02 Jun 2027 16:38:34.282            78.204                 Moscow          2443.875
       203   02 Jun 2027 16:41:08.754   02 Jun 2027 16:41:32.055            23.301                 Moscow           728.156
       204   02 Jun 2027 16:42:09.378   02 Jun 2027 16:42:38.466            29.088              Murmansk1           909.000
       205   02 Jun 2027 16:44:02.361   02 Jun 2027 16:44:39.938            37.577              Murmansk1          1174.281
       206   02 Jun 2027 16:45:03.813   02 Jun 2027 16:45:16.303            12.490                 Moscow           390.312
       207   02 Jun 2027 16:45:23.216   02 Jun 2027 16:45:54.808            31.592              Murmansk2           987.250
       208   02 Jun 2027 16:47:03.269   02 Jun 2027 16:47:31.614            28.345              Murmansk2           885.781
       209   02 Jun 2027 16:47:54.658   02 Jun 2027 16:48:45.455            50.797              Murmansk2          1587.406
       210   02 Jun 2027 16:53:09.858   02 Jun 2027 16:53:55.510            45.652                Anadyr2          1426.625
       211   02 Jun 2027 16:55:15.204   02 Jun 2027 16:55:22.315             7.111                Anadyr2           222.219
       212   02 Jun 2027 16:55:29.265   02 Jun 2027 16:55:50.295            21.030                Anadyr1           657.187
       213   02 Jun 2027 16:56:31.100   02 Jun 2027 16:56:57.974            26.874                Anadyr1           839.812
       214   02 Jun 2027 16:57:54.553   02 Jun 2027 16:59:00.752            66.199                Anadyr2          2068.719
       215   02 Jun 2027 16:59:52.881   02 Jun 2027 17:00:17.058            24.177                Anadyr2           755.531
       216   02 Jun 2027 17:00:17.058   02 Jun 2027 17:00:37.322            20.264                Anadyr1           633.250
       217   02 Jun 2027 17:00:47.490   02 Jun 2027 17:00:51.571             4.081                Anadyr1           127.531
       218   02 Jun 2027 17:55:48.628   02 Jun 2027 17:56:26.010            37.382               CapeTown          1168.188
       219   02 Jun 2027 17:57:08.266   02 Jun 2027 17:57:40.439            32.173               CapeTown          1005.406
       220   02 Jun 2027 17:58:28.547   02 Jun 2027 17:59:19.330            50.783               CapeTown          1586.969
       221   02 Jun 2027 18:16:55.753   02 Jun 2027 18:17:44.474            48.721              Murmansk1          1522.531
       222   02 Jun 2027 18:18:04.520   02 Jun 2027 18:20:01.705           117.185              Murmansk2          3662.031
       223   02 Jun 2027 18:21:07.139   02 Jun 2027 18:22:14.617            67.478              Murmansk2          2108.688
       224   02 Jun 2027 18:22:40.787   02 Jun 2027 18:23:05.375            24.588              Murmansk1           768.375
       225   02 Jun 2027 18:23:26.177   02 Jun 2027 18:23:52.991            26.814              Murmansk1           837.938
       226   02 Jun 2027 18:34:50.405   02 Jun 2027 18:35:11.383            20.978                Anadyr2           655.562
       227   02 Jun 2027 18:35:36.824   02 Jun 2027 18:36:12.644            35.820                Anadyr2          1119.375
       228   02 Jun 2027 18:36:31.275   02 Jun 2027 18:37:27.050            55.775               Magadan1          1742.969
       229   02 Jun 2027 18:38:10.249   02 Jun 2027 18:39:06.070            55.821                Anadyr1          1744.406
       230   02 Jun 2027 19:28:46.420   02 Jun 2027 19:29:21.489            35.069               CapeTown          1095.906
       231   02 Jun 2027 20:03:16.587   02 Jun 2027 20:04:56.353            99.766                Anadyr2          3117.688
       232   02 Jun 2027 20:05:21.128   02 Jun 2027 20:07:24.488           123.360                Anadyr1          3855.000
       233   02 Jun 2027 20:07:34.975   02 Jun 2027 20:07:45.216            10.241                Anadyr1           320.031
       234   02 Jun 2027 20:08:01.074   02 Jun 2027 20:08:11.998            10.924               Magadan1           341.375
       235   02 Jun 2027 20:08:15.992   02 Jun 2027 20:08:26.952            10.960               Magadan2           342.500
       236   02 Jun 2027 20:08:39.544   02 Jun 2027 20:09:07.302            27.758                Anadyr1           867.437
       237   02 Jun 2027 20:09:35.147   02 Jun 2027 20:09:41.104             5.957                Anadyr1           186.156
       238   02 Jun 2027 20:09:49.112   02 Jun 2027 20:10:16.829            27.717               Magadan2           866.156
       239   02 Jun 2027 20:10:52.243   02 Jun 2027 20:11:16.174            23.931               Magadan2           747.844
       240   02 Jun 2027 20:11:47.958   02 Jun 2027 20:12:23.683            35.725               Magadan1          1116.406
       241   02 Jun 2027 20:13:35.773   02 Jun 2027 20:13:55.771            19.998               Magadan1           624.937
       242   02 Jun 2027 20:14:02.294   02 Jun 2027 20:14:11.854             9.560               Magadan2           298.750
       243   02 Jun 2027 20:14:26.345   02 Jun 2027 20:14:31.065             4.720                Anadyr2           147.500
       244   02 Jun 2027 20:14:43.957   02 Jun 2027 20:15:48.533            64.576               Magadan2          2018.000
       245   02 Jun 2027 20:17:39.526   02 Jun 2027 20:17:52.504            12.978               Magadan2           405.562
       246   02 Jun 2027 21:39:08.700   02 Jun 2027 21:43:50.548           281.848                Anadyr2          8807.750
       247   02 Jun 2027 21:44:10.127   02 Jun 2027 21:44:40.571            30.444               Magadan2           951.375
       248   02 Jun 2027 21:44:52.641   02 Jun 2027 21:46:03.653            71.012                Norilsk          2219.125
       249   02 Jun 2027 21:47:39.136   02 Jun 2027 21:47:59.069            19.933                Norilsk           622.906
       250   02 Jun 2027 21:49:09.991   02 Jun 2027 21:49:14.134             4.143                Irkutsk           129.469
       251   02 Jun 2027 21:49:37.349   02 Jun 2027 21:49:39.180             1.831               Magadan2            57.219
       252   02 Jun 2027 21:49:58.485   02 Jun 2027 21:50:37.720            39.235               Magadan2          1226.094
       253   02 Jun 2027 21:51:19.087   02 Jun 2027 21:51:32.919            13.832               Magadan2           432.250
       254   02 Jun 2027 21:52:08.314   02 Jun 2027 21:52:28.678            20.364               Magadan1           636.375
       255   02 Jun 2027 21:52:54.768   02 Jun 2027 21:53:16.737            21.969               Magadan1           686.531
       256   02 Jun 2027 22:03:04.931   02 Jun 2027 22:03:32.528            27.597                Sumatra           862.406
       257   02 Jun 2027 22:04:11.002   02 Jun 2027 22:04:20.913             9.911                Sumatra           309.719
       258   02 Jun 2027 22:06:47.349   02 Jun 2027 22:08:05.311            77.962                Sumatra          2436.313
       259   02 Jun 2027 22:41:07.579   02 Jun 2027 22:41:30.413            22.834            RioGallegos           713.562
       260   02 Jun 2027 22:42:33.845   02 Jun 2027 22:42:39.275             5.430            RioGallegos           169.687
       261   02 Jun 2027 22:42:45.747   02 Jun 2027 22:43:08.532            22.785            RioGallegos           712.031
       262   02 Jun 2027 22:44:16.643   02 Jun 2027 22:44:46.681            30.038            RioGallegos           938.688
       263   02 Jun 2027 23:14:34.175   02 Jun 2027 23:15:33.149            58.974                Anadyr1          1842.937
       264   02 Jun 2027 23:16:31.357   02 Jun 2027 23:17:27.172            55.815                Anadyr1          1744.219
       265   02 Jun 2027 23:17:31.286   02 Jun 2027 23:18:35.194            63.908                Norilsk          1997.125
       266   02 Jun 2027 23:18:43.768   02 Jun 2027 23:18:45.138             1.370                Norilsk            42.812
       267   02 Jun 2027 23:19:57.487   02 Jun 2027 23:20:41.184            43.697               Magadan1          1365.531
       268   02 Jun 2027 23:20:59.639   02 Jun 2027 23:22:05.946            66.307                Irkutsk          2072.094
       269   02 Jun 2027 23:25:19.837   02 Jun 2027 23:25:29.339             9.502                Novosib           296.937
       270   02 Jun 2027 23:25:43.157   02 Jun 2027 23:25:46.621             3.464               Magadan1           108.250
       271   02 Jun 2027 23:25:51.026   02 Jun 2027 23:27:54.190           123.164                Novosib          3848.875
       272   02 Jun 2027 23:41:17.851   02 Jun 2027 23:43:04.150           106.299                Sumatra          3321.844
       273   02 Jun 2027 23:46:50.033   02 Jun 2027 23:47:24.793            34.760                Sumatra          1086.250
       274   03 Jun 2027 00:18:17.475   03 Jun 2027 00:18:34.291            16.816            RioGallegos           525.500
       275   03 Jun 2027 00:19:49.624   03 Jun 2027 00:20:10.248            20.624            RioGallegos           644.500
       276   03 Jun 2027 00:20:53.391   03 Jun 2027 00:20:58.398             5.007            RioGallegos           156.469
       277   03 Jun 2027 00:48:55.945   03 Jun 2027 00:49:30.318            34.373                Anadyr1          1074.156
       278   03 Jun 2027 00:50:25.439   03 Jun 2027 00:50:51.840            26.401                Anadyr1           825.031
       279   03 Jun 2027 00:51:17.805   03 Jun 2027 00:51:36.421            18.616                Anadyr1           581.750
       280   03 Jun 2027 00:52:59.969   03 Jun 2027 00:55:02.137           122.168                Norilsk          3817.750
       281   03 Jun 2027 00:56:06.873   03 Jun 2027 00:56:45.012            38.139                Norilsk          1191.844
       282   03 Jun 2027 00:56:50.929   03 Jun 2027 00:57:19.666            28.737                Novosib           898.031
       283   03 Jun 2027 00:58:18.738   03 Jun 2027 00:58:49.025            30.287                Irkutsk           946.469
       284   03 Jun 2027 01:01:33.125   03 Jun 2027 01:02:28.823            55.698                Novosib          1740.562
       285   03 Jun 2027 01:05:28.286   03 Jun 2027 01:05:45.242            16.956                Irkutsk           529.875
       286   03 Jun 2027 01:06:24.732   03 Jun 2027 01:06:32.229             7.497                Novosib           234.281
       287   03 Jun 2027 01:07:00.669   03 Jun 2027 01:07:32.644            31.975                Novosib           999.219
       288   03 Jun 2027 01:08:59.212   03 Jun 2027 01:09:00.521             1.309                Irkutsk            40.906
       289   03 Jun 2027 01:11:05.144   03 Jun 2027 01:11:40.429            35.285                  Delhi          1102.656
       290   03 Jun 2027 01:13:46.997   03 Jun 2027 01:14:16.414            29.417                  Delhi           919.281
       291   03 Jun 2027 01:14:31.607   03 Jun 2027 01:16:08.255            96.648                  Delhi          3020.250
       292   03 Jun 2027 01:50:05.267   03 Jun 2027 01:51:17.456            72.189            RioGallegos          2255.906
       293   03 Jun 2027 02:24:20.341   03 Jun 2027 02:24:42.189            21.848                Anadyr2           682.750
       294   03 Jun 2027 02:24:56.576   03 Jun 2027 02:25:15.197            18.621                Anadyr1           581.906
       295   03 Jun 2027 02:26:16.261   03 Jun 2027 02:26:49.148            32.887                Anadyr1          1027.719
       296   03 Jun 2027 02:28:20.462   03 Jun 2027 02:28:39.043            18.581                Anadyr2           580.656
       297   03 Jun 2027 02:28:53.736   03 Jun 2027 02:29:25.302            31.566               Magadan1           986.437
       298   03 Jun 2027 02:30:02.787   03 Jun 2027 02:30:07.952             5.165               Magadan2           161.406
       299   03 Jun 2027 02:30:26.857   03 Jun 2027 02:31:02.815            35.958                Norilsk          1123.687
       300   03 Jun 2027 02:32:50.579   03 Jun 2027 02:33:44.327            53.748                Novosib          1679.625
       301   03 Jun 2027 02:36:00.769   03 Jun 2027 02:36:03.764             2.995                Irkutsk            93.594
       302   03 Jun 2027 02:36:15.418   03 Jun 2027 02:36:54.052            38.634                Irkutsk          1207.313
       303   03 Jun 2027 02:39:33.938   03 Jun 2027 02:39:50.691            16.753                Irkutsk           523.531
       304   03 Jun 2027 02:40:16.807   03 Jun 2027 02:40:36.341            19.534                Novosib           610.437
       305   03 Jun 2027 02:42:32.902   03 Jun 2027 02:42:57.144            24.242                Novosib           757.562
       306   03 Jun 2027 02:45:10.223   03 Jun 2027 02:46:29.274            79.051                  Delhi          2470.344
       307   03 Jun 2027 03:08:35.375   03 Jun 2027 03:08:54.524            19.149               CapeTown           598.406
       308   03 Jun 2027 04:14:00.314   03 Jun 2027 04:14:54.668            54.354              Murmansk2          1698.563
       309   03 Jun 2027 04:14:57.704   03 Jun 2027 04:15:58.940            61.236              Murmansk2          1913.625
       310   03 Jun 2027 04:16:15.416   03 Jun 2027 04:17:11.827            56.411                 Moscow          1762.844
       311   03 Jun 2027 04:17:23.284   03 Jun 2027 04:23:11.695           348.411                 Moscow         10887.844
       312   03 Jun 2027 04:42:13.028   03 Jun 2027 04:42:36.343            23.315               CapeTown           728.594
       313   03 Jun 2027 04:43:07.799   03 Jun 2027 04:43:49.293            41.494               CapeTown          1296.687
       314   03 Jun 2027 04:44:09.723   03 Jun 2027 04:46:43.135           153.412               CapeTown          4794.125
       315   03 Jun 2027 05:38:41.452   03 Jun 2027 05:40:15.929            94.477               Magadan1          2952.406
       316   03 Jun 2027 05:40:15.929   03 Jun 2027 05:41:25.704            69.775               Magadan2          2180.469
       317   03 Jun 2027 05:41:45.804   03 Jun 2027 05:42:06.385            20.581               Magadan1           643.156
       318   03 Jun 2027 05:42:45.681   03 Jun 2027 05:43:08.861            23.180                Anadyr2           724.375
       319   03 Jun 2027 05:43:19.168   03 Jun 2027 05:43:25.613             6.445               Magadan1           201.406
       320   03 Jun 2027 05:43:25.613   03 Jun 2027 05:43:25.662             0.049               Magadan2             1.531
       321   03 Jun 2027 07:13:28.053   03 Jun 2027 07:13:48.225            20.172                Anadyr2           630.375
       322   03 Jun 2027 07:14:14.633   03 Jun 2027 07:19:43.514           328.881                Anadyr1         10277.531
       323   03 Jun 2027 08:47:46.777   03 Jun 2027 08:47:59.423            12.646                Irkutsk           395.187
       324   03 Jun 2027 08:48:10.705   03 Jun 2027 08:51:38.139           207.434               Magadan1          6482.312
       325   03 Jun 2027 08:51:38.139   03 Jun 2027 08:53:09.463            91.324               Magadan2          2853.875
       326   03 Jun 2027 08:53:10.357   03 Jun 2027 08:54:42.034            91.677                Anadyr1          2864.906
       327   03 Jun 2027 08:54:48.739   03 Jun 2027 08:55:16.037            27.298               Magadan1           853.063
       328   03 Jun 2027 10:09:36.611   03 Jun 2027 10:09:52.701            16.090                Sumatra           502.813
       329   03 Jun 2027 10:24:01.414   03 Jun 2027 10:26:40.886           159.472               Magadan1          4983.500
       330   03 Jun 2027 10:26:40.886   03 Jun 2027 10:27:59.689            78.803               Magadan2          2462.594
       331   03 Jun 2027 10:28:31.124   03 Jun 2027 10:29:28.961            57.837               Magadan2          1807.406
       332   03 Jun 2027 10:30:09.991   03 Jun 2027 10:30:11.490             1.499                Irkutsk            46.844
       333   03 Jun 2027 10:30:15.930   03 Jun 2027 10:30:25.318             9.388                Irkutsk           293.375
       334   03 Jun 2027 10:30:29.332   03 Jun 2027 10:30:43.405            14.073                Norilsk           439.781
       335   03 Jun 2027 10:30:46.012   03 Jun 2027 10:31:12.301            26.289                Irkutsk           821.531
       336   03 Jun 2027 10:31:27.630   03 Jun 2027 10:32:00.354            32.724              Murmansk2          1022.625
       337   03 Jun 2027 11:06:09.921   03 Jun 2027 11:07:07.094            57.173            RioGallegos          1786.656
       338   03 Jun 2027 11:09:00.069   03 Jun 2027 11:09:33.681            33.612            RioGallegos          1050.375
       339   03 Jun 2027 11:18:30.544   03 Jun 2027 11:18:32.056             1.512            RioGallegos            47.250
       340   03 Jun 2027 11:40:44.106   03 Jun 2027 11:40:46.900             2.794                Sumatra            87.313
       341   03 Jun 2027 11:42:37.501   03 Jun 2027 11:43:20.930            43.429                Sumatra          1357.156
       342   03 Jun 2027 11:45:28.483   03 Jun 2027 11:45:40.341            11.858                Sumatra           370.562
       343   03 Jun 2027 11:49:42.228   03 Jun 2027 11:49:45.175             2.947                Sumatra            92.094
       344   03 Jun 2027 11:51:03.945   03 Jun 2027 11:52:42.543            98.598                Sumatra          3081.188
       345   03 Jun 2027 12:09:34.011   03 Jun 2027 12:09:43.208             9.197              Murmansk1           287.406
       346   03 Jun 2027 12:09:49.462   03 Jun 2027 12:10:24.592            35.130              Murmansk2          1097.812
       347   03 Jun 2027 12:12:10.696   03 Jun 2027 12:12:16.556             5.860              Murmansk1           183.125
       348   03 Jun 2027 12:13:10.324   03 Jun 2027 12:13:18.614             8.290              Murmansk2           259.063
       349   03 Jun 2027 12:13:39.714   03 Jun 2027 12:14:12.509            32.795              Murmansk1          1024.844
       350   03 Jun 2027 12:47:04.365   03 Jun 2027 12:48:57.538           113.173            RioGallegos          3536.656
       351   03 Jun 2027 13:31:10.202   03 Jun 2027 13:31:11.261             1.059                  Delhi            33.094
       352   03 Jun 2027 13:33:06.128   03 Jun 2027 13:34:16.067            69.939                Novosib          2185.594
       353   03 Jun 2027 13:34:40.753   03 Jun 2027 13:35:04.341            23.588                Novosib           737.125
       354   03 Jun 2027 13:35:45.329   03 Jun 2027 13:37:03.586            78.257                Novosib          2445.531
       355   03 Jun 2027 13:39:03.003   03 Jun 2027 13:39:39.537            36.534                Novosib          1141.688
       356   03 Jun 2027 13:41:34.348   03 Jun 2027 13:42:43.038            68.690                Novosib          2146.563
       357   03 Jun 2027 13:46:55.623   03 Jun 2027 13:47:31.033            35.410                Norilsk          1106.562
       358   03 Jun 2027 15:09:19.058   03 Jun 2027 15:12:31.526           192.468                 Moscow          6014.625
       359   03 Jun 2027 15:12:47.589   03 Jun 2027 15:14:03.073            75.484              Murmansk1          2358.875
       360   03 Jun 2027 15:17:15.058   03 Jun 2027 15:20:11.663           176.605                Norilsk          5518.906
       361   03 Jun 2027 15:21:02.182   03 Jun 2027 15:21:37.863            35.681                Norilsk          1115.031
       362   03 Jun 2027 15:21:54.535   03 Jun 2027 15:22:01.998             7.463                Norilsk           233.219
       363   03 Jun 2027 16:27:43.253   03 Jun 2027 16:28:20.840            37.587               CapeTown          1174.594
       364   03 Jun 2027 16:33:03.712   03 Jun 2027 16:33:05.911             2.199               CapeTown            68.719
       365   03 Jun 2027 16:33:32.112   03 Jun 2027 16:33:58.950            26.838               CapeTown           838.688
       366   03 Jun 2027 16:46:59.537   03 Jun 2027 16:47:42.620            43.083                 Moscow          1346.344
       367   03 Jun 2027 16:50:01.161   03 Jun 2027 16:51:22.103            80.942              Murmansk2          2529.437
       368   03 Jun 2027 16:56:04.420   03 Jun 2027 16:56:47.613            43.193              Murmansk2          1349.781
       369   03 Jun 2027 16:59:32.167   03 Jun 2027 16:59:45.656            13.489              Murmansk1           421.531
       370   03 Jun 2027 17:03:45.441   03 Jun 2027 17:04:57.554            72.113                Anadyr2          2253.531
       371   03 Jun 2027 17:06:40.338   03 Jun 2027 17:07:16.595            36.257                Anadyr2          1133.031
       372   03 Jun 2027 17:11:31.573   03 Jun 2027 17:12:03.578            32.005                Anadyr1          1000.156
       373   03 Jun 2027 17:59:53.185   03 Jun 2027 18:00:53.660            60.475               CapeTown          1889.844
       374   03 Jun 2027 18:07:47.519   03 Jun 2027 18:08:27.672            40.153               CapeTown          1254.781
       375   03 Jun 2027 18:29:34.984   03 Jun 2027 18:33:45.944           250.960              Murmansk2          7842.500
       376   03 Jun 2027 18:34:17.426   03 Jun 2027 18:34:29.523            12.097              Murmansk2           378.031
       377   03 Jun 2027 18:42:35.431   03 Jun 2027 18:43:05.932            30.501               Magadan1           953.156
       378   03 Jun 2027 18:44:44.042   03 Jun 2027 18:45:13.542            29.500               Magadan1           921.875
       379   03 Jun 2027 18:46:25.340   03 Jun 2027 18:46:50.641            25.301               Magadan1           790.656
       380   03 Jun 2027 18:50:12.147   03 Jun 2027 18:50:18.106             5.959               Magadan2           186.219
       381   03 Jun 2027 20:15:18.233   03 Jun 2027 20:19:03.264           225.031                Anadyr2          7032.219
       382   03 Jun 2027 20:19:25.509   03 Jun 2027 20:21:20.557           115.048               Magadan2          3595.250
       383   03 Jun 2027 20:21:20.557   03 Jun 2027 20:21:56.034            35.477               Magadan1          1108.656
       384   03 Jun 2027 20:22:31.358   03 Jun 2027 20:22:46.473            15.115               Magadan1           472.344
       385   03 Jun 2027 20:23:18.041   03 Jun 2027 20:23:32.354            14.313               Magadan2           447.281
       386   03 Jun 2027 20:24:04.151   03 Jun 2027 20:24:32.141            27.990               Magadan1           874.687
       387   03 Jun 2027 20:25:54.011   03 Jun 2027 20:25:54.615             0.604               Magadan1            18.875
       388   03 Jun 2027 20:25:56.075   03 Jun 2027 20:26:04.532             8.457               Magadan1           264.281
       389   03 Jun 2027 20:28:59.436   03 Jun 2027 20:29:14.467            15.031               Magadan1           469.719
       390   03 Jun 2027 21:11:57.917   03 Jun 2027 21:14:08.830           130.913            RioGallegos          4091.031
       391   03 Jun 2027 21:16:11.163   03 Jun 2027 21:16:25.716            14.553            RioGallegos           454.781
       392   03 Jun 2027 21:51:08.547   03 Jun 2027 21:52:49.926           101.379                Anadyr2          3168.094
       393   03 Jun 2027 21:53:17.848   03 Jun 2027 21:54:48.247            90.399                Norilsk          2824.969
       394   03 Jun 2027 21:54:56.360   03 Jun 2027 21:55:47.297            50.937               Magadan1          1591.781
       395   03 Jun 2027 21:56:06.862   03 Jun 2027 21:56:35.113            28.251               Magadan1           882.844
       396   03 Jun 2027 21:56:43.474   03 Jun 2027 21:56:54.747            11.273                Norilsk           352.281
       397   03 Jun 2027 21:58:22.269   03 Jun 2027 21:58:50.215            27.946                Irkutsk           873.312
       398   03 Jun 2027 21:59:58.659   03 Jun 2027 22:00:08.504             9.845                Irkutsk           307.656
       399   03 Jun 2027 22:00:13.931   03 Jun 2027 22:00:51.966            38.035                Irkutsk          1188.594
       400   03 Jun 2027 22:03:56.350   03 Jun 2027 22:04:03.882             7.532                Irkutsk           235.375
       401   03 Jun 2027 22:13:38.305   03 Jun 2027 22:15:36.889           118.584                Sumatra          3705.750
       402   03 Jun 2027 22:17:08.553   03 Jun 2027 22:18:32.588            84.035                Sumatra          2626.094
       403   03 Jun 2027 23:26:28.177   03 Jun 2027 23:26:50.558            22.381                Anadyr1           699.406
       404   03 Jun 2027 23:28:32.501   03 Jun 2027 23:28:57.559            25.058                Anadyr1           783.063
       405   03 Jun 2027 23:29:01.711   03 Jun 2027 23:30:40.269            98.558                Norilsk          3079.937
       406   03 Jun 2027 23:31:29.195   03 Jun 2027 23:32:50.216            81.021               Magadan1          2531.906
       407   03 Jun 2027 23:33:43.543   03 Jun 2027 23:34:40.286            56.743                Novosib          1773.219
       408   03 Jun 2027 23:37:34.392   03 Jun 2027 23:37:54.952            20.560                Novosib           642.500
       409   03 Jun 2027 23:39:47.754   03 Jun 2027 23:40:01.645            13.891                Novosib           434.094
       410   03 Jun 2027 23:40:47.712   03 Jun 2027 23:41:42.891            55.179                Novosib          1724.344
       411   03 Jun 2027 23:44:29.580   03 Jun 2027 23:44:48.383            18.803                  Delhi           587.594
       412   03 Jun 2027 23:45:46.379   03 Jun 2027 23:46:27.861            41.482                  Delhi          1296.313
       413   03 Jun 2027 23:55:29.260   03 Jun 2027 23:55:36.461             7.201                Sumatra           225.031
       414   03 Jun 2027 23:56:49.117   03 Jun 2027 23:58:36.676           107.559                Sumatra          3361.219
       415   04 Jun 2027 01:01:02.324   04 Jun 2027 01:01:39.782            37.458                Anadyr2          1170.563
       416   04 Jun 2027 01:02:01.072   04 Jun 2027 01:02:48.587            47.515                Anadyr2          1484.844
       417   04 Jun 2027 01:05:02.159   04 Jun 2027 01:07:04.462           122.303                Norilsk          3821.969
       418   04 Jun 2027 01:07:16.739   04 Jun 2027 01:07:30.958            14.219               Magadan2           444.344
       419   04 Jun 2027 01:08:05.223   04 Jun 2027 01:09:02.410            57.187              Murmansk2          1787.094
       420   04 Jun 2027 01:09:09.919   04 Jun 2027 01:10:14.255            64.336                Irkutsk          2010.500
       421   04 Jun 2027 01:13:16.271   04 Jun 2027 01:13:20.135             3.864                Novosib           120.750
       422   04 Jun 2027 01:13:23.932   04 Jun 2027 01:14:43.145            79.213                Novosib          2475.406
       423   04 Jun 2027 01:25:45.560   04 Jun 2027 01:26:15.705            30.145                  Delhi           942.031
       424   04 Jun 2027 01:57:58.025   04 Jun 2027 01:59:22.404            84.379            RioGallegos          2636.844
       425   04 Jun 2027 02:00:13.803   04 Jun 2027 02:00:32.826            19.023            RioGallegos           594.469
       426   04 Jun 2027 02:03:16.924   04 Jun 2027 02:03:29.213            12.289            RioGallegos           384.031
       427   04 Jun 2027 02:03:50.172   04 Jun 2027 02:04:49.243            59.071            RioGallegos          1845.969
       428   04 Jun 2027 02:36:57.646   04 Jun 2027 02:36:58.088             0.442                Anadyr1            13.812
       429   04 Jun 2027 02:37:05.354   04 Jun 2027 02:37:11.387             6.033                Anadyr2           188.531
       430   04 Jun 2027 02:39:46.125   04 Jun 2027 02:39:59.936            13.811                Anadyr2           431.594
       431   04 Jun 2027 02:40:06.666   04 Jun 2027 02:40:55.680            49.014               Magadan2          1531.688
       432   04 Jun 2027 02:40:58.445   04 Jun 2027 02:41:01.823             3.378                Norilsk           105.562
       433   04 Jun 2027 02:41:23.726   04 Jun 2027 02:41:56.571            32.845               Magadan2          1026.406
       434   04 Jun 2027 02:43:12.825   04 Jun 2027 02:44:40.177            87.352              Murmansk1          2729.750
       435   04 Jun 2027 02:44:40.177   04 Jun 2027 02:44:53.322            13.145              Murmansk2           410.781
       436   04 Jun 2027 02:44:55.003   04 Jun 2027 02:45:17.431            22.428                Novosib           700.875
       437   04 Jun 2027 02:45:56.350   04 Jun 2027 02:46:05.164             8.814                Novosib           275.437
       438   04 Jun 2027 02:48:24.333   04 Jun 2027 02:48:59.670            35.337                Irkutsk          1104.281
       439   04 Jun 2027 02:50:36.159   04 Jun 2027 02:51:02.748            26.589                Irkutsk           830.906
       440   04 Jun 2027 02:54:47.284   04 Jun 2027 02:56:09.170            81.886                  Delhi          2558.938
       441   04 Jun 2027 04:26:18.332   04 Jun 2027 04:28:34.653           136.321                Novosib          4260.031
       442   04 Jun 2027 04:28:51.858   04 Jun 2027 04:29:17.557            25.699              Murmansk1           803.094
       443   04 Jun 2027 04:29:52.996   04 Jun 2027 04:33:47.658           234.662                 Moscow          7333.187
       444   04 Jun 2027 04:46:14.830   04 Jun 2027 04:49:04.521           169.691               CapeTown          5302.844
       445   04 Jun 2027 05:50:03.488   04 Jun 2027 05:51:08.618            65.130                Anadyr2          2035.312
       446   04 Jun 2027 05:51:08.618   04 Jun 2027 05:51:42.622            34.004                Anadyr1          1062.625
       447   04 Jun 2027 05:52:37.449   04 Jun 2027 05:53:01.786            24.337                Anadyr2           760.531
       448   04 Jun 2027 05:55:26.249   04 Jun 2027 05:55:28.751             2.502               Magadan1            78.187
       449   04 Jun 2027 07:27:17.995   04 Jun 2027 07:27:41.450            23.455               Magadan2           732.969
       450   04 Jun 2027 07:27:46.585   04 Jun 2027 07:29:23.890            97.305               Magadan1          3040.781
       451   04 Jun 2027 07:30:07.696   04 Jun 2027 07:31:11.801            64.105                Anadyr2          2003.281
       452   04 Jun 2027 08:59:21.764   04 Jun 2027 08:59:24.977             3.213                Irkutsk           100.406
       453   04 Jun 2027 08:59:30.586   04 Jun 2027 08:59:44.366            13.780                Irkutsk           430.625
       454   04 Jun 2027 08:59:56.102   04 Jun 2027 09:00:21.991            25.889               Magadan1           809.031
       455   04 Jun 2027 09:00:21.991   04 Jun 2027 09:00:31.146             9.155               Magadan2           286.094
       456   04 Jun 2027 09:01:03.358   04 Jun 2027 09:01:53.619            50.261               Magadan1          1570.656
       457   04 Jun 2027 09:02:06.934   04 Jun 2027 09:05:12.808           185.874                Anadyr1          5808.562
       458   04 Jun 2027 09:05:27.013   04 Jun 2027 09:05:46.555            19.542                Anadyr1           610.688
       459   04 Jun 2027 09:05:46.555   04 Jun 2027 09:06:19.999            33.444                Anadyr2          1045.125
       460   04 Jun 2027 09:06:31.054   04 Jun 2027 09:06:31.507             0.453                Norilsk            14.156
       461   04 Jun 2027 09:06:33.190   04 Jun 2027 09:07:13.221            40.031               Magadan1          1250.969
       462   04 Jun 2027 09:07:14.794   04 Jun 2027 09:07:17.788             2.994              Murmansk2            93.563
       463   04 Jun 2027 09:07:42.255   04 Jun 2027 09:08:32.029            49.774              Murmansk2          1555.438
       464   04 Jun 2027 09:42:14.031   04 Jun 2027 09:42:44.538            30.507            RioGallegos           953.344
       465   04 Jun 2027 09:43:08.289   04 Jun 2027 09:43:20.277            11.988            RioGallegos           374.625
       466   04 Jun 2027 10:19:08.614   04 Jun 2027 10:20:54.214           105.600                Sumatra          3300.000
       467   04 Jun 2027 10:36:40.118   04 Jun 2027 10:36:42.973             2.855                Novosib            89.219
       468   04 Jun 2027 10:37:01.018   04 Jun 2027 10:37:05.703             4.685                Norilsk           146.406
       469   04 Jun 2027 10:37:33.904   04 Jun 2027 10:38:24.051            50.147               Magadan2          1567.094
       470   04 Jun 2027 10:38:30.637   04 Jun 2027 10:38:36.220             5.583                Norilsk           174.469
       471   04 Jun 2027 10:38:38.079   04 Jun 2027 10:39:26.385            48.306                Irkutsk          1509.562
       472   04 Jun 2027 10:39:36.344   04 Jun 2027 10:39:43.196             6.852                Novosib           214.125
       473   04 Jun 2027 10:39:53.069   04 Jun 2027 10:39:56.889             3.820                Irkutsk           119.375
       474   04 Jun 2027 10:40:18.962   04 Jun 2027 10:40:22.466             3.504                Norilsk           109.500
       475   04 Jun 2027 10:40:29.568   04 Jun 2027 10:40:35.028             5.460               Magadan1           170.625
       476   04 Jun 2027 10:40:35.595   04 Jun 2027 10:40:48.447            12.852              Murmansk1           401.625
       477   04 Jun 2027 10:41:03.305   04 Jun 2027 10:41:13.310            10.005                Irkutsk           312.656
       478   04 Jun 2027 10:41:14.752   04 Jun 2027 10:41:16.820             2.068                Norilsk            64.625
       479   04 Jun 2027 10:41:29.267   04 Jun 2027 10:41:31.096             1.829              Murmansk1            57.156
       480   04 Jun 2027 10:41:34.902   04 Jun 2027 10:41:37.910             3.008              Murmansk2            94.000
       481   04 Jun 2027 10:41:38.689   04 Jun 2027 10:41:42.452             3.763                Novosib           117.594
       482   04 Jun 2027 10:41:52.630   04 Jun 2027 10:42:26.713            34.083                Irkutsk          1065.094
