uniorb/output/strategy_1/Drop/Drop_KinoSat_110302.txt

KinoSat_110302
-------------------------
    Access    *     Start Time (UTCG)     *     Stop Time (UTCG)  *   Duration (s)        *       Station  *  Data (Mbytes)
         1   01 Jun 2027 04:27:21.644   01 Jun 2027 04:28:02.762            41.118               Magadan2          5139.750
         2   01 Jun 2027 04:28:14.098   01 Jun 2027 04:28:23.880             9.782                Novosib          1222.750
         3   01 Jun 2027 04:28:28.688   01 Jun 2027 04:29:16.393            47.705               Magadan2          5963.125
         4   01 Jun 2027 04:29:25.420   01 Jun 2027 04:29:33.469             8.049                Novosib          1006.125
         5   01 Jun 2027 04:29:35.410   01 Jun 2027 04:30:43.239            67.829               Magadan1          8478.625
         6   01 Jun 2027 04:30:53.167   01 Jun 2027 04:31:11.317            18.150                Novosib          2268.750
         7   01 Jun 2027 04:31:33.565   01 Jun 2027 04:32:45.339            71.774              Murmansk1          8971.750
         8   01 Jun 2027 05:07:35.813   01 Jun 2027 05:07:49.101            13.288            RioGallegos          1661.000
         9   01 Jun 2027 05:08:58.421   01 Jun 2027 05:10:19.587            81.166            RioGallegos         10145.750
        10   01 Jun 2027 05:42:08.435   01 Jun 2027 05:44:04.871           116.436                Sumatra         14554.500
        11   01 Jun 2027 05:53:33.153   01 Jun 2027 05:55:17.409           104.256                  Delhi         13032.000
        12   01 Jun 2027 06:05:25.943   01 Jun 2027 06:06:10.037            44.094                Norilsk          5511.750
        13   01 Jun 2027 06:06:20.720   01 Jun 2027 06:06:52.389            31.669                Norilsk          3958.625
        14   01 Jun 2027 06:06:58.719   01 Jun 2027 06:07:01.314             2.595              Murmansk2           324.375
        15   01 Jun 2027 06:07:14.644   01 Jun 2027 06:07:39.704            25.060              Murmansk1          3132.500
        16   01 Jun 2027 06:07:42.508   01 Jun 2027 06:08:06.545            24.037                Norilsk          3004.625
        17   01 Jun 2027 06:08:09.881   01 Jun 2027 06:08:18.050             8.169              Murmansk2          1021.125
        18   01 Jun 2027 06:08:23.593   01 Jun 2027 06:08:43.061            19.468                Norilsk          2433.500
        19   01 Jun 2027 06:08:48.233   01 Jun 2027 06:09:18.574            30.341                Novosib          3792.625
        20   01 Jun 2027 06:48:45.117   01 Jun 2027 06:48:59.467            14.350            RioGallegos          1793.750
        21   01 Jun 2027 07:26:34.902   01 Jun 2027 07:29:20.120           165.218                  Delhi         20652.250
        22   01 Jun 2027 07:42:18.725   01 Jun 2027 07:42:22.897             4.172              Murmansk2           521.500
        23   01 Jun 2027 07:42:29.893   01 Jun 2027 07:42:55.664            25.771                Norilsk          3221.375
        24   01 Jun 2027 07:42:58.248   01 Jun 2027 07:44:07.434            69.186                Novosib          8648.250
        25   01 Jun 2027 07:45:16.773   01 Jun 2027 07:45:31.433            14.660                Novosib          1832.500
        26   01 Jun 2027 09:16:57.006   01 Jun 2027 09:17:57.514            60.508              Murmansk2          7563.500
        27   01 Jun 2027 09:18:41.308   01 Jun 2027 09:21:28.283           166.975                 Moscow         20871.875
        28   01 Jun 2027 09:22:31.831   01 Jun 2027 09:22:57.838            26.007                Norilsk          3250.875
        29   01 Jun 2027 10:25:02.212   01 Jun 2027 10:27:21.994           139.782               CapeTown         17472.750
        30   01 Jun 2027 10:28:28.400   01 Jun 2027 10:31:30.694           182.294               CapeTown         22786.750
        31   01 Jun 2027 11:05:10.392   01 Jun 2027 11:07:37.805           147.413                Anadyr2         18426.625
        32   01 Jun 2027 11:08:12.801   01 Jun 2027 11:09:41.537            88.736                Anadyr2         11092.000
        33   01 Jun 2027 11:10:21.514   01 Jun 2027 11:11:31.710            70.196                Anadyr1          8774.500
        34   01 Jun 2027 11:13:30.390   01 Jun 2027 11:15:08.293            97.903                Anadyr1         12237.875
        35   01 Jun 2027 12:43:59.644   01 Jun 2027 12:44:29.886            30.242               Magadan1          3780.250
        36   01 Jun 2027 12:45:42.261   01 Jun 2027 12:48:07.164           144.903               Magadan2         18112.875
        37   01 Jun 2027 12:49:22.556   01 Jun 2027 12:52:33.069           190.513               Magadan1         23814.125
        38   01 Jun 2027 15:13:17.495   01 Jun 2027 15:16:04.407           166.912            RioGallegos         20864.000
        39   01 Jun 2027 15:59:45.269   01 Jun 2027 16:01:20.874            95.605                Irkutsk         11950.625
        40   01 Jun 2027 16:14:54.320   01 Jun 2027 16:17:24.321           150.001                Sumatra         18750.125
        41   01 Jun 2027 16:19:43.396   01 Jun 2027 16:21:50.443           127.047                Sumatra         15880.875
        42   01 Jun 2027 17:41:23.510   01 Jun 2027 17:43:55.755           152.245                Novosib         19030.625
        43   01 Jun 2027 17:45:39.620   01 Jun 2027 17:47:16.565            96.945                  Delhi         12118.125
        44   01 Jun 2027 20:44:37.986   01 Jun 2027 20:45:18.635            40.649              Murmansk2          3390.250
        45   02 Jun 2027 03:05:16.081   02 Jun 2027 03:05:38.710            22.629               Magadan2          2828.625
        46   02 Jun 2027 03:05:53.667   02 Jun 2027 03:06:48.507            54.840                Anadyr2          6855.000
        47   02 Jun 2027 03:06:51.331   02 Jun 2027 03:06:55.241             3.910               Magadan1           488.750
        48   02 Jun 2027 03:06:55.241   02 Jun 2027 03:07:08.372            13.131               Magadan2          1641.375
        49   02 Jun 2027 03:07:19.124   02 Jun 2027 03:07:56.348            37.224               Magadan1          4653.000
        50   02 Jun 2027 03:43:36.150   02 Jun 2027 03:43:40.569             4.419            RioGallegos           552.375
        51   02 Jun 2027 03:44:35.170   02 Jun 2027 03:46:12.195            97.025            RioGallegos         12128.125
        52   02 Jun 2027 03:47:42.204   02 Jun 2027 03:47:47.455             5.251            RioGallegos           656.375
        53   02 Jun 2027 04:20:26.101   02 Jun 2027 04:23:16.706           170.605                Sumatra         21325.625
        54   02 Jun 2027 04:39:53.697   02 Jun 2027 04:41:05.398            71.701                Irkutsk          8962.625
        55   02 Jun 2027 04:41:17.617   02 Jun 2027 04:41:34.052            16.435               Magadan1          2054.375
        56   02 Jun 2027 04:41:43.842   02 Jun 2027 04:42:01.066            17.224                Novosib          2153.000
        57   02 Jun 2027 04:42:09.881   02 Jun 2027 04:42:52.138            42.257              Murmansk2          5282.125
        58   02 Jun 2027 04:43:01.667   02 Jun 2027 04:43:08.684             7.017              Murmansk1           877.125
        59   02 Jun 2027 04:43:17.940   02 Jun 2027 04:43:32.369            14.429                Novosib          1803.625
        60   02 Jun 2027 04:43:32.820   02 Jun 2027 04:44:20.822            48.002              Murmansk2          6000.250
        61   02 Jun 2027 05:19:52.322   02 Jun 2027 05:20:25.326            33.004            RioGallegos          4125.500
        62   02 Jun 2027 05:23:55.195   02 Jun 2027 05:24:16.787            21.592            RioGallegos          2699.000
        63   02 Jun 2027 05:54:16.295   02 Jun 2027 05:54:17.503             1.208                Sumatra           151.000
        64   02 Jun 2027 05:56:43.994   02 Jun 2027 05:57:08.216            24.222                Sumatra          3027.750
        65   02 Jun 2027 06:05:04.250   02 Jun 2027 06:07:11.644           127.394                  Delhi         15924.250
        66   02 Jun 2027 06:16:48.719   02 Jun 2027 06:17:12.738            24.019                 Moscow          3002.375
        67   02 Jun 2027 06:17:13.924   02 Jun 2027 06:17:36.592            22.668                 Moscow          2833.500
        68   02 Jun 2027 06:18:12.218   02 Jun 2027 06:19:02.863            50.645                Irkutsk          6330.625
        69   02 Jun 2027 06:19:31.092   02 Jun 2027 06:20:52.843            81.751                Norilsk         10218.875
        70   02 Jun 2027 06:22:34.287   02 Jun 2027 06:22:41.827             7.540              Murmansk1           942.500
        71   02 Jun 2027 06:23:00.353   02 Jun 2027 06:23:13.362            13.009              Murmansk1          1626.125
        72   02 Jun 2027 07:38:53.126   02 Jun 2027 07:41:10.142           137.016                  Delhi         17127.000
        73   02 Jun 2027 07:53:37.377   02 Jun 2027 07:53:45.363             7.986              Murmansk2           998.250
        74   02 Jun 2027 07:53:52.727   02 Jun 2027 07:54:24.141            31.414                 Moscow          3926.750
        75   02 Jun 2027 07:54:32.962   02 Jun 2027 07:54:41.628             8.666                 Moscow          1083.250
        76   02 Jun 2027 07:54:50.252   02 Jun 2027 07:55:23.922            33.670                 Moscow          4208.750
        77   02 Jun 2027 07:55:37.664   02 Jun 2027 07:56:44.531            66.867              Murmansk2          8358.375
        78   02 Jun 2027 07:56:54.203   02 Jun 2027 07:57:14.750            20.547                 Moscow          2568.375
        79   02 Jun 2027 09:30:48.752   02 Jun 2027 09:30:58.773            10.021              Murmansk2          1252.625
        80   02 Jun 2027 09:30:59.744   02 Jun 2027 09:31:25.705            25.961                 Moscow          3245.125
        81   02 Jun 2027 09:33:17.730   02 Jun 2027 09:33:48.378            30.648              Murmansk1          3831.000
        82   02 Jun 2027 10:36:45.965   02 Jun 2027 10:42:49.315           363.350               CapeTown         45418.750
        83   02 Jun 2027 11:17:06.678   02 Jun 2027 11:18:46.881           100.203                Anadyr2         12525.375
        84   02 Jun 2027 11:19:50.262   02 Jun 2027 11:21:40.925           110.663                Anadyr1         13832.875
        85   02 Jun 2027 11:23:45.291   02 Jun 2027 11:24:53.114            67.823                Anadyr2          8477.875
        86   02 Jun 2027 11:26:28.432   02 Jun 2027 11:27:37.755            69.323                Anadyr2          8665.375
        87   02 Jun 2027 12:55:47.294   02 Jun 2027 13:01:48.354           361.060               Magadan1         45132.500
        88   02 Jun 2027 15:24:28.309   02 Jun 2027 15:27:51.853           203.544            RioGallegos         25443.000
        89   02 Jun 2027 16:12:21.486   02 Jun 2027 16:13:32.696            71.210                Irkutsk          8901.250
        90   02 Jun 2027 16:17:31.480   02 Jun 2027 16:17:47.031            15.551                Irkutsk          1943.875
        91   02 Jun 2027 16:26:02.563   02 Jun 2027 16:29:10.688           188.125                Sumatra         23515.625
        92   02 Jun 2027 17:50:15.332   02 Jun 2027 17:51:14.093            58.761                Novosib          7345.125
        93   02 Jun 2027 17:56:16.336   02 Jun 2027 17:58:57.982           161.646                  Delhi         20205.750
        94   02 Jun 2027 19:31:10.795   02 Jun 2027 19:31:21.851            11.056                  Delhi          1382.000
        95   02 Jun 2027 21:00:20.006   02 Jun 2027 21:01:22.750            62.744                 Moscow          7843.000
        96   02 Jun 2027 21:03:08.564   02 Jun 2027 21:03:57.496            48.932                 Moscow          6116.500
        97   02 Jun 2027 21:26:18.356   02 Jun 2027 21:26:58.545            40.189               CapeTown          5023.625
        98   02 Jun 2027 23:07:46.410   02 Jun 2027 23:08:08.126            21.716               CapeTown          2714.500
        99   03 Jun 2027 03:17:57.024   03 Jun 2027 03:18:08.284            11.260               Magadan1          1407.500
       100   03 Jun 2027 03:18:16.351   03 Jun 2027 03:19:01.845            45.494               Magadan1          5686.750
       101   03 Jun 2027 03:19:05.605   03 Jun 2027 03:19:21.908            16.303               Magadan1          2037.875
       102   03 Jun 2027 03:19:26.980   03 Jun 2027 03:20:30.609            63.629               Magadan1          7953.625
       103   03 Jun 2027 04:33:15.896   03 Jun 2027 04:35:06.181           110.285                Sumatra         13785.625
       104   03 Jun 2027 04:52:49.253   03 Jun 2027 04:54:55.932           126.679                Novosib         15834.875
       105   03 Jun 2027 04:55:05.670   03 Jun 2027 04:55:09.294             3.624              Murmansk2           453.000
       106   03 Jun 2027 04:55:10.910   03 Jun 2027 04:55:39.037            28.127              Murmansk2          3515.875
       107   03 Jun 2027 04:56:01.362   03 Jun 2027 04:56:21.146            19.784              Murmansk1          2473.000
       108   03 Jun 2027 04:56:21.146   03 Jun 2027 04:56:29.780             8.634              Murmansk2          1079.250
       109   03 Jun 2027 04:57:26.488   03 Jun 2027 04:57:27.967             1.479                Norilsk           184.875
       110   03 Jun 2027 04:57:33.067   03 Jun 2027 04:58:00.906            27.839                Novosib          3479.875
       111   03 Jun 2027 05:32:13.229   03 Jun 2027 05:33:35.769            82.540            RioGallegos         10317.500
       112   03 Jun 2027 06:06:30.374   03 Jun 2027 06:07:12.959            42.585                Sumatra          5323.125
       113   03 Jun 2027 06:12:54.184   03 Jun 2027 06:13:34.205            40.021                Sumatra          5002.625
       114   03 Jun 2027 06:17:18.226   03 Jun 2027 06:17:19.719             1.493                  Delhi           186.625
       115   03 Jun 2027 06:22:23.596   03 Jun 2027 06:23:47.699            84.103                  Delhi         10512.875
       116   03 Jun 2027 06:29:15.424   03 Jun 2027 06:29:58.981            43.557              Murmansk2          5444.625
       117   03 Jun 2027 06:30:14.971   03 Jun 2027 06:30:43.215            28.244                Norilsk          3530.500
       118   03 Jun 2027 06:30:47.974   03 Jun 2027 06:30:52.037             4.063                Norilsk           507.875
       119   03 Jun 2027 06:30:56.091   03 Jun 2027 06:31:35.450            39.359                Novosib          4919.875
       120   03 Jun 2027 06:31:48.906   03 Jun 2027 06:32:46.664            57.758                Norilsk          7219.750
       121   03 Jun 2027 07:51:18.714   03 Jun 2027 07:52:55.498            96.784                  Delhi         12098.000
       122   03 Jun 2027 08:05:38.609   03 Jun 2027 08:06:01.026            22.417              Murmansk1          2802.125
       123   03 Jun 2027 08:06:14.577   03 Jun 2027 08:07:01.166            46.589              Murmansk2          5823.625
       124   03 Jun 2027 08:07:14.392   03 Jun 2027 08:07:37.430            23.038                Norilsk          2879.750
       125   03 Jun 2027 08:07:44.834   03 Jun 2027 08:08:02.680            17.846              Murmansk2          2230.750
       126   03 Jun 2027 08:08:08.239   03 Jun 2027 08:08:21.266            13.027                Novosib          1628.375
       127   03 Jun 2027 08:08:31.054   03 Jun 2027 08:09:16.022            44.968                 Moscow          5621.000
       128   03 Jun 2027 08:09:31.111   03 Jun 2027 08:10:19.720            48.609              Murmansk1          6076.125
       129   03 Jun 2027 09:54:55.333   03 Jun 2027 09:56:34.572            99.239                Anadyr1         12404.875
       130   03 Jun 2027 09:56:55.531   03 Jun 2027 09:57:37.529            41.998                Anadyr2          5249.750
       131   03 Jun 2027 10:53:01.404   03 Jun 2027 10:53:03.719             2.315               CapeTown           289.375
       132   03 Jun 2027 11:29:04.060   03 Jun 2027 11:30:23.980            79.920                Anadyr1          9990.000
       133   03 Jun 2027 11:32:00.424   03 Jun 2027 11:34:15.234           134.810                Anadyr2         16851.250
       134   03 Jun 2027 11:36:46.539   03 Jun 2027 11:38:29.457           102.918                Anadyr1         12864.750
       135   03 Jun 2027 13:07:38.082   03 Jun 2027 13:13:13.707           335.625               Magadan1         41953.125
       136   03 Jun 2027 15:35:57.908   03 Jun 2027 15:39:42.409           224.501            RioGallegos         28062.625
       137   03 Jun 2027 16:25:40.914   03 Jun 2027 16:26:00.414            19.500                Irkutsk          2437.500
       138   03 Jun 2027 16:27:22.464   03 Jun 2027 16:29:07.654           105.190                Irkutsk         13148.750
       139   03 Jun 2027 16:39:10.812   03 Jun 2027 16:41:03.127           112.315                Sumatra         14039.375
       140   03 Jun 2027 16:44:07.692   03 Jun 2027 16:44:55.758            48.066                Sumatra          6008.250
       141   03 Jun 2027 17:59:58.255   03 Jun 2027 18:01:38.739           100.484                Novosib         12560.500
       142   03 Jun 2027 18:07:28.197   03 Jun 2027 18:10:44.812           196.615                  Delhi         24576.875
       143   03 Jun 2027 21:10:46.416   03 Jun 2027 21:11:46.384            59.968              Murmansk2          7496.000
       144   03 Jun 2027 21:37:24.049   03 Jun 2027 21:38:58.716            94.667               CapeTown         11833.375
       145   03 Jun 2027 21:43:37.664   03 Jun 2027 21:44:36.546            58.882               CapeTown          7360.250
       146   04 Jun 2027 03:30:42.653   04 Jun 2027 03:30:57.581            14.928               Magadan1          1866.000
       147   04 Jun 2027 03:31:24.719   04 Jun 2027 03:32:24.444            59.725               Magadan2          7465.625
       148   04 Jun 2027 04:44:33.084   04 Jun 2027 04:46:59.837           146.753                Sumatra         18344.125
       149   04 Jun 2027 05:04:57.131   04 Jun 2027 05:05:33.483            36.352                Norilsk          4544.000
       150   04 Jun 2027 05:05:41.071   04 Jun 2027 05:06:39.976            58.905                Norilsk          7363.125
       151   04 Jun 2027 05:06:46.020   04 Jun 2027 05:06:58.801            12.781              Murmansk1          1597.625
       152   04 Jun 2027 05:07:07.597   04 Jun 2027 05:07:55.449            47.852              Murmansk1          5981.500
       153   04 Jun 2027 05:07:56.039   04 Jun 2027 05:08:39.581            43.542                Irkutsk          5442.750
       154   04 Jun 2027 05:44:39.053   04 Jun 2027 05:45:18.843            39.790            RioGallegos          4973.750
       155   04 Jun 2027 06:18:51.705   04 Jun 2027 06:18:55.853             4.148                Sumatra           518.500
       156   04 Jun 2027 06:20:36.533   04 Jun 2027 06:21:30.458            53.925                Sumatra          6740.625
       157   04 Jun 2027 06:26:45.207   04 Jun 2027 06:27:21.783            36.576                  Delhi          4572.000
       158   04 Jun 2027 06:29:30.906   04 Jun 2027 06:31:09.182            98.276                  Delhi         12284.500
       159   04 Jun 2027 06:42:29.026   04 Jun 2027 06:42:53.918            24.892              Murmansk2          3111.500
       160   04 Jun 2027 06:42:53.918   04 Jun 2027 06:43:08.065            14.147              Murmansk1          1768.375
       161   04 Jun 2027 06:43:21.938   04 Jun 2027 06:43:32.349            10.411                Irkutsk          1301.375
       162   04 Jun 2027 06:43:39.865   04 Jun 2027 06:45:08.900            89.035              Murmansk2         11129.375
       163   04 Jun 2027 08:03:53.455   04 Jun 2027 08:05:32.569            99.114                  Delhi         12389.250
       164   04 Jun 2027 08:17:03.808   04 Jun 2027 08:17:38.221            34.413                 Moscow          4301.625
       165   04 Jun 2027 08:18:05.328   04 Jun 2027 08:19:02.447            57.119                Novosib          7139.875
       166   04 Jun 2027 08:19:02.801   04 Jun 2027 08:19:28.038            25.237              Murmansk1          3154.625
       167   04 Jun 2027 08:19:37.933   04 Jun 2027 08:19:54.766            16.833              Murmansk1          2104.125
       168   04 Jun 2027 08:19:57.379   04 Jun 2027 08:20:13.291            15.912                 Moscow          1989.000
       169   04 Jun 2027 08:20:20.369   04 Jun 2027 08:21:19.394            59.025              Murmansk2          7378.125
       170   04 Jun 2027 10:06:20.498   04 Jun 2027 10:11:43.861           323.363                Anadyr2         40420.375
       171   04 Jun 2027 11:41:02.304   04 Jun 2027 11:42:34.221            91.917                Anadyr1         11489.625
       172   04 Jun 2027 11:44:08.378   04 Jun 2027 11:45:41.043            92.665                Anadyr1         11583.125
       173   04 Jun 2027 13:19:31.151   04 Jun 2027 13:22:11.645           160.494               Magadan2         20061.750
       174   04 Jun 2027 13:23:31.431   04 Jun 2027 13:24:57.789            86.358               Magadan1         10794.750
       175   04 Jun 2027 15:47:36.619   04 Jun 2027 15:51:35.377           238.758            RioGallegos         29844.750
       176   04 Jun 2027 15:53:39.424   04 Jun 2027 15:54:06.288            26.864            RioGallegos          3358.000
       177   04 Jun 2027 16:35:00.122   04 Jun 2027 16:36:03.881            63.759                Irkutsk          7969.875
       178   04 Jun 2027 16:39:05.560   04 Jun 2027 16:39:19.209            13.649                Irkutsk          1706.125
       179   04 Jun 2027 16:44:03.525   04 Jun 2027 16:44:27.889            24.364                Irkutsk          3045.500
       180   04 Jun 2027 16:48:59.048   04 Jun 2027 16:53:01.237           242.189                Sumatra         30273.625
       181   04 Jun 2027 18:12:25.621   04 Jun 2027 18:12:56.677            31.056                Novosib          3882.000
       182   04 Jun 2027 18:18:55.161   04 Jun 2027 18:22:36.067           220.906                  Delhi         27613.250
       183   04 Jun 2027 19:51:30.482   04 Jun 2027 19:52:53.548            83.066                 Moscow         10383.250
       184   04 Jun 2027 21:24:08.234   04 Jun 2027 21:26:14.843           126.609                 Moscow         15826.125
       185   04 Jun 2027 21:48:54.567   04 Jun 2027 21:50:24.653            90.086               CapeTown         11260.750
       186   04 Jun 2027 21:57:39.057   04 Jun 2027 21:58:10.223            31.166               CapeTown          3895.750
       187   05 Jun 2027 03:42:16.344   05 Jun 2027 03:42:55.629            39.285               Magadan1          4910.625
       188   05 Jun 2027 03:43:25.849   05 Jun 2027 03:44:16.253            50.404               Magadan1          6300.500
       189   05 Jun 2027 03:44:20.687   05 Jun 2027 03:44:36.268            15.581                Irkutsk          1947.625
       190   05 Jun 2027 04:54:48.775   05 Jun 2027 04:56:45.882           117.107                Sumatra         14638.375
       191   05 Jun 2027 05:09:03.255   05 Jun 2027 05:12:03.029           179.774                  Delhi         22471.750
       192   05 Jun 2027 05:17:18.993   05 Jun 2027 05:17:23.770             4.777              Murmansk2           597.125
       193   05 Jun 2027 05:17:24.551   05 Jun 2027 05:17:38.572            14.021                Norilsk          1752.625
       194   05 Jun 2027 05:17:40.447   05 Jun 2027 05:17:49.129             8.682                Norilsk          1085.250
       195   05 Jun 2027 05:18:03.544   05 Jun 2027 05:19:09.437            65.893              Murmansk2          8236.625
       196   05 Jun 2027 05:19:10.711   05 Jun 2027 05:19:16.957             6.246                Novosib           780.750
       197   05 Jun 2027 05:19:22.784   05 Jun 2027 05:19:35.890            13.106                Norilsk          1638.250
       198   05 Jun 2027 05:19:41.325   05 Jun 2027 05:20:23.881            42.556                Irkutsk          5319.500
       199   05 Jun 2027 05:22:30.859   05 Jun 2027 05:22:40.175             9.316              Murmansk1          1164.500
       200   05 Jun 2027 05:23:26.895   05 Jun 2027 05:23:59.925            33.030                Norilsk          4128.750
       201   05 Jun 2027 05:57:10.551   05 Jun 2027 05:57:50.099            39.548            RioGallegos          4943.500
       202   05 Jun 2027 06:31:22.219   05 Jun 2027 06:33:42.595           140.376                Sumatra         17547.000
       203   05 Jun 2027 06:54:04.797   05 Jun 2027 06:54:34.857            30.060                Novosib          3757.500
       204   05 Jun 2027 06:54:48.479   05 Jun 2027 06:55:01.659            13.180              Murmansk1          1647.500
       205   05 Jun 2027 06:55:10.320   05 Jun 2027 06:56:29.039            78.719              Murmansk2          9839.875
       206   05 Jun 2027 06:57:02.878   05 Jun 2027 06:57:32.371            29.493                Novosib          3686.625
       207   05 Jun 2027 08:16:40.742   05 Jun 2027 08:17:05.687            24.945                  Delhi          3118.125
       208   05 Jun 2027 08:28:38.823   05 Jun 2027 08:29:31.209            52.386              Murmansk1          6548.250
       209   05 Jun 2027 08:29:40.321   05 Jun 2027 08:30:12.298            31.977              Murmansk2          3997.125
       210   05 Jun 2027 08:30:29.362   05 Jun 2027 08:31:24.214            54.852              Murmansk2          6856.500
       211   05 Jun 2027 08:31:32.136   05 Jun 2027 08:32:07.787            35.651              Murmansk2          4456.375
       212   05 Jun 2027 08:32:17.630   05 Jun 2027 08:32:51.867            34.237                Norilsk          4279.625
       213   05 Jun 2027 08:32:57.040   05 Jun 2027 08:33:07.151            10.111                Norilsk          1263.875
       214   05 Jun 2027 08:33:08.257   05 Jun 2027 08:33:16.163             7.906              Murmansk2           988.250
       215   05 Jun 2027 09:40:09.788   05 Jun 2027 09:42:01.512           111.724               CapeTown         13965.500
       216   05 Jun 2027 11:12:22.079   05 Jun 2027 11:14:38.630           136.551               CapeTown         17068.875
       217   05 Jun 2027 11:23:12.211   05 Jun 2027 11:23:23.017            10.806               CapeTown          1350.750
       218   05 Jun 2027 11:53:01.237   05 Jun 2027 11:53:58.474            57.237                Anadyr2          7154.625
       219   05 Jun 2027 11:55:04.907   05 Jun 2027 11:57:41.609           156.702                Anadyr2         19587.750
       220   05 Jun 2027 12:02:21.265   05 Jun 2027 12:02:31.936            10.671                Anadyr1          1333.875
       221   05 Jun 2027 13:31:25.958   05 Jun 2027 13:35:56.893           270.935               Magadan1         33866.875
       222   05 Jun 2027 15:59:20.962   05 Jun 2027 16:05:22.267           361.305            RioGallegos         45163.125
       223   05 Jun 2027 16:48:32.812   05 Jun 2027 16:49:46.370            73.558                Irkutsk          9194.750
       224   05 Jun 2027 16:49:52.248   05 Jun 2027 16:51:32.116            99.868                Novosib         12483.500
       225   05 Jun 2027 17:00:40.285   05 Jun 2027 17:02:33.910           113.625                Sumatra         14203.125
       226   05 Jun 2027 17:06:44.486   05 Jun 2027 17:06:55.213            10.727                Sumatra          1340.875
       227   05 Jun 2027 17:11:44.686   05 Jun 2027 17:12:53.564            68.878                Sumatra          8609.750
       228   05 Jun 2027 18:22:36.608   05 Jun 2027 18:24:23.104           106.496                Novosib         13312.000
       229   05 Jun 2027 18:30:31.396   05 Jun 2027 18:31:44.504            73.108                  Delhi          9138.500
       230   05 Jun 2027 18:32:46.011   05 Jun 2027 18:34:05.210            79.199                  Delhi          9899.875
       231   05 Jun 2027 20:02:44.039   05 Jun 2027 20:05:26.210           162.171                 Moscow         20271.375
       232   05 Jun 2027 21:43:56.429   05 Jun 2027 21:45:32.902            96.473                 Moscow         12059.125
       233   05 Jun 2027 22:09:28.380   05 Jun 2027 22:09:51.799            23.419               CapeTown          2927.375
       234   06 Jun 2027 03:53:57.911   06 Jun 2027 03:54:56.067            58.156               Magadan1          7269.500
       235   06 Jun 2027 03:55:26.809   06 Jun 2027 03:56:05.319            38.510               Magadan1          4813.750
       236   06 Jun 2027 03:56:28.245   06 Jun 2027 03:56:41.177            12.932                Irkutsk          1616.500
       237   06 Jun 2027 03:56:56.540   06 Jun 2027 03:57:17.165            20.625              Murmansk1          2578.125
       238   06 Jun 2027 03:57:36.808   06 Jun 2027 03:57:51.422            14.614                Novosib          1826.750
       239   06 Jun 2027 04:32:38.972   06 Jun 2027 04:33:13.040            34.068            RioGallegos          4258.500
       240   06 Jun 2027 04:34:05.006   06 Jun 2027 04:34:41.056            36.050            RioGallegos          4506.250
       241   06 Jun 2027 04:43:08.286   06 Jun 2027 04:43:16.844             8.558            RioGallegos          1069.750
       242   06 Jun 2027 05:06:33.446   06 Jun 2027 05:07:24.761            51.315                Sumatra          6414.375
       243   06 Jun 2027 05:08:19.763   06 Jun 2027 05:09:15.247            55.484                Sumatra          6935.500
       244   06 Jun 2027 05:17:26.395   06 Jun 2027 05:17:31.405             5.010                Sumatra           626.250
       245   06 Jun 2027 05:19:54.824   06 Jun 2027 05:21:54.945           120.121                  Delhi         15015.125
       246   06 Jun 2027 05:29:24.880   06 Jun 2027 05:29:37.669            12.789                Norilsk          1598.625
       247   06 Jun 2027 05:29:38.240   06 Jun 2027 05:31:05.366            87.126                Novosib         10890.750
       248   06 Jun 2027 05:31:08.981   06 Jun 2027 05:31:22.959            13.978                Novosib          1747.250
       249   06 Jun 2027 05:31:53.395   06 Jun 2027 05:33:12.810            79.415                Novosib          9926.875
       250   06 Jun 2027 05:34:04.754   06 Jun 2027 05:34:14.547             9.793                Novosib          1224.125
       251   06 Jun 2027 06:10:59.279   06 Jun 2027 06:11:45.603            46.324            RioGallegos          5790.500
       252   06 Jun 2027 06:44:05.970   06 Jun 2027 06:45:38.898            92.928                Sumatra         11616.000
       253   06 Jun 2027 06:50:30.873   06 Jun 2027 06:52:17.499           106.626                  Delhi         13328.250
       254   06 Jun 2027 07:06:47.978   06 Jun 2027 07:07:27.307            39.329                Norilsk          4916.125
       255   06 Jun 2027 07:07:40.211   06 Jun 2027 07:08:08.095            27.884                 Moscow          3485.500
       256   06 Jun 2027 07:08:20.205   06 Jun 2027 07:08:42.496            22.291              Murmansk2          2786.375
       257   06 Jun 2027 07:09:46.188   06 Jun 2027 07:10:26.216            40.028                 Moscow          5003.500
       258   06 Jun 2027 08:29:48.747   06 Jun 2027 08:30:26.383            37.636                  Delhi          4704.500
       259   06 Jun 2027 08:38:01.149   06 Jun 2027 08:38:10.778             9.629                 Moscow          1203.625
       260   06 Jun 2027 08:38:17.922   06 Jun 2027 08:38:31.476            13.554                 Moscow          1694.250
       261   06 Jun 2027 08:38:47.990   06 Jun 2027 08:40:11.435            83.445              Murmansk2         10430.625
       262   06 Jun 2027 08:40:11.435   06 Jun 2027 08:40:43.279            31.844              Murmansk1          3980.500
       263   06 Jun 2027 08:40:54.725   06 Jun 2027 08:41:10.345            15.620              Murmansk2          1952.500
       264   06 Jun 2027 08:41:10.345   06 Jun 2027 08:41:33.210            22.865              Murmansk1          2858.125
       265   06 Jun 2027 08:41:41.472   06 Jun 2027 08:42:11.764            30.292              Murmansk1          3786.500
       266   06 Jun 2027 08:42:25.067   06 Jun 2027 08:43:15.261            50.194                Novosib          6274.250
       267   06 Jun 2027 08:43:21.002   06 Jun 2027 08:43:36.181            15.179              Murmansk1          1897.375
       268   06 Jun 2027 08:43:55.034   06 Jun 2027 08:45:09.606            74.572              Murmansk1          9321.500
       269   06 Jun 2027 08:45:36.995   06 Jun 2027 08:45:56.717            19.722                Norilsk          2465.250
       270   06 Jun 2027 08:46:07.094   06 Jun 2027 08:46:27.214            20.120              Murmansk2          2515.000
       271   06 Jun 2027 09:50:54.055   06 Jun 2027 09:53:44.073           170.018               CapeTown         21252.250
       272   06 Jun 2027 10:29:46.722   06 Jun 2027 10:30:04.213            17.491                Anadyr1          2186.375
       273   06 Jun 2027 10:32:27.336   06 Jun 2027 10:34:02.250            94.914                Anadyr2         11864.250
       274   06 Jun 2027 11:25:41.351   06 Jun 2027 11:25:48.249             6.898               CapeTown           862.250
       275   06 Jun 2027 12:05:00.732   06 Jun 2027 12:05:50.858            50.126                Anadyr2          6265.750
       276   06 Jun 2027 12:08:10.388   06 Jun 2027 12:09:42.428            92.040                Anadyr2         11505.000
       277   06 Jun 2027 12:11:14.659   06 Jun 2027 12:12:47.819            93.160                Anadyr1         11645.000
       278   06 Jun 2027 12:13:41.053   06 Jun 2027 12:13:46.113             5.060               Magadan1           632.500
       279   06 Jun 2027 13:43:22.132   06 Jun 2027 13:44:55.665            93.533               Magadan1         11691.625
       280   06 Jun 2027 13:45:13.781   06 Jun 2027 13:48:37.390           203.609               Magadan2         25451.125
       281   06 Jun 2027 15:27:21.260   06 Jun 2027 15:27:30.494             9.234                Irkutsk          1154.250
       282   06 Jun 2027 16:11:09.221   06 Jun 2027 16:13:53.131           163.910            RioGallegos         20488.750
       283   06 Jun 2027 16:15:09.204   06 Jun 2027 16:16:54.049           104.845            RioGallegos         13105.625
       284   06 Jun 2027 16:58:45.781   06 Jun 2027 17:00:55.752           129.971                Irkutsk         16246.375
       285   06 Jun 2027 17:03:53.243   06 Jun 2027 17:06:38.771           165.528                Novosib         20691.000
       286   06 Jun 2027 17:13:43.795   06 Jun 2027 17:15:21.270            97.475                Sumatra         12184.375
       287   06 Jun 2027 18:41:04.673   06 Jun 2027 18:42:26.653            81.980                Novosib         10247.500
       288   06 Jun 2027 18:44:14.081   06 Jun 2027 18:46:29.695           135.614                  Delhi         16951.750
       289   06 Jun 2027 18:47:22.224   06 Jun 2027 18:48:21.663            59.439                  Delhi          7429.875
       290   06 Jun 2027 20:13:33.251   06 Jun 2027 20:14:39.054            65.803                 Moscow          8225.375
       291   06 Jun 2027 20:17:16.674   06 Jun 2027 20:18:10.641            53.967                 Moscow          6745.875
       292   06 Jun 2027 21:48:31.123   06 Jun 2027 21:50:50.200           139.077                 Moscow         17384.625
       293   06 Jun 2027 22:12:14.215   06 Jun 2027 22:12:26.645            12.430               CapeTown          1553.750
       294   06 Jun 2027 22:14:51.052   06 Jun 2027 22:16:35.159           104.107               CapeTown         13013.375
       295   07 Jun 2027 04:06:05.797   07 Jun 2027 04:06:58.972            53.175               Magadan2          6646.875
       296   07 Jun 2027 04:07:28.430   07 Jun 2027 04:07:50.493            22.063               Magadan1          2757.875
       297   07 Jun 2027 04:08:20.753   07 Jun 2027 04:08:56.378            35.625                Novosib          4453.125
       298   07 Jun 2027 04:43:33.840   07 Jun 2027 04:44:24.016            50.176            RioGallegos          6272.000
       299   07 Jun 2027 04:46:59.979   07 Jun 2027 04:47:14.813            14.834            RioGallegos          1854.250
       300   07 Jun 2027 04:51:39.426   07 Jun 2027 04:51:58.705            19.279            RioGallegos          2409.875
       301   07 Jun 2027 05:18:24.350   07 Jun 2027 05:19:43.618            79.268                Sumatra          9908.500
       302   07 Jun 2027 05:21:25.760   07 Jun 2027 05:22:23.534            57.774                Sumatra          7221.750
       303   07 Jun 2027 05:29:56.027   07 Jun 2027 05:31:59.869           123.842                  Delhi         15480.250
       304   07 Jun 2027 05:41:11.701   07 Jun 2027 05:41:16.333             4.632                Irkutsk           579.000
       305   07 Jun 2027 05:41:46.258   07 Jun 2027 05:43:38.706           112.448                Novosib         14056.000
       306   07 Jun 2027 05:44:06.475   07 Jun 2027 05:44:33.596            27.121                Irkutsk          3390.125
       307   07 Jun 2027 06:25:45.464   07 Jun 2027 06:25:52.532             7.068            RioGallegos           883.500
       308   07 Jun 2027 06:57:13.829   07 Jun 2027 06:57:22.865             9.036                Sumatra          1129.500
       309   07 Jun 2027 06:57:49.168   07 Jun 2027 06:59:57.554           128.386                Sumatra         16048.250
       310   07 Jun 2027 07:18:38.440   07 Jun 2027 07:18:39.642             1.202              Murmansk2           150.250
       311   07 Jun 2027 07:19:01.734   07 Jun 2027 07:20:12.109            70.375              Murmansk1          8796.875
       312   07 Jun 2027 07:20:36.422   07 Jun 2027 07:21:12.074            35.652              Murmansk2          4456.500
       313   07 Jun 2027 07:21:37.815   07 Jun 2027 07:21:58.156            20.341                Novosib          2542.625
       314   07 Jun 2027 08:44:00.067   07 Jun 2027 08:44:51.287            51.220                  Delhi          6402.500
       315   07 Jun 2027 08:50:05.311   07 Jun 2027 08:50:13.263             7.952                 Moscow           994.000
       316   07 Jun 2027 08:50:21.230   07 Jun 2027 08:51:20.739            59.509              Murmansk1          7438.625
       317   07 Jun 2027 08:51:45.583   07 Jun 2027 08:54:18.995           153.412                 Moscow         19176.500
       318   07 Jun 2027 08:54:36.848   07 Jun 2027 08:55:24.887            48.039                Norilsk          6004.875
       319   07 Jun 2027 08:55:34.251   07 Jun 2027 08:55:52.022            17.771                Norilsk          2221.375
       320   07 Jun 2027 08:55:58.341   07 Jun 2027 08:57:24.609            86.268                 Moscow         10783.500
       321   07 Jun 2027 10:02:09.529   07 Jun 2027 10:03:40.114            90.585               CapeTown         11323.125
       322   07 Jun 2027 10:07:51.876   07 Jun 2027 10:10:02.303           130.427               CapeTown         16303.375
       323   07 Jun 2027 10:43:20.940   07 Jun 2027 10:44:07.840            46.900                Anadyr1          5862.500
       324   07 Jun 2027 10:44:07.840   07 Jun 2027 10:45:59.431           111.591                Anadyr2         13948.875
       325   07 Jun 2027 10:46:57.582   07 Jun 2027 10:50:12.974           195.392                Anadyr1         24424.000
       326   07 Jun 2027 12:24:33.110   07 Jun 2027 12:24:34.780             1.670               Magadan1           208.750
       327   07 Jun 2027 12:25:22.294   07 Jun 2027 12:27:02.826           100.532               Magadan2         12566.500
       328   07 Jun 2027 13:55:19.406   07 Jun 2027 13:56:37.162            77.756               Magadan2          9719.500
       329   07 Jun 2027 13:58:30.349   07 Jun 2027 13:59:56.344            85.995               Magadan1         10749.375
       330   07 Jun 2027 15:37:10.507   07 Jun 2027 15:40:08.826           178.319                Irkutsk         22289.875
       331   07 Jun 2027 16:24:40.499   07 Jun 2027 16:25:54.240            73.741            RioGallegos          9217.625
       332   07 Jun 2027 17:10:41.400   07 Jun 2027 17:12:25.061           103.661                Irkutsk         12957.625
       333   07 Jun 2027 17:13:11.975   07 Jun 2027 17:15:44.248           152.273                Novosib         19034.125
       334   07 Jun 2027 17:16:46.414   07 Jun 2027 17:19:39.554           173.140                Novosib         21642.500
       335   07 Jun 2027 18:51:10.701   07 Jun 2027 18:51:41.053            30.352                Novosib          3794.000
       336   07 Jun 2027 18:53:31.102   07 Jun 2027 18:54:29.634            58.532                Novosib          7316.500
       337   07 Jun 2027 18:56:16.079   07 Jun 2027 18:58:31.542           135.463                  Delhi         16932.875
       338   07 Jun 2027 20:25:11.262   07 Jun 2027 20:29:09.487           238.225                 Moscow         29778.125
       339   07 Jun 2027 22:24:02.187   07 Jun 2027 22:24:52.668            50.481               CapeTown          6310.125
       340   07 Jun 2027 22:26:27.802   07 Jun 2027 22:26:59.175            31.373               CapeTown          3921.625
       341   08 Jun 2027 03:59:35.107   08 Jun 2027 04:01:21.049           105.942                Sumatra         13242.750
       342   08 Jun 2027 04:19:04.423   08 Jun 2027 04:19:27.455            23.032               Magadan2          2879.000
       343   08 Jun 2027 04:19:38.627   08 Jun 2027 04:20:50.989            72.362                Novosib          9045.250
       344   08 Jun 2027 04:55:38.178   08 Jun 2027 04:56:12.244            34.066            RioGallegos          4258.250
       345   08 Jun 2027 05:30:20.997   08 Jun 2027 05:33:10.698           169.701                Sumatra         21212.625
       346   08 Jun 2027 05:40:40.848   08 Jun 2027 05:41:50.126            69.278                  Delhi          8659.750
       347   08 Jun 2027 05:53:27.036   08 Jun 2027 05:56:21.821           174.785                Novosib         21848.125
       348   08 Jun 2027 07:14:37.871   08 Jun 2027 07:16:02.093            84.222                  Delhi         10527.750
       349   08 Jun 2027 07:30:26.153   08 Jun 2027 07:30:36.186            10.033              Murmansk1          1254.125
       350   08 Jun 2027 07:30:42.442   08 Jun 2027 07:30:58.411            15.969                 Moscow          1996.125
       351   08 Jun 2027 07:30:59.073   08 Jun 2027 07:31:16.699            17.626              Murmansk2          2203.250
       352   08 Jun 2027 07:31:29.380   08 Jun 2027 07:31:48.829            19.449                Norilsk          2431.125
       353   08 Jun 2027 07:32:04.770   08 Jun 2027 07:33:39.581            94.811              Murmansk1         11851.375
       354   08 Jun 2027 07:34:31.531   08 Jun 2027 07:35:25.053            53.522                 Moscow          6690.250
       355   08 Jun 2027 09:02:28.525   08 Jun 2027 09:02:52.550            24.025                 Moscow          3003.125
       356   08 Jun 2027 09:03:07.464   08 Jun 2027 09:03:53.699            46.235              Murmansk1          5779.375
       357   08 Jun 2027 09:03:54.168   08 Jun 2027 09:04:12.218            18.050                 Moscow          2256.250
       358   08 Jun 2027 09:04:18.100   08 Jun 2027 09:04:31.224            13.124              Murmansk2          1640.500
       359   08 Jun 2027 09:04:56.008   08 Jun 2027 09:07:07.939           131.931              Murmansk2         16491.375
       360   08 Jun 2027 09:07:16.259   08 Jun 2027 09:07:22.105             5.846              Murmansk2           730.750
       361   08 Jun 2027 09:07:29.262   08 Jun 2027 09:08:31.972            62.710                 Moscow          7838.750
       362   08 Jun 2027 09:08:44.560   08 Jun 2027 09:08:58.680            14.120              Murmansk1          1765.000
       363   08 Jun 2027 09:12:37.793   08 Jun 2027 09:12:48.891            11.098              Murmansk1          1387.250
       364   08 Jun 2027 10:13:38.836   08 Jun 2027 10:17:22.976           224.140               CapeTown         28017.500
       365   08 Jun 2027 10:20:09.686   08 Jun 2027 10:20:51.244            41.558               CapeTown          5194.750
       366   08 Jun 2027 10:53:30.125   08 Jun 2027 10:55:33.884           123.759                Anadyr2         15469.875
       367   08 Jun 2027 10:55:34.230   08 Jun 2027 10:57:57.522           143.292                Anadyr1         17911.500
       368   08 Jun 2027 12:32:31.012   08 Jun 2027 12:33:39.448            68.436               Magadan2          8554.500
       369   08 Jun 2027 12:36:53.776   08 Jun 2027 12:40:00.789           187.013               Magadan1         23376.625
       370   08 Jun 2027 14:10:29.343   08 Jun 2027 14:11:56.821            87.478               Magadan2         10934.750
       371   08 Jun 2027 15:48:27.281   08 Jun 2027 15:51:57.203           209.922                Irkutsk         26240.250
       372   08 Jun 2027 15:52:51.605   08 Jun 2027 15:55:31.427           159.822                Irkutsk         19977.750
       373   08 Jun 2027 16:04:27.474   08 Jun 2027 16:05:59.247            91.773                Sumatra         11471.625
       374   08 Jun 2027 17:23:36.796   08 Jun 2027 17:25:27.464           110.668                Novosib         13833.500
       375   08 Jun 2027 17:29:14.896   08 Jun 2027 17:30:05.964            51.068                Novosib          6383.500
       376   08 Jun 2027 17:43:24.924   08 Jun 2027 17:44:35.531            70.607                Sumatra          8825.875
       377   08 Jun 2027 17:45:59.502   08 Jun 2027 17:47:49.073           109.571                Sumatra         13696.375
       378   08 Jun 2027 19:05:54.364   08 Jun 2027 19:07:51.917           117.553                  Delhi         14694.125
       379   08 Jun 2027 19:08:50.324   08 Jun 2027 19:09:05.969            15.645                  Delhi          1955.625
       380   08 Jun 2027 20:35:26.869   08 Jun 2027 20:36:29.111            62.242              Murmansk1          7780.250
       381   08 Jun 2027 20:36:55.382   08 Jun 2027 20:38:29.921            94.539                 Moscow         11817.375
       382   08 Jun 2027 20:39:08.012   08 Jun 2027 20:41:04.137           116.125                 Moscow         14515.625
       383   08 Jun 2027 22:35:55.201   08 Jun 2027 22:37:27.316            92.115               CapeTown         11514.375
       384   09 Jun 2027 04:09:42.662   09 Jun 2027 04:11:48.123           125.461                Sumatra         15682.625
       385   09 Jun 2027 04:32:14.647   09 Jun 2027 04:33:05.536            50.889                Norilsk          6361.125
       386   09 Jun 2027 04:33:56.613   09 Jun 2027 04:34:09.623            13.010                Novosib          1626.250
       387   09 Jun 2027 04:34:25.211   09 Jun 2027 04:35:03.680            38.469              Murmansk1          4808.625
       388   09 Jun 2027 05:07:50.727   09 Jun 2027 05:07:58.618             7.891            RioGallegos           986.375
       389   09 Jun 2027 05:42:23.216   09 Jun 2027 05:44:25.861           122.645                Sumatra         15330.625
       390   09 Jun 2027 05:52:58.496   09 Jun 2027 05:53:48.064            49.568                  Delhi          6196.000
       391   09 Jun 2027 05:58:31.972   09 Jun 2027 05:59:16.856            44.884                  Delhi          5610.500
       392   09 Jun 2027 06:05:05.297   09 Jun 2027 06:05:12.522             7.225              Murmansk2           903.125
       393   09 Jun 2027 06:05:26.437   09 Jun 2027 06:08:18.259           171.822                Novosib         21477.750
       394   09 Jun 2027 06:09:06.272   09 Jun 2027 06:09:13.150             6.878                Norilsk           859.750
       395   09 Jun 2027 06:49:01.355   09 Jun 2027 06:49:14.256            12.901            RioGallegos          1612.625
       396   09 Jun 2027 07:26:49.824   09 Jun 2027 07:29:34.719           164.895                  Delhi         20611.875
       397   09 Jun 2027 07:41:38.661   09 Jun 2027 07:41:50.881            12.220                Norilsk          1527.500
       398   09 Jun 2027 07:42:07.946   09 Jun 2027 07:43:13.177            65.231                Novosib          8153.875
       399   09 Jun 2027 07:43:17.054   09 Jun 2027 07:43:58.176            41.122              Murmansk1          5140.250
       400   09 Jun 2027 07:44:16.180   09 Jun 2027 07:45:11.810            55.630              Murmansk1          6953.750
       401   09 Jun 2027 07:45:54.279   09 Jun 2027 07:46:37.753            43.474                 Moscow          5434.250
       402   09 Jun 2027 09:14:51.593   09 Jun 2027 09:16:37.995           106.402                 Moscow         13300.250
       403   09 Jun 2027 09:17:12.072   09 Jun 2027 09:19:02.838           110.766              Murmansk2         13845.750
       404   09 Jun 2027 09:19:13.470   09 Jun 2027 09:19:39.558            26.088                Norilsk          3261.000
       405   09 Jun 2027 09:21:22.449   09 Jun 2027 09:21:41.923            19.474                Norilsk          2434.250
       406   09 Jun 2027 10:25:16.645   09 Jun 2027 10:27:36.843           140.198               CapeTown         17524.750
       407   09 Jun 2027 10:28:44.243   09 Jun 2027 10:29:17.788            33.545               CapeTown          4193.125
       408   09 Jun 2027 10:34:11.375   09 Jun 2027 10:34:37.855            26.480               CapeTown          3310.000
       409   09 Jun 2027 11:05:25.030   09 Jun 2027 11:07:53.078           148.048                Anadyr2         18506.000
       410   09 Jun 2027 11:08:28.061   09 Jun 2027 11:09:56.337            88.276                Anadyr2         11034.500
       411   09 Jun 2027 12:44:14.134   09 Jun 2027 12:44:59.268            45.134               Magadan1          5641.750
       412   09 Jun 2027 12:45:57.594   09 Jun 2027 12:47:59.906           122.312               Magadan2         15289.000
       413   09 Jun 2027 12:47:59.906   09 Jun 2027 12:48:21.896            21.990               Magadan1          2748.750
       414   09 Jun 2027 12:49:37.862   09 Jun 2027 12:52:48.409           190.547               Magadan2         23818.375
       415   09 Jun 2027 15:13:31.230   09 Jun 2027 15:16:18.976           167.746            RioGallegos         20968.250
       416   09 Jun 2027 15:59:59.640   09 Jun 2027 16:03:48.449           228.809                Irkutsk         28601.125
       417   09 Jun 2027 16:15:08.142   09 Jun 2027 16:17:38.857           150.715                Sumatra         18839.375
       418   09 Jun 2027 17:37:18.070   09 Jun 2027 17:39:32.463           134.393                Novosib         16799.125
       419   09 Jun 2027 17:45:52.556   09 Jun 2027 17:47:31.016            98.460                  Delhi         12307.500
       420   09 Jun 2027 19:17:50.274   09 Jun 2027 19:18:52.353            62.079                  Delhi          7759.875
       421   09 Jun 2027 19:19:20.457   09 Jun 2027 19:20:12.170            51.713                  Delhi          6464.125
       422   09 Jun 2027 20:47:40.300   09 Jun 2027 20:49:06.399            86.099              Murmansk1         10762.375
       423   09 Jun 2027 20:51:17.404   09 Jun 2027 20:53:00.267           102.863                 Moscow         12857.875
       424   09 Jun 2027 22:47:53.154   09 Jun 2027 22:48:44.559            51.405               CapeTown          6425.625
       425   10 Jun 2027 03:03:54.964   10 Jun 2027 03:04:06.338            11.374               Magadan2          1421.750
       426   10 Jun 2027 03:04:12.519   10 Jun 2027 03:04:43.537            31.018                Anadyr2          3877.250
       427   10 Jun 2027 03:05:07.117   10 Jun 2027 03:05:32.170            25.053               Magadan2          3131.625
       428   10 Jun 2027 03:05:37.033   10 Jun 2027 03:06:32.350            55.317                Anadyr2          6914.625
       429   10 Jun 2027 03:06:51.708   10 Jun 2027 03:07:49.049            57.341                Anadyr1          7167.625
       430   10 Jun 2027 03:08:10.847   10 Jun 2027 03:08:49.868            39.021               Magadan2          4877.625
       431   10 Jun 2027 03:43:50.727   10 Jun 2027 03:43:55.842             5.115            RioGallegos           639.375
       432   10 Jun 2027 03:46:26.445   10 Jun 2027 03:47:57.039            90.594            RioGallegos         11324.250
       433   10 Jun 2027 04:20:40.081   10 Jun 2027 04:23:31.298           171.217                Sumatra         21402.125
       434   10 Jun 2027 04:40:22.298   10 Jun 2027 04:40:36.901            14.603               Magadan2          1825.375
       435   10 Jun 2027 04:40:36.901   10 Jun 2027 04:40:53.263            16.362               Magadan1          2045.250
       436   10 Jun 2027 04:41:03.908   10 Jun 2027 04:41:35.508            31.600               Magadan2          3950.000
       437   10 Jun 2027 04:42:01.422   10 Jun 2027 04:43:08.113            66.691                Novosib          8336.375
       438   10 Jun 2027 04:43:16.248   10 Jun 2027 04:43:20.385             4.137              Murmansk2           517.125
       439   10 Jun 2027 04:43:26.663   10 Jun 2027 04:44:36.851            70.188              Murmansk1          8773.500
       440   10 Jun 2027 05:20:39.488   10 Jun 2027 05:22:10.381            90.893            RioGallegos         11361.625
       441   10 Jun 2027 06:02:27.823   10 Jun 2027 06:02:57.291            29.468                Sumatra          3683.500
       442   10 Jun 2027 06:05:19.209   10 Jun 2027 06:05:42.473            23.264                  Delhi          2908.000
       443   10 Jun 2027 06:09:00.858   10 Jun 2027 06:10:18.237            77.379                  Delhi          9672.375
       444   10 Jun 2027 06:17:05.341   10 Jun 2027 06:17:53.023            47.682                 Moscow          5960.250
       445   10 Jun 2027 06:18:27.853   10 Jun 2027 06:19:17.408            49.555                Irkutsk          6194.375
       446   10 Jun 2027 06:19:47.085   10 Jun 2027 06:20:46.094            59.009              Murmansk1          7376.125
       447   10 Jun 2027 06:22:16.102   10 Jun 2027 06:22:25.009             8.907              Murmansk2          1113.375
       448   10 Jun 2027 07:39:08.140   10 Jun 2027 07:41:24.681           136.541                  Delhi         17067.625
       449   10 Jun 2027 07:42:02.148   10 Jun 2027 07:43:33.149            91.001                  Delhi         11375.125
       450   10 Jun 2027 07:53:42.894   10 Jun 2027 07:54:12.668            29.774                Norilsk          3721.750
       451   10 Jun 2027 07:54:18.392   10 Jun 2027 07:54:57.774            39.382                Novosib          4922.750
       452   10 Jun 2027 07:55:05.123   10 Jun 2027 07:55:41.609            36.486                 Moscow          4560.750
       453   10 Jun 2027 07:55:52.312   10 Jun 2027 07:55:58.872             6.560              Murmansk2           820.000
       454   10 Jun 2027 07:56:04.960   10 Jun 2027 07:56:33.189            28.229                Norilsk          3528.625
       455   10 Jun 2027 07:56:40.915   10 Jun 2027 07:57:12.227            31.312                 Moscow          3914.000
       456   10 Jun 2027 09:29:06.508   10 Jun 2027 09:29:47.361            40.853              Murmansk1          5106.625
       457   10 Jun 2027 09:29:50.362   10 Jun 2027 09:30:12.813            22.451              Murmansk1          2806.375
       458   10 Jun 2027 09:30:27.104   10 Jun 2027 09:31:04.628            37.524              Murmansk1          4690.500
       459   10 Jun 2027 09:31:07.146   10 Jun 2027 09:31:31.849            24.703              Murmansk1          3087.875
       460   10 Jun 2027 10:37:00.471   10 Jun 2027 10:41:15.619           255.148               CapeTown         31893.500
       461   10 Jun 2027 10:46:20.256   10 Jun 2027 10:46:25.463             5.207               CapeTown           650.875
       462   10 Jun 2027 11:17:21.336   10 Jun 2027 11:21:14.103           232.767                Anadyr2         29095.875
       463   10 Jun 2027 12:56:01.843   10 Jun 2027 13:01:50.731           348.888               Magadan1         43611.000
       464   10 Jun 2027 15:24:42.478   10 Jun 2027 15:28:06.482           204.004            RioGallegos         25500.500
       465   10 Jun 2027 16:12:37.883   10 Jun 2027 16:13:47.889            70.006                Irkutsk          8750.750
       466   10 Jun 2027 16:17:46.690   10 Jun 2027 16:18:01.034            14.344                Irkutsk          1793.000
       467   10 Jun 2027 16:26:16.657   10 Jun 2027 16:29:25.333           188.676                Sumatra         23584.500
       468   10 Jun 2027 17:49:48.197   10 Jun 2027 17:52:53.562           185.365                Novosib         23170.625
       469   10 Jun 2027 17:56:30.191   10 Jun 2027 17:59:12.539           162.348                  Delhi         20293.500
       470   10 Jun 2027 19:31:24.610   10 Jun 2027 19:31:36.109            11.499                  Delhi          1437.375
       471   10 Jun 2027 21:00:34.599   10 Jun 2027 21:03:23.646           169.047                 Moscow         21130.875
       472   10 Jun 2027 21:27:13.560   10 Jun 2027 21:29:12.639           119.079               CapeTown         14884.875
       473   11 Jun 2027 03:16:43.683   11 Jun 2027 03:17:08.668            24.985               Magadan2          3123.125
       474   11 Jun 2027 03:17:12.520   11 Jun 2027 03:17:33.549            21.029               Magadan2          2628.625
       475   11 Jun 2027 03:17:57.400   11 Jun 2027 03:18:47.944            50.544               Magadan2          6318.000
       476   11 Jun 2027 03:18:54.578   11 Jun 2027 03:18:57.505             2.927                Anadyr2           365.875
       477   11 Jun 2027 03:19:16.485   11 Jun 2027 03:20:45.249            88.764               Magadan2         11095.500
       478   11 Jun 2027 04:31:56.842   11 Jun 2027 04:33:30.702            93.860                Sumatra         11732.500
       479   11 Jun 2027 04:38:18.935   11 Jun 2027 04:40:05.037           106.102                Sumatra         13262.750
       480   11 Jun 2027 04:51:39.704   11 Jun 2027 04:51:57.374            17.670                Irkutsk          2208.750
       481   11 Jun 2027 04:52:35.488   11 Jun 2027 04:52:47.426            11.938                Norilsk          1492.250
       482   11 Jun 2027 04:53:05.117   11 Jun 2027 04:53:25.217            20.100                Novosib          2512.500
