uniorb/output/strategy_1/Drop/Drop_KinoSat_110510.txt

KinoSat_110510
-------------------------
    Access    *     Start Time (UTCG)     *     Stop Time (UTCG)  *   Duration (s)        *       Station  *  Data (Mbytes)
         1   01 Jun 2027 03:00:38.155   01 Jun 2027 03:01:13.369            35.214                Anadyr2          3511.500
         2   01 Jun 2027 03:01:28.763   01 Jun 2027 03:02:01.530            32.767                Anadyr1          4095.875
         3   01 Jun 2027 03:02:26.641   01 Jun 2027 03:03:11.353            44.712               Magadan2          5589.000
         4   01 Jun 2027 03:03:27.938   01 Jun 2027 03:03:51.803            23.865                Anadyr1          2983.125
         5   01 Jun 2027 03:04:13.851   01 Jun 2027 03:04:35.882            22.031                Anadyr2          2753.875
         6   01 Jun 2027 03:05:15.437   01 Jun 2027 03:05:23.284             7.847                Anadyr2           980.875
         7   01 Jun 2027 03:06:20.668   01 Jun 2027 03:06:54.669            34.001                Anadyr1          4250.125
         8   01 Jun 2027 04:37:36.696   01 Jun 2027 04:38:10.155            33.459                Novosib          4182.375
         9   01 Jun 2027 04:38:18.880   01 Jun 2027 04:38:38.851            19.971                Novosib          2496.375
        10   01 Jun 2027 04:38:50.897   01 Jun 2027 04:39:15.880            24.983                Novosib          3122.875
        11   01 Jun 2027 04:39:23.027   01 Jun 2027 04:40:00.016            36.989                Norilsk          4623.625
        12   01 Jun 2027 04:40:21.701   01 Jun 2027 04:41:43.666            81.965                Norilsk         10245.625
        13   01 Jun 2027 04:41:51.288   01 Jun 2027 04:42:21.221            29.933                Irkutsk          3741.625
        14   01 Jun 2027 04:42:23.149   01 Jun 2027 04:43:24.698            61.549                Novosib          7693.625
        15   01 Jun 2027 05:53:18.144   01 Jun 2027 05:54:11.749            53.605                Sumatra          6700.625
        16   01 Jun 2027 06:14:10.815   01 Jun 2027 06:14:52.758            41.943                Norilsk          5242.875
        17   01 Jun 2027 06:15:09.599   01 Jun 2027 06:15:52.386            42.787                Norilsk          5348.375
        18   01 Jun 2027 06:16:09.030   01 Jun 2027 06:16:33.877            24.847              Murmansk1          3105.875
        19   01 Jun 2027 06:16:39.829   01 Jun 2027 06:18:33.198           113.369                Irkutsk         14171.125
        20   01 Jun 2027 07:38:47.025   01 Jun 2027 07:40:52.207           125.182                  Delhi         15647.750
        21   01 Jun 2027 07:52:35.665   01 Jun 2027 07:53:13.320            37.655              Murmansk1          4706.875
        22   01 Jun 2027 07:53:25.535   01 Jun 2027 07:54:11.071            45.536                Norilsk          5692.000
        23   01 Jun 2027 07:54:52.993   01 Jun 2027 07:55:57.398            64.405                 Moscow          8050.625
        24   01 Jun 2027 09:27:48.756   01 Jun 2027 09:28:11.046            22.290              Murmansk1          2786.250
        25   01 Jun 2027 09:28:14.126   01 Jun 2027 09:28:33.839            19.713                 Moscow          2464.125
        26   01 Jun 2027 09:28:38.941   01 Jun 2027 09:29:48.966            70.025                Novosib          8753.125
        27   01 Jun 2027 11:16:27.658   01 Jun 2027 11:19:57.988           210.330                Anadyr1         26291.250
        28   01 Jun 2027 11:19:57.988   01 Jun 2027 11:21:05.569            67.581                Anadyr2          8447.625
        29   01 Jun 2027 12:56:17.274   01 Jun 2027 12:57:53.578            96.304                Anadyr2         12038.000
        30   01 Jun 2027 14:29:27.764   01 Jun 2027 14:33:18.348           230.584               Magadan2         28823.000
        31   01 Jun 2027 14:33:31.657   01 Jun 2027 14:35:55.107           143.450               Magadan2         17931.250
        32   01 Jun 2027 14:36:18.167   01 Jun 2027 14:38:10.435           112.268               Magadan2         14033.500
        33   01 Jun 2027 16:57:40.578   01 Jun 2027 17:00:44.298           183.720            RioGallegos         22965.000
        34   01 Jun 2027 17:01:21.196   01 Jun 2027 17:04:02.236           161.040            RioGallegos         20130.000
        35   01 Jun 2027 17:51:36.032   01 Jun 2027 17:51:50.733            14.701                Irkutsk          1837.625
        36   01 Jun 2027 18:03:40.843   01 Jun 2027 18:05:58.723           137.880                Sumatra         17235.000
        37   01 Jun 2027 19:29:02.699   01 Jun 2027 19:32:23.003           200.304                  Delhi         25038.000
        38   01 Jun 2027 19:34:30.549   01 Jun 2027 19:36:40.841           130.292                  Delhi         16286.500
        39   01 Jun 2027 20:55:06.022   01 Jun 2027 20:58:53.270           227.248              Murmansk1         23792.625
        40   02 Jun 2027 04:51:30.151   02 Jun 2027 04:52:13.729            43.578               Magadan2          5447.250
        41   02 Jun 2027 04:52:53.785   02 Jun 2027 04:53:41.781            47.996               Magadan1          5999.500
        42   02 Jun 2027 04:53:41.781   02 Jun 2027 04:54:11.401            29.620               Magadan2          3702.500
        43   02 Jun 2027 04:54:13.839   02 Jun 2027 04:54:27.326            13.487                Irkutsk          1685.875
        44   02 Jun 2027 05:29:16.073   02 Jun 2027 05:29:43.173            27.100            RioGallegos          3387.500
        45   02 Jun 2027 06:04:51.805   02 Jun 2027 06:06:33.277           101.472                Sumatra         12684.000
        46   02 Jun 2027 06:26:10.411   02 Jun 2027 06:26:39.133            28.722                Irkutsk          3590.250
        47   02 Jun 2027 06:27:02.578   02 Jun 2027 06:29:24.775           142.197                Irkutsk         17774.625
        48   02 Jun 2027 06:30:13.719   02 Jun 2027 06:31:39.122            85.403              Murmansk1         10675.375
        49   02 Jun 2027 07:41:00.296   02 Jun 2027 07:41:04.366             4.070                Sumatra           508.750
        50   02 Jun 2027 07:42:16.584   02 Jun 2027 07:43:06.643            50.059                Sumatra          6257.375
        51   02 Jun 2027 07:50:33.393   02 Jun 2027 07:51:28.936            55.543                  Delhi          6942.875
        52   02 Jun 2027 08:03:39.211   02 Jun 2027 08:04:40.267            61.056                Novosib          7632.000
        53   02 Jun 2027 08:05:20.892   02 Jun 2027 08:06:09.477            48.585              Murmansk1          6073.125
        54   02 Jun 2027 09:27:14.235   02 Jun 2027 09:27:29.415            15.180                  Delhi          1897.500
        55   02 Jun 2027 09:38:59.998   02 Jun 2027 09:39:45.069            45.071                 Moscow          5633.875
        56   02 Jun 2027 09:40:32.664   02 Jun 2027 09:40:43.774            11.110              Murmansk2          1388.750
        57   02 Jun 2027 09:40:47.607   02 Jun 2027 09:41:36.729            49.122                Norilsk          6140.250
        58   02 Jun 2027 09:41:58.785   02 Jun 2027 09:42:55.647            56.862                Norilsk          7107.750
        59   02 Jun 2027 09:43:39.030   02 Jun 2027 09:44:29.027            49.997                 Moscow          6249.625
        60   02 Jun 2027 10:51:23.050   02 Jun 2027 10:52:00.031            36.981               CapeTown          4622.625
        61   02 Jun 2027 11:28:02.312   02 Jun 2027 11:34:09.768           367.456                Anadyr1         45932.000
        62   02 Jun 2027 14:41:21.800   02 Jun 2027 14:43:37.358           135.558               Magadan2         16944.750
        63   02 Jun 2027 14:46:17.312   02 Jun 2027 14:46:54.601            37.289               Magadan1          4661.125
        64   02 Jun 2027 14:49:37.218   02 Jun 2027 14:50:52.689            75.471               Magadan2          9433.875
        65   02 Jun 2027 17:11:55.741   02 Jun 2027 17:15:34.205           218.464            RioGallegos         27308.000
        66   02 Jun 2027 18:00:00.360   02 Jun 2027 18:02:01.773           121.413                Novosib         15176.625
        67   02 Jun 2027 18:04:50.022   02 Jun 2027 18:07:34.055           164.033                Irkutsk         20504.125
        68   02 Jun 2027 18:16:44.744   02 Jun 2027 18:17:08.011            23.267                Sumatra          2908.375
        69   02 Jun 2027 19:43:57.799   02 Jun 2027 19:47:20.951           203.152                  Delhi         25394.000
        70   02 Jun 2027 21:08:09.647   02 Jun 2027 21:12:25.272           255.625              Murmansk2         31953.125
        71   02 Jun 2027 21:12:45.933   02 Jun 2027 21:15:16.346           150.413                 Moscow         18801.625
        72   03 Jun 2027 05:01:58.212   03 Jun 2027 05:03:00.313            62.101                Irkutsk          7762.625
        73   03 Jun 2027 05:03:24.909   03 Jun 2027 05:04:00.590            35.681                Norilsk          4460.125
        74   03 Jun 2027 05:04:13.552   03 Jun 2027 05:05:44.210            90.658               Magadan1         11332.250
        75   03 Jun 2027 05:06:14.158   03 Jun 2027 05:06:32.583            18.425                Irkutsk          2303.125
        76   03 Jun 2027 05:06:33.268   03 Jun 2027 05:07:32.345            59.077                Novosib          7384.625
        77   03 Jun 2027 05:41:16.390   03 Jun 2027 05:42:07.953            51.563            RioGallegos          6445.375
        78   03 Jun 2027 06:16:33.290   03 Jun 2027 06:18:15.514           102.224                Sumatra         12778.000
        79   03 Jun 2027 06:31:18.646   03 Jun 2027 06:31:57.052            38.406                  Delhi          4800.750
        80   03 Jun 2027 06:37:54.019   03 Jun 2027 06:38:12.040            18.021                Irkutsk          2252.625
        81   03 Jun 2027 06:38:39.412   03 Jun 2027 06:39:34.257            54.845                Novosib          6855.625
        82   03 Jun 2027 06:40:04.142   03 Jun 2027 06:42:15.131           130.989              Murmansk2         16373.625
        83   03 Jun 2027 06:43:33.141   03 Jun 2027 06:43:50.118            16.977              Murmansk2          2122.125
        84   03 Jun 2027 08:00:25.843   03 Jun 2027 08:02:14.240           108.397                  Delhi         13549.625
        85   03 Jun 2027 08:16:26.379   03 Jun 2027 08:17:27.229            60.850                 Moscow          7606.250
        86   03 Jun 2027 08:17:54.332   03 Jun 2027 08:20:08.341           134.009                 Moscow         16751.125
        87   03 Jun 2027 09:51:22.891   03 Jun 2027 09:52:06.519            43.628                 Moscow          5453.500
        88   03 Jun 2027 09:52:32.214   03 Jun 2027 09:52:47.271            15.057              Murmansk1          1882.125
        89   03 Jun 2027 09:52:47.271   03 Jun 2027 09:53:32.258            44.987              Murmansk2          5623.375
        90   03 Jun 2027 09:54:04.760   03 Jun 2027 09:54:33.132            28.372              Murmansk2          3546.500
        91   03 Jun 2027 09:54:49.346   03 Jun 2027 09:55:04.739            15.393                Norilsk          1924.125
        92   03 Jun 2027 11:01:16.594   03 Jun 2027 11:03:37.681           141.087               CapeTown         17635.875
        93   03 Jun 2027 11:39:46.117   03 Jun 2027 11:46:00.747           374.630                Anadyr1         46828.750
        94   03 Jun 2027 13:20:02.921   03 Jun 2027 13:22:48.147           165.226               Magadan2         20653.250
        95   03 Jun 2027 14:53:17.364   03 Jun 2027 14:57:21.589           244.225               Magadan1         30528.125
        96   03 Jun 2027 17:25:07.909   03 Jun 2027 17:27:04.435           116.526            RioGallegos         14565.750
        97   03 Jun 2027 18:06:09.983   03 Jun 2027 18:09:02.061           172.078                Norilsk         21509.750
        98   03 Jun 2027 18:10:40.295   03 Jun 2027 18:15:57.311           317.016                Novosib         39627.000
        99   03 Jun 2027 19:57:20.530   03 Jun 2027 19:58:33.913            73.383                  Delhi          9172.875
       100   03 Jun 2027 21:20:02.341   03 Jun 2027 21:20:53.507            51.166              Murmansk2          6395.750
       101   03 Jun 2027 21:21:02.565   03 Jun 2027 21:25:28.590           266.025              Murmansk1         33253.125
       102   03 Jun 2027 21:26:15.069   03 Jun 2027 21:27:04.413            49.344                 Moscow          6168.000
       103   03 Jun 2027 21:29:22.622   03 Jun 2027 21:30:24.777            62.155                 Moscow          7769.375
       104   04 Jun 2027 03:39:22.314   04 Jun 2027 03:39:35.826            13.512               Magadan1          1689.000
       105   04 Jun 2027 03:39:54.089   04 Jun 2027 03:41:27.551            93.462                Anadyr2         11682.750
       106   04 Jun 2027 05:13:32.756   04 Jun 2027 05:15:02.032            89.276               Magadan2         11159.500
       107   04 Jun 2027 05:15:30.323   04 Jun 2027 05:17:01.537            91.214               Magadan1         11401.750
       108   04 Jun 2027 05:17:19.152   04 Jun 2027 05:18:35.241            76.089                Irkutsk          9511.125
       109   04 Jun 2027 05:53:35.913   04 Jun 2027 05:53:56.096            20.183            RioGallegos          2522.875
       110   04 Jun 2027 06:28:21.378   04 Jun 2027 06:28:49.715            28.337                Sumatra          3542.125
       111   04 Jun 2027 06:31:15.193   04 Jun 2027 06:32:28.325            73.132                Sumatra          9141.500
       112   04 Jun 2027 06:50:38.745   04 Jun 2027 06:51:31.531            52.786                Norilsk          6598.250
       113   04 Jun 2027 06:51:49.000   04 Jun 2027 06:52:16.311            27.311                Irkutsk          3413.875
       114   04 Jun 2027 06:52:19.513   04 Jun 2027 06:54:28.753           129.240                Irkutsk         16155.000
       115   04 Jun 2027 08:12:24.167   04 Jun 2027 08:13:05.459            41.292                  Delhi          5161.500
       116   04 Jun 2027 08:27:26.295   04 Jun 2027 08:27:39.741            13.446                Novosib          1680.750
       117   04 Jun 2027 08:27:46.990   04 Jun 2027 08:28:39.724            52.734              Murmansk2          6591.750
       118   04 Jun 2027 08:28:51.166   04 Jun 2027 08:29:16.234            25.068                Norilsk          3133.500
       119   04 Jun 2027 08:29:20.478   04 Jun 2027 08:29:53.401            32.923                 Moscow          4115.375
       120   04 Jun 2027 08:29:58.906   04 Jun 2027 08:30:27.003            28.097              Murmansk1          3512.125
       121   04 Jun 2027 09:52:36.117   04 Jun 2027 09:53:36.044            59.927                  Delhi          7490.875
       122   04 Jun 2027 09:59:41.275   04 Jun 2027 09:59:56.472            15.197                 Moscow          1899.625
       123   04 Jun 2027 10:00:14.353   04 Jun 2027 10:02:08.331           113.978              Murmansk1         14247.250
       124   04 Jun 2027 10:02:20.487   04 Jun 2027 10:02:39.510            19.023                Novosib          2377.875
       125   04 Jun 2027 10:02:44.520   04 Jun 2027 10:04:00.443            75.923                 Moscow          9490.375
       126   04 Jun 2027 10:04:19.408   04 Jun 2027 10:04:52.369            32.961              Murmansk1          4120.125
       127   04 Jun 2027 10:05:08.999   04 Jun 2027 10:05:22.053            13.054                Novosib          1631.750
       128   04 Jun 2027 10:05:24.376   04 Jun 2027 10:06:26.877            62.501                 Moscow          7812.625
       129   04 Jun 2027 10:06:32.424   04 Jun 2027 10:07:45.967            73.543                 Moscow          9192.875
       130   04 Jun 2027 11:12:21.551   04 Jun 2027 11:15:21.383           179.832               CapeTown         22479.000
       131   04 Jun 2027 11:19:29.870   04 Jun 2027 11:20:23.974            54.104               CapeTown          6763.000
       132   04 Jun 2027 11:51:34.858   04 Jun 2027 11:55:42.056           247.198                Anadyr1         30899.750
       133   04 Jun 2027 13:31:04.899   04 Jun 2027 13:34:22.738           197.839               Magadan1         24729.875
       134   04 Jun 2027 16:47:36.585   04 Jun 2027 16:51:23.387           226.802                Irkutsk         28350.250
       135   04 Jun 2027 18:22:03.255   04 Jun 2027 18:29:06.695           423.440                Novosib         52930.000
       136   04 Jun 2027 21:31:40.101   04 Jun 2027 21:33:34.010           113.909              Murmansk1         14238.625
       137   04 Jun 2027 21:33:49.016   04 Jun 2027 21:36:09.920           140.904              Murmansk1         17613.000
       138   04 Jun 2027 21:36:45.030   04 Jun 2027 21:41:29.858           284.828                 Moscow         35603.500
       139   04 Jun 2027 21:43:06.872   04 Jun 2027 21:43:20.853            13.981                 Moscow          1747.625
       140   04 Jun 2027 22:04:42.749   04 Jun 2027 22:05:20.857            38.108               CapeTown          4763.500
       141   05 Jun 2027 03:50:31.178   05 Jun 2027 03:51:37.895            66.717               Magadan1          8339.625
       142   05 Jun 2027 03:51:47.475   05 Jun 2027 03:52:17.393            29.918               Magadan1          3739.750
       143   05 Jun 2027 03:52:30.312   05 Jun 2027 03:52:58.523            28.211               Magadan1          3526.375
       144   05 Jun 2027 03:53:04.210   05 Jun 2027 03:53:20.111            15.901               Magadan1          1987.625
       145   05 Jun 2027 03:53:28.845   05 Jun 2027 03:54:21.226            52.381                Anadyr2          6547.625
       146   05 Jun 2027 05:25:46.679   05 Jun 2027 05:25:55.750             9.071               Magadan1          1133.875
       147   05 Jun 2027 05:26:05.394   05 Jun 2027 05:29:00.432           175.038                Irkutsk         21879.750
       148   05 Jun 2027 05:29:49.058   05 Jun 2027 05:30:23.429            34.371              Murmansk1          4296.375
       149   05 Jun 2027 05:30:35.663   05 Jun 2027 05:31:39.685            64.022              Murmansk2          8002.750
       150   05 Jun 2027 05:32:54.165   05 Jun 2027 05:33:02.608             8.443                Norilsk          1055.375
       151   05 Jun 2027 05:34:04.096   05 Jun 2027 05:34:08.324             4.228                Norilsk           528.500
       152   05 Jun 2027 05:34:42.009   05 Jun 2027 05:35:15.278            33.269                Norilsk          4158.625
       153   05 Jun 2027 06:08:34.075   05 Jun 2027 06:09:25.291            51.216            RioGallegos          6402.000
       154   05 Jun 2027 06:41:14.885   05 Jun 2027 06:41:30.281            15.396                Sumatra          1924.500
       155   05 Jun 2027 06:43:22.469   05 Jun 2027 06:43:23.627             1.158                Sumatra           144.750
       156   05 Jun 2027 06:51:16.455   05 Jun 2027 06:53:13.951           117.496                  Delhi         14687.000
       157   05 Jun 2027 07:02:28.184   05 Jun 2027 07:03:07.292            39.108                Novosib          4888.500
       158   05 Jun 2027 07:03:28.642   05 Jun 2027 07:03:54.173            25.531              Murmansk1          3191.375
       159   05 Jun 2027 07:03:54.455   05 Jun 2027 07:04:23.330            28.875                 Moscow          3609.375
       160   05 Jun 2027 07:04:46.284   05 Jun 2027 07:04:51.417             5.133              Murmansk2           641.625
       161   05 Jun 2027 07:04:55.535   05 Jun 2027 07:05:26.323            30.788                Novosib          3848.500
       162   05 Jun 2027 07:05:35.583   05 Jun 2027 07:06:19.878            44.295                Irkutsk          5536.875
       163   05 Jun 2027 07:06:20.687   05 Jun 2027 07:06:52.155            31.468                Novosib          3933.500
       164   05 Jun 2027 08:20:08.190   05 Jun 2027 08:21:02.613            54.423                Sumatra          6802.875
       165   05 Jun 2027 08:25:10.669   05 Jun 2027 08:26:17.881            67.212                  Delhi          8401.500
       166   05 Jun 2027 08:38:52.411   05 Jun 2027 08:40:31.901            99.490                 Moscow         12436.250
       167   05 Jun 2027 08:40:56.129   05 Jun 2027 08:41:12.523            16.394              Murmansk1          2049.250
       168   05 Jun 2027 08:41:32.010   05 Jun 2027 08:42:45.369            73.359              Murmansk2          9169.875
       169   05 Jun 2027 10:11:53.788   05 Jun 2027 10:12:49.923            56.135                 Moscow          7016.875
       170   05 Jun 2027 10:13:26.997   05 Jun 2027 10:15:33.725           126.728              Murmansk1         15841.000
       171   05 Jun 2027 10:15:37.052   05 Jun 2027 10:16:24.698            47.646              Murmansk1          5955.750
       172   05 Jun 2027 10:16:37.212   05 Jun 2027 10:17:48.582            71.370                Norilsk          8921.250
       173   05 Jun 2027 10:18:05.850   05 Jun 2027 10:18:50.786            44.936                 Moscow          5617.000
       174   05 Jun 2027 10:19:00.360   05 Jun 2027 10:19:08.977             8.617              Murmansk2          1077.125
       175   05 Jun 2027 11:23:45.402   05 Jun 2027 11:27:09.747           204.345               CapeTown         25543.125
       176   05 Jun 2027 11:29:26.695   05 Jun 2027 11:31:11.827           105.132               CapeTown         13141.500
       177   05 Jun 2027 12:03:26.742   05 Jun 2027 12:04:47.104            80.362                Anadyr1         10045.250
       178   05 Jun 2027 12:05:32.976   05 Jun 2027 12:07:39.417           126.441                Anadyr1         15805.125
       179   05 Jun 2027 12:08:43.811   05 Jun 2027 12:10:20.424            96.613                Anadyr2         12076.625
       180   05 Jun 2027 13:42:34.814   05 Jun 2027 13:46:13.491           218.677               Magadan2         27334.625
       181   05 Jun 2027 16:58:38.247   05 Jun 2027 17:04:01.648           323.401                Irkutsk         40425.125
       182   05 Jun 2027 17:15:22.182   05 Jun 2027 17:17:36.992           134.810                Sumatra         16851.250
       183   05 Jun 2027 18:33:39.097   05 Jun 2027 18:38:33.304           294.207                Novosib         36775.875
       184   05 Jun 2027 18:40:00.209   05 Jun 2027 18:41:36.666            96.457                Novosib         12057.125
       185   05 Jun 2027 21:42:46.859   05 Jun 2027 21:44:12.530            85.671              Murmansk1         10708.875
       186   05 Jun 2027 21:46:30.690   05 Jun 2027 21:47:14.187            43.497              Murmansk2          5437.125
       187   05 Jun 2027 21:48:22.958   05 Jun 2027 21:50:15.551           112.593                 Moscow         14074.125
       188   05 Jun 2027 21:52:26.208   05 Jun 2027 21:53:34.050            67.842                 Moscow          8480.250
       189   05 Jun 2027 22:14:32.481   05 Jun 2027 22:15:59.552            87.071               CapeTown         10883.875
       190   05 Jun 2027 22:17:21.844   05 Jun 2027 22:19:15.474           113.630               CapeTown         14203.750
       191   06 Jun 2027 04:02:27.183   06 Jun 2027 04:03:33.561            66.378                Anadyr2          8297.250
       192   06 Jun 2027 04:03:54.076   06 Jun 2027 04:04:01.155             7.079                Anadyr2           884.875
       193   06 Jun 2027 04:04:01.155   06 Jun 2027 04:04:07.268             6.113                Anadyr1           764.125
       194   06 Jun 2027 04:04:32.714   06 Jun 2027 04:05:28.403            55.689               Magadan1          6961.125
       195   06 Jun 2027 04:05:28.403   06 Jun 2027 04:05:57.451            29.048               Magadan2          3631.000
       196   06 Jun 2027 04:06:07.435   06 Jun 2027 04:06:15.732             8.297                Anadyr1          1037.125
       197   06 Jun 2027 04:06:45.996   06 Jun 2027 04:06:47.895             1.899               Magadan1           237.375
       198   06 Jun 2027 04:10:22.629   06 Jun 2027 04:10:38.695            16.066              Murmansk2          2008.250
       199   06 Jun 2027 04:10:55.130   06 Jun 2027 04:11:19.880            24.750                Norilsk          3093.750
       200   06 Jun 2027 04:42:01.307   06 Jun 2027 04:43:08.286            66.979            RioGallegos          8372.375
       201   06 Jun 2027 04:50:51.697   06 Jun 2027 04:51:25.680            33.983            RioGallegos          4247.875
       202   06 Jun 2027 05:20:17.294   06 Jun 2027 05:20:53.030            35.736                Sumatra          4467.000
       203   06 Jun 2027 05:23:08.173   06 Jun 2027 05:25:30.730           142.557                Sumatra         17819.625
       204   06 Jun 2027 05:38:10.885   06 Jun 2027 05:38:41.778            30.893                Irkutsk          3861.625
       205   06 Jun 2027 05:39:07.621   06 Jun 2027 05:39:15.295             7.674               Magadan2           959.250
       206   06 Jun 2027 05:39:15.295   06 Jun 2027 05:40:35.565            80.270               Magadan1         10033.750
       207   06 Jun 2027 05:41:00.207   06 Jun 2027 05:42:32.788            92.581                Novosib         11572.625
       208   06 Jun 2027 06:52:15.001   06 Jun 2027 06:54:15.444           120.443                Sumatra         15055.375
       209   06 Jun 2027 07:14:11.586   06 Jun 2027 07:14:54.741            43.155                Irkutsk          5394.375
       210   06 Jun 2027 07:15:04.209   06 Jun 2027 07:16:06.874            62.665                 Moscow          7833.125
       211   06 Jun 2027 07:16:27.985   06 Jun 2027 07:16:43.308            15.323                 Moscow          1915.375
       212   06 Jun 2027 07:16:47.181   06 Jun 2027 07:17:50.684            63.503                Irkutsk          7937.875
       213   06 Jun 2027 07:18:13.156   06 Jun 2027 07:18:46.215            33.059              Murmansk2          4132.375
       214   06 Jun 2027 07:24:57.799   06 Jun 2027 07:25:01.859             4.060              Murmansk1           507.500
       215   06 Jun 2027 07:58:10.704   06 Jun 2027 07:58:36.557            25.853            RioGallegos          3231.625
       216   06 Jun 2027 08:36:37.047   06 Jun 2027 08:37:56.027            78.980                  Delhi          9872.500
       217   06 Jun 2027 08:50:43.650   06 Jun 2027 08:51:01.407            17.757              Murmansk2          2219.625
       218   06 Jun 2027 08:51:01.892   06 Jun 2027 08:52:02.319            60.427                 Moscow          7553.375
       219   06 Jun 2027 08:52:32.340   06 Jun 2027 08:53:45.887            73.547                 Moscow          9193.375
       220   06 Jun 2027 08:53:49.843   06 Jun 2027 08:54:15.224            25.381                Novosib          3172.625
       221   06 Jun 2027 10:26:08.370   06 Jun 2027 10:27:04.057            55.687              Murmansk1          6960.875
       222   06 Jun 2027 10:27:04.057   06 Jun 2027 10:27:07.908             3.851              Murmansk2           481.375
       223   06 Jun 2027 10:27:12.411   06 Jun 2027 10:27:23.802            11.391              Murmansk1          1423.875
       224   06 Jun 2027 10:27:31.019   06 Jun 2027 10:28:19.579            48.560              Murmansk2          6070.000
       225   06 Jun 2027 10:28:32.806   06 Jun 2027 10:29:57.540            84.734              Murmansk1         10591.750
       226   06 Jun 2027 10:30:11.466   06 Jun 2027 10:30:26.513            15.047                 Moscow          1880.875
       227   06 Jun 2027 11:35:19.657   06 Jun 2027 11:35:58.921            39.264               CapeTown          4908.000
       228   06 Jun 2027 11:37:08.877   06 Jun 2027 11:41:08.843           239.966               CapeTown         29995.750
       229   06 Jun 2027 11:41:53.061   06 Jun 2027 11:41:58.957             5.896               CapeTown           737.000
       230   06 Jun 2027 12:15:20.817   06 Jun 2027 12:17:52.875           152.058                Anadyr1         19007.250
       231   06 Jun 2027 12:18:28.162   06 Jun 2027 12:19:17.744            49.582                Anadyr2          6197.750
       232   06 Jun 2027 13:54:14.930   06 Jun 2027 14:00:38.864           383.934               Magadan1         47991.750
       233   06 Jun 2027 16:24:04.384   06 Jun 2027 16:26:12.102           127.718            RioGallegos         15964.750
       234   06 Jun 2027 17:10:04.851   06 Jun 2027 17:14:38.907           274.056                Irkutsk         34257.000
       235   06 Jun 2027 17:16:07.472   06 Jun 2027 17:17:45.009            97.537                Irkutsk         12192.125
       236   06 Jun 2027 17:25:33.454   06 Jun 2027 17:27:34.503           121.049                Sumatra         15131.125
       237   06 Jun 2027 17:31:30.022   06 Jun 2027 17:32:37.925            67.903                Sumatra          8487.875
       238   06 Jun 2027 18:48:44.991   06 Jun 2027 18:49:16.663            31.672                Novosib          3959.000
       239   06 Jun 2027 18:51:00.696   06 Jun 2027 18:51:33.023            32.327                Novosib          4040.875
       240   06 Jun 2027 18:57:28.965   06 Jun 2027 18:58:13.502            44.537                  Delhi          5567.125
       241   06 Jun 2027 20:21:05.536   06 Jun 2027 20:21:45.934            40.398              Murmansk2          5049.750
       242   06 Jun 2027 21:55:58.920   06 Jun 2027 21:56:53.340            54.420              Murmansk1          6802.500
       243   06 Jun 2027 21:58:42.223   06 Jun 2027 22:00:33.024           110.801                 Moscow         13850.125
       244   06 Jun 2027 22:01:46.088   06 Jun 2027 22:04:49.949           183.861                 Moscow         22982.625
       245   06 Jun 2027 22:25:21.537   06 Jun 2027 22:26:14.733            53.196               CapeTown          6649.500
       246   06 Jun 2027 22:31:06.476   06 Jun 2027 22:32:21.134            74.658               CapeTown          9332.250
       247   07 Jun 2027 04:15:31.085   07 Jun 2027 04:16:15.411            44.326               Magadan1          5540.750
       248   07 Jun 2027 04:16:15.411   07 Jun 2027 04:16:37.640            22.229               Magadan2          2778.625
       249   07 Jun 2027 04:17:04.395   07 Jun 2027 04:17:55.159            50.764               Magadan1          6345.500
       250   07 Jun 2027 04:18:03.804   07 Jun 2027 04:18:21.118            17.314               Magadan2          2164.250
       251   07 Jun 2027 04:18:38.708   07 Jun 2027 04:18:48.907            10.199                Norilsk          1274.875
       252   07 Jun 2027 04:19:53.267   07 Jun 2027 04:20:07.368            14.101                Norilsk          1762.625
       253   07 Jun 2027 04:20:16.543   07 Jun 2027 04:21:25.867            69.324                Norilsk          8665.500
       254   07 Jun 2027 04:53:48.896   07 Jun 2027 04:54:21.456            32.560            RioGallegos          4070.000
       255   07 Jun 2027 05:30:59.490   07 Jun 2027 05:33:11.117           131.627                Sumatra         16453.375
       256   07 Jun 2027 05:49:35.092   07 Jun 2027 05:49:55.718            20.626               Magadan2          2578.250
       257   07 Jun 2027 05:50:15.581   07 Jun 2027 05:50:54.319            38.738                Irkutsk          4842.250
       258   07 Jun 2027 05:51:04.109   07 Jun 2027 05:51:17.622            13.513               Magadan2          1689.125
       259   07 Jun 2027 05:51:45.163   07 Jun 2027 05:52:23.236            38.073               Magadan1          4759.125
       260   07 Jun 2027 05:52:36.005   07 Jun 2027 05:53:28.467            52.462                Novosib          6557.750
       261   07 Jun 2027 05:53:46.970   07 Jun 2027 05:54:30.154            43.184                Norilsk          5398.000
       262   07 Jun 2027 05:54:38.966   07 Jun 2027 05:55:20.980            42.014                Norilsk          5251.750
       263   07 Jun 2027 06:29:52.598   07 Jun 2027 06:30:17.586            24.988            RioGallegos          3123.500
       264   07 Jun 2027 07:04:20.227   07 Jun 2027 07:06:07.225           106.998                Sumatra         13374.750
       265   07 Jun 2027 07:26:09.327   07 Jun 2027 07:26:20.842            11.515                Irkutsk          1439.375
       266   07 Jun 2027 07:26:35.650   07 Jun 2027 07:27:23.648            47.998                Irkutsk          5999.750
       267   07 Jun 2027 07:28:11.371   07 Jun 2027 07:28:26.469            15.098              Murmansk1          1887.250
       268   07 Jun 2027 07:28:41.797   07 Jun 2027 07:30:43.651           121.854                Novosib         15231.750
       269   07 Jun 2027 08:51:53.944   07 Jun 2027 08:52:24.550            30.606                  Delhi          3825.750
       270   07 Jun 2027 09:01:55.046   07 Jun 2027 09:02:32.744            37.698              Murmansk2          4712.250
       271   07 Jun 2027 09:02:41.993   07 Jun 2027 09:02:54.212            12.219              Murmansk2          1527.375
       272   07 Jun 2027 09:02:55.549   07 Jun 2027 09:02:57.580             2.031                Norilsk           253.875
       273   07 Jun 2027 09:03:12.851   07 Jun 2027 09:03:16.686             3.835                 Moscow           479.375
       274   07 Jun 2027 09:03:18.444   07 Jun 2027 09:04:26.760            68.316              Murmansk1          8539.500
       275   07 Jun 2027 09:04:28.697   07 Jun 2027 09:04:32.059             3.362                 Moscow           420.250
       276   07 Jun 2027 09:04:42.139   07 Jun 2027 09:05:26.363            44.224              Murmansk1          5528.000
       277   07 Jun 2027 09:05:26.363   07 Jun 2027 09:06:15.537            49.174              Murmansk2          6146.750
       278   07 Jun 2027 10:36:56.058   07 Jun 2027 10:37:18.387            22.329              Murmansk1          2791.125
       279   07 Jun 2027 10:38:55.516   07 Jun 2027 10:41:58.945           183.429              Murmansk2         22928.625
       280   07 Jun 2027 10:44:31.169   07 Jun 2027 10:44:54.419            23.250                 Moscow          2906.250
       281   07 Jun 2027 11:47:00.890   07 Jun 2027 11:48:01.834            60.944               CapeTown          7618.000
       282   07 Jun 2027 11:50:57.384   07 Jun 2027 11:51:19.556            22.172               CapeTown          2771.500
       283   07 Jun 2027 11:51:58.075   07 Jun 2027 11:53:15.411            77.336               CapeTown          9667.000
       284   07 Jun 2027 12:27:16.495   07 Jun 2027 12:29:16.411           119.916                Anadyr1         14989.500
       285   07 Jun 2027 12:31:15.133   07 Jun 2027 12:32:44.556            89.423                Anadyr2         11177.875
       286   07 Jun 2027 12:34:33.951   07 Jun 2027 12:36:10.329            96.378                Anadyr1         12047.250
       287   07 Jun 2027 14:06:00.717   07 Jun 2027 14:12:01.757           361.040               Magadan2         45130.000
       288   07 Jun 2027 16:34:55.372   07 Jun 2027 16:37:56.393           181.021            RioGallegos         22627.625
       289   07 Jun 2027 17:22:23.704   07 Jun 2027 17:27:07.865           284.161                Irkutsk         35520.125
       290   07 Jun 2027 17:36:31.805   07 Jun 2027 17:39:15.680           163.875                Sumatra         20484.375
       291   07 Jun 2027 17:41:04.344   07 Jun 2027 17:42:34.246            89.902                Sumatra         11237.750
       292   07 Jun 2027 19:00:29.020   07 Jun 2027 19:01:11.942            42.922                Novosib          5365.250
       293   07 Jun 2027 19:06:55.057   07 Jun 2027 19:09:06.852           131.795                  Delhi         16474.375
       294   07 Jun 2027 19:10:19.509   07 Jun 2027 19:11:11.482            51.973                  Delhi          6496.625
       295   07 Jun 2027 20:32:48.860   07 Jun 2027 20:32:58.419             9.559              Murmansk2          1194.875
       296   07 Jun 2027 20:33:55.702   07 Jun 2027 20:35:08.784            73.082              Murmansk2          9135.250
       297   07 Jun 2027 22:10:32.018   07 Jun 2027 22:12:22.976           110.958                 Moscow         13869.750
       298   07 Jun 2027 22:36:29.048   07 Jun 2027 22:38:25.899           116.851               CapeTown         14606.375
       299   08 Jun 2027 04:27:43.116   08 Jun 2027 04:28:39.813            56.697               Magadan1          7087.125
       300   08 Jun 2027 04:29:06.779   08 Jun 2027 04:29:59.140            52.361               Magadan2          6545.125
       301   08 Jun 2027 04:30:00.650   08 Jun 2027 04:30:14.615            13.965               Magadan2          1745.625
       302   08 Jun 2027 04:30:19.852   08 Jun 2027 04:30:28.888             9.036                Irkutsk          1129.500
       303   08 Jun 2027 04:30:45.905   08 Jun 2027 04:30:55.998            10.093              Murmansk1          1261.625
       304   08 Jun 2027 04:31:41.925   08 Jun 2027 04:32:06.790            24.865                Norilsk          3108.125
       305   08 Jun 2027 05:05:39.647   08 Jun 2027 05:06:52.653            73.006            RioGallegos          9125.750
       306   08 Jun 2027 05:42:08.669   08 Jun 2027 05:44:21.400           132.731                Sumatra         16591.375
       307   08 Jun 2027 06:02:25.197   08 Jun 2027 06:03:03.183            37.986                Irkutsk          4748.250
       308   08 Jun 2027 06:03:29.124   08 Jun 2027 06:04:50.226            81.102                Irkutsk         10137.750
       309   08 Jun 2027 06:05:08.255   08 Jun 2027 06:06:17.248            68.993                Irkutsk          8624.125
       310   08 Jun 2027 06:06:44.964   08 Jun 2027 06:07:09.549            24.585                Novosib          3073.125
       311   08 Jun 2027 06:42:11.461   08 Jun 2027 06:42:16.488             5.027            RioGallegos           628.375
       312   08 Jun 2027 06:43:27.323   08 Jun 2027 06:44:05.973            38.650            RioGallegos          4831.250
       313   08 Jun 2027 07:16:31.400   08 Jun 2027 07:17:44.213            72.813                Sumatra          9101.625
       314   08 Jun 2027 07:38:19.678   08 Jun 2027 07:38:31.475            11.797                Irkutsk          1474.625
       315   08 Jun 2027 07:39:19.446   08 Jun 2027 07:39:50.828            31.382                Novosib          3922.750
       316   08 Jun 2027 07:39:51.879   08 Jun 2027 07:40:00.056             8.177                 Moscow          1022.125
       317   08 Jun 2027 07:40:08.381   08 Jun 2027 07:40:32.225            23.844              Murmansk1          2980.500
       318   08 Jun 2027 07:40:35.839   08 Jun 2027 07:41:38.777            62.938                 Moscow          7867.250
       319   08 Jun 2027 07:41:55.766   08 Jun 2027 07:43:04.195            68.429                Novosib          8553.625
       320   08 Jun 2027 07:43:18.998   08 Jun 2027 07:43:23.842             4.844                 Moscow           605.500
       321   08 Jun 2027 09:01:14.391   08 Jun 2027 09:03:10.889           116.498                  Delhi         14562.250
       322   08 Jun 2027 09:14:24.377   08 Jun 2027 09:15:25.921            61.544                 Moscow          7693.000
       323   08 Jun 2027 09:15:42.687   08 Jun 2027 09:16:15.632            32.945              Murmansk1          4118.125
       324   08 Jun 2027 09:16:30.958   08 Jun 2027 09:17:40.783            69.825                 Moscow          8728.125
       325   08 Jun 2027 09:17:55.576   08 Jun 2027 09:18:29.864            34.288                Norilsk          4286.000
       326   08 Jun 2027 09:19:20.328   08 Jun 2027 09:19:54.257            33.929              Murmansk1          4241.125
       327   08 Jun 2027 10:52:02.330   08 Jun 2027 10:52:33.404            31.074                 Moscow          3884.250
       328   08 Jun 2027 10:52:34.491   08 Jun 2027 10:53:03.412            28.921              Murmansk2          3615.125
       329   08 Jun 2027 11:05:33.710   08 Jun 2027 11:07:47.868           134.158                Anadyr1         16769.750
       330   08 Jun 2027 12:39:13.399   08 Jun 2027 12:40:04.353            50.954                Anadyr2          6369.250
       331   08 Jun 2027 12:40:04.353   08 Jun 2027 12:41:32.178            87.825                Anadyr1         10978.125
       332   08 Jun 2027 12:43:56.131   08 Jun 2027 12:45:51.414           115.283                Anadyr1         14410.375
       333   08 Jun 2027 14:17:50.204   08 Jun 2027 14:23:37.834           347.630               Magadan1         43453.750
       334   08 Jun 2027 14:23:48.844   08 Jun 2027 14:26:24.511           155.667               Magadan2         19458.375
       335   08 Jun 2027 16:46:18.482   08 Jun 2027 16:49:44.611           206.129            RioGallegos         25766.125
       336   08 Jun 2027 17:31:09.192   08 Jun 2027 17:31:25.004            15.812                Norilsk          1976.500
       337   08 Jun 2027 17:36:12.265   08 Jun 2027 17:39:33.387           201.122                Irkutsk         25140.250
       338   08 Jun 2027 17:47:49.073   08 Jun 2027 17:48:17.568            28.495                Sumatra          3561.875
       339   08 Jun 2027 17:49:22.417   08 Jun 2027 17:53:56.456           274.039                Sumatra         34254.875
       340   08 Jun 2027 19:17:55.717   08 Jun 2027 19:20:17.790           142.073                  Delhi         17759.125
       341   08 Jun 2027 20:45:12.242   08 Jun 2027 20:47:07.288           115.046              Murmansk2         14380.750
       342   08 Jun 2027 22:22:02.579   08 Jun 2027 22:23:07.751            65.172              Murmansk2          8146.500
       343   08 Jun 2027 22:53:07.132   08 Jun 2027 22:53:26.258            19.126               CapeTown          2390.750
       344   09 Jun 2027 04:37:42.788   09 Jun 2027 04:37:48.213             5.425                Irkutsk           678.125
       345   09 Jun 2027 04:38:12.818   09 Jun 2027 04:39:44.244            91.426               Magadan1         11428.250
       346   09 Jun 2027 04:39:58.719   09 Jun 2027 04:40:42.385            43.666                Novosib          5458.250
       347   09 Jun 2027 04:41:14.391   09 Jun 2027 04:41:56.784            42.393               Magadan1          5299.125
       348   09 Jun 2027 04:42:01.323   09 Jun 2027 04:42:40.225            38.902                Norilsk          4862.750
       349   09 Jun 2027 04:42:48.452   09 Jun 2027 04:43:30.437            41.985                Norilsk          5248.125
       350   09 Jun 2027 05:17:33.563   09 Jun 2027 05:18:21.947            48.384            RioGallegos          6048.000
       351   09 Jun 2027 05:53:32.397   09 Jun 2027 05:54:26.785            54.388                Sumatra          6798.500
       352   09 Jun 2027 06:13:36.991   09 Jun 2027 06:13:59.522            22.531                Irkutsk          2816.375
       353   09 Jun 2027 06:14:59.852   09 Jun 2027 06:16:38.343            98.491                Novosib         12311.375
       354   09 Jun 2027 06:16:46.063   09 Jun 2027 06:16:54.365             8.302                Irkutsk          1037.750
       355   09 Jun 2027 06:16:57.539   09 Jun 2027 06:17:23.252            25.713              Murmansk2          3214.125
       356   09 Jun 2027 06:17:24.069   09 Jun 2027 06:17:49.445            25.376                Norilsk          3172.000
       357   09 Jun 2027 06:18:12.860   09 Jun 2027 06:19:21.803            68.943                Norilsk          8617.875
       358   09 Jun 2027 07:28:49.264   09 Jun 2027 07:29:28.463            39.199                Sumatra          4899.875
       359   09 Jun 2027 07:33:14.601   09 Jun 2027 07:33:31.248            16.647                Sumatra          2080.875
       360   09 Jun 2027 07:37:36.576   09 Jun 2027 07:39:01.581            85.005                  Delhi         10625.625
       361   09 Jun 2027 07:51:46.615   09 Jun 2027 07:52:51.721            65.106                 Moscow          8138.250
       362   09 Jun 2027 07:53:08.863   09 Jun 2027 07:54:07.769            58.906                Norilsk          7363.250
       363   09 Jun 2027 07:54:14.718   09 Jun 2027 07:54:44.918            30.200                 Moscow          3775.000
       364   09 Jun 2027 09:13:44.698   09 Jun 2027 09:14:22.521            37.823                  Delhi          4727.875
       365   09 Jun 2027 09:26:12.123   09 Jun 2027 09:26:42.051            29.928              Murmansk2          3741.000
       366   09 Jun 2027 09:26:51.286   09 Jun 2027 09:26:59.227             7.941                Norilsk           992.625
       367   09 Jun 2027 09:27:09.225   09 Jun 2027 09:28:09.190            59.965                Novosib          7495.625
       368   09 Jun 2027 09:28:16.396   09 Jun 2027 09:28:44.512            28.116                Norilsk          3514.500
       369   09 Jun 2027 09:28:48.510   09 Jun 2027 09:28:58.591            10.081                 Moscow          1260.125
       370   09 Jun 2027 09:29:07.985   09 Jun 2027 09:30:00.436            52.451              Murmansk1          6556.375
       371   09 Jun 2027 11:16:41.893   09 Jun 2027 11:21:21.053           279.160                Anadyr2         34895.000
       372   09 Jun 2027 12:56:32.338   09 Jun 2027 12:58:08.416            96.078                Anadyr1         12009.750
       373   09 Jun 2027 14:29:42.302   09 Jun 2027 14:32:33.648           171.346               Magadan1         21418.250
       374   09 Jun 2027 14:33:46.919   09 Jun 2027 14:35:21.240            94.321               Magadan2         11790.125
       375   09 Jun 2027 14:36:34.250   09 Jun 2027 14:38:26.706           112.456               Magadan1         14057.000
       376   09 Jun 2027 16:57:59.033   09 Jun 2027 17:04:17.066           378.033            RioGallegos         47254.125
       377   09 Jun 2027 17:43:01.577   09 Jun 2027 17:44:25.414            83.837                Norilsk         10479.625
       378   09 Jun 2027 18:03:56.531   09 Jun 2027 18:06:12.604           136.073                Sumatra         17009.125
       379   09 Jun 2027 19:29:16.929   09 Jun 2027 19:32:37.519           200.590                  Delhi         25073.750
       380   09 Jun 2027 19:34:45.050   09 Jun 2027 19:35:10.691            25.641                  Delhi          3205.125
       381   09 Jun 2027 20:55:21.541   09 Jun 2027 20:55:53.949            32.408              Murmansk1          4051.000
       382   09 Jun 2027 20:56:40.148   09 Jun 2027 20:59:08.326           148.178              Murmansk2         18522.250
       383   09 Jun 2027 23:04:27.739   09 Jun 2027 23:05:34.386            66.647               CapeTown          8330.875
       384   10 Jun 2027 03:16:47.493   10 Jun 2027 03:17:39.970            52.477                Anadyr1          6559.625
       385   10 Jun 2027 03:17:49.735   10 Jun 2027 03:17:55.219             5.484                Anadyr1           685.500
       386   10 Jun 2027 03:18:22.295   10 Jun 2027 03:19:01.436            39.141                Anadyr1          4892.625
       387   10 Jun 2027 04:50:25.643   10 Jun 2027 04:51:21.801            56.158               Magadan2          7019.750
       388   10 Jun 2027 04:51:44.997   10 Jun 2027 04:52:44.932            59.935               Magadan2          7491.875
       389   10 Jun 2027 04:52:55.200   10 Jun 2027 04:53:15.969            20.769                Novosib          2596.125
       390   10 Jun 2027 04:53:16.560   10 Jun 2027 04:53:20.119             3.559               Magadan1           444.875
       391   10 Jun 2027 04:53:32.016   10 Jun 2027 04:53:32.921             0.905                Novosib           113.125
       392   10 Jun 2027 04:53:34.234   10 Jun 2027 04:53:56.809            22.575               Magadan1          2821.875
       393   10 Jun 2027 04:53:56.809   10 Jun 2027 04:54:28.320            31.511               Magadan2          3938.875
       394   10 Jun 2027 04:55:18.907   10 Jun 2027 04:55:39.477            20.570                Norilsk          2571.250
       395   10 Jun 2027 05:29:30.675   10 Jun 2027 05:29:58.196            27.521            RioGallegos          3440.125
       396   10 Jun 2027 05:31:28.542   10 Jun 2027 05:32:04.292            35.750            RioGallegos          4468.750
       397   10 Jun 2027 05:34:13.349   10 Jun 2027 05:34:57.958            44.609            RioGallegos          5576.125
       398   10 Jun 2027 06:06:47.783   10 Jun 2027 06:06:56.139             8.356                Sumatra          1044.500
       399   10 Jun 2027 06:10:32.111   10 Jun 2027 06:11:10.139            38.028                Sumatra          4753.500
       400   10 Jun 2027 06:19:46.304   10 Jun 2027 06:20:12.883            26.579                  Delhi          3322.375
       401   10 Jun 2027 06:26:26.489   10 Jun 2027 06:27:04.447            37.958                Norilsk          4744.750
       402   10 Jun 2027 06:27:17.535   10 Jun 2027 06:28:13.316            55.781                Irkutsk          6972.625
       403   10 Jun 2027 06:28:37.801   10 Jun 2027 06:29:12.791            34.990                Norilsk          4373.750
       404   10 Jun 2027 06:29:21.006   10 Jun 2027 06:29:39.314            18.308                Irkutsk          2288.500
       405   10 Jun 2027 06:29:44.701   10 Jun 2027 06:30:19.093            34.392              Murmansk2          4299.000
       406   10 Jun 2027 06:30:31.429   10 Jun 2027 06:31:55.380            83.951              Murmansk2         10493.875
       407   10 Jun 2027 07:41:15.285   10 Jun 2027 07:41:18.990             3.705                Sumatra           463.125
       408   10 Jun 2027 07:44:19.513   10 Jun 2027 07:44:48.977            29.464                Sumatra          3683.000
       409   10 Jun 2027 07:48:47.312   10 Jun 2027 07:49:02.533            15.221                  Delhi          1902.625
       410   10 Jun 2027 07:50:47.880   10 Jun 2027 07:51:43.642            55.762                  Delhi          6970.250
       411   10 Jun 2027 08:03:11.610   10 Jun 2027 08:03:41.169            29.559                Norilsk          3694.875
       412   10 Jun 2027 08:03:52.557   10 Jun 2027 08:04:27.737            35.180              Murmansk2          4397.500
       413   10 Jun 2027 08:04:33.471   10 Jun 2027 08:04:41.771             8.300                 Moscow          1037.500
       414   10 Jun 2027 08:04:50.369   10 Jun 2027 08:05:55.314            64.945              Murmansk1          8118.125
       415   10 Jun 2027 08:06:07.319   10 Jun 2027 08:06:43.571            36.252                Norilsk          4531.500
       416   10 Jun 2027 09:26:25.713   10 Jun 2027 09:27:36.645            70.932                  Delhi          8866.500
       417   10 Jun 2027 09:38:28.614   10 Jun 2027 09:39:13.259            44.645                Novosib          5580.625
       418   10 Jun 2027 09:39:14.423   10 Jun 2027 09:40:05.047            50.624                 Moscow          6328.000
       419   10 Jun 2027 09:40:22.289   10 Jun 2027 09:40:47.381            25.092              Murmansk1          3136.500
       420   10 Jun 2027 09:40:50.459   10 Jun 2027 09:41:18.799            28.340                 Moscow          3542.500
       421   10 Jun 2027 09:41:32.154   10 Jun 2027 09:41:54.495            22.341              Murmansk1          2792.625
       422   10 Jun 2027 09:41:54.495   10 Jun 2027 09:42:22.418            27.923              Murmansk2          3490.375
       423   10 Jun 2027 09:42:35.807   10 Jun 2027 09:43:51.459            75.652                 Moscow          9456.500
       424   10 Jun 2027 10:51:33.788   10 Jun 2027 10:52:14.343            40.555               CapeTown          5069.375
       425   10 Jun 2027 11:28:16.703   10 Jun 2027 11:32:05.503           228.800                Anadyr2         28600.000
       426   10 Jun 2027 11:33:55.946   10 Jun 2027 11:34:25.064            29.118                Anadyr2          3639.750
       427   10 Jun 2027 14:41:36.359   10 Jun 2027 14:43:51.662           135.303               Magadan2         16912.875
       428   10 Jun 2027 14:46:32.477   10 Jun 2027 14:48:27.741           115.264               Magadan1         14408.000
       429   10 Jun 2027 14:49:52.864   10 Jun 2027 14:51:07.261            74.397               Magadan1          9299.625
       430   10 Jun 2027 17:12:11.460   10 Jun 2027 17:15:48.409           216.949            RioGallegos         27118.625
       431   10 Jun 2027 17:54:48.854   10 Jun 2027 17:57:06.063           137.209                Norilsk         17151.125
       432   10 Jun 2027 18:00:13.062   10 Jun 2027 18:02:18.752           125.690                Novosib         15711.250
       433   10 Jun 2027 18:17:00.027   10 Jun 2027 18:17:22.125            22.098                Sumatra          2762.250
       434   10 Jun 2027 19:44:13.814   10 Jun 2027 19:47:34.875           201.061                  Delhi         25132.625
       435   10 Jun 2027 21:08:24.988   10 Jun 2027 21:12:48.657           263.669              Murmansk1         32958.625
       436   10 Jun 2027 21:13:00.966   10 Jun 2027 21:15:30.812           149.846                 Moscow         18730.750
       437   11 Jun 2027 03:23:55.898   11 Jun 2027 03:24:18.972            23.074                Irkutsk          2884.250
       438   11 Jun 2027 03:27:48.381   11 Jun 2027 03:28:03.846            15.465               Magadan1          1933.125
       439   11 Jun 2027 03:28:08.416   11 Jun 2027 03:28:40.374            31.958                Anadyr2          3994.750
       440   11 Jun 2027 03:29:13.925   11 Jun 2027 03:29:41.676            27.751               Magadan1          3468.875
       441   11 Jun 2027 05:01:49.980   11 Jun 2027 05:02:06.446            16.466                Irkutsk          2058.250
       442   11 Jun 2027 05:02:14.835   11 Jun 2027 05:03:15.244            60.409               Magadan2          7551.125
       443   11 Jun 2027 05:03:39.648   11 Jun 2027 05:04:15.924            36.276                Norilsk          4534.500
       444   11 Jun 2027 05:04:29.166   11 Jun 2027 05:05:18.525            49.359               Magadan1          6169.875
       445   11 Jun 2027 05:05:18.525   11 Jun 2027 05:05:24.983             6.458               Magadan2           807.250
       446   11 Jun 2027 05:05:27.306   11 Jun 2027 05:05:59.291            31.985               Magadan2          3998.125
       447   11 Jun 2027 05:06:28.866   11 Jun 2027 05:06:47.260            18.394                Irkutsk          2299.250
       448   11 Jun 2027 05:06:51.681   11 Jun 2027 05:07:47.465            55.784                Novosib          6973.000
       449   11 Jun 2027 05:08:32.491   11 Jun 2027 05:08:42.931            10.440              Murmansk1          1305.000
       450   11 Jun 2027 05:10:23.199   11 Jun 2027 05:10:25.162             1.963                Norilsk           245.375
       451   11 Jun 2027 05:11:03.572   11 Jun 2027 05:11:14.137            10.565              Murmansk1          1320.625
       452   11 Jun 2027 05:41:31.031   11 Jun 2027 05:42:23.050            52.019            RioGallegos          6502.375
       453   11 Jun 2027 06:16:47.727   11 Jun 2027 06:18:29.923           102.196                Sumatra         12774.500
       454   11 Jun 2027 06:31:33.585   11 Jun 2027 06:32:11.833            38.248                  Delhi          4781.000
       455   11 Jun 2027 06:38:26.699   11 Jun 2027 06:39:23.310            56.611                Irkutsk          7076.375
       456   11 Jun 2027 06:39:34.454   11 Jun 2027 06:40:20.767            46.313              Murmansk1          5789.125
       457   11 Jun 2027 06:40:48.335   11 Jun 2027 06:41:32.865            44.530                Norilsk          5566.250
       458   11 Jun 2027 06:41:37.166   11 Jun 2027 06:42:05.100            27.934                Norilsk          3491.750
       459   11 Jun 2027 06:42:16.824   11 Jun 2027 06:43:00.157            43.333              Murmansk1          5416.625
       460   11 Jun 2027 07:19:38.864   11 Jun 2027 07:19:49.362            10.498            RioGallegos          1312.250
       461   11 Jun 2027 07:53:52.297   11 Jun 2027 07:53:58.377             6.080                Sumatra           760.000
       462   11 Jun 2027 07:55:05.831   11 Jun 2027 07:56:04.901            59.070                Sumatra          7383.750
       463   11 Jun 2027 08:00:40.413   11 Jun 2027 08:01:35.374            54.961                  Delhi          6870.125
       464   11 Jun 2027 08:15:28.441   11 Jun 2027 08:15:29.913             1.472              Murmansk1           184.000
       465   11 Jun 2027 08:15:29.913   11 Jun 2027 08:15:42.454            12.541              Murmansk2          1567.625
       466   11 Jun 2027 08:15:54.470   11 Jun 2027 08:16:55.921            61.451                Novosib          7681.375
       467   11 Jun 2027 08:17:18.075   11 Jun 2027 08:18:26.083            68.008              Murmansk2          8501.000
       468   11 Jun 2027 08:18:27.091   11 Jun 2027 08:18:34.364             7.273                 Moscow           909.125
       469   11 Jun 2027 08:18:40.848   11 Jun 2027 08:19:01.655            20.807                 Moscow          2600.875
       470   11 Jun 2027 09:39:22.710   11 Jun 2027 09:40:35.285            72.575                  Delhi          9071.875
       471   11 Jun 2027 09:50:27.371   11 Jun 2027 09:50:59.021            31.650                Novosib          3956.250
       472   11 Jun 2027 09:51:02.505   11 Jun 2027 09:51:40.798            38.293                Norilsk          4786.625
       473   11 Jun 2027 09:51:49.102   11 Jun 2027 09:52:02.452            13.350              Murmansk1          1668.750
       474   11 Jun 2027 09:52:14.309   11 Jun 2027 09:53:00.905            46.596                Norilsk          5824.500
       475   11 Jun 2027 09:53:23.164   11 Jun 2027 09:54:45.802            82.638                 Moscow         10329.750
       476   11 Jun 2027 09:54:47.604   11 Jun 2027 09:55:05.565            17.961                Norilsk          2245.125
       477   11 Jun 2027 09:55:16.040   11 Jun 2027 09:55:34.393            18.353              Murmansk1          2294.125
       478   11 Jun 2027 09:58:02.241   11 Jun 2027 09:58:10.658             8.417              Murmansk1          1052.125
       479   11 Jun 2027 11:01:30.366   11 Jun 2027 11:03:52.081           141.715               CapeTown         17714.375
       480   11 Jun 2027 11:40:00.584   11 Jun 2027 11:46:11.499           370.915                Anadyr2         46364.375
       481   11 Jun 2027 13:20:16.418   11 Jun 2027 13:21:47.757            91.339               Magadan1         11417.375
       482   11 Jun 2027 14:53:31.936   11 Jun 2027 14:55:26.575           114.639               Magadan2         14329.875
