uniorb/output/strategy_1/Drop/Drop_KinoSat_111003.txt

KinoSat_111003
-------------------------
    Access    *     Start Time (UTCG)     *     Stop Time (UTCG)  *   Duration (s)        *       Station  *  Data (Mbytes)
         1   01 Jun 2027 03:47:44.407   01 Jun 2027 03:47:58.744            14.337                Anadyr1           448.031
         2   01 Jun 2027 03:48:11.890   01 Jun 2027 03:48:20.640             8.750                Anadyr1           273.438
         3   01 Jun 2027 03:48:22.821   01 Jun 2027 03:48:36.093            13.272               Magadan1           414.750
         4   01 Jun 2027 03:48:57.009   01 Jun 2027 03:49:10.474            13.465               Magadan2           420.781
         5   01 Jun 2027 03:49:20.654   01 Jun 2027 03:49:48.915            28.261                Anadyr1           883.156
         6   01 Jun 2027 03:50:05.662   01 Jun 2027 03:51:08.349            62.687                Anadyr1          1958.969
         7   01 Jun 2027 03:51:08.349   01 Jun 2027 03:51:24.088            15.739                Anadyr2           491.844
         8   01 Jun 2027 03:51:30.541   01 Jun 2027 03:52:09.983            39.442               Magadan2          1232.563
         9   01 Jun 2027 03:52:09.983   01 Jun 2027 03:52:22.944            12.961               Magadan1           405.031
        10   01 Jun 2027 05:24:39.625   01 Jun 2027 05:24:59.593            19.968               Magadan1           624.000
        11   01 Jun 2027 05:24:59.593   01 Jun 2027 05:25:03.559             3.966               Magadan2           123.938
        12   01 Jun 2027 05:25:04.813   01 Jun 2027 05:25:32.079            27.266                Norilsk           852.063
        13   01 Jun 2027 05:25:39.051   01 Jun 2027 05:28:58.808           199.757               Magadan1          6242.406
        14   01 Jun 2027 06:58:09.054   01 Jun 2027 06:58:38.138            29.084                Norilsk           908.875
        15   01 Jun 2027 06:58:47.529   01 Jun 2027 07:01:50.051           182.522               Magadan2          5703.813
        16   01 Jun 2027 07:01:54.020   01 Jun 2027 07:02:46.881            52.861                Norilsk          1651.906
        17   01 Jun 2027 07:02:57.300   01 Jun 2027 07:04:37.057            99.757               Magadan2          3117.406
        18   01 Jun 2027 07:04:37.219   01 Jun 2027 07:04:56.963            19.744              Murmansk1           617.000
        19   01 Jun 2027 07:07:55.211   01 Jun 2027 07:07:59.987             4.776              Murmansk1           149.250
        20   01 Jun 2027 07:09:46.135   01 Jun 2027 07:10:13.551            27.416              Murmansk2           856.750
        21   01 Jun 2027 07:39:36.586   01 Jun 2027 07:42:35.277           178.691            RioGallegos          5584.094
        22   01 Jun 2027 08:16:16.833   01 Jun 2027 08:17:02.414            45.581                Sumatra          1424.406
        23   01 Jun 2027 08:35:27.606   01 Jun 2027 08:35:42.469            14.863                Norilsk           464.469
        24   01 Jun 2027 08:36:02.783   01 Jun 2027 08:38:32.669           149.886                Norilsk          4683.937
        25   01 Jun 2027 08:38:44.374   01 Jun 2027 08:40:08.273            83.899                Norilsk          2621.844
        26   01 Jun 2027 08:40:31.872   01 Jun 2027 08:40:41.265             9.393                Irkutsk           293.531
        27   01 Jun 2027 08:40:41.885   01 Jun 2027 08:42:03.155            81.270                Novosib          2539.687
        28   01 Jun 2027 08:42:27.127   01 Jun 2027 08:42:37.928            10.801              Murmansk1           337.531
        29   01 Jun 2027 08:43:03.833   01 Jun 2027 08:44:28.014            84.181                Norilsk          2630.656
        30   01 Jun 2027 09:15:59.298   01 Jun 2027 09:20:25.074           265.776            RioGallegos          8305.500
        31   01 Jun 2027 09:20:47.752   01 Jun 2027 09:21:06.263            18.511            RioGallegos           578.469
        32   01 Jun 2027 09:50:21.617   01 Jun 2027 09:51:34.482            72.865                Sumatra          2277.031
        33   01 Jun 2027 09:59:18.965   01 Jun 2027 10:01:10.688           111.723                  Delhi          3491.344
        34   01 Jun 2027 10:12:12.191   01 Jun 2027 10:12:29.639            17.448                Novosib           545.250
        35   01 Jun 2027 10:12:34.063   01 Jun 2027 10:12:42.253             8.190                Norilsk           255.937
        36   01 Jun 2027 10:12:42.525   01 Jun 2027 10:13:37.556            55.031                 Moscow          1719.719
        37   01 Jun 2027 10:13:39.214   01 Jun 2027 10:14:28.889            49.675                Irkutsk          1552.344
        38   01 Jun 2027 10:14:39.412   01 Jun 2027 10:15:13.178            33.766                Irkutsk          1055.188
        39   01 Jun 2027 10:15:21.904   01 Jun 2027 10:15:30.786             8.882                Irkutsk           277.562
        40   01 Jun 2027 10:15:44.993   01 Jun 2027 10:17:58.374           133.381                 Moscow          4168.156
        41   01 Jun 2027 10:18:26.804   01 Jun 2027 10:18:52.428            25.624              Murmansk2           800.750
        42   01 Jun 2027 11:35:00.993   01 Jun 2027 11:38:12.781           191.788                  Delhi          5993.375
        43   01 Jun 2027 11:49:21.555   01 Jun 2027 11:52:15.582           174.027                Novosib          5438.344
        44   01 Jun 2027 11:52:21.694   01 Jun 2027 11:52:57.968            36.274                Norilsk          1133.563
        45   01 Jun 2027 13:18:49.839   01 Jun 2027 13:20:49.606           119.767                 Moscow          3742.719
        46   01 Jun 2027 13:22:21.050   01 Jun 2027 13:25:20.854           179.804              Murmansk1          5618.875
        47   01 Jun 2027 13:25:20.854   01 Jun 2027 13:26:37.373            76.519              Murmansk2          2391.219
        48   01 Jun 2027 13:28:52.176   01 Jun 2027 13:29:22.763            30.587                Norilsk           955.844
        49   01 Jun 2027 13:29:54.812   01 Jun 2027 13:31:32.835            98.023                Norilsk          3063.219
        50   01 Jun 2027 13:34:45.017   01 Jun 2027 13:35:06.961            21.944              Murmansk1           685.750
        51   01 Jun 2027 13:40:14.544   01 Jun 2027 13:40:42.041            27.497                Anadyr2           859.281
        52   01 Jun 2027 14:32:45.173   01 Jun 2027 14:34:47.201           122.028               CapeTown          3813.375
        53   01 Jun 2027 14:35:13.480   01 Jun 2027 14:36:20.591            67.111               CapeTown          2097.219
        54   01 Jun 2027 14:40:29.070   01 Jun 2027 14:41:30.714            61.644               CapeTown          1926.375
        55   01 Jun 2027 14:43:49.504   01 Jun 2027 14:44:39.278            49.774               CapeTown          1555.438
        56   01 Jun 2027 15:01:32.948   01 Jun 2027 15:01:54.139            21.191              Murmansk2           662.219
        57   01 Jun 2027 15:03:18.120   01 Jun 2027 15:03:59.160            41.040                 Moscow          1282.500
        58   01 Jun 2027 15:04:09.273   01 Jun 2027 15:04:59.032            49.759              Murmansk1          1554.969
        59   01 Jun 2027 15:05:36.291   01 Jun 2027 15:05:50.413            14.122                 Moscow           441.313
        60   01 Jun 2027 15:06:33.835   01 Jun 2027 15:07:14.467            40.632              Murmansk2          1269.750
        61   01 Jun 2027 15:07:27.520   01 Jun 2027 15:07:54.641            27.121              Murmansk2           847.531
        62   01 Jun 2027 15:09:11.100   01 Jun 2027 15:09:48.445            37.345              Murmansk1          1167.031
        63   01 Jun 2027 15:10:02.954   01 Jun 2027 15:10:23.644            20.690              Murmansk2           646.563
        64   01 Jun 2027 15:13:08.133   01 Jun 2027 15:14:40.812            92.679                Anadyr2          2896.219
        65   01 Jun 2027 15:16:38.787   01 Jun 2027 15:17:16.254            37.467                Anadyr2          1170.844
        66   01 Jun 2027 15:17:58.244   01 Jun 2027 15:18:34.974            36.730                Anadyr2          1147.812
        67   01 Jun 2027 15:18:34.974   01 Jun 2027 15:18:41.139             6.165                Anadyr1           192.656
        68   01 Jun 2027 15:18:52.672   01 Jun 2027 15:19:51.738            59.066                Anadyr1          1845.812
        69   01 Jun 2027 15:20:25.448   01 Jun 2027 15:21:00.354            34.906                Anadyr1          1090.812
        70   01 Jun 2027 15:21:43.811   01 Jun 2027 15:22:40.717            56.906                Anadyr1          1778.313
        71   01 Jun 2027 15:23:12.246   01 Jun 2027 15:23:14.077             1.831                Anadyr1            57.219
        72   01 Jun 2027 15:23:30.432   01 Jun 2027 15:23:47.037            16.605                Anadyr1           518.906
        73   01 Jun 2027 16:40:03.167   01 Jun 2027 16:40:29.276            26.109              Murmansk1           815.906
        74   01 Jun 2027 16:41:22.649   01 Jun 2027 16:41:36.177            13.528              Murmansk2           422.750
        75   01 Jun 2027 16:41:36.177   01 Jun 2027 16:42:12.813            36.636              Murmansk1          1144.875
        76   01 Jun 2027 16:42:58.310   01 Jun 2027 16:43:28.711            30.401              Murmansk1           950.031
        77   01 Jun 2027 16:44:29.616   01 Jun 2027 16:45:06.461            36.845              Murmansk2          1151.406
        78   01 Jun 2027 16:45:28.468   01 Jun 2027 16:46:17.487            49.019              Murmansk2          1531.844
        79   01 Jun 2027 16:50:32.584   01 Jun 2027 16:51:29.804            57.220                Anadyr1          1788.125
        80   01 Jun 2027 16:51:46.934   01 Jun 2027 16:53:48.263           121.329               Magadan1          3791.531
        81   01 Jun 2027 16:56:45.444   01 Jun 2027 16:57:24.340            38.896               Magadan2          1215.500
        82   01 Jun 2027 16:57:50.344   01 Jun 2027 16:57:53.080             2.736               Magadan2            85.500
        83   01 Jun 2027 16:58:34.678   01 Jun 2027 16:58:55.919            21.241                Anadyr1           663.781
        84   01 Jun 2027 16:59:29.306   01 Jun 2027 17:00:07.923            38.617               Magadan2          1206.781
        85   01 Jun 2027 17:01:14.456   01 Jun 2027 17:01:25.055            10.599               Magadan2           331.219
        86   01 Jun 2027 18:24:45.944   01 Jun 2027 18:26:36.519           110.575                Anadyr2          3455.469
        87   01 Jun 2027 18:27:03.797   01 Jun 2027 18:29:43.945           160.148               Magadan1          5004.625
        88   01 Jun 2027 18:30:57.325   01 Jun 2027 18:31:37.556            40.231               Magadan1          1257.219
        89   01 Jun 2027 18:33:20.855   01 Jun 2027 18:33:33.675            12.820               Magadan2           400.625
        90   01 Jun 2027 18:33:52.743   01 Jun 2027 18:34:21.349            28.606                Anadyr1           893.937
        91   01 Jun 2027 18:35:12.476   01 Jun 2027 18:35:30.933            18.457               Magadan1           576.781
        92   01 Jun 2027 18:35:30.933   01 Jun 2027 18:35:39.486             8.553               Magadan2           267.281
        93   01 Jun 2027 18:36:05.590   01 Jun 2027 18:36:38.483            32.893               Magadan2          1027.906
        94   01 Jun 2027 18:38:14.515   01 Jun 2027 18:38:34.338            19.823               Magadan1           619.469
        95   01 Jun 2027 18:39:31.708   01 Jun 2027 18:39:49.316            17.608               Magadan1           550.250
        96   01 Jun 2027 19:20:21.779   01 Jun 2027 19:23:20.060           178.281            RioGallegos          5571.281
        97   01 Jun 2027 19:25:02.805   01 Jun 2027 19:25:29.512            26.707            RioGallegos           834.594
        98   01 Jun 2027 19:25:53.687   01 Jun 2027 19:26:54.760            61.073            RioGallegos          1908.531
        99   01 Jun 2027 20:03:55.229   01 Jun 2027 20:05:15.012            79.783                Norilsk          2493.219
       100   01 Jun 2027 20:05:31.571   01 Jun 2027 20:06:36.052            64.481                Norilsk          2015.031
       101   01 Jun 2027 20:08:19.497   01 Jun 2027 20:09:08.269            48.772                Irkutsk          1524.125
       102   01 Jun 2027 20:10:29.117   01 Jun 2027 20:11:05.844            36.727                Irkutsk          1147.719
       103   01 Jun 2027 20:13:25.419   01 Jun 2027 20:13:43.963            18.544                Irkutsk           579.500
       104   01 Jun 2027 20:16:38.823   01 Jun 2027 20:17:07.597            28.774                Irkutsk           899.188
       105   01 Jun 2027 20:21:55.126   01 Jun 2027 20:23:08.403            73.277                Sumatra          2289.906
       106   01 Jun 2027 20:24:39.703   01 Jun 2027 20:27:04.627           144.924                Sumatra          4528.875
       107   01 Jun 2027 20:31:01.556   01 Jun 2027 20:31:30.180            28.624                Sumatra           894.500
       108   01 Jun 2027 21:40:51.649   01 Jun 2027 21:41:45.037            53.388               Magadan1          1668.375
       109   01 Jun 2027 21:42:56.101   01 Jun 2027 21:43:36.745            40.644                Novosib          1270.125
       110   01 Jun 2027 21:46:23.037   01 Jun 2027 21:46:39.029            15.992                Irkutsk           499.750
       111   01 Jun 2027 21:46:52.414   01 Jun 2027 21:48:09.369            76.955                Novosib          2404.844
       112   01 Jun 2027 21:52:05.039   01 Jun 2027 21:54:33.468           148.429                  Delhi          4638.406
       113   01 Jun 2027 21:59:25.148   01 Jun 2027 21:59:48.741            23.593                  Delhi           737.281
       114   01 Jun 2027 23:10:52.440   01 Jun 2027 23:10:53.249             0.809                Anadyr2            25.281
       115   01 Jun 2027 23:11:51.299   01 Jun 2027 23:12:07.454            16.155                Anadyr2           504.844
       116   01 Jun 2027 23:12:26.744   01 Jun 2027 23:12:38.436            11.692                Anadyr1           365.375
       117   01 Jun 2027 23:13:10.678   01 Jun 2027 23:14:17.796            67.118                Anadyr1          2097.437
       118   01 Jun 2027 23:14:31.064   01 Jun 2027 23:14:40.098             9.034                Norilsk           282.313
       119   01 Jun 2027 23:15:01.195   01 Jun 2027 23:15:40.814            39.619               Magadan2          1238.094
       120   01 Jun 2027 23:16:16.126   01 Jun 2027 23:16:28.842            12.716               Magadan2           397.375
       121   01 Jun 2027 23:16:57.326   01 Jun 2027 23:17:36.454            39.128               Magadan2          1222.750
       122   01 Jun 2027 23:18:05.130   01 Jun 2027 23:19:25.077            79.947              Murmansk2          2498.344
       123   01 Jun 2027 23:19:44.994   01 Jun 2027 23:20:17.041            32.047                Novosib          1001.469
       124   01 Jun 2027 23:20:29.957   01 Jun 2027 23:21:03.740            33.783              Murmansk1          1055.719
       125   01 Jun 2027 23:21:28.542   01 Jun 2027 23:22:51.957            83.415              Murmansk2          2606.719
       126   01 Jun 2027 23:30:38.451   01 Jun 2027 23:31:23.287            44.836                  Delhi          1401.125
       127   01 Jun 2027 23:36:49.422   01 Jun 2027 23:37:22.890            33.468                  Delhi          1045.875
       128   02 Jun 2027 00:42:58.938   02 Jun 2027 00:43:24.318            25.380                Anadyr1           793.125
       129   02 Jun 2027 00:43:44.130   02 Jun 2027 00:44:07.188            23.058                Anadyr2           720.563
       130   02 Jun 2027 00:44:55.404   02 Jun 2027 00:45:38.673            43.269                Anadyr1          1352.156
       131   02 Jun 2027 00:45:45.465   02 Jun 2027 00:46:10.515            25.050                Anadyr2           782.812
       132   02 Jun 2027 00:48:00.022   02 Jun 2027 00:48:25.964            25.942                Anadyr2           810.687
       133   02 Jun 2027 00:48:51.896   02 Jun 2027 00:50:57.174           125.278               Magadan2          3914.937
       134   02 Jun 2027 00:51:25.292   02 Jun 2027 00:52:36.322            71.030               Magadan2          2219.687
       135   02 Jun 2027 00:52:40.585   02 Jun 2027 00:52:54.022            13.437              Murmansk1           419.906
       136   02 Jun 2027 00:52:54.022   02 Jun 2027 00:53:21.781            27.759              Murmansk2           867.469
       137   02 Jun 2027 00:53:37.702   02 Jun 2027 00:53:53.564            15.862              Murmansk2           495.688
       138   02 Jun 2027 00:54:28.676   02 Jun 2027 00:55:20.779            52.103              Murmansk2          1628.219
       139   02 Jun 2027 00:58:55.684   02 Jun 2027 00:59:50.328            54.644                 Moscow          1707.625
       140   02 Jun 2027 01:07:25.161   02 Jun 2027 01:07:29.334             4.173                 Moscow           130.406
       141   02 Jun 2027 01:08:54.564   02 Jun 2027 01:09:20.773            26.209                  Delhi           819.031
       142   02 Jun 2027 01:21:54.249   02 Jun 2027 01:22:27.809            33.560               CapeTown          1048.750
       143   02 Jun 2027 01:25:38.915   02 Jun 2027 01:26:20.312            41.397               CapeTown          1293.656
       144   02 Jun 2027 01:31:00.037   02 Jun 2027 01:31:02.865             2.828               CapeTown            88.375
       145   02 Jun 2027 02:16:57.330   02 Jun 2027 02:19:14.916           137.586                Anadyr1          4299.562
       146   02 Jun 2027 02:20:29.645   02 Jun 2027 02:20:50.539            20.894               Magadan2           652.938
       147   02 Jun 2027 02:21:07.975   02 Jun 2027 02:21:18.804            10.829               Magadan2           338.406
       148   02 Jun 2027 02:21:45.565   02 Jun 2027 02:22:06.349            20.784               Magadan1           649.500
       149   02 Jun 2027 02:22:06.349   02 Jun 2027 02:22:32.913            26.564               Magadan2           830.125
       150   02 Jun 2027 02:25:23.682   02 Jun 2027 02:25:50.683            27.001               Magadan2           843.781
       151   02 Jun 2027 02:26:33.002   02 Jun 2027 02:27:15.294            42.292                Norilsk          1321.625
       152   02 Jun 2027 02:28:36.895   02 Jun 2027 02:28:47.100            10.205              Murmansk1           318.906
       153   02 Jun 2027 02:28:51.262   02 Jun 2027 02:28:58.757             7.495              Murmansk2           234.219
       154   02 Jun 2027 02:29:26.527   02 Jun 2027 02:30:16.247            49.720              Murmansk2          1553.750
       155   02 Jun 2027 02:31:18.261   02 Jun 2027 02:31:22.481             4.220                Novosib           131.875
       156   02 Jun 2027 02:31:50.406   02 Jun 2027 02:32:23.060            32.654                Novosib          1020.438
       157   02 Jun 2027 02:36:15.353   02 Jun 2027 02:36:26.086            10.733                Novosib           335.406
       158   02 Jun 2027 02:37:58.321   02 Jun 2027 02:38:12.016            13.695              Murmansk1           427.969
       159   02 Jun 2027 02:39:16.828   02 Jun 2027 02:39:41.951            25.123                 Moscow           785.094
       160   02 Jun 2027 02:41:53.558   02 Jun 2027 02:41:56.855             3.297                 Moscow           103.031
       161   02 Jun 2027 02:42:14.225   02 Jun 2027 02:43:19.386            65.161                 Moscow          2036.281
       162   02 Jun 2027 03:05:26.825   02 Jun 2027 03:05:40.553            13.728               CapeTown           429.000
       163   02 Jun 2027 03:06:17.371   02 Jun 2027 03:06:51.130            33.759               CapeTown          1054.969
       164   02 Jun 2027 03:58:47.912   02 Jun 2027 03:59:04.207            16.295               Magadan2           509.219
       165   02 Jun 2027 03:59:15.369   02 Jun 2027 03:59:40.253            24.884                Anadyr2           777.625
       166   02 Jun 2027 03:59:42.296   02 Jun 2027 04:00:14.352            32.056               Magadan2          1001.750
       167   02 Jun 2027 04:00:14.352   02 Jun 2027 04:03:32.505           198.153               Magadan1          6192.281
       168   02 Jun 2027 04:03:32.505   02 Jun 2027 04:04:25.328            52.823               Magadan2          1650.719
       169   02 Jun 2027 04:04:25.328   02 Jun 2027 04:04:40.333            15.005               Magadan1           468.906
       170   02 Jun 2027 05:36:55.950   02 Jun 2027 05:37:56.794            60.844               Magadan1          1901.375
       171   02 Jun 2027 05:37:56.794   02 Jun 2027 05:38:59.562            62.768               Magadan2          1961.500
       172   02 Jun 2027 05:38:59.562   02 Jun 2027 05:39:06.433             6.871               Magadan1           214.719
       173   02 Jun 2027 05:39:21.012   02 Jun 2027 05:39:35.209            14.197                Anadyr2           443.656
       174   02 Jun 2027 05:39:43.553   02 Jun 2027 05:40:20.418            36.865                Anadyr1          1152.031
       175   02 Jun 2027 07:11:00.670   02 Jun 2027 07:12:38.483            97.813                Irkutsk          3056.656
       176   02 Jun 2027 07:13:03.206   02 Jun 2027 07:14:59.936           116.730                Novosib          3647.813
       177   02 Jun 2027 07:15:14.092   02 Jun 2027 07:16:22.370            68.278               Magadan2          2133.688
       178   02 Jun 2027 07:16:26.399   02 Jun 2027 07:16:39.380            12.981              Murmansk1           405.656
       179   02 Jun 2027 07:18:05.904   02 Jun 2027 07:18:37.608            31.704              Murmansk1           990.750
       180   02 Jun 2027 07:51:29.552   02 Jun 2027 07:53:22.052           112.500            RioGallegos          3515.625
       181   02 Jun 2027 08:27:36.709   02 Jun 2027 08:29:16.029            99.320                Sumatra          3103.750
       182   02 Jun 2027 08:48:01.515   02 Jun 2027 08:48:20.196            18.681                Irkutsk           583.781
       183   02 Jun 2027 08:48:25.321   02 Jun 2027 08:48:29.667             4.346                Norilsk           135.813
       184   02 Jun 2027 08:48:34.024   02 Jun 2027 08:50:49.174           135.150                Novosib          4223.437
       185   02 Jun 2027 08:50:53.894   02 Jun 2027 08:53:11.285           137.391              Murmansk2          4293.469
       186   02 Jun 2027 08:53:11.285   02 Jun 2027 08:53:28.940            17.655              Murmansk1           551.719
       187   02 Jun 2027 08:53:42.428   02 Jun 2027 08:54:07.561            25.133                Novosib           785.406
       188   02 Jun 2027 09:29:03.281   02 Jun 2027 09:29:13.186             9.905            RioGallegos           309.531
       189   02 Jun 2027 09:33:16.485   02 Jun 2027 09:33:28.840            12.355            RioGallegos           386.094
       190   02 Jun 2027 10:02:37.421   02 Jun 2027 10:04:08.596            91.175                Sumatra          2849.219
       191   02 Jun 2027 10:12:06.012   02 Jun 2027 10:13:25.206            79.194                  Delhi          2474.813
       192   02 Jun 2027 10:25:26.883   02 Jun 2027 10:27:42.078           135.195                Irkutsk          4224.844
       193   02 Jun 2027 10:27:52.978   02 Jun 2027 10:28:03.468            10.490                Norilsk           327.813
       194   02 Jun 2027 10:28:04.966   02 Jun 2027 10:28:11.809             6.843              Murmansk1           213.844
       195   02 Jun 2027 10:28:17.228   02 Jun 2027 10:28:26.154             8.926                Norilsk           278.938
       196   02 Jun 2027 10:30:14.880   02 Jun 2027 10:30:22.684             7.804              Murmansk1           243.875
       197   02 Jun 2027 10:30:22.684   02 Jun 2027 10:30:44.402            21.718              Murmansk2           678.688
       198   02 Jun 2027 10:32:03.894   02 Jun 2027 10:32:33.609            29.715              Murmansk2           928.594
       199   02 Jun 2027 11:47:28.655   02 Jun 2027 11:52:28.515           299.860                  Delhi          9370.625
       200   02 Jun 2027 12:03:39.069   02 Jun 2027 12:04:58.420            79.351                 Moscow          2479.719
       201   02 Jun 2027 12:06:43.923   02 Jun 2027 12:07:20.142            36.219                 Moscow          1131.844
       202   02 Jun 2027 12:10:46.099   02 Jun 2027 12:11:16.462            30.363              Murmansk2           948.844
       203   02 Jun 2027 13:41:43.855   02 Jun 2027 13:41:48.541             4.686                 Moscow           146.437
       204   02 Jun 2027 13:43:37.445   02 Jun 2027 13:43:39.378             1.933                 Moscow            60.406
       205   02 Jun 2027 13:45:14.991   02 Jun 2027 13:45:41.250            26.259              Murmansk2           820.594
       206   02 Jun 2027 13:45:52.898   02 Jun 2027 13:47:13.277            80.379              Murmansk2          2511.844
       207   02 Jun 2027 13:52:53.694   02 Jun 2027 13:54:53.241           119.547                Anadyr1          3735.844
       208   02 Jun 2027 14:52:09.170   02 Jun 2027 14:54:03.383           114.213               CapeTown          3569.156
       209   02 Jun 2027 14:55:08.867   02 Jun 2027 14:56:55.530           106.663               CapeTown          3333.219
       210   02 Jun 2027 15:17:55.385   02 Jun 2027 15:18:27.017            31.632                 Moscow           988.500
       211   02 Jun 2027 15:21:12.993   02 Jun 2027 15:23:08.677           115.684              Murmansk1          3615.125
       212   02 Jun 2027 15:30:19.559   02 Jun 2027 15:30:41.663            22.104                Anadyr1           690.750
       213   02 Jun 2027 15:30:48.956   02 Jun 2027 15:30:51.408             2.452                Anadyr1            76.625
       214   02 Jun 2027 15:30:53.956   02 Jun 2027 15:35:13.723           259.767                Anadyr1          8117.719
       215   02 Jun 2027 15:35:13.723   02 Jun 2027 15:35:26.508            12.785                Anadyr2           399.531
       216   02 Jun 2027 15:35:56.630   02 Jun 2027 15:36:12.457            15.827                Anadyr2           494.594
       217   02 Jun 2027 16:55:30.666   02 Jun 2027 16:56:46.865            76.199              Murmansk1          2381.219
       218   02 Jun 2027 16:57:30.629   02 Jun 2027 16:58:24.005            53.376              Murmansk1          1668.000
       219   02 Jun 2027 17:07:20.587   02 Jun 2027 17:08:02.048            41.461               Magadan2          1295.656
       220   02 Jun 2027 17:08:34.727   02 Jun 2027 17:08:55.761            21.034                Anadyr1           657.313
       221   02 Jun 2027 17:08:59.158   02 Jun 2027 17:09:10.593            11.435               Magadan2           357.344
       222   02 Jun 2027 17:09:25.691   02 Jun 2027 17:11:16.222           110.531               Magadan1          3454.094
       223   02 Jun 2027 17:12:19.216   02 Jun 2027 17:13:06.202            46.986                Anadyr1          1468.313
       224   02 Jun 2027 18:36:47.084   02 Jun 2027 18:37:07.815            20.731                Anadyr1           647.844
       225   02 Jun 2027 18:37:42.304   02 Jun 2027 18:38:38.056            55.752                Anadyr2          1742.250
       226   02 Jun 2027 18:39:40.139   02 Jun 2027 18:39:55.009            14.870                Anadyr1           464.688
       227   02 Jun 2027 18:39:55.009   02 Jun 2027 18:40:27.388            32.379                Anadyr2          1011.844
       228   02 Jun 2027 18:40:43.924   02 Jun 2027 18:41:00.334            16.410               Magadan1           512.813
       229   02 Jun 2027 18:41:16.596   02 Jun 2027 18:41:50.879            34.283                Anadyr2          1071.344
       230   02 Jun 2027 18:42:48.638   02 Jun 2027 18:43:08.244            19.606                Anadyr2           612.687
       231   02 Jun 2027 18:43:28.512   02 Jun 2027 18:43:39.820            11.308                Anadyr1           353.375
       232   02 Jun 2027 18:43:44.129   02 Jun 2027 18:43:54.728            10.599                Anadyr1           331.219
       233   02 Jun 2027 18:44:26.036   02 Jun 2027 18:44:45.533            19.497                Anadyr1           609.281
       234   02 Jun 2027 18:44:54.035   02 Jun 2027 18:45:19.104            25.069               Magadan2           783.406
       235   02 Jun 2027 18:46:07.934   02 Jun 2027 18:46:36.802            28.868               Magadan2           902.125
       236   02 Jun 2027 18:47:02.442   02 Jun 2027 18:47:09.625             7.183                Anadyr1           224.469
       237   02 Jun 2027 18:47:40.837   02 Jun 2027 18:48:30.242            49.405               Magadan2          1543.906
       238   02 Jun 2027 18:48:40.204   02 Jun 2027 18:48:48.129             7.925                Anadyr1           247.656
       239   02 Jun 2027 18:49:35.412   02 Jun 2027 18:50:13.991            38.579               Magadan2          1205.594
       240   02 Jun 2027 18:50:36.976   02 Jun 2027 18:51:09.106            32.130               Magadan2          1004.063
       241   02 Jun 2027 19:35:02.181   02 Jun 2027 19:36:21.388            79.207            RioGallegos          2475.219
       242   02 Jun 2027 19:37:09.379   02 Jun 2027 19:38:16.137            66.758            RioGallegos          2086.187
       243   02 Jun 2027 20:14:40.884   02 Jun 2027 20:15:54.337            73.453                Norilsk          2295.406
       244   02 Jun 2027 20:17:16.683   02 Jun 2027 20:18:15.328            58.645                Norilsk          1832.656
       245   02 Jun 2027 20:19:28.099   02 Jun 2027 20:19:36.867             8.768                Norilsk           274.000
       246   02 Jun 2027 20:19:55.235   02 Jun 2027 20:20:24.163            28.928                Irkutsk           904.000
       247   02 Jun 2027 20:21:08.502   02 Jun 2027 20:21:32.866            24.364                Irkutsk           761.375
       248   02 Jun 2027 20:22:54.287   02 Jun 2027 20:24:06.176            71.889                Irkutsk          2246.531
       249   02 Jun 2027 20:24:53.473   02 Jun 2027 20:25:13.967            20.494                Irkutsk           640.438
       250   02 Jun 2027 20:25:28.214   02 Jun 2027 20:26:12.083            43.869                Irkutsk          1370.906
       251   02 Jun 2027 20:28:00.546   02 Jun 2027 20:28:51.073            50.527                Irkutsk          1578.969
       252   02 Jun 2027 20:37:35.230   02 Jun 2027 20:38:48.646            73.416                Sumatra          2294.250
       253   02 Jun 2027 20:40:05.608   02 Jun 2027 20:40:13.917             8.309                Sumatra           259.656
       254   02 Jun 2027 20:41:39.223   02 Jun 2027 20:42:35.263            56.040                Sumatra          1751.250
       255   02 Jun 2027 21:51:46.144   02 Jun 2027 21:52:11.050            24.906                Norilsk           778.312
       256   02 Jun 2027 21:52:56.759   02 Jun 2027 21:53:15.401            18.642                Norilsk           582.562
       257   02 Jun 2027 21:53:45.860   02 Jun 2027 21:54:10.766            24.906               Magadan1           778.313
       258   02 Jun 2027 21:54:48.294   02 Jun 2027 21:55:01.112            12.818                Novosib           400.562
       259   02 Jun 2027 21:55:08.726   02 Jun 2027 21:55:26.301            17.575               Magadan2           549.219
       260   02 Jun 2027 21:55:39.580   02 Jun 2027 21:56:01.609            22.029                Irkutsk           688.406
       261   02 Jun 2027 21:56:08.059   02 Jun 2027 21:56:20.088            12.029                Novosib           375.906
       262   02 Jun 2027 21:57:42.645   02 Jun 2027 21:58:25.809            43.164                Irkutsk          1348.875
       263   02 Jun 2027 22:00:08.735   02 Jun 2027 22:00:44.242            35.507                Norilsk          1109.594
       264   02 Jun 2027 22:00:52.214   02 Jun 2027 22:01:01.464             9.250                Novosib           289.063
       265   02 Jun 2027 22:01:42.045   02 Jun 2027 22:02:28.970            46.925                Novosib          1466.406
       266   02 Jun 2027 22:03:21.498   02 Jun 2027 22:04:24.022            62.524                  Delhi          1953.875
       267   02 Jun 2027 22:08:10.651   02 Jun 2027 22:09:50.495            99.844                  Delhi          3120.125
       268   02 Jun 2027 23:21:48.541   02 Jun 2027 23:22:50.658            62.117                Anadyr2          1941.156
       269   02 Jun 2027 23:26:06.799   02 Jun 2027 23:26:47.328            40.529                Anadyr1          1266.531
       270   02 Jun 2027 23:26:58.295   02 Jun 2027 23:27:33.300            35.005               Magadan2          1093.906
       271   02 Jun 2027 23:27:58.668   02 Jun 2027 23:28:07.449             8.781               Magadan1           274.406
       272   02 Jun 2027 23:28:07.449   02 Jun 2027 23:29:10.179            62.730               Magadan2          1960.312
       273   02 Jun 2027 23:30:05.061   02 Jun 2027 23:32:53.922           168.861              Murmansk1          5276.906
       274   02 Jun 2027 23:34:52.725   02 Jun 2027 23:35:08.731            16.006              Murmansk2           500.187
       275   02 Jun 2027 23:35:42.894   02 Jun 2027 23:36:18.394            35.500              Murmansk1          1109.375
       276   02 Jun 2027 23:45:06.306   02 Jun 2027 23:45:58.428            52.122                  Delhi          1628.813
       277   03 Jun 2027 00:54:41.837   03 Jun 2027 00:55:36.287            54.450                Anadyr1          1701.563
       278   03 Jun 2027 00:55:36.287   03 Jun 2027 00:56:05.672            29.385                Anadyr2           918.281
       279   03 Jun 2027 00:57:14.485   03 Jun 2027 00:57:26.688            12.203                Anadyr2           381.344
       280   03 Jun 2027 00:57:43.183   03 Jun 2027 00:57:55.476            12.293                Anadyr1           384.156
       281   03 Jun 2027 00:59:35.928   03 Jun 2027 00:59:59.772            23.844                Anadyr1           745.125
       282   03 Jun 2027 01:00:22.253   03 Jun 2027 01:01:28.660            66.407               Magadan2          2075.219
       283   03 Jun 2027 01:01:28.660   03 Jun 2027 01:01:44.406            15.746               Magadan1           492.062
       284   03 Jun 2027 01:01:47.442   03 Jun 2027 01:01:52.747             5.305               Magadan1           165.781
       285   03 Jun 2027 01:02:24.315   03 Jun 2027 01:03:10.255            45.940               Magadan2          1435.625
       286   03 Jun 2027 01:04:08.235   03 Jun 2027 01:04:55.459            47.224               Magadan2          1475.750
       287   03 Jun 2027 01:05:25.778   03 Jun 2027 01:05:33.761             7.983              Murmansk1           249.469
       288   03 Jun 2027 01:05:33.761   03 Jun 2027 01:05:43.391             9.630              Murmansk2           300.938
       289   03 Jun 2027 01:06:16.852   03 Jun 2027 01:06:29.807            12.955              Murmansk1           404.844
       290   03 Jun 2027 01:08:09.817   03 Jun 2027 01:08:20.402            10.585                Novosib           330.781
       291   03 Jun 2027 01:08:40.495   03 Jun 2027 01:09:48.524            68.029              Murmansk1          2125.906
       292   03 Jun 2027 01:14:02.383   03 Jun 2027 01:14:16.735            14.352              Murmansk1           448.500
       293   03 Jun 2027 01:14:40.590   03 Jun 2027 01:14:47.093             6.503                Novosib           203.219
       294   03 Jun 2027 01:15:02.381   03 Jun 2027 01:15:05.002             2.621              Murmansk2            81.906
       295   03 Jun 2027 01:15:15.352   03 Jun 2027 01:15:47.578            32.226                Novosib          1007.062
       296   03 Jun 2027 01:17:45.008   03 Jun 2027 01:17:48.921             3.913                 Moscow           122.281
       297   03 Jun 2027 01:18:01.761   03 Jun 2027 01:19:15.690            73.929                 Moscow          2310.281
       298   03 Jun 2027 01:39:51.520   03 Jun 2027 01:40:11.301            19.781               CapeTown           618.156
       299   03 Jun 2027 01:43:17.103   03 Jun 2027 01:44:01.191            44.088               CapeTown          1377.750
       300   03 Jun 2027 02:28:50.004   03 Jun 2027 02:30:01.244            71.240                Anadyr2          2226.250
       301   03 Jun 2027 02:31:18.870   03 Jun 2027 02:31:21.665             2.795                Anadyr1            87.344
       302   03 Jun 2027 02:31:52.629   03 Jun 2027 02:32:17.921            25.292                Anadyr1           790.375
       303   03 Jun 2027 02:32:49.737   03 Jun 2027 02:33:39.879            50.142               Magadan2          1566.938
       304   03 Jun 2027 02:35:21.646   03 Jun 2027 02:35:42.472            20.826               Magadan2           650.812
       305   03 Jun 2027 02:37:19.427   03 Jun 2027 02:37:23.799             4.372               Magadan2           136.625
       306   03 Jun 2027 02:37:51.315   03 Jun 2027 02:38:24.165            32.850               Magadan1          1026.562
       307   03 Jun 2027 02:39:34.577   03 Jun 2027 02:39:53.696            19.119                Norilsk           597.469
       308   03 Jun 2027 02:40:38.654   03 Jun 2027 02:40:41.607             2.953              Murmansk2            92.281
       309   03 Jun 2027 02:40:41.607   03 Jun 2027 02:40:51.975            10.368              Murmansk1           324.000
       310   03 Jun 2027 02:41:19.927   03 Jun 2027 02:41:21.210             1.283              Murmansk2            40.094
       311   03 Jun 2027 02:41:21.801   03 Jun 2027 02:41:22.236             0.435              Murmansk2            13.594
       312   03 Jun 2027 02:42:15.021   03 Jun 2027 02:42:27.602            12.581              Murmansk1           393.156
       313   03 Jun 2027 02:42:28.025   03 Jun 2027 02:42:54.797            26.772              Murmansk2           836.625
       314   03 Jun 2027 02:44:00.282   03 Jun 2027 02:44:25.555            25.273                Novosib           789.781
       315   03 Jun 2027 02:46:19.732   03 Jun 2027 02:46:21.069             1.337                Novosib            41.781
       316   03 Jun 2027 02:46:34.147   03 Jun 2027 02:46:40.362             6.215              Murmansk1           194.219
       317   03 Jun 2027 02:47:18.273   03 Jun 2027 02:47:38.043            19.770                Novosib           617.813
       318   03 Jun 2027 02:49:43.781   03 Jun 2027 02:50:47.939            64.158                 Moscow          2004.938
       319   03 Jun 2027 02:55:18.826   03 Jun 2027 02:56:19.323            60.497                 Moscow          1890.531
       320   03 Jun 2027 04:11:06.657   03 Jun 2027 04:12:58.691           112.034               Magadan2          3501.063
       321   03 Jun 2027 04:12:58.691   03 Jun 2027 04:16:08.084           189.393               Magadan1          5918.531
       322   03 Jun 2027 05:49:07.131   03 Jun 2027 05:49:15.557             8.426               Magadan2           263.313
       323   03 Jun 2027 05:49:17.359   03 Jun 2027 05:51:45.117           147.758                Anadyr1          4617.437
       324   03 Jun 2027 05:51:59.490   03 Jun 2027 05:53:00.635            61.145               Magadan2          1910.781
       325   03 Jun 2027 07:24:16.642   03 Jun 2027 07:24:35.811            19.169                Norilsk           599.031
       326   03 Jun 2027 07:24:48.447   03 Jun 2027 07:25:20.401            31.954               Magadan1           998.562
       327   03 Jun 2027 07:25:20.401   03 Jun 2027 07:28:25.725           185.324               Magadan2          5791.375
       328   03 Jun 2027 07:28:34.326   03 Jun 2027 07:28:49.019            14.693                Novosib           459.156
       329   03 Jun 2027 07:30:40.530   03 Jun 2027 07:30:57.810            17.280                Norilsk           540.000
       330   03 Jun 2027 07:31:19.806   03 Jun 2027 07:32:14.106            54.300                Norilsk          1696.875
       331   03 Jun 2027 07:33:42.112   03 Jun 2027 07:33:50.631             8.519                Norilsk           266.219
       332   03 Jun 2027 08:03:25.713   03 Jun 2027 08:04:19.007            53.294            RioGallegos          1665.437
       333   03 Jun 2027 08:05:28.163   03 Jun 2027 08:05:45.824            17.661            RioGallegos           551.906
       334   03 Jun 2027 08:07:17.790   03 Jun 2027 08:07:23.934             6.144            RioGallegos           192.000
       335   03 Jun 2027 08:39:07.706   03 Jun 2027 08:40:42.482            94.776                Sumatra          2961.750
       336   03 Jun 2027 09:00:38.718   03 Jun 2027 09:03:40.706           181.988                Novosib          5687.125
       337   03 Jun 2027 09:03:46.982   03 Jun 2027 09:03:54.651             7.669                Novosib           239.656
       338   03 Jun 2027 09:04:05.197   03 Jun 2027 09:05:46.601           101.404                Norilsk          3168.875
       339   03 Jun 2027 09:06:08.270   03 Jun 2027 09:06:26.698            18.428              Murmansk1           575.875
       340   03 Jun 2027 09:08:18.122   03 Jun 2027 09:08:43.423            25.301              Murmansk1           790.656
       341   03 Jun 2027 09:10:16.626   03 Jun 2027 09:10:24.341             7.715              Murmansk2           241.094
       342   03 Jun 2027 09:10:47.946   03 Jun 2027 09:11:11.203            23.257              Murmansk1           726.781
       343   03 Jun 2027 09:12:05.941   03 Jun 2027 09:12:15.959            10.018              Murmansk1           313.062
       344   03 Jun 2027 09:40:48.563   03 Jun 2027 09:41:21.991            33.428            RioGallegos          1044.625
       345   03 Jun 2027 09:42:07.452   03 Jun 2027 09:43:06.481            59.029            RioGallegos          1844.656
       346   03 Jun 2027 10:15:00.854   03 Jun 2027 10:16:05.225            64.371                Sumatra          2011.594
       347   03 Jun 2027 10:22:45.014   03 Jun 2027 10:23:37.378            52.364                  Delhi          1636.375
       348   03 Jun 2027 10:36:48.587   03 Jun 2027 10:37:11.050            22.463              Murmansk2           701.969
       349   03 Jun 2027 10:37:11.050   03 Jun 2027 10:37:58.814            47.764              Murmansk1          1492.625
       350   03 Jun 2027 10:38:04.551   03 Jun 2027 10:38:18.879            14.328                Norilsk           447.750
       351   03 Jun 2027 10:38:38.087   03 Jun 2027 10:38:46.033             7.946                Irkutsk           248.312
       352   03 Jun 2027 10:38:47.004   03 Jun 2027 10:39:10.512            23.508                Norilsk           734.625
       353   03 Jun 2027 10:39:10.560   03 Jun 2027 10:39:46.514            35.954                Novosib          1123.562
       354   03 Jun 2027 10:39:54.461   03 Jun 2027 10:40:05.234            10.773                Norilsk           336.656
       355   03 Jun 2027 10:40:07.368   03 Jun 2027 10:40:26.177            18.809              Murmansk2           587.781
       356   03 Jun 2027 10:40:28.622   03 Jun 2027 10:40:31.790             3.168                 Moscow            99.000
       357   03 Jun 2027 10:41:10.505   03 Jun 2027 10:41:41.817            31.312              Murmansk1           978.500
       358   03 Jun 2027 10:42:37.144   03 Jun 2027 10:42:46.497             9.353              Murmansk2           292.281
       359   03 Jun 2027 10:43:46.162   03 Jun 2027 10:43:53.175             7.013              Murmansk1           219.156
       360   03 Jun 2027 10:45:54.678   03 Jun 2027 10:46:05.120            10.442              Murmansk2           326.313
       361   03 Jun 2027 12:00:06.096   03 Jun 2027 12:02:37.401           151.305                  Delhi          4728.281
       362   03 Jun 2027 12:03:25.290   03 Jun 2027 12:04:50.117            84.827                  Delhi          2650.844
       363   03 Jun 2027 12:10:07.581   03 Jun 2027 12:10:42.501            34.920                Novosib          1091.250
       364   03 Jun 2027 12:12:03.102   03 Jun 2027 12:12:10.696             7.594              Murmansk1           237.313
       365   03 Jun 2027 12:12:24.438   03 Jun 2027 12:12:25.547             1.109                Novosib            34.656
       366   03 Jun 2027 12:12:44.823   03 Jun 2027 12:13:10.324            25.501              Murmansk2           796.906
       367   03 Jun 2027 12:13:46.048   03 Jun 2027 12:13:53.153             7.105                Norilsk           222.031
       368   03 Jun 2027 12:14:44.356   03 Jun 2027 12:15:53.777            69.421                Norilsk          2169.406
       369   03 Jun 2027 12:20:10.837   03 Jun 2027 12:20:41.314            30.477              Murmansk2           952.406
       370   03 Jun 2027 13:43:06.903   03 Jun 2027 13:44:41.760            94.857                 Moscow          2964.281
       371   03 Jun 2027 13:46:37.291   03 Jun 2027 13:50:27.084           229.793              Murmansk1          7181.031
       372   03 Jun 2027 13:50:42.586   03 Jun 2027 13:51:07.808            25.222              Murmansk2           788.188
       373   03 Jun 2027 13:54:22.012   03 Jun 2027 13:55:22.899            60.887                Norilsk          1902.719
       374   03 Jun 2027 14:02:16.412   03 Jun 2027 14:05:35.764           199.352                Anadyr1          6229.750
       375   03 Jun 2027 15:05:39.952   03 Jun 2027 15:05:59.096            19.144               CapeTown           598.250
       376   03 Jun 2027 15:22:48.378   03 Jun 2027 15:22:53.638             5.260                 Moscow           164.375
       377   03 Jun 2027 15:24:44.338   03 Jun 2027 15:25:08.360            24.022              Murmansk1           750.688
       378   03 Jun 2027 15:25:43.109   03 Jun 2027 15:25:53.193            10.084              Murmansk1           315.125
       379   03 Jun 2027 15:27:26.929   03 Jun 2027 15:27:47.343            20.414              Murmansk1           637.937
       380   03 Jun 2027 15:28:12.521   03 Jun 2027 15:29:28.325            75.804              Murmansk2          2368.875
       381   03 Jun 2027 15:37:04.376   03 Jun 2027 15:38:24.396            80.020                Anadyr2          2500.625
       382   03 Jun 2027 15:38:30.306   03 Jun 2027 15:39:13.517            43.211                Anadyr1          1350.344
       383   03 Jun 2027 15:43:54.406   03 Jun 2027 15:45:15.662            81.256                Anadyr2          2539.250
       384   03 Jun 2027 17:05:53.786   03 Jun 2027 17:09:06.172           192.386              Murmansk2          6012.063
       385   03 Jun 2027 17:12:52.859   03 Jun 2027 17:13:41.720            48.861                Anadyr2          1526.906
       386   03 Jun 2027 17:14:31.417   03 Jun 2027 17:15:31.854            60.437                Anadyr2          1888.656
       387   03 Jun 2027 17:15:32.094   03 Jun 2027 17:16:30.272            58.178               Magadan2          1818.062
       388   03 Jun 2027 17:20:59.481   03 Jun 2027 17:21:28.173            28.692               Magadan1           896.625
       389   03 Jun 2027 17:23:50.815   03 Jun 2027 17:25:22.672            91.857               Magadan2          2870.531
       390   03 Jun 2027 18:48:48.063   03 Jun 2027 18:50:39.575           111.512                Anadyr2          3484.750
       391   03 Jun 2027 18:51:04.857   03 Jun 2027 18:53:29.813           144.956               Magadan2          4529.875
       392   03 Jun 2027 18:55:36.660   03 Jun 2027 18:55:40.285             3.625               Magadan1           113.281
       393   03 Jun 2027 18:55:42.509   03 Jun 2027 18:55:48.506             5.997               Magadan1           187.406
       394   03 Jun 2027 18:57:15.448   03 Jun 2027 18:57:38.051            22.603               Magadan1           706.344
       395   03 Jun 2027 18:58:10.614   03 Jun 2027 18:58:14.557             3.943               Magadan1           123.219
       396   03 Jun 2027 18:58:20.901   03 Jun 2027 18:59:09.198            48.297               Magadan2          1509.281
       397   03 Jun 2027 19:43:34.659   03 Jun 2027 19:46:07.963           153.304            RioGallegos          4790.750
       398   03 Jun 2027 19:46:59.190   03 Jun 2027 19:47:07.689             8.499            RioGallegos           265.594
       399   03 Jun 2027 19:47:10.361   03 Jun 2027 19:48:29.167            78.806            RioGallegos          2462.687
       400   03 Jun 2027 19:49:17.031   03 Jun 2027 19:49:33.023            15.992            RioGallegos           499.750
       401   03 Jun 2027 20:26:40.279   03 Jun 2027 20:29:47.293           187.014                Norilsk          5844.188
       402   03 Jun 2027 20:30:27.525   03 Jun 2027 20:30:37.190             9.665                Norilsk           302.031
       403   03 Jun 2027 20:31:00.296   03 Jun 2027 20:32:06.720            66.424                Irkutsk          2075.750
       404   03 Jun 2027 20:32:57.203   03 Jun 2027 20:33:09.620            12.417                Irkutsk           388.031
       405   03 Jun 2027 20:44:56.465   03 Jun 2027 20:47:50.391           173.926                Sumatra          5435.187
       406   03 Jun 2027 22:03:29.708   03 Jun 2027 22:03:43.106            13.398                Anadyr2           418.688
       407   03 Jun 2027 22:03:44.268   03 Jun 2027 22:04:18.766            34.498                Norilsk          1078.063
       408   03 Jun 2027 22:04:57.754   03 Jun 2027 22:05:24.317            26.563               Magadan1           830.094
       409   03 Jun 2027 22:05:36.767   03 Jun 2027 22:05:40.287             3.520                Norilsk           110.000
       410   03 Jun 2027 22:05:51.637   03 Jun 2027 22:06:02.367            10.730               Magadan1           335.312
       411   03 Jun 2027 22:06:10.209   03 Jun 2027 22:06:28.782            18.573                Norilsk           580.406
       412   03 Jun 2027 22:06:42.467   03 Jun 2027 22:07:59.275            76.808                Novosib          2400.250
       413   03 Jun 2027 22:08:21.654   03 Jun 2027 22:08:28.731             7.077                Novosib           221.156
       414   03 Jun 2027 22:08:34.343   03 Jun 2027 22:09:23.934            49.591                Novosib          1549.719
       415   03 Jun 2027 22:14:00.814   03 Jun 2027 22:16:16.079           135.265                Novosib          4227.031
       416   03 Jun 2027 22:20:32.724   03 Jun 2027 22:21:36.974            64.250                  Delhi          2007.812
       417   03 Jun 2027 23:34:49.440   03 Jun 2027 23:35:02.260            12.820                Anadyr2           400.625
       418   03 Jun 2027 23:35:29.957   03 Jun 2027 23:35:53.125            23.168                Anadyr2           724.000
       419   03 Jun 2027 23:38:34.420   03 Jun 2027 23:38:37.528             3.108                Norilsk            97.125
       420   03 Jun 2027 23:38:53.236   03 Jun 2027 23:40:38.083           104.847               Magadan2          3276.469
       421   03 Jun 2027 23:40:38.083   03 Jun 2027 23:42:16.393            98.310               Magadan1          3072.187
       422   03 Jun 2027 23:42:20.775   03 Jun 2027 23:42:32.340            11.565                Novosib           361.406
       423   03 Jun 2027 23:42:34.174   03 Jun 2027 23:43:26.607            52.433              Murmansk1          1638.531
       424   03 Jun 2027 23:46:47.592   03 Jun 2027 23:47:30.372            42.780                 Moscow          1336.875
       425   03 Jun 2027 23:49:00.186   03 Jun 2027 23:50:20.434            80.248                 Moscow          2507.750
       426   04 Jun 2027 01:06:25.578   04 Jun 2027 01:08:04.703            99.125                Anadyr2          3097.656
       427   04 Jun 2027 01:08:42.180   04 Jun 2027 01:09:09.477            27.297                Anadyr2           853.031
       428   04 Jun 2027 01:09:42.589   04 Jun 2027 01:09:54.020            11.431                Anadyr1           357.219
       429   04 Jun 2027 01:11:51.136   04 Jun 2027 01:13:45.241           114.105               Magadan1          3565.781
       430   04 Jun 2027 01:13:53.717   04 Jun 2027 01:14:20.553            26.836               Magadan1           838.625
       431   04 Jun 2027 01:16:42.502   04 Jun 2027 01:18:36.379           113.877              Murmansk1          3558.656
       432   04 Jun 2027 01:20:09.726   04 Jun 2027 01:21:42.147            92.421                 Moscow          2888.156
       433   04 Jun 2027 01:44:51.207   04 Jun 2027 01:45:31.856            40.649               CapeTown          1270.281
       434   04 Jun 2027 01:46:00.835   04 Jun 2027 01:46:15.752            14.917               CapeTown           466.156
       435   04 Jun 2027 01:50:57.073   04 Jun 2027 01:51:29.214            32.141               CapeTown          1004.406
       436   04 Jun 2027 02:40:44.297   04 Jun 2027 02:43:10.470           146.173                Anadyr2          4567.906
       437   04 Jun 2027 02:43:34.601   04 Jun 2027 02:43:51.749            17.148               Magadan1           535.875
       438   04 Jun 2027 02:43:51.749   04 Jun 2027 02:44:40.739            48.990               Magadan2          1530.938
       439   04 Jun 2027 02:52:40.373   04 Jun 2027 02:54:13.330            92.957              Murmansk1          2904.906
       440   04 Jun 2027 02:54:26.549   04 Jun 2027 02:54:41.872            15.323              Murmansk1           478.844
       441   04 Jun 2027 02:55:53.329   04 Jun 2027 02:56:27.428            34.099                 Moscow          1065.594
       442   04 Jun 2027 02:56:34.119   04 Jun 2027 02:56:38.538             4.419                 Moscow           138.094
       443   04 Jun 2027 02:57:24.073   04 Jun 2027 02:58:47.701            83.628                 Moscow          2613.375
       444   04 Jun 2027 03:00:16.947   04 Jun 2027 03:00:44.340            27.393              Murmansk1           856.031
       445   04 Jun 2027 03:00:53.601   04 Jun 2027 03:01:30.914            37.313              Murmansk1          1166.031
       446   04 Jun 2027 03:02:07.685   04 Jun 2027 03:03:33.140            85.455                 Moscow          2670.469
       447   04 Jun 2027 04:16:47.553   04 Jun 2027 04:18:27.158            99.605               Magadan2          3112.656
       448   04 Jun 2027 04:23:16.306   04 Jun 2027 04:24:12.019            55.713                Anadyr2          1741.031
       449   04 Jun 2027 04:24:15.852   04 Jun 2027 04:25:06.770            50.918               Magadan2          1591.187
       450   04 Jun 2027 04:25:11.996   04 Jun 2027 04:26:13.753            61.757               Magadan2          1929.906
       451   04 Jun 2027 06:00:38.487   04 Jun 2027 06:03:09.722           151.235                Anadyr1          4726.094
       452   04 Jun 2027 06:41:14.527   04 Jun 2027 06:42:03.157            48.630            RioGallegos          1519.687
       453   04 Jun 2027 07:36:00.080   04 Jun 2027 07:36:32.760            32.680                Irkutsk          1021.250
       454   04 Jun 2027 07:36:39.361   04 Jun 2027 07:39:14.184           154.823                Irkutsk          4838.219
       455   04 Jun 2027 07:39:18.106   04 Jun 2027 07:40:40.059            81.953                Irkutsk          2561.031
       456   04 Jun 2027 07:41:45.349   04 Jun 2027 07:41:59.150            13.801              Murmansk2           431.281
       457   04 Jun 2027 07:44:01.950   04 Jun 2027 07:44:04.551             2.601              Murmansk2            81.281
       458   04 Jun 2027 07:45:03.196   04 Jun 2027 07:45:23.842            20.646              Murmansk2           645.187
       459   04 Jun 2027 08:15:25.116   04 Jun 2027 08:16:15.634            50.518            RioGallegos          1578.688
       460   04 Jun 2027 08:50:47.099   04 Jun 2027 08:51:32.445            45.346                Sumatra          1417.062
       461   04 Jun 2027 08:53:05.577   04 Jun 2027 08:54:06.570            60.993                Sumatra          1906.031
       462   04 Jun 2027 09:03:39.819   04 Jun 2027 09:04:42.222            62.403                  Delhi          1950.094
       463   04 Jun 2027 09:10:37.335   04 Jun 2027 09:10:43.949             6.614                Norilsk           206.687
       464   04 Jun 2027 09:10:48.893   04 Jun 2027 09:10:57.068             8.175                Irkutsk           255.469
       465   04 Jun 2027 09:11:00.510   04 Jun 2027 09:11:53.264            52.754                Irkutsk          1648.562
       466   04 Jun 2027 09:12:28.294   04 Jun 2027 09:12:50.921            22.627                Irkutsk           707.094
       467   04 Jun 2027 09:12:55.049   04 Jun 2027 09:13:10.676            15.627                Novosib           488.344
       468   04 Jun 2027 09:13:13.473   04 Jun 2027 09:13:14.043             0.570                Norilsk            17.812
       469   04 Jun 2027 09:13:18.856   04 Jun 2027 09:13:34.246            15.390              Murmansk2           480.938
       470   04 Jun 2027 09:13:57.446   04 Jun 2027 09:14:20.216            22.770                Norilsk           711.563
       471   04 Jun 2027 09:14:39.316   04 Jun 2027 09:14:43.390             4.074                Irkutsk           127.313
       472   04 Jun 2027 09:15:08.561   04 Jun 2027 09:15:21.030            12.469                Irkutsk           389.656
       473   04 Jun 2027 09:15:22.882   04 Jun 2027 09:15:26.829             3.947                Novosib           123.344
       474   04 Jun 2027 09:15:54.389   04 Jun 2027 09:16:46.193            51.804                Novosib          1618.875
       475   04 Jun 2027 09:53:21.653   04 Jun 2027 09:53:34.553            12.900            RioGallegos           403.125
       476   04 Jun 2027 09:53:57.089   04 Jun 2027 09:54:45.006            47.917            RioGallegos          1497.406
       477   04 Jun 2027 10:27:34.216   04 Jun 2027 10:28:05.795            31.579                Sumatra           986.844
       478   04 Jun 2027 10:31:13.904   04 Jun 2027 10:31:55.367            41.463                Sumatra          1295.719
       479   04 Jun 2027 10:35:50.336   04 Jun 2027 10:37:42.354           112.018                  Delhi          3500.562
       480   04 Jun 2027 10:48:34.470   04 Jun 2027 10:48:36.297             1.827                Norilsk            57.094
       481   04 Jun 2027 10:48:47.473   04 Jun 2027 10:49:57.834            70.361                 Moscow          2198.781
       482   04 Jun 2027 10:50:18.414   04 Jun 2027 10:50:19.334             0.920                Novosib            28.750
