uniorb/output/strategy_1/Drop/Drop_KinoSat_111208.txt

KinoSat_111208
-------------------------
    Access    *     Start Time (UTCG)     *     Stop Time (UTCG)  *   Duration (s)        *       Station  *  Data (Mbytes)
         1   01 Jun 2027 03:03:09.986   01 Jun 2027 03:04:28.110            78.124              Murmansk1          2441.375
         2   01 Jun 2027 03:04:30.947   01 Jun 2027 03:04:44.566            13.619                 Moscow           425.594
         3   01 Jun 2027 03:05:07.676   01 Jun 2027 03:05:38.131            30.455              Murmansk2           951.719
         4   01 Jun 2027 03:05:50.583   01 Jun 2027 03:06:16.329            25.746              Murmansk2           804.562
         5   01 Jun 2027 03:06:21.741   01 Jun 2027 03:08:24.522           122.781              Murmansk1          3836.906
         6   01 Jun 2027 03:08:24.522   01 Jun 2027 03:08:33.905             9.383              Murmansk2           293.219
         7   01 Jun 2027 04:27:48.975   01 Jun 2027 04:30:02.398           133.423                Anadyr2          4169.469
         8   01 Jun 2027 04:30:13.762   01 Jun 2027 04:30:14.773             1.011                Anadyr2            31.594
         9   01 Jun 2027 04:30:43.239   01 Jun 2027 04:31:16.190            32.951               Magadan2          1029.719
        10   01 Jun 2027 04:31:21.470   01 Jun 2027 04:31:42.230            20.760                Anadyr2           648.750
        11   01 Jun 2027 06:02:36.243   01 Jun 2027 06:06:32.974           236.731                Anadyr1          7397.844
        12   01 Jun 2027 06:06:32.974   01 Jun 2027 06:07:51.896            78.922                Anadyr2          2466.313
        13   01 Jun 2027 07:38:15.024   01 Jun 2027 07:39:00.466            45.442                Anadyr2          1420.063
        14   01 Jun 2027 07:39:24.835   01 Jun 2027 07:41:25.005           120.170                Irkutsk          3755.312
        15   01 Jun 2027 07:41:37.861   01 Jun 2027 07:41:59.187            21.326               Magadan2           666.438
        16   01 Jun 2027 07:42:00.297   01 Jun 2027 07:43:32.818            92.521                Anadyr2          2891.281
        17   01 Jun 2027 07:43:32.818   01 Jun 2027 07:44:15.107            42.289                Anadyr1          1321.531
        18   01 Jun 2027 07:44:31.976   01 Jun 2027 07:45:16.773            44.797                Novosib          1399.906
        19   01 Jun 2027 07:45:55.827   01 Jun 2027 07:46:20.216            24.389              Murmansk2           762.156
        20   01 Jun 2027 07:51:11.554   01 Jun 2027 07:51:22.385            10.831              Murmansk2           338.469
        21   01 Jun 2027 07:54:21.257   01 Jun 2027 07:54:35.753            14.496              Murmansk2           453.000
        22   01 Jun 2027 08:20:01.971   01 Jun 2027 08:20:51.541            49.570            RioGallegos          1549.062
        23   01 Jun 2027 08:21:55.906   01 Jun 2027 08:22:19.885            23.979            RioGallegos           749.344
        24   01 Jun 2027 08:24:56.198   01 Jun 2027 08:25:45.734            49.536            RioGallegos          1548.000
        25   01 Jun 2027 08:57:32.738   01 Jun 2027 08:58:04.482            31.744                Sumatra           992.000
        26   01 Jun 2027 09:00:26.014   01 Jun 2027 09:01:01.986            35.972                Sumatra          1124.125
        27   01 Jun 2027 09:15:27.548   01 Jun 2027 09:18:37.631           190.083               Magadan1          5940.094
        28   01 Jun 2027 09:18:37.631   01 Jun 2027 09:18:55.109            17.478               Magadan2           546.188
        29   01 Jun 2027 09:19:11.640   01 Jun 2027 09:20:38.829            87.189                Norilsk          2724.656
        30   01 Jun 2027 09:20:42.290   01 Jun 2027 09:21:05.953            23.663                Norilsk           739.469
        31   01 Jun 2027 09:21:27.157   01 Jun 2027 09:22:01.108            33.951              Murmansk2          1060.969
        32   01 Jun 2027 09:22:05.337   01 Jun 2027 09:22:31.831            26.494                Norilsk           827.937
        33   01 Jun 2027 09:23:11.225   01 Jun 2027 09:23:50.469            39.244              Murmansk1          1226.375
        34   01 Jun 2027 09:55:55.020   01 Jun 2027 09:56:58.827            63.807            RioGallegos          1993.969
        35   01 Jun 2027 10:04:29.111   01 Jun 2027 10:04:33.085             3.974            RioGallegos           124.188
        36   01 Jun 2027 10:05:25.047   01 Jun 2027 10:05:35.896            10.849            RioGallegos           339.031
        37   01 Jun 2027 10:05:42.930   01 Jun 2027 10:05:53.777            10.847            RioGallegos           338.969
        38   01 Jun 2027 10:30:26.219   01 Jun 2027 10:31:18.401            52.182                Sumatra          1630.687
        39   01 Jun 2027 10:34:31.150   01 Jun 2027 10:34:47.608            16.458                Sumatra           514.312
        40   01 Jun 2027 10:49:14.226   01 Jun 2027 10:49:38.135            23.909                  Delhi           747.156
        41   01 Jun 2027 10:50:28.331   01 Jun 2027 10:50:39.610            11.279                  Delhi           352.469
        42   01 Jun 2027 10:52:37.611   01 Jun 2027 10:52:50.193            12.582                Novosib           393.187
        43   01 Jun 2027 10:52:52.746   01 Jun 2027 10:53:11.101            18.355                Irkutsk           573.594
        44   01 Jun 2027 10:53:15.713   01 Jun 2027 10:55:38.661           142.948              Murmansk1          4467.125
        45   01 Jun 2027 10:55:45.985   01 Jun 2027 10:57:00.109            74.124              Murmansk2          2316.375
        46   01 Jun 2027 10:57:25.376   01 Jun 2027 10:57:41.578            16.202                Novosib           506.313
        47   01 Jun 2027 11:37:19.487   01 Jun 2027 11:37:35.762            16.275            RioGallegos           508.594
        48   01 Jun 2027 11:39:08.182   01 Jun 2027 11:39:54.905            46.723            RioGallegos          1460.094
        49   01 Jun 2027 12:14:54.363   01 Jun 2027 12:15:27.237            32.874                  Delhi          1027.313
        50   01 Jun 2027 12:17:35.759   01 Jun 2027 12:19:44.258           128.499                  Delhi          4015.594
        51   01 Jun 2027 12:22:55.283   01 Jun 2027 12:23:45.054            49.771                Novosib          1555.344
        52   01 Jun 2027 12:25:03.696   01 Jun 2027 12:25:33.061            29.365                Novosib           917.656
        53   01 Jun 2027 12:26:41.244   01 Jun 2027 12:28:06.180            84.936                Novosib          2654.250
        54   01 Jun 2027 12:28:12.721   01 Jun 2027 12:28:30.811            18.090                Norilsk           565.313
        55   01 Jun 2027 12:28:39.677   01 Jun 2027 12:29:48.790            69.113              Murmansk2          2159.781
        56   01 Jun 2027 13:59:00.147   01 Jun 2027 14:02:33.967           213.820                 Moscow          6681.875
        57   01 Jun 2027 14:02:57.571   01 Jun 2027 14:05:43.370           165.799              Murmansk1          5181.219
        58   01 Jun 2027 14:05:48.216   01 Jun 2027 14:06:11.503            23.287              Murmansk2           727.719
        59   01 Jun 2027 14:07:11.367   01 Jun 2027 14:08:18.225            66.858                Norilsk          2089.312
        60   01 Jun 2027 14:09:26.926   01 Jun 2027 14:09:47.647            20.721                Norilsk           647.531
        61   01 Jun 2027 14:10:18.392   01 Jun 2027 14:11:45.612            87.220                Norilsk          2725.625
        62   01 Jun 2027 15:13:15.344   01 Jun 2027 15:14:29.191            73.847               CapeTown          2307.719
        63   01 Jun 2027 15:36:49.949   01 Jun 2027 15:37:26.591            36.642                 Moscow          1145.062
        64   01 Jun 2027 15:39:47.844   01 Jun 2027 15:40:55.267            67.423              Murmansk1          2106.969
        65   01 Jun 2027 15:42:06.479   01 Jun 2027 15:43:43.880            97.401              Murmansk1          3043.781
        66   01 Jun 2027 15:53:25.597   01 Jun 2027 15:53:56.359            30.762                Anadyr1           961.312
        67   01 Jun 2027 15:54:12.454   01 Jun 2027 15:55:17.402            64.948                Anadyr2          2029.625
        68   01 Jun 2027 16:48:36.191   01 Jun 2027 16:50:31.324           115.133               CapeTown          3597.906
        69   01 Jun 2027 17:19:29.162   01 Jun 2027 17:23:22.297           233.135              Murmansk2          7285.469
        70   01 Jun 2027 17:29:03.596   01 Jun 2027 17:29:50.829            47.233                Anadyr1          1476.031
        71   01 Jun 2027 17:32:12.896   01 Jun 2027 17:34:01.740           108.844               Magadan2          3401.375
        72   01 Jun 2027 17:38:11.010   01 Jun 2027 17:38:31.027            20.017               Magadan1           625.531
        73   01 Jun 2027 19:04:59.036   01 Jun 2027 19:07:27.519           148.483                Anadyr2          4640.094
        74   01 Jun 2027 19:07:42.636   01 Jun 2027 19:07:56.766            14.130                Anadyr2           441.562
        75   01 Jun 2027 19:08:08.173   01 Jun 2027 19:08:30.941            22.768                Anadyr2           711.500
        76   01 Jun 2027 19:08:43.996   01 Jun 2027 19:10:59.877           135.881               Magadan1          4246.281
        77   01 Jun 2027 19:15:11.057   01 Jun 2027 19:15:26.273            15.216               Magadan2           475.500
        78   01 Jun 2027 20:01:21.280   01 Jun 2027 20:03:46.560           145.280            RioGallegos          4540.000
        79   01 Jun 2027 20:40:48.356   01 Jun 2027 20:41:19.375            31.019                Anadyr1           969.344
        80   01 Jun 2027 20:42:08.851   01 Jun 2027 20:42:20.503            11.652                Anadyr1           364.125
        81   01 Jun 2027 20:42:20.503   01 Jun 2027 20:42:26.127             5.624                Anadyr2           175.750
        82   01 Jun 2027 20:42:50.326   01 Jun 2027 20:43:13.392            23.066                Anadyr2           720.812
        83   01 Jun 2027 20:43:15.075   01 Jun 2027 20:44:40.350            85.275               Magadan2          2664.844
        84   01 Jun 2027 20:44:40.350   01 Jun 2027 20:45:13.124            32.774               Magadan1          1024.187
        85   01 Jun 2027 20:45:33.032   01 Jun 2027 20:46:41.736            68.704                Norilsk          2147.000
        86   01 Jun 2027 20:47:57.111   01 Jun 2027 20:50:43.058           165.947                Irkutsk          5185.844
        87   01 Jun 2027 20:53:29.538   01 Jun 2027 20:54:29.365            59.827                Irkutsk          1869.594
        88   01 Jun 2027 21:03:00.513   01 Jun 2027 21:05:11.238           130.725                Sumatra          4085.156
        89   01 Jun 2027 22:18:43.254   01 Jun 2027 22:20:16.004            92.750                Norilsk          2898.437
        90   01 Jun 2027 22:22:38.537   01 Jun 2027 22:23:57.329            78.792                Irkutsk          2462.250
        91   01 Jun 2027 22:24:24.420   01 Jun 2027 22:26:35.390           130.970                Novosib          4092.812
        92   01 Jun 2027 22:33:35.398   01 Jun 2027 22:34:51.756            76.358                  Delhi          2386.188
        93   01 Jun 2027 23:50:41.349   01 Jun 2027 23:52:26.849           105.500                Anadyr1          3296.875
        94   01 Jun 2027 23:54:43.403   01 Jun 2027 23:55:00.959            17.556                Norilsk           548.625
        95   01 Jun 2027 23:55:17.929   01 Jun 2027 23:56:35.812            77.883               Magadan1          2433.844
        96   01 Jun 2027 23:57:43.118   01 Jun 2027 23:59:09.092            85.974              Murmansk2          2686.687
        97   01 Jun 2027 23:59:25.270   02 Jun 2027 00:02:04.421           159.151              Murmansk1          4973.469
        98   02 Jun 2027 00:47:42.539   02 Jun 2027 00:48:54.378            71.839            RioGallegos          2244.969
        99   02 Jun 2027 01:23:32.577   02 Jun 2027 01:24:03.916            31.339                Anadyr1           979.344
       100   02 Jun 2027 01:24:57.422   02 Jun 2027 01:25:54.628            57.206                Anadyr1          1787.688
       101   02 Jun 2027 01:26:15.601   02 Jun 2027 01:26:18.110             2.509                Anadyr1            78.406
       102   02 Jun 2027 01:29:36.729   02 Jun 2027 01:31:19.992           103.263               Magadan2          3226.969
       103   02 Jun 2027 01:31:47.616   02 Jun 2027 01:32:11.507            23.891               Magadan2           746.594
       104   02 Jun 2027 01:32:54.111   02 Jun 2027 01:35:01.994           127.883              Murmansk2          3996.344
       105   02 Jun 2027 01:36:43.337   02 Jun 2027 01:36:57.872            14.535                 Moscow           454.219
       106   02 Jun 2027 01:37:38.531   02 Jun 2027 01:40:01.279           142.748                 Moscow          4460.875
       107   02 Jun 2027 02:57:21.313   02 Jun 2027 02:58:52.237            90.924                Anadyr1          2841.375
       108   02 Jun 2027 02:58:54.055   02 Jun 2027 02:59:52.865            58.810                Anadyr2          1837.812
       109   02 Jun 2027 03:16:34.440   02 Jun 2027 03:17:43.680            69.240                Novosib          2163.750
       110   02 Jun 2027 03:17:47.834   02 Jun 2027 03:17:56.508             8.674                Norilsk           271.062
       111   02 Jun 2027 03:18:01.136   02 Jun 2027 03:18:26.722            25.586              Murmansk2           799.563
       112   02 Jun 2027 03:18:26.835   02 Jun 2027 03:18:49.245            22.410              Murmansk1           700.313
       113   02 Jun 2027 03:18:57.273   02 Jun 2027 03:20:59.442           122.169              Murmansk1          3817.781
       114   02 Jun 2027 03:35:55.470   02 Jun 2027 03:36:28.760            33.290               CapeTown          1040.312
       115   02 Jun 2027 03:36:48.411   02 Jun 2027 03:38:37.993           109.582               CapeTown          3424.438
       116   02 Jun 2027 04:32:41.176   02 Jun 2027 04:33:19.445            38.269                Anadyr1          1195.906
       117   02 Jun 2027 04:39:11.655   02 Jun 2027 04:41:17.617           125.962               Magadan1          3936.313
       118   02 Jun 2027 04:41:17.617   02 Jun 2027 04:43:04.181           106.564               Magadan2          3330.125
       119   02 Jun 2027 04:43:27.490   02 Jun 2027 04:43:42.670            15.180                Anadyr1           474.375
       120   02 Jun 2027 06:16:43.862   02 Jun 2027 06:19:49.332           185.470                Anadyr1          5795.938
       121   02 Jun 2027 07:49:46.017   02 Jun 2027 07:50:23.151            37.134               Magadan1          1160.438
       122   02 Jun 2027 07:50:45.107   02 Jun 2027 07:51:42.278            57.171               Magadan2          1786.594
       123   02 Jun 2027 07:51:53.864   02 Jun 2027 07:54:01.440           127.576                Anadyr1          3986.750
       124   02 Jun 2027 07:54:17.391   02 Jun 2027 07:55:20.895            63.504               Magadan1          1984.500
       125   02 Jun 2027 07:55:23.264   02 Jun 2027 07:55:26.567             3.303               Magadan1           103.219
       126   02 Jun 2027 07:55:30.334   02 Jun 2027 07:55:48.613            18.279                Anadyr1           571.219
       127   02 Jun 2027 07:55:52.683   02 Jun 2027 07:56:29.858            37.175                Irkutsk          1161.719
       128   02 Jun 2027 07:56:37.072   02 Jun 2027 07:57:02.111            25.039                Norilsk           782.469
       129   02 Jun 2027 07:57:06.237   02 Jun 2027 07:57:22.242            16.005                Novosib           500.156
       130   02 Jun 2027 07:57:40.333   02 Jun 2027 07:58:39.096            58.763              Murmansk1          1836.344
       131   02 Jun 2027 07:59:35.587   02 Jun 2027 07:59:37.411             1.824              Murmansk1            57.000
       132   02 Jun 2027 08:31:51.591   02 Jun 2027 08:34:08.968           137.377            RioGallegos          4293.031
       133   02 Jun 2027 09:08:34.070   02 Jun 2027 09:08:40.357             6.287                Sumatra           196.469
       134   02 Jun 2027 09:27:55.173   02 Jun 2027 09:28:36.961            41.788                Novosib          1305.875
       135   02 Jun 2027 09:28:43.277   02 Jun 2027 09:32:32.994           229.717                Irkutsk          7178.656
       136   02 Jun 2027 09:32:37.248   02 Jun 2027 09:32:40.456             3.208                Norilsk           100.250
       137   02 Jun 2027 09:32:45.465   02 Jun 2027 09:33:26.984            41.519                Norilsk          1297.469
       138   02 Jun 2027 10:08:12.393   02 Jun 2027 10:08:28.498            16.105            RioGallegos           503.281
       139   02 Jun 2027 10:08:41.314   02 Jun 2027 10:09:06.342            25.028            RioGallegos           782.125
       140   02 Jun 2027 10:10:59.630   02 Jun 2027 10:11:55.096            55.466            RioGallegos          1733.312
       141   02 Jun 2027 10:42:35.319   02 Jun 2027 10:42:52.081            16.762                Sumatra           523.812
       142   02 Jun 2027 10:51:34.860   02 Jun 2027 10:52:25.682            50.822                  Delhi          1588.188
       143   02 Jun 2027 11:04:45.784   02 Jun 2027 11:05:17.033            31.249                Irkutsk           976.531
       144   02 Jun 2027 11:05:40.679   02 Jun 2027 11:09:18.087           217.408                 Moscow          6794.000
       145   02 Jun 2027 12:27:13.947   02 Jun 2027 12:28:40.715            86.768                  Delhi          2711.500
       146   02 Jun 2027 12:35:26.151   02 Jun 2027 12:35:59.216            33.065                Novosib          1033.281
       147   02 Jun 2027 12:36:07.409   02 Jun 2027 12:36:37.552            30.143                 Moscow           941.969
       148   02 Jun 2027 12:38:48.570   02 Jun 2027 12:41:39.629           171.059              Murmansk2          5345.594
       149   02 Jun 2027 12:44:50.404   02 Jun 2027 12:45:25.298            34.894                Norilsk          1090.438
       150   02 Jun 2027 14:11:03.910   02 Jun 2027 14:13:14.306           130.396                 Moscow          4074.875
       151   02 Jun 2027 14:14:19.829   02 Jun 2027 14:15:03.472            43.643                 Moscow          1363.844
       152   02 Jun 2027 14:16:00.843   02 Jun 2027 14:16:30.876            30.033              Murmansk1           938.531
       153   02 Jun 2027 14:16:35.968   02 Jun 2027 14:18:01.775            85.807              Murmansk2          2681.469
       154   02 Jun 2027 14:20:02.637   02 Jun 2027 14:22:20.698           138.061                Norilsk          4314.406
       155   02 Jun 2027 15:25:00.181   02 Jun 2027 15:26:50.056           109.875               CapeTown          3433.594
       156   02 Jun 2027 15:49:25.349   02 Jun 2027 15:49:43.621            18.272                 Moscow           571.000
       157   02 Jun 2027 15:50:39.105   02 Jun 2027 15:51:09.260            30.155                 Moscow           942.344
       158   02 Jun 2027 15:52:08.591   02 Jun 2027 15:54:40.459           151.868              Murmansk1          4745.875
       159   02 Jun 2027 15:55:40.489   02 Jun 2027 15:56:04.448            23.959              Murmansk2           748.719
       160   02 Jun 2027 15:56:34.485   02 Jun 2027 15:56:57.000            22.515              Murmansk2           703.594
       161   02 Jun 2027 16:05:22.328   02 Jun 2027 16:07:52.330           150.002                Anadyr2          4687.562
       162   02 Jun 2027 17:00:46.771   02 Jun 2027 17:02:30.641           103.870               CapeTown          3245.938
       163   02 Jun 2027 17:05:02.548   02 Jun 2027 17:05:16.983            14.435               CapeTown           451.094
       164   02 Jun 2027 17:32:13.883   02 Jun 2027 17:37:35.880           321.997              Murmansk2         10062.406
       165   02 Jun 2027 17:41:10.447   02 Jun 2027 17:41:45.332            34.885                Anadyr2          1090.156
       166   02 Jun 2027 17:44:01.467   02 Jun 2027 17:47:28.604           207.137               Magadan1          6473.031
       167   02 Jun 2027 19:17:00.410   02 Jun 2027 19:19:02.303           121.893                Anadyr1          3809.156
       168   02 Jun 2027 19:19:18.116   02 Jun 2027 19:23:16.172           238.056               Magadan2          7439.250
       169   02 Jun 2027 20:12:37.514   02 Jun 2027 20:15:29.412           171.898            RioGallegos          5371.812
       170   02 Jun 2027 20:52:47.440   02 Jun 2027 20:53:19.602            32.162                Anadyr1          1005.062
       171   02 Jun 2027 20:54:00.470   02 Jun 2027 20:54:40.613            40.143                Anadyr1          1254.469
       172   02 Jun 2027 20:54:56.224   02 Jun 2027 20:58:11.219           194.995                Norilsk          6093.594
       173   02 Jun 2027 20:58:29.122   02 Jun 2027 20:58:41.486            12.364                Norilsk           386.375
       174   02 Jun 2027 20:59:38.775   02 Jun 2027 21:00:53.032            74.257                Irkutsk          2320.531
       175   02 Jun 2027 21:02:37.536   02 Jun 2027 21:02:58.225            20.689                Irkutsk           646.531
       176   02 Jun 2027 21:14:11.909   02 Jun 2027 21:16:50.013           158.104                Sumatra          4940.750
       177   02 Jun 2027 22:27:58.115   02 Jun 2027 22:30:07.732           129.617                Anadyr1          4050.531
       178   02 Jun 2027 22:30:24.338   02 Jun 2027 22:30:30.737             6.399                Anadyr1           199.969
       179   02 Jun 2027 22:30:45.010   02 Jun 2027 22:32:05.180            80.170                Norilsk          2505.312
       180   02 Jun 2027 22:32:28.694   02 Jun 2027 22:32:47.289            18.595                Norilsk           581.094
       181   02 Jun 2027 22:32:50.436   02 Jun 2027 22:33:22.232            31.796               Magadan1           993.625
       182   02 Jun 2027 22:34:38.249   02 Jun 2027 22:35:47.086            68.837                Irkutsk          2151.156
       183   02 Jun 2027 22:35:49.338   02 Jun 2027 22:36:03.136            13.798                Novosib           431.187
       184   02 Jun 2027 22:44:22.288   02 Jun 2027 22:46:42.531           140.243                  Delhi          4382.594
       185   02 Jun 2027 22:49:29.047   02 Jun 2027 22:50:36.564            67.517                Sumatra          2109.906
       186   03 Jun 2027 00:06:45.341   03 Jun 2027 00:07:24.950            39.609                Norilsk          1237.781
       187   03 Jun 2027 00:07:30.484   03 Jun 2027 00:08:29.585            59.101               Magadan2          1846.906
       188   03 Jun 2027 00:09:30.655   03 Jun 2027 00:13:02.629           211.974              Murmansk1          6624.188
       189   03 Jun 2027 00:14:06.075   03 Jun 2027 00:15:12.058            65.983              Murmansk2          2061.969
       190   03 Jun 2027 01:00:03.063   03 Jun 2027 01:00:54.098            51.035            RioGallegos          1594.844
       191   03 Jun 2027 01:35:14.738   03 Jun 2027 01:37:57.957           163.219                Anadyr2          5100.594
       192   03 Jun 2027 01:37:59.372   03 Jun 2027 01:38:02.747             3.375                Anadyr1           105.469
       193   03 Jun 2027 01:38:14.748   03 Jun 2027 01:38:20.706             5.958                Anadyr1           186.187
       194   03 Jun 2027 01:41:09.467   03 Jun 2027 01:41:25.442            15.975               Magadan2           499.219
       195   03 Jun 2027 01:41:38.717   03 Jun 2027 01:42:11.456            32.739               Magadan1          1023.094
       196   03 Jun 2027 01:42:35.051   03 Jun 2027 01:43:03.328            28.277               Magadan2           883.656
       197   03 Jun 2027 01:44:54.644   03 Jun 2027 01:47:03.508           128.864              Murmansk1          4027.000
       198   03 Jun 2027 01:47:18.060   03 Jun 2027 01:48:03.310            45.250                Novosib          1414.062
       199   03 Jun 2027 01:48:31.045   03 Jun 2027 01:48:48.425            17.380                Irkutsk           543.125
       200   03 Jun 2027 01:48:54.265   03 Jun 2027 01:49:00.964             6.699                 Moscow           209.344
       201   03 Jun 2027 01:57:13.950   03 Jun 2027 01:57:23.599             9.649                  Delhi           301.531
       202   03 Jun 2027 02:15:21.997   03 Jun 2027 02:16:43.043            81.046               CapeTown          2532.687
       203   03 Jun 2027 03:09:12.378   03 Jun 2027 03:09:19.484             7.106                Anadyr1           222.063
       204   03 Jun 2027 03:09:53.296   03 Jun 2027 03:10:30.264            36.968                Anadyr2          1155.250
       205   03 Jun 2027 03:11:41.785   03 Jun 2027 03:12:04.603            22.818                Anadyr2           713.063
       206   03 Jun 2027 03:28:08.040   03 Jun 2027 03:28:42.882            34.842              Murmansk2          1088.813
       207   03 Jun 2027 03:29:03.320   03 Jun 2027 03:30:41.477            98.157                 Moscow          3067.406
       208   03 Jun 2027 03:30:47.097   03 Jun 2027 03:32:53.487           126.390              Murmansk2          3949.687
       209   03 Jun 2027 03:47:59.353   03 Jun 2027 03:50:21.787           142.434               CapeTown          4451.062
       210   03 Jun 2027 04:51:30.409   03 Jun 2027 04:56:37.551           307.142               Magadan1          9598.188
       211   03 Jun 2027 04:56:37.551   03 Jun 2027 04:56:44.409             6.858               Magadan2           214.313
       212   03 Jun 2027 06:27:47.826   03 Jun 2027 06:28:06.542            18.716                Anadyr1           584.875
       213   03 Jun 2027 06:28:22.338   03 Jun 2027 06:28:34.113            11.775                Norilsk           367.969
       214   03 Jun 2027 06:28:36.269   03 Jun 2027 06:29:29.299            53.030                Irkutsk          1657.187
       215   03 Jun 2027 06:29:36.234   03 Jun 2027 06:29:56.429            20.195               Magadan1           631.094
       216   03 Jun 2027 06:30:07.760   03 Jun 2027 06:33:20.011           192.251                Anadyr1          6007.844
       217   03 Jun 2027 06:34:08.319   03 Jun 2027 06:35:02.546            54.227              Murmansk1          1694.594
       218   03 Jun 2027 07:11:45.933   03 Jun 2027 07:13:03.633            77.700            RioGallegos          2428.125
       219   03 Jun 2027 08:02:44.732   03 Jun 2027 08:03:04.939            20.207                Irkutsk           631.469
       220   03 Jun 2027 08:03:13.136   03 Jun 2027 08:03:25.502            12.366                Norilsk           386.437
       221   03 Jun 2027 08:03:43.961   03 Jun 2027 08:08:28.331           284.370               Magadan1          8886.563
       222   03 Jun 2027 08:08:32.650   03 Jun 2027 08:08:46.183            13.533              Murmansk1           422.906
       223   03 Jun 2027 08:08:54.667   03 Jun 2027 08:09:31.378            36.711                Norilsk          1147.219
       224   03 Jun 2027 08:43:44.395   03 Jun 2027 08:45:46.718           122.323            RioGallegos          3822.594
       225   03 Jun 2027 09:19:53.133   03 Jun 2027 09:20:49.092            55.959                Sumatra          1748.719
       226   03 Jun 2027 09:39:08.781   03 Jun 2027 09:40:29.436            80.655                Irkutsk          2520.469
       227   03 Jun 2027 09:40:32.137   03 Jun 2027 09:40:44.469            12.332                Irkutsk           385.375
       228   03 Jun 2027 09:41:08.693   03 Jun 2027 09:41:28.882            20.189                Irkutsk           630.906
       229   03 Jun 2027 09:41:39.755   03 Jun 2027 09:41:56.039            16.284                Irkutsk           508.875
       230   03 Jun 2027 09:42:21.794   03 Jun 2027 09:45:15.145           173.351              Murmansk1          5417.219
       231   03 Jun 2027 09:45:19.930   03 Jun 2027 09:46:32.369            72.439                Norilsk          2263.719
       232   03 Jun 2027 10:20:34.261   03 Jun 2027 10:21:40.995            66.734            RioGallegos          2085.437
       233   03 Jun 2027 10:54:50.819   03 Jun 2027 10:56:21.475            90.656                Sumatra          2833.000
       234   03 Jun 2027 11:04:03.446   03 Jun 2027 11:05:27.393            83.947                  Delhi          2623.344
       235   03 Jun 2027 11:16:34.617   03 Jun 2027 11:16:48.455            13.838                Novosib           432.437
       236   03 Jun 2027 11:16:59.590   03 Jun 2027 11:17:02.561             2.971                Norilsk            92.844
       237   03 Jun 2027 11:17:02.940   03 Jun 2027 11:17:07.853             4.913              Murmansk1           153.531
       238   03 Jun 2027 11:17:07.853   03 Jun 2027 11:17:12.274             4.421              Murmansk2           138.156
       239   03 Jun 2027 11:17:22.151   03 Jun 2027 11:17:41.831            19.680                Irkutsk           615.000
       240   03 Jun 2027 11:17:46.034   03 Jun 2027 11:18:34.176            48.142                 Moscow          1504.438
       241   03 Jun 2027 11:18:38.204   03 Jun 2027 11:19:14.496            36.292                Novosib          1134.125
       242   03 Jun 2027 11:19:20.680   03 Jun 2027 11:20:09.078            48.398                Norilsk          1512.437
       243   03 Jun 2027 11:20:14.135   03 Jun 2027 11:20:36.535            22.400              Murmansk2           700.000
       244   03 Jun 2027 12:39:41.183   03 Jun 2027 12:43:16.901           215.718                  Delhi          6741.187
       245   03 Jun 2027 12:48:02.859   03 Jun 2027 12:49:08.994            66.135                Novosib          2066.719
       246   03 Jun 2027 12:50:44.020   03 Jun 2027 12:51:08.234            24.214              Murmansk1           756.687
       247   03 Jun 2027 12:51:46.899   03 Jun 2027 12:53:32.105           105.206                Norilsk          3287.687
       248   03 Jun 2027 14:23:10.717   03 Jun 2027 14:25:09.668           118.951                 Moscow          3717.219
       249   03 Jun 2027 14:26:42.230   03 Jun 2027 14:28:31.816           109.586              Murmansk1          3424.562
       250   03 Jun 2027 14:28:33.310   03 Jun 2027 14:30:22.349           109.039              Murmansk2          3407.469
       251   03 Jun 2027 14:33:02.703   03 Jun 2027 14:36:02.392           179.689                Norilsk          5615.281
       252   03 Jun 2027 14:44:40.217   03 Jun 2027 14:45:26.682            46.465                Anadyr2          1452.031
       253   03 Jun 2027 15:36:49.502   03 Jun 2027 15:37:53.320            63.818               CapeTown          1994.313
       254   03 Jun 2027 16:02:07.627   03 Jun 2027 16:02:41.040            33.413                 Moscow          1044.156
       255   03 Jun 2027 16:04:31.613   03 Jun 2027 16:05:48.572            76.959              Murmansk2          2404.969
       256   03 Jun 2027 16:17:20.098   03 Jun 2027 16:20:57.008           216.910                Anadyr1          6778.438
       257   03 Jun 2027 17:13:00.942   03 Jun 2027 17:13:40.667            39.725               CapeTown          1241.406
       258   03 Jun 2027 17:13:56.322   03 Jun 2027 17:14:32.753            36.431               CapeTown          1138.469
       259   03 Jun 2027 17:45:04.250   03 Jun 2027 17:47:56.539           172.289              Murmansk1          5384.031
       260   03 Jun 2027 17:48:01.665   03 Jun 2027 17:49:36.129            94.464              Murmansk1          2952.000
       261   03 Jun 2027 17:53:05.916   03 Jun 2027 17:53:23.420            17.504                Anadyr1           547.000
       262   03 Jun 2027 17:55:52.958   03 Jun 2027 17:58:57.194           184.236               Magadan2          5757.375
       263   03 Jun 2027 19:29:01.651   03 Jun 2027 19:32:24.239           202.588                Anadyr1          6330.875
       264   03 Jun 2027 19:32:36.216   03 Jun 2027 19:35:02.444           146.228               Magadan1          4569.625
       265   03 Jun 2027 20:24:09.521   03 Jun 2027 20:27:16.636           187.115            RioGallegos          5847.344
       266   03 Jun 2027 20:30:33.231   03 Jun 2027 20:30:51.031            17.800            RioGallegos           556.250
       267   03 Jun 2027 21:04:45.979   03 Jun 2027 21:05:21.347            35.368                Anadyr2          1105.250
       268   03 Jun 2027 21:06:54.852   03 Jun 2027 21:07:42.605            47.753                Norilsk          1492.281
       269   03 Jun 2027 21:08:12.979   03 Jun 2027 21:10:41.810           148.831                Norilsk          4650.969
       270   03 Jun 2027 21:11:25.207   03 Jun 2027 21:12:52.569            87.362                Irkutsk          2730.063
       271   03 Jun 2027 21:14:28.969   03 Jun 2027 21:14:51.599            22.630                Irkutsk           707.188
       272   03 Jun 2027 21:25:37.169   03 Jun 2027 21:28:35.812           178.643                Sumatra          5582.594
       273   03 Jun 2027 22:41:38.240   03 Jun 2027 22:42:26.364            48.124                Anadyr2          1503.875
       274   03 Jun 2027 22:42:46.905   03 Jun 2027 22:43:40.230            53.325                Norilsk          1666.406
       275   03 Jun 2027 22:44:52.670   03 Jun 2027 22:45:17.771            25.101               Magadan1           784.406
       276   03 Jun 2027 22:46:20.588   03 Jun 2027 22:46:37.266            16.678               Magadan1           521.187
       277   03 Jun 2027 22:46:38.914   03 Jun 2027 22:46:58.787            19.873                Irkutsk           621.031
       278   03 Jun 2027 22:47:02.880   03 Jun 2027 22:48:21.036            78.156                Novosib          2442.375
       279   03 Jun 2027 22:52:24.863   03 Jun 2027 22:53:05.700            40.837                Novosib          1276.156
       280   03 Jun 2027 22:55:37.789   03 Jun 2027 22:56:06.277            28.488                  Delhi           890.250
       281   03 Jun 2027 22:56:43.355   03 Jun 2027 22:58:36.443           113.088                  Delhi          3534.000
       282   03 Jun 2027 22:59:18.845   03 Jun 2027 23:00:09.347            50.502                  Delhi          1578.187
       283   04 Jun 2027 00:13:39.796   04 Jun 2027 00:14:01.525            21.729                Anadyr2           679.031
       284   04 Jun 2027 00:14:27.776   04 Jun 2027 00:14:36.197             8.421                Anadyr2           263.156
       285   04 Jun 2027 00:16:10.934   04 Jun 2027 00:16:24.350            13.416                Anadyr2           419.250
       286   04 Jun 2027 00:18:34.137   04 Jun 2027 00:19:10.805            36.668                Anadyr2          1145.875
       287   04 Jun 2027 00:19:14.289   04 Jun 2027 00:20:14.854            60.565               Magadan2          1892.656
       288   04 Jun 2027 00:20:43.317   04 Jun 2027 00:20:47.753             4.436                Norilsk           138.625
       289   04 Jun 2027 00:20:58.827   04 Jun 2027 00:21:16.081            17.254               Magadan2           539.188
       290   04 Jun 2027 00:21:22.596   04 Jun 2027 00:25:10.960           228.364              Murmansk2          7136.375
       291   04 Jun 2027 00:29:55.467   04 Jun 2027 00:30:08.957            13.490                  Delhi           421.562
       292   04 Jun 2027 00:35:36.464   04 Jun 2027 00:36:18.147            41.683                  Delhi          1302.594
       293   04 Jun 2027 00:40:15.536   04 Jun 2027 00:41:39.012            83.476                  Delhi          2608.625
       294   04 Jun 2027 01:16:12.544   04 Jun 2027 01:16:47.523            34.979            RioGallegos          1093.094
       295   04 Jun 2027 01:46:57.599   04 Jun 2027 01:48:05.616            68.017                Anadyr1          2125.531
       296   04 Jun 2027 01:49:00.112   04 Jun 2027 01:49:41.040            40.928                Anadyr1          1279.000
       297   04 Jun 2027 01:52:39.806   04 Jun 2027 01:53:51.347            71.541               Magadan1          2235.656
       298   04 Jun 2027 01:55:30.073   04 Jun 2027 01:56:24.903            54.830               Magadan2          1713.438
       299   04 Jun 2027 01:56:55.542   04 Jun 2027 01:57:46.949            51.407              Murmansk2          1606.469
       300   04 Jun 2027 01:57:48.592   04 Jun 2027 01:58:15.001            26.409              Murmansk1           825.281
       301   04 Jun 2027 01:58:46.723   04 Jun 2027 01:59:29.411            42.688                Novosib          1334.000
       302   04 Jun 2027 02:00:33.155   04 Jun 2027 02:00:36.658             3.503                 Moscow           109.469
       303   04 Jun 2027 02:00:49.053   04 Jun 2027 02:01:04.524            15.471                 Moscow           483.469
       304   04 Jun 2027 02:06:16.511   04 Jun 2027 02:06:49.669            33.158                 Moscow          1036.188
       305   04 Jun 2027 02:25:35.556   04 Jun 2027 02:26:13.339            37.783               CapeTown          1180.719
       306   04 Jun 2027 02:26:25.378   04 Jun 2027 02:26:35.472            10.094               CapeTown           315.437
       307   04 Jun 2027 02:27:02.025   04 Jun 2027 02:28:23.862            81.837               CapeTown          2557.406
       308   04 Jun 2027 03:41:11.078   04 Jun 2027 03:43:37.312           146.234              Murmansk1          4569.812
       309   04 Jun 2027 03:46:49.192   04 Jun 2027 03:47:21.024            31.832                 Moscow           994.750
       310   04 Jun 2027 04:06:28.949   04 Jun 2027 04:06:32.672             3.723               CapeTown           116.344
       311   04 Jun 2027 04:08:11.138   04 Jun 2027 04:08:23.118            11.980               CapeTown           374.375
       312   04 Jun 2027 05:03:15.820   04 Jun 2027 05:05:44.131           148.311                Anadyr1          4634.719
       313   04 Jun 2027 05:05:52.490   04 Jun 2027 05:06:14.741            22.251                Anadyr1           695.344
       314   04 Jun 2027 05:06:39.684   04 Jun 2027 05:06:55.322            15.638               Magadan2           488.687
       315   04 Jun 2027 06:41:07.690   04 Jun 2027 06:42:40.817            93.127                Anadyr2          2910.219
       316   04 Jun 2027 06:42:45.358   04 Jun 2027 06:43:21.938            36.580                Irkutsk          1143.125
       317   04 Jun 2027 08:15:17.391   04 Jun 2027 08:15:51.972            34.581                Irkutsk          1080.656
       318   04 Jun 2027 08:15:54.459   04 Jun 2027 08:16:10.889            16.430                Norilsk           513.438
       319   04 Jun 2027 08:16:13.375   04 Jun 2027 08:16:15.482             2.107                Novosib            65.844
       320   04 Jun 2027 08:16:19.603   04 Jun 2027 08:17:02.050            42.447                Novosib          1326.469
       321   04 Jun 2027 08:17:09.175   04 Jun 2027 08:18:15.460            66.285               Magadan1          2071.406
       322   04 Jun 2027 08:18:43.220   04 Jun 2027 08:18:45.634             2.414                Norilsk            75.438
       323   04 Jun 2027 08:19:09.584   04 Jun 2027 08:19:53.824            44.240                Irkutsk          1382.500
       324   04 Jun 2027 08:20:06.068   04 Jun 2027 08:20:27.158            21.090                Novosib           659.063
       325   04 Jun 2027 08:20:32.284   04 Jun 2027 08:20:41.116             8.832               Magadan1           276.000
       326   04 Jun 2027 08:20:53.693   04 Jun 2027 08:21:53.026            59.333                Novosib          1854.156
       327   04 Jun 2027 08:25:54.506   04 Jun 2027 08:26:32.201            37.695              Murmansk2          1177.969
       328   04 Jun 2027 08:56:50.300   04 Jun 2027 08:57:41.660            51.360            RioGallegos          1605.000
       329   04 Jun 2027 09:31:23.605   04 Jun 2027 09:31:51.477            27.872                Sumatra           871.000
       330   04 Jun 2027 09:32:55.266   04 Jun 2027 09:33:04.163             8.897                Sumatra           278.031
       331   04 Jun 2027 09:35:24.770   04 Jun 2027 09:37:13.385           108.615                Sumatra          3394.219
       332   04 Jun 2027 09:51:03.335   04 Jun 2027 09:52:15.594            72.259                Novosib          2258.094
       333   04 Jun 2027 09:52:18.184   04 Jun 2027 09:52:34.129            15.945                Novosib           498.281
       334   04 Jun 2027 09:52:43.652   04 Jun 2027 09:52:54.211            10.559                Irkutsk           329.969
       335   04 Jun 2027 09:52:55.557   04 Jun 2027 09:53:13.543            17.986                Norilsk           562.062
       336   04 Jun 2027 09:53:15.761   04 Jun 2027 09:54:31.008            75.247                Novosib          2351.469
       337   04 Jun 2027 09:54:47.385   04 Jun 2027 09:55:09.046            21.661                Irkutsk           676.906
       338   04 Jun 2027 09:55:13.628   04 Jun 2027 09:55:59.784            46.156              Murmansk1          1442.375
       339   04 Jun 2027 09:56:10.736   04 Jun 2027 09:56:21.227            10.491                Norilsk           327.844
       340   04 Jun 2027 09:56:26.157   04 Jun 2027 09:56:40.497            14.340                Novosib           448.125
       341   04 Jun 2027 09:56:53.652   04 Jun 2027 09:56:56.829             3.177                Irkutsk            99.281
       342   04 Jun 2027 09:58:22.184   04 Jun 2027 09:58:32.086             9.902              Murmansk2           309.438
       343   04 Jun 2027 09:59:12.065   04 Jun 2027 10:00:15.000            62.935              Murmansk2          1966.719
       344   04 Jun 2027 10:33:01.180   04 Jun 2027 10:33:50.709            49.529            RioGallegos          1547.781
       345   04 Jun 2027 11:07:13.881   04 Jun 2027 11:08:31.463            77.582                Sumatra          2424.437
       346   04 Jun 2027 11:17:49.523   04 Jun 2027 11:17:54.176             4.653                  Delhi           145.406
       347   04 Jun 2027 11:21:47.757   04 Jun 2027 11:22:01.296            13.539                  Delhi           423.094
       348   04 Jun 2027 11:28:14.499   04 Jun 2027 11:28:48.718            34.219                Irkutsk          1069.344
       349   04 Jun 2027 11:28:56.620   04 Jun 2027 11:29:03.178             6.558                Norilsk           204.937
       350   04 Jun 2027 11:29:05.440   04 Jun 2027 11:29:31.182            25.742              Murmansk1           804.438
       351   04 Jun 2027 11:29:35.064   04 Jun 2027 11:29:37.939             2.875                 Moscow            89.844
       352   04 Jun 2027 11:29:42.661   04 Jun 2027 11:30:39.258            56.597                Novosib          1768.656
       353   04 Jun 2027 11:30:49.390   04 Jun 2027 11:31:00.922            11.532              Murmansk2           360.375
       354   04 Jun 2027 11:31:06.756   04 Jun 2027 11:31:47.245            40.489                Irkutsk          1265.281
       355   04 Jun 2027 11:31:58.099   04 Jun 2027 11:32:37.484            39.385                Novosib          1230.781
       356   04 Jun 2027 12:52:18.055   04 Jun 2027 12:53:42.010            83.955                  Delhi          2623.594
       357   04 Jun 2027 12:54:54.791   04 Jun 2027 12:57:09.489           134.698                  Delhi          4209.313
       358   04 Jun 2027 13:01:22.667   04 Jun 2027 13:01:24.633             1.966                 Moscow            61.437
       359   04 Jun 2027 13:02:33.052   04 Jun 2027 13:03:02.783            29.731                Novosib           929.094
       360   04 Jun 2027 13:03:03.748   04 Jun 2027 13:05:43.902           160.154              Murmansk1          5004.813
       361   04 Jun 2027 14:35:20.702   04 Jun 2027 14:37:07.826           107.124                 Moscow          3347.625
       362   04 Jun 2027 14:38:34.034   04 Jun 2027 14:39:35.927            61.893                 Moscow          1934.156
       363   04 Jun 2027 14:40:03.916   04 Jun 2027 14:42:45.194           161.278              Murmansk1          5039.937
       364   04 Jun 2027 14:45:44.933   04 Jun 2027 14:46:01.546            16.613              Murmansk2           519.156
       365   04 Jun 2027 14:46:25.260   04 Jun 2027 14:48:01.577            96.317                Norilsk          3009.906
       366   04 Jun 2027 14:54:31.157   04 Jun 2027 14:55:34.849            63.692                Anadyr1          1990.375
       367   04 Jun 2027 14:56:32.012   04 Jun 2027 14:56:43.869            11.857                Anadyr2           370.531
       368   04 Jun 2027 14:57:26.642   04 Jun 2027 14:57:42.803            16.161                Anadyr2           505.031
       369   04 Jun 2027 15:48:42.542   04 Jun 2027 15:49:28.364            45.822               CapeTown          1431.938
       370   04 Jun 2027 15:56:22.795   04 Jun 2027 15:56:28.149             5.354               CapeTown           167.312
       371   04 Jun 2027 15:57:00.179   04 Jun 2027 15:58:13.745            73.566               CapeTown          2298.937
       372   04 Jun 2027 16:15:23.511   04 Jun 2027 16:15:27.258             3.747                 Moscow           117.094
       373   04 Jun 2027 16:16:57.029   04 Jun 2027 16:17:38.422            41.393              Murmansk2          1293.531
       374   04 Jun 2027 16:18:12.366   04 Jun 2027 16:18:57.397            45.031              Murmansk2          1407.219
       375   04 Jun 2027 16:26:21.852   04 Jun 2027 16:26:53.494            31.642              Murmansk1           988.812
       376   04 Jun 2027 16:29:18.689   04 Jun 2027 16:31:05.939           107.250                Anadyr1          3351.562
       377   04 Jun 2027 16:31:05.939   04 Jun 2027 16:31:20.141            14.202                Anadyr2           443.813
       378   04 Jun 2027 16:31:31.287   04 Jun 2027 16:32:51.265            79.978                Anadyr1          2499.312
       379   04 Jun 2027 17:28:18.688   04 Jun 2027 17:28:46.472            27.784               CapeTown           868.250
       380   04 Jun 2027 17:34:49.798   04 Jun 2027 17:35:12.873            23.075               CapeTown           721.094
       381   04 Jun 2027 17:58:03.085   04 Jun 2027 18:01:35.628           212.543              Murmansk1          6641.969
       382   04 Jun 2027 18:01:35.628   04 Jun 2027 18:02:18.180            42.552              Murmansk2          1329.750
       383   04 Jun 2027 18:05:43.662   04 Jun 2027 18:05:44.187             0.525                Anadyr2            16.406
       384   04 Jun 2027 18:06:23.669   04 Jun 2027 18:06:30.126             6.457                Anadyr1           201.781
       385   04 Jun 2027 18:07:46.606   04 Jun 2027 18:11:23.077           216.471               Magadan2          6764.719
       386   04 Jun 2027 19:41:02.731   04 Jun 2027 19:43:46.105           163.374                Anadyr1          5105.438
       387   04 Jun 2027 19:43:47.514   04 Jun 2027 19:46:37.090           169.576               Magadan1          5299.250
       388   04 Jun 2027 20:35:49.720   04 Jun 2027 20:38:42.475           172.755            RioGallegos          5398.594
       389   04 Jun 2027 20:39:51.043   04 Jun 2027 20:40:07.737            16.694            RioGallegos           521.688
       390   04 Jun 2027 20:40:35.800   04 Jun 2027 20:41:02.608            26.808            RioGallegos           837.750
       391   04 Jun 2027 21:16:43.899   04 Jun 2027 21:17:25.373            41.474                Anadyr2          1296.062
       392   04 Jun 2027 21:18:54.335   04 Jun 2027 21:19:44.494            50.159                Norilsk          1567.469
       393   04 Jun 2027 21:20:01.795   04 Jun 2027 21:20:52.801            51.006               Magadan2          1593.937
       394   04 Jun 2027 21:20:52.801   04 Jun 2027 21:21:19.901            27.100               Magadan1           846.875
       395   04 Jun 2027 21:22:49.439   04 Jun 2027 21:23:37.964            48.525               Magadan1          1516.406
       396   04 Jun 2027 21:23:57.163   04 Jun 2027 21:24:53.055            55.892                Irkutsk          1746.625
       397   04 Jun 2027 21:26:17.357   04 Jun 2027 21:26:29.053            11.696                Irkutsk           365.500
       398   04 Jun 2027 21:28:11.084   04 Jun 2027 21:28:43.067            31.983                Irkutsk           999.469
       399   04 Jun 2027 21:32:06.054   04 Jun 2027 21:32:21.771            15.717                Irkutsk           491.156
       400   04 Jun 2027 21:37:12.151   04 Jun 2027 21:40:27.768           195.617                Sumatra          6113.031
       401   04 Jun 2027 22:54:11.219   04 Jun 2027 22:54:21.005             9.786                Anadyr2           305.812
       402   04 Jun 2027 22:54:34.995   04 Jun 2027 22:55:02.227            27.232                Anadyr2           851.000
       403   04 Jun 2027 22:55:26.876   04 Jun 2027 22:56:49.540            82.664               Magadan2          2583.250
       404   04 Jun 2027 22:57:51.056   04 Jun 2027 22:58:23.363            32.307               Magadan2          1009.594
       405   04 Jun 2027 22:58:40.440   04 Jun 2027 22:59:23.437            42.997                Irkutsk          1343.656
       406   04 Jun 2027 22:59:49.134   04 Jun 2027 23:00:37.742            48.608                Novosib          1519.000
       407   04 Jun 2027 23:00:47.663   04 Jun 2027 23:01:42.255            54.592                Novosib          1706.000
       408   04 Jun 2027 23:05:01.532   04 Jun 2027 23:05:22.062            20.530                Novosib           641.563
       409   04 Jun 2027 23:07:06.909   04 Jun 2027 23:08:09.352            62.443                  Delhi          1951.344
       410   04 Jun 2027 23:09:11.514   04 Jun 2027 23:10:09.905            58.391                  Delhi          1824.719
       411   04 Jun 2027 23:12:33.534   04 Jun 2027 23:13:45.173            71.639                  Delhi          2238.719
       412   05 Jun 2027 00:25:21.381   05 Jun 2027 00:25:31.985            10.604                Anadyr2           331.375
       413   05 Jun 2027 00:26:34.590   05 Jun 2027 00:27:04.875            30.285                Anadyr1           946.406
       414   05 Jun 2027 00:30:48.886   05 Jun 2027 00:31:06.393            17.507                Norilsk           547.094
       415   05 Jun 2027 00:31:09.569   05 Jun 2027 00:31:56.311            46.742               Magadan2          1460.687
       416   05 Jun 2027 00:32:00.351   05 Jun 2027 00:32:10.412            10.061               Magadan1           314.406
       417   05 Jun 2027 00:32:10.412   05 Jun 2027 00:32:29.420            19.008               Magadan2           594.000
       418   05 Jun 2027 00:32:38.747   05 Jun 2027 00:32:49.916            11.169                Norilsk           349.031
       419   05 Jun 2027 00:33:01.260   05 Jun 2027 00:33:18.695            17.435               Magadan2           544.844
       420   05 Jun 2027 00:33:50.620   05 Jun 2027 00:35:10.090            79.470              Murmansk1          2483.437
       421   05 Jun 2027 00:35:19.573   05 Jun 2027 00:35:34.611            15.038                Novosib           469.937
       422   05 Jun 2027 00:35:40.480   05 Jun 2027 00:36:09.441            28.961              Murmansk2           905.031
       423   05 Jun 2027 00:37:30.319   05 Jun 2027 00:38:09.401            39.082              Murmansk1          1221.312
       424   05 Jun 2027 00:39:04.770   05 Jun 2027 00:39:10.361             5.591                 Moscow           174.719
       425   05 Jun 2027 00:39:21.752   05 Jun 2027 00:39:34.023            12.271                 Moscow           383.469
       426   05 Jun 2027 00:40:17.353   05 Jun 2027 00:41:20.181            62.828                 Moscow          1963.375
       427   05 Jun 2027 00:47:41.802   05 Jun 2027 00:47:43.578             1.776                  Delhi            55.500
       428   05 Jun 2027 00:47:55.465   05 Jun 2027 00:48:58.176            62.711                  Delhi          1959.719
       429   05 Jun 2027 01:25:22.737   05 Jun 2027 01:25:36.369            13.632            RioGallegos           426.000
       430   05 Jun 2027 01:26:45.631   05 Jun 2027 01:27:07.501            21.870            RioGallegos           683.437
       431   05 Jun 2027 01:58:41.299   05 Jun 2027 02:00:06.097            84.798                Anadyr2          2649.937
       432   05 Jun 2027 02:00:19.027   05 Jun 2027 02:01:01.453            42.426                Anadyr2          1325.813
       433   05 Jun 2027 02:04:08.625   05 Jun 2027 02:05:17.245            68.620               Magadan2          2144.375
       434   05 Jun 2027 02:06:39.315   05 Jun 2027 02:06:53.699            14.384                Norilsk           449.500
       435   05 Jun 2027 02:07:55.325   05 Jun 2027 02:08:10.043            14.718               Magadan1           459.938
       436   05 Jun 2027 02:08:56.727   05 Jun 2027 02:09:52.136            55.409              Murmansk2          1731.531
       437   05 Jun 2027 02:10:51.481   05 Jun 2027 02:11:22.771            31.290              Murmansk1           977.813
       438   05 Jun 2027 02:11:50.541   05 Jun 2027 02:13:50.026           119.485                Novosib          3733.906
       439   05 Jun 2027 02:37:26.675   05 Jun 2027 02:38:22.164            55.489               CapeTown          1734.031
       440   05 Jun 2027 02:44:52.191   05 Jun 2027 02:46:23.788            91.597               CapeTown          2862.406
       441   05 Jun 2027 03:53:32.898   05 Jun 2027 03:53:52.973            20.075              Murmansk2           627.344
       442   05 Jun 2027 03:53:53.232   05 Jun 2027 03:54:30.622            37.390              Murmansk1          1168.437
       443   05 Jun 2027 03:54:44.690   05 Jun 2027 03:56:04.281            79.591                 Moscow          2487.219
       444   05 Jun 2027 03:56:18.822   05 Jun 2027 03:57:50.783            91.961              Murmansk2          2873.781
       445   05 Jun 2027 03:59:02.839   05 Jun 2027 03:59:32.772            29.933                 Moscow           935.406
       446   05 Jun 2027 05:16:13.352   05 Jun 2027 05:19:41.496           208.144                Anadyr1          6504.500
       447   05 Jun 2027 05:20:09.651   05 Jun 2027 05:20:23.501            13.850                Anadyr1           432.813
       448   05 Jun 2027 06:52:38.351   05 Jun 2027 06:53:39.734            61.383                Irkutsk          1918.219
       449   05 Jun 2027 06:54:02.680   05 Jun 2027 06:54:41.193            38.513                Irkutsk          1203.531
       450   05 Jun 2027 06:54:47.503   05 Jun 2027 06:57:12.670           145.167                Anadyr2          4536.469
       451   05 Jun 2027 07:33:50.443   05 Jun 2027 07:33:54.592             4.149            RioGallegos           129.656
       452   05 Jun 2027 07:35:49.073   05 Jun 2027 07:36:09.540            20.467            RioGallegos           639.594
       453   05 Jun 2027 08:26:21.712   05 Jun 2027 08:26:35.153            13.441                Norilsk           420.031
       454   05 Jun 2027 08:26:58.696   05 Jun 2027 08:27:48.532            49.836                Novosib          1557.375
       455   05 Jun 2027 08:27:53.252   05 Jun 2027 08:28:31.350            38.098               Magadan1          1190.562
       456   05 Jun 2027 08:28:39.298   05 Jun 2027 08:29:09.207            29.909                Norilsk           934.656
       457   05 Jun 2027 08:29:15.709   05 Jun 2027 08:29:36.268            20.559                Norilsk           642.469
       458   05 Jun 2027 08:29:48.439   05 Jun 2027 08:30:18.193            29.754               Magadan1           929.812
       459   05 Jun 2027 08:30:25.421   05 Jun 2027 08:30:27.810             2.389                Irkutsk            74.656
       460   05 Jun 2027 08:30:27.886   05 Jun 2027 08:30:45.692            17.806                Irkutsk           556.438
       461   05 Jun 2027 08:30:56.067   05 Jun 2027 08:31:21.267            25.200                Norilsk           787.500
       462   05 Jun 2027 08:31:24.214   05 Jun 2027 08:31:32.136             7.922              Murmansk2           247.562
       463   05 Jun 2027 08:31:32.464   05 Jun 2027 08:31:56.453            23.989                Irkutsk           749.656
       464   05 Jun 2027 08:31:59.290   05 Jun 2027 08:32:54.158            54.868                Irkutsk          1714.625
       465   05 Jun 2027 08:33:08.257   05 Jun 2027 08:33:16.163             7.906              Murmansk1           247.062
       466   05 Jun 2027 08:33:48.564   05 Jun 2027 08:34:07.981            19.417                Norilsk           606.781
       467   05 Jun 2027 08:36:57.285   05 Jun 2027 08:37:00.662             3.377              Murmansk2           105.531
       468   05 Jun 2027 08:38:20.133   05 Jun 2027 08:38:31.626            11.493              Murmansk1           359.156
       469   05 Jun 2027 08:39:18.349   05 Jun 2027 08:39:46.380            28.031              Murmansk2           875.969
       470   05 Jun 2027 09:07:39.657   05 Jun 2027 09:08:50.539            70.882            RioGallegos          2215.063
       471   05 Jun 2027 09:43:02.604   05 Jun 2027 09:43:48.139            45.535                Sumatra          1422.969
       472   05 Jun 2027 09:49:13.909   05 Jun 2027 09:49:30.700            16.791                Sumatra           524.719
       473   05 Jun 2027 09:56:01.384   05 Jun 2027 09:56:59.875            58.491                  Delhi          1827.844
       474   05 Jun 2027 10:03:20.595   05 Jun 2027 10:03:33.726            13.131                Irkutsk           410.344
       475   05 Jun 2027 10:03:57.622   05 Jun 2027 10:04:14.277            16.655                Norilsk           520.469
       476   05 Jun 2027 10:04:17.633   05 Jun 2027 10:04:25.468             7.835                Novosib           244.844
       477   05 Jun 2027 10:04:34.935   05 Jun 2027 10:04:46.539            11.604                Novosib           362.625
       478   05 Jun 2027 10:04:55.573   05 Jun 2027 10:06:40.102           104.529                Irkutsk          3266.531
       479   05 Jun 2027 10:06:48.311   05 Jun 2027 10:07:05.196            16.885                Norilsk           527.656
       480   05 Jun 2027 10:07:13.695   05 Jun 2027 10:07:30.746            17.051                Irkutsk           532.844
       481   05 Jun 2027 10:07:32.725   05 Jun 2027 10:07:48.345            15.620                Novosib           488.125
       482   05 Jun 2027 10:07:56.501   05 Jun 2027 10:08:01.531             5.030              Murmansk1           157.188
