uniorb/output/strategy_1/Drop/Drop_KinoSat_110903.txt

KinoSat_110903
-------------------------
    Access    *     Start Time (UTCG)     *     Stop Time (UTCG)  *   Duration (s)        *       Station  *  Data (Mbytes)
         1   01 Jun 2027 03:51:54.597   01 Jun 2027 03:52:00.395             5.798                Anadyr2           181.188
         2   01 Jun 2027 03:52:09.983   01 Jun 2027 03:52:50.263            40.280               Magadan2          1258.750
         3   01 Jun 2027 03:52:50.263   01 Jun 2027 03:53:12.813            22.550               Magadan1           704.687
         4   01 Jun 2027 03:53:21.228   01 Jun 2027 03:55:11.665           110.437                Anadyr2          3451.156
         5   01 Jun 2027 03:55:11.665   01 Jun 2027 03:55:41.456            29.791                Anadyr1           930.969
         6   01 Jun 2027 03:56:36.886   01 Jun 2027 03:56:38.112             1.226               Magadan1            38.312
         7   01 Jun 2027 03:56:52.465   01 Jun 2027 03:56:59.315             6.850               Magadan1           214.062
         8   01 Jun 2027 05:28:53.154   01 Jun 2027 05:30:01.428            68.274                Irkutsk          2133.563
         9   01 Jun 2027 05:30:04.473   01 Jun 2027 05:31:02.602            58.129                Irkutsk          1816.531
        10   01 Jun 2027 05:31:22.350   01 Jun 2027 05:31:32.511            10.161               Magadan1           317.531
        11   01 Jun 2027 05:32:28.012   01 Jun 2027 05:32:56.463            28.451               Magadan1           889.094
        12   01 Jun 2027 06:09:18.073   01 Jun 2027 06:10:22.738            64.665            RioGallegos          2020.781
        13   01 Jun 2027 07:03:59.610   01 Jun 2027 07:05:27.386            87.776                Irkutsk          2743.000
        14   01 Jun 2027 07:05:27.894   01 Jun 2027 07:08:11.282           163.388               Magadan2          5105.875
        15   01 Jun 2027 07:08:24.031   01 Jun 2027 07:10:22.778           118.747                Norilsk          3710.844
        16   01 Jun 2027 07:10:28.778   01 Jun 2027 07:11:36.794            68.016              Murmansk1          2125.500
        17   01 Jun 2027 07:11:56.894   01 Jun 2027 07:12:49.018            52.124              Murmansk2          1628.875
        18   01 Jun 2027 07:44:50.589   01 Jun 2027 07:45:28.930            38.341            RioGallegos          1198.156
        19   01 Jun 2027 08:18:48.428   01 Jun 2027 08:20:54.877           126.449                Sumatra          3951.531
        20   01 Jun 2027 08:39:43.950   01 Jun 2027 08:40:31.872            47.922                Irkutsk          1497.562
        21   01 Jun 2027 08:40:41.265   01 Jun 2027 08:40:51.699            10.434                Irkutsk           326.063
        22   01 Jun 2027 08:41:18.392   01 Jun 2027 08:45:56.269           277.877              Murmansk2          8683.656
        23   01 Jun 2027 09:21:06.263   01 Jun 2027 09:21:56.152            49.889            RioGallegos          1559.031
        24   01 Jun 2027 09:22:40.637   01 Jun 2027 09:22:57.027            16.390            RioGallegos           512.188
        25   01 Jun 2027 09:55:18.026   01 Jun 2027 09:55:52.532            34.506                Sumatra          1078.312
        26   01 Jun 2027 09:57:41.243   01 Jun 2027 09:58:36.372            55.129                Sumatra          1722.781
        27   01 Jun 2027 10:03:57.856   01 Jun 2027 10:04:17.218            19.362                  Delhi           605.063
        28   01 Jun 2027 10:05:36.251   01 Jun 2027 10:05:54.947            18.696                  Delhi           584.250
        29   01 Jun 2027 10:17:40.833   01 Jun 2027 10:18:44.290            63.457                Norilsk          1983.031
        30   01 Jun 2027 10:18:52.428   01 Jun 2027 10:20:40.846           108.418              Murmansk1          3388.063
        31   01 Jun 2027 10:20:40.846   01 Jun 2027 10:21:44.957            64.111              Murmansk2          2003.469
        32   01 Jun 2027 10:22:50.172   01 Jun 2027 10:23:35.729            45.557              Murmansk2          1423.656
        33   01 Jun 2027 11:44:12.218   01 Jun 2027 11:44:56.824            44.606                  Delhi          1393.938
        34   01 Jun 2027 11:53:17.289   01 Jun 2027 11:53:22.599             5.310                Novosib           165.937
        35   01 Jun 2027 11:53:36.975   01 Jun 2027 11:56:31.594           174.619                Novosib          5456.844
        36   01 Jun 2027 11:56:36.312   01 Jun 2027 11:58:24.257           107.945                 Moscow          3373.281
        37   01 Jun 2027 13:04:15.902   01 Jun 2027 13:07:20.335           184.433               CapeTown          5763.531
        38   01 Jun 2027 13:07:48.343   01 Jun 2027 13:08:23.649            35.306               CapeTown          1103.313
        39   01 Jun 2027 13:23:11.432   01 Jun 2027 13:24:28.482            77.050                 Moscow          2407.813
        40   01 Jun 2027 13:26:40.155   01 Jun 2027 13:28:39.179           119.024              Murmansk1          3719.500
        41   01 Jun 2027 13:28:39.179   01 Jun 2027 13:29:05.408            26.229              Murmansk2           819.656
        42   01 Jun 2027 13:29:29.582   01 Jun 2027 13:29:57.300            27.718              Murmansk2           866.187
        43   01 Jun 2027 13:30:15.843   01 Jun 2027 13:31:16.190            60.347              Murmansk2          1885.844
        44   01 Jun 2027 13:32:04.869   01 Jun 2027 13:33:13.735            68.866              Murmansk1          2152.063
        45   01 Jun 2027 13:33:39.518   01 Jun 2027 13:34:45.017            65.499              Murmansk2          2046.844
        46   01 Jun 2027 13:35:22.207   01 Jun 2027 13:35:55.017            32.810              Murmansk2          1025.312
        47   01 Jun 2027 13:36:24.106   01 Jun 2027 13:36:25.820             1.714              Murmansk1            53.563
        48   01 Jun 2027 13:36:47.118   01 Jun 2027 13:37:33.597            46.479              Murmansk1          1452.469
        49   01 Jun 2027 13:37:34.976   01 Jun 2027 13:37:51.916            16.940              Murmansk1           529.375
        50   01 Jun 2027 13:37:51.916   01 Jun 2027 13:38:03.467            11.551              Murmansk2           360.969
        51   01 Jun 2027 13:38:15.409   01 Jun 2027 13:38:32.659            17.250              Murmansk2           539.063
        52   01 Jun 2027 13:39:04.543   01 Jun 2027 13:39:11.775             7.232              Murmansk1           226.000
        53   01 Jun 2027 13:41:59.306   01 Jun 2027 13:46:11.388           252.082                Anadyr1          7877.562
        54   01 Jun 2027 13:46:30.431   01 Jun 2027 13:48:21.929           111.498                Anadyr2          3484.312
        55   01 Jun 2027 15:07:46.019   01 Jun 2027 15:08:16.988            30.969                 Moscow           967.781
        56   01 Jun 2027 15:09:14.416   01 Jun 2027 15:09:37.587            23.171                 Moscow           724.094
        57   01 Jun 2027 15:09:48.445   01 Jun 2027 15:10:02.954            14.509              Murmansk1           453.406
        58   01 Jun 2027 15:10:23.644   01 Jun 2027 15:10:31.958             8.314              Murmansk1           259.812
        59   01 Jun 2027 15:10:31.958   01 Jun 2027 15:11:08.122            36.164              Murmansk2          1130.125
        60   01 Jun 2027 15:11:48.489   01 Jun 2027 15:12:24.634            36.145              Murmansk2          1129.531
        61   01 Jun 2027 15:12:59.380   01 Jun 2027 15:14:53.291           113.911              Murmansk1          3559.719
        62   01 Jun 2027 15:14:53.291   01 Jun 2027 15:15:04.029            10.738              Murmansk2           335.562
        63   01 Jun 2027 15:19:51.738   01 Jun 2027 15:21:00.354            68.616                Anadyr2          2144.250
        64   01 Jun 2027 15:21:00.354   01 Jun 2027 15:21:43.811            43.457                Anadyr1          1358.031
        65   01 Jun 2027 15:22:40.717   01 Jun 2027 15:23:12.246            31.529                Anadyr1           985.281
        66   01 Jun 2027 15:23:43.919   01 Jun 2027 15:24:02.554            18.635                Anadyr2           582.344
        67   01 Jun 2027 15:24:16.400   01 Jun 2027 15:24:56.385            39.985                Anadyr2          1249.531
        68   01 Jun 2027 15:24:56.385   01 Jun 2027 15:25:09.862            13.477                Anadyr1           421.156
        69   01 Jun 2027 15:26:03.344   01 Jun 2027 15:27:30.468            87.124                Anadyr2          2722.625
        70   01 Jun 2027 15:28:22.081   01 Jun 2027 15:28:44.150            22.069                Anadyr1           689.656
        71   01 Jun 2027 16:46:41.106   01 Jun 2027 16:47:13.924            32.818              Murmansk2          1025.562
        72   01 Jun 2027 16:47:51.345   01 Jun 2027 16:48:49.449            58.104              Murmansk2          1815.750
        73   01 Jun 2027 16:49:31.484   01 Jun 2027 16:49:40.065             8.581              Murmansk1           268.156
        74   01 Jun 2027 16:54:32.274   01 Jun 2027 16:54:56.474            24.200                Anadyr1           756.250
        75   01 Jun 2027 16:55:24.440   01 Jun 2027 16:56:45.444            81.004               Magadan2          2531.375
        76   01 Jun 2027 16:57:24.340   01 Jun 2027 16:58:03.506            39.166               Magadan1          1223.938
        77   01 Jun 2027 16:59:17.448   01 Jun 2027 17:00:07.923            50.475               Magadan1          1577.344
        78   01 Jun 2027 17:00:51.717   01 Jun 2027 17:01:14.456            22.739               Magadan2           710.594
        79   01 Jun 2027 17:01:48.029   01 Jun 2027 17:02:10.678            22.649               Magadan1           707.781
        80   01 Jun 2027 17:03:22.803   01 Jun 2027 17:04:19.444            56.641               Magadan2          1770.031
        81   01 Jun 2027 17:05:27.946   01 Jun 2027 17:05:45.852            17.906                Anadyr2           559.563
        82   01 Jun 2027 17:06:32.086   01 Jun 2027 17:06:40.323             8.237               Magadan2           257.406
        83   01 Jun 2027 18:28:44.152   01 Jun 2027 18:30:27.189           103.037                Anadyr1          3219.906
        84   01 Jun 2027 18:30:48.219   01 Jun 2027 18:31:19.708            31.489                Anadyr2           984.031
        85   01 Jun 2027 18:31:37.556   01 Jun 2027 18:32:37.577            60.021               Magadan2          1875.656
        86   01 Jun 2027 18:32:49.413   01 Jun 2027 18:34:59.926           130.513                Norilsk          4078.531
        87   01 Jun 2027 18:39:31.708   01 Jun 2027 18:39:49.316            17.608               Magadan2           550.250
        88   01 Jun 2027 18:40:49.060   01 Jun 2027 18:41:04.717            15.657               Magadan2           489.281
        89   01 Jun 2027 18:41:44.091   01 Jun 2027 18:42:21.954            37.863               Magadan1          1183.219
        90   01 Jun 2027 18:43:10.068   01 Jun 2027 18:43:41.928            31.860               Magadan1           995.625
        91   01 Jun 2027 19:23:20.060   01 Jun 2027 19:25:02.805           102.745            RioGallegos          3210.781
        92   01 Jun 2027 19:25:29.512   01 Jun 2027 19:25:53.687            24.175            RioGallegos           755.469
        93   01 Jun 2027 19:26:54.760   01 Jun 2027 19:27:16.520            21.760            RioGallegos           680.000
        94   01 Jun 2027 19:27:36.544   01 Jun 2027 19:27:49.670            13.126            RioGallegos           410.188
        95   01 Jun 2027 19:30:40.370   01 Jun 2027 19:32:44.780           124.410            RioGallegos          3887.812
        96   01 Jun 2027 20:06:36.052   01 Jun 2027 20:06:44.598             8.546                Norilsk           267.063
        97   01 Jun 2027 20:10:39.266   01 Jun 2027 20:11:07.018            27.752                Norilsk           867.250
        98   01 Jun 2027 20:11:49.744   01 Jun 2027 20:12:14.569            24.825                Norilsk           775.781
        99   01 Jun 2027 20:12:21.514   01 Jun 2027 20:13:25.419            63.905                Irkutsk          1997.031
       100   01 Jun 2027 20:13:36.917   01 Jun 2027 20:15:40.716           123.799                Novosib          3868.719
       101   01 Jun 2027 20:19:19.688   01 Jun 2027 20:20:30.363            70.675                Irkutsk          2208.594
       102   01 Jun 2027 20:27:04.627   01 Jun 2027 20:28:20.546            75.919                Sumatra          2372.469
       103   01 Jun 2027 20:31:55.080   01 Jun 2027 20:32:55.947            60.867                Sumatra          1902.094
       104   01 Jun 2027 20:36:08.964   01 Jun 2027 20:36:51.006            42.042                Sumatra          1313.813
       105   01 Jun 2027 21:45:50.006   01 Jun 2027 21:46:10.999            20.993                Norilsk           656.031
       106   01 Jun 2027 21:46:35.110   01 Jun 2027 21:46:52.414            17.304                Novosib           540.750
       107   01 Jun 2027 21:48:45.347   01 Jun 2027 21:48:55.866            10.519                Novosib           328.719
       108   01 Jun 2027 21:49:27.920   01 Jun 2027 21:50:28.309            60.389                Novosib          1887.156
       109   01 Jun 2027 21:52:21.725   01 Jun 2027 21:52:31.243             9.518                Novosib           297.437
       110   01 Jun 2027 21:53:30.279   01 Jun 2027 21:53:53.004            22.725                Novosib           710.156
       111   01 Jun 2027 21:54:24.453   01 Jun 2027 21:54:55.818            31.365                Norilsk           980.156
       112   01 Jun 2027 21:55:34.395   01 Jun 2027 21:56:53.718            79.323                  Delhi          2478.844
       113   01 Jun 2027 21:59:48.741   01 Jun 2027 22:00:46.725            57.984                  Delhi          1812.000
       114   01 Jun 2027 22:01:57.821   01 Jun 2027 22:05:08.019           190.198                  Delhi          5943.688
       115   01 Jun 2027 23:19:58.731   01 Jun 2027 23:20:57.477            58.746               Magadan1          1835.813
       116   01 Jun 2027 23:21:03.740   01 Jun 2027 23:23:31.882           148.142              Murmansk1          4629.438
       117   01 Jun 2027 23:26:06.719   01 Jun 2027 23:27:04.981            58.262                 Moscow          1820.688
       118   01 Jun 2027 23:29:33.479   01 Jun 2027 23:30:59.282            85.803                 Moscow          2681.344
       119   02 Jun 2027 00:46:10.515   02 Jun 2027 00:46:14.453             3.938                Anadyr2           123.063
       120   02 Jun 2027 00:46:17.503   02 Jun 2027 00:46:33.414            15.911                Anadyr2           497.219
       121   02 Jun 2027 00:47:03.214   02 Jun 2027 00:47:38.589            35.375                Anadyr2          1105.469
       122   02 Jun 2027 00:48:47.132   02 Jun 2027 00:49:14.627            27.495                Anadyr2           859.219
       123   02 Jun 2027 00:49:33.606   02 Jun 2027 00:49:34.022             0.416                Anadyr1            13.000
       124   02 Jun 2027 00:50:52.806   02 Jun 2027 00:51:52.421            59.615                Anadyr1          1862.969
       125   02 Jun 2027 00:52:36.322   02 Jun 2027 00:53:55.613            79.291               Magadan2          2477.844
       126   02 Jun 2027 00:53:55.613   02 Jun 2027 00:54:31.780            36.167               Magadan1          1130.219
       127   02 Jun 2027 00:56:39.087   02 Jun 2027 00:58:27.069           107.982              Murmansk2          3374.438
       128   02 Jun 2027 01:00:03.083   02 Jun 2027 01:00:17.388            14.305                 Moscow           447.031
       129   02 Jun 2027 01:02:07.736   02 Jun 2027 01:02:15.686             7.950              Murmansk2           248.438
       130   02 Jun 2027 01:02:53.121   02 Jun 2027 01:03:09.588            16.467                 Moscow           514.594
       131   02 Jun 2027 01:04:04.131   02 Jun 2027 01:04:11.669             7.538              Murmansk2           235.562
       132   02 Jun 2027 01:05:57.295   02 Jun 2027 01:06:36.013            38.718                 Moscow          1209.937
       133   02 Jun 2027 01:08:33.700   02 Jun 2027 01:08:35.038             1.338              Murmansk2            41.813
       134   02 Jun 2027 01:08:48.943   02 Jun 2027 01:09:35.546            46.603                 Moscow          1456.344
       135   02 Jun 2027 01:26:20.312   02 Jun 2027 01:26:37.018            16.706               CapeTown           522.063
       136   02 Jun 2027 01:27:24.251   02 Jun 2027 01:27:56.013            31.762               CapeTown           992.563
       137   02 Jun 2027 01:33:51.303   02 Jun 2027 01:35:11.392            80.089               CapeTown          2502.781
       138   02 Jun 2027 02:20:36.941   02 Jun 2027 02:21:33.334            56.393                Anadyr1          1762.281
       139   02 Jun 2027 02:22:51.920   02 Jun 2027 02:23:15.306            23.386                Anadyr1           730.813
       140   02 Jun 2027 02:23:18.998   02 Jun 2027 02:24:13.050            54.052               Magadan1          1689.125
       141   02 Jun 2027 02:27:00.219   02 Jun 2027 02:27:06.488             6.269               Magadan2           195.906
       142   02 Jun 2027 02:27:14.981   02 Jun 2027 02:27:27.805            12.824               Magadan1           400.750
       143   02 Jun 2027 02:28:26.377   02 Jun 2027 02:28:52.984            26.607               Magadan1           831.469
       144   02 Jun 2027 02:30:24.477   02 Jun 2027 02:30:36.999            12.522               Magadan2           391.313
       145   02 Jun 2027 02:30:53.997   02 Jun 2027 02:31:42.975            48.978               Magadan2          1530.563
       146   02 Jun 2027 02:32:37.134   02 Jun 2027 02:32:50.375            13.241              Murmansk2           413.781
       147   02 Jun 2027 02:33:07.429   02 Jun 2027 02:33:37.527            30.098              Murmansk2           940.563
       148   02 Jun 2027 02:35:50.731   02 Jun 2027 02:36:10.852            20.121                 Moscow           628.781
       149   02 Jun 2027 02:36:40.212   02 Jun 2027 02:37:03.624            23.412                Novosib           731.625
       150   02 Jun 2027 02:39:49.842   02 Jun 2027 02:40:01.681            11.839              Murmansk2           369.969
       151   02 Jun 2027 02:40:02.671   02 Jun 2027 02:40:31.924            29.253              Murmansk1           914.156
       152   02 Jun 2027 02:43:31.160   02 Jun 2027 02:43:53.138            21.978              Murmansk1           686.813
       153   02 Jun 2027 02:47:06.335   02 Jun 2027 02:48:24.274            77.939                 Moscow          2435.594
       154   02 Jun 2027 03:10:59.242   02 Jun 2027 03:11:25.420            26.178               CapeTown           818.062
       155   02 Jun 2027 04:03:25.532   02 Jun 2027 04:05:22.402           116.870                Anadyr1          3652.188
       156   02 Jun 2027 04:05:31.823   02 Jun 2027 04:05:59.441            27.618                Anadyr2           863.062
       157   02 Jun 2027 04:05:59.441   02 Jun 2027 04:06:17.097            17.656                Anadyr1           551.750
       158   02 Jun 2027 04:06:38.230   02 Jun 2027 04:07:25.471            47.241               Magadan1          1476.281
       159   02 Jun 2027 04:07:43.894   02 Jun 2027 04:08:40.500            56.606               Magadan1          1768.937
       160   02 Jun 2027 05:40:39.795   02 Jun 2027 05:42:54.456           134.661                Anadyr1          4208.156
       161   02 Jun 2027 05:44:37.656   02 Jun 2027 05:44:47.520             9.864               Magadan2           308.250
       162   02 Jun 2027 07:15:29.558   02 Jun 2027 07:16:06.275            36.717                Norilsk          1147.406
       163   02 Jun 2027 07:16:22.045   02 Jun 2027 07:20:39.119           257.074                Irkutsk          8033.562
       164   02 Jun 2027 07:20:50.753   02 Jun 2027 07:21:49.022            58.269                Novosib          1820.906
       165   02 Jun 2027 07:22:17.934   02 Jun 2027 07:22:37.155            19.221              Murmansk2           600.656
       166   02 Jun 2027 07:22:42.467   02 Jun 2027 07:23:04.439            21.972                Norilsk           686.625
       167   02 Jun 2027 07:23:09.461   02 Jun 2027 07:23:31.813            22.352                Norilsk           698.500
       168   02 Jun 2027 07:23:55.278   02 Jun 2027 07:24:23.363            28.085                Norilsk           877.656
       169   02 Jun 2027 07:55:22.219   02 Jun 2027 07:56:00.688            38.469            RioGallegos          1202.156
       170   02 Jun 2027 07:57:01.219   02 Jun 2027 07:57:27.805            26.586            RioGallegos           830.812
       171   02 Jun 2027 08:30:32.655   02 Jun 2027 08:32:10.660            98.005                Sumatra          3062.656
       172   02 Jun 2027 08:33:12.574   02 Jun 2027 08:34:21.657            69.083                Sumatra          2158.844
       173   02 Jun 2027 08:51:33.237   02 Jun 2027 08:52:00.492            27.255                Irkutsk           851.719
       174   02 Jun 2027 08:52:42.189   02 Jun 2027 08:53:22.379            40.190                Irkutsk          1255.937
       175   02 Jun 2027 08:53:28.940   02 Jun 2027 08:54:17.270            48.330              Murmansk1          1510.312
       176   02 Jun 2027 08:54:17.932   02 Jun 2027 08:55:05.621            47.689                Norilsk          1490.281
       177   02 Jun 2027 08:55:13.062   02 Jun 2027 08:56:51.940            98.878              Murmansk2          3089.937
       178   02 Jun 2027 08:56:53.463   02 Jun 2027 08:57:52.765            59.302                Novosib          1853.187
       179   02 Jun 2027 10:08:00.692   02 Jun 2027 10:10:16.695           136.003                Sumatra          4250.094
       180   02 Jun 2027 10:16:34.799   02 Jun 2027 10:17:22.487            47.688                  Delhi          1490.250
       181   02 Jun 2027 10:29:14.014   02 Jun 2027 10:29:37.337            23.323                Irkutsk           728.844
       182   02 Jun 2027 10:30:18.198   02 Jun 2027 10:30:43.076            24.878                Irkutsk           777.437
       183   02 Jun 2027 10:31:31.175   02 Jun 2027 10:34:00.562           149.387                Novosib          4668.344
       184   02 Jun 2027 10:34:07.217   02 Jun 2027 10:35:35.269            88.052                Norilsk          2751.625
       185   02 Jun 2027 10:35:49.091   02 Jun 2027 10:38:00.539           131.448              Murmansk2          4107.750
       186   02 Jun 2027 10:38:42.830   02 Jun 2027 10:38:56.049            13.219              Murmansk2           413.094
       187   02 Jun 2027 10:39:13.462   02 Jun 2027 10:39:26.072            12.610              Murmansk1           394.062
       188   02 Jun 2027 11:53:41.071   02 Jun 2027 11:57:32.047           230.976                  Delhi          7218.000
       189   02 Jun 2027 12:04:05.372   02 Jun 2027 12:05:09.677            64.305                Novosib          2009.531
       190   02 Jun 2027 13:18:13.285   02 Jun 2027 13:19:56.054           102.769               CapeTown          3211.531
       191   02 Jun 2027 13:47:13.277   02 Jun 2027 13:48:37.673            84.396              Murmansk2          2637.375
       192   02 Jun 2027 13:49:33.946   02 Jun 2027 13:50:24.603            50.657              Murmansk1          1583.031
       193   02 Jun 2027 13:50:56.405   02 Jun 2027 13:51:05.511             9.106              Murmansk2           284.563
       194   02 Jun 2027 13:55:17.882   02 Jun 2027 13:56:01.216            43.334                Anadyr1          1354.187
       195   02 Jun 2027 13:57:13.663   02 Jun 2027 13:59:56.392           162.729                Anadyr2          5085.281
       196   02 Jun 2027 15:25:01.039   02 Jun 2027 15:27:02.529           121.490              Murmansk2          3796.562
       197   02 Jun 2027 15:33:37.331   02 Jun 2027 15:36:06.565           149.234               Magadan1          4663.562
       198   02 Jun 2027 15:36:06.565   02 Jun 2027 15:37:38.375            91.810               Magadan2          2869.063
       199   02 Jun 2027 17:08:02.048   02 Jun 2027 17:08:30.135            28.087               Magadan2           877.719
       200   02 Jun 2027 17:08:55.761   02 Jun 2027 17:09:08.930            13.169                Anadyr1           411.531
       201   02 Jun 2027 17:09:10.593   02 Jun 2027 17:09:25.691            15.098               Magadan1           471.813
       202   02 Jun 2027 17:09:25.691   02 Jun 2027 17:09:26.913             1.222               Magadan2            38.187
       203   02 Jun 2027 17:09:30.021   02 Jun 2027 17:09:38.729             8.708               Magadan2           272.125
       204   02 Jun 2027 17:10:04.796   02 Jun 2027 17:11:16.222            71.426               Magadan2          2232.063
       205   02 Jun 2027 17:11:55.578   02 Jun 2027 17:12:21.740            26.162               Magadan1           817.562
       206   02 Jun 2027 17:12:46.331   02 Jun 2027 17:13:07.714            21.383               Magadan2           668.219
       207   02 Jun 2027 17:13:24.098   02 Jun 2027 17:13:56.260            32.162               Magadan2          1005.062
       208   02 Jun 2027 17:14:21.292   02 Jun 2027 17:14:31.167             9.875               Magadan1           308.594
       209   02 Jun 2027 17:15:03.509   02 Jun 2027 17:15:26.075            22.566                Anadyr1           705.187
       210   02 Jun 2027 17:15:53.004   02 Jun 2027 17:16:52.827            59.823               Magadan2          1869.469
       211   02 Jun 2027 17:18:38.959   02 Jun 2027 17:19:02.467            23.508               Magadan2           734.625
       212   02 Jun 2027 18:41:04.955   02 Jun 2027 18:41:16.596            11.641                Anadyr1           363.781
       213   02 Jun 2027 18:41:50.879   02 Jun 2027 18:42:28.578            37.699                Anadyr1          1178.094
       214   02 Jun 2027 18:43:02.541   02 Jun 2027 18:43:18.700            16.159               Magadan2           504.969
       215   02 Jun 2027 18:43:21.190   02 Jun 2027 18:46:59.030           217.840                Norilsk          6807.500
       216   02 Jun 2027 18:51:56.322   02 Jun 2027 18:52:57.747            61.425               Magadan2          1919.531
       217   02 Jun 2027 18:54:50.867   02 Jun 2027 18:55:12.192            21.325               Magadan2           666.406
       218   02 Jun 2027 18:55:52.776   02 Jun 2027 18:55:55.818             3.042               Magadan2            95.062
       219   02 Jun 2027 19:36:21.388   02 Jun 2027 19:37:09.379            47.991            RioGallegos          1499.719
       220   02 Jun 2027 19:38:16.137   02 Jun 2027 19:38:35.816            19.679            RioGallegos           614.969
       221   02 Jun 2027 19:40:30.894   02 Jun 2027 19:41:12.622            41.728            RioGallegos          1304.000
       222   02 Jun 2027 19:41:18.947   02 Jun 2027 19:41:56.604            37.657            RioGallegos          1176.781
       223   02 Jun 2027 19:43:54.280   02 Jun 2027 19:44:26.677            32.397            RioGallegos          1012.406
       224   02 Jun 2027 19:44:47.286   02 Jun 2027 19:46:02.417            75.131            RioGallegos          2347.844
       225   02 Jun 2027 20:22:40.567   02 Jun 2027 20:23:41.814            61.247                Norilsk          1913.969
       226   02 Jun 2027 20:24:06.176   02 Jun 2027 20:24:26.133            19.957                Irkutsk           623.656
       227   02 Jun 2027 20:24:27.623   02 Jun 2027 20:25:33.620            65.997                Novosib          2062.406
       228   02 Jun 2027 20:26:30.805   02 Jun 2027 20:27:24.652            53.847                Novosib          1682.719
       229   02 Jun 2027 20:28:08.454   02 Jun 2027 20:29:29.248            80.794                Novosib          2524.813
       230   02 Jun 2027 20:43:27.836   02 Jun 2027 20:45:55.979           148.143                Sumatra          4629.469
       231   02 Jun 2027 21:56:28.012   02 Jun 2027 21:56:48.611            20.599               Magadan2           643.719
       232   02 Jun 2027 21:56:49.824   02 Jun 2027 21:57:03.270            13.446                Norilsk           420.187
       233   02 Jun 2027 21:57:31.506   02 Jun 2027 21:57:55.637            24.131               Magadan1           754.094
       234   02 Jun 2027 21:58:43.738   02 Jun 2027 22:00:21.746            98.008                Novosib          3062.750
       235   02 Jun 2027 22:04:16.656   02 Jun 2027 22:05:03.061            46.405                Irkutsk          1450.156
       236   02 Jun 2027 22:06:13.529   02 Jun 2027 22:07:32.733            79.204                  Delhi          2475.125
       237   02 Jun 2027 22:10:38.769   02 Jun 2027 22:11:06.296            27.527                  Delhi           860.219
       238   02 Jun 2027 22:12:56.954   02 Jun 2027 22:13:32.573            35.619                  Delhi          1113.094
       239   02 Jun 2027 22:14:56.479   02 Jun 2027 22:15:37.827            41.348                  Delhi          1292.125
       240   02 Jun 2027 22:17:02.141   02 Jun 2027 22:18:03.344            61.203                  Delhi          1912.594
       241   02 Jun 2027 23:28:37.985   02 Jun 2027 23:29:50.582            72.597                Anadyr2          2268.656
       242   02 Jun 2027 23:30:32.796   02 Jun 2027 23:30:48.741            15.945               Magadan2           498.281
       243   02 Jun 2027 23:30:48.741   02 Jun 2027 23:31:02.446            13.705               Magadan1           428.281
       244   02 Jun 2027 23:31:40.296   02 Jun 2027 23:31:52.886            12.590               Magadan2           393.437
       245   02 Jun 2027 23:32:16.773   02 Jun 2027 23:32:20.896             4.123                Norilsk           128.844
       246   02 Jun 2027 23:32:52.072   02 Jun 2027 23:33:20.072            28.000               Magadan2           875.000
       247   02 Jun 2027 23:33:27.260   02 Jun 2027 23:35:42.894           135.634              Murmansk1          4238.563
       248   02 Jun 2027 23:36:18.394   02 Jun 2027 23:36:52.159            33.765              Murmansk1          1055.156
       249   02 Jun 2027 23:37:33.117   02 Jun 2027 23:38:17.922            44.805                 Moscow          1400.156
       250   02 Jun 2027 23:40:35.692   02 Jun 2027 23:41:57.421            81.729              Murmansk2          2554.031
       251   03 Jun 2027 00:57:55.971   03 Jun 2027 00:58:02.833             6.862                Anadyr2           214.438
       252   03 Jun 2027 00:58:12.875   03 Jun 2027 00:58:17.826             4.951                Anadyr2           154.719
       253   03 Jun 2027 00:58:36.626   03 Jun 2027 00:59:12.238            35.612                Anadyr2          1112.875
       254   03 Jun 2027 00:59:59.772   03 Jun 2027 01:00:23.549            23.777                Anadyr2           743.031
       255   03 Jun 2027 01:00:52.097   03 Jun 2027 01:01:18.600            26.503                Anadyr1           828.219
       256   03 Jun 2027 01:02:14.022   03 Jun 2027 01:02:54.122            40.100                Anadyr1          1253.125
       257   03 Jun 2027 01:03:10.255   03 Jun 2027 01:04:05.822            55.567               Magadan1          1736.469
       258   03 Jun 2027 01:04:55.459   03 Jun 2027 01:05:24.732            29.273               Magadan2           914.781
       259   03 Jun 2027 01:06:18.684   03 Jun 2027 01:06:21.792             3.108                Norilsk            97.125
       260   03 Jun 2027 01:06:31.234   03 Jun 2027 01:07:39.396            68.162               Magadan2          2130.063
       261   03 Jun 2027 01:10:32.380   03 Jun 2027 01:10:59.214            26.834              Murmansk2           838.562
       262   03 Jun 2027 01:11:17.614   03 Jun 2027 01:11:40.940            23.326              Murmansk1           728.938
       263   03 Jun 2027 01:13:52.458   03 Jun 2027 01:14:37.112            44.654                 Moscow          1395.437
       264   03 Jun 2027 01:16:05.121   03 Jun 2027 01:16:08.263             3.142              Murmansk2            98.187
       265   03 Jun 2027 01:16:17.307   03 Jun 2027 01:16:39.899            22.592              Murmansk1           706.000
       266   03 Jun 2027 01:18:07.959   03 Jun 2027 01:18:16.217             8.258              Murmansk2           258.062
       267   03 Jun 2027 01:19:33.044   03 Jun 2027 01:19:39.761             6.717                 Moscow           209.906
       268   03 Jun 2027 01:19:58.619   03 Jun 2027 01:20:10.806            12.187                 Moscow           380.844
       269   03 Jun 2027 01:21:23.142   03 Jun 2027 01:21:33.921            10.779                 Moscow           336.844
       270   03 Jun 2027 01:23:25.140   03 Jun 2027 01:23:55.939            30.799                 Moscow           962.469
       271   03 Jun 2027 01:40:11.301   03 Jun 2027 01:41:18.690            67.389               CapeTown          2105.906
       272   03 Jun 2027 02:32:34.097   03 Jun 2027 02:34:35.910           121.813                Anadyr2          3806.656
       273   03 Jun 2027 02:34:45.182   03 Jun 2027 02:35:00.919            15.737                Anadyr1           491.781
       274   03 Jun 2027 02:35:21.646   03 Jun 2027 02:35:28.352             6.706               Magadan1           209.562
       275   03 Jun 2027 02:35:42.472   03 Jun 2027 02:36:06.172            23.700               Magadan2           740.625
       276   03 Jun 2027 02:37:23.799   03 Jun 2027 02:37:46.064            22.265               Magadan2           695.781
       277   03 Jun 2027 02:39:30.537   03 Jun 2027 02:39:54.211            23.674               Magadan1           739.812
       278   03 Jun 2027 02:41:28.277   03 Jun 2027 02:42:21.640            53.363               Magadan1          1667.594
       279   03 Jun 2027 02:44:38.683   03 Jun 2027 02:44:43.177             4.494              Murmansk2           140.437
       280   03 Jun 2027 02:44:43.177   03 Jun 2027 02:45:05.702            22.525              Murmansk1           703.906
       281   03 Jun 2027 02:46:01.517   03 Jun 2027 02:46:26.907            25.390              Murmansk2           793.438
       282   03 Jun 2027 02:49:32.064   03 Jun 2027 02:49:43.781            11.717                 Moscow           366.156
       283   03 Jun 2027 02:50:14.508   03 Jun 2027 02:50:20.343             5.835              Murmansk2           182.344
       284   03 Jun 2027 02:50:48.299   03 Jun 2027 02:51:17.436            29.137              Murmansk2           910.531
       285   03 Jun 2027 02:52:01.470   03 Jun 2027 02:52:03.439             1.969              Murmansk2            61.531
       286   03 Jun 2027 02:52:05.938   03 Jun 2027 02:52:15.852             9.914                 Moscow           309.813
       287   03 Jun 2027 02:54:12.087   03 Jun 2027 02:54:32.185            20.098                 Moscow           628.063
       288   03 Jun 2027 02:56:10.145   03 Jun 2027 02:56:14.409             4.264              Murmansk2           133.250
       289   03 Jun 2027 02:56:19.323   03 Jun 2027 02:56:28.971             9.648                 Moscow           301.500
       290   03 Jun 2027 02:57:17.731   03 Jun 2027 02:57:22.634             4.903                 Moscow           153.219
       291   03 Jun 2027 02:59:07.496   03 Jun 2027 02:59:37.508            30.012                 Moscow           937.875
       292   03 Jun 2027 04:13:49.591   03 Jun 2027 04:15:27.059            97.468                Anadyr1          3045.875
       293   03 Jun 2027 04:15:30.575   03 Jun 2027 04:15:53.883            23.308                Anadyr1           728.375
       294   03 Jun 2027 04:16:08.084   03 Jun 2027 04:16:56.011            47.927               Magadan1          1497.719
       295   03 Jun 2027 04:17:01.791   03 Jun 2027 04:17:56.366            54.575               Magadan1          1705.469
       296   03 Jun 2027 04:18:02.725   03 Jun 2027 04:19:40.978            98.253                Anadyr2          3070.406
       297   03 Jun 2027 04:19:44.643   03 Jun 2027 04:20:24.376            39.733               Magadan2          1241.656
       298   03 Jun 2027 05:02:46.813   03 Jun 2027 05:03:15.970            29.157            RioGallegos           911.156
       299   03 Jun 2027 05:51:02.175   03 Jun 2027 05:51:09.846             7.671               Magadan2           239.719
       300   03 Jun 2027 05:51:10.239   03 Jun 2027 05:53:57.188           166.949                Irkutsk          5217.156
       301   03 Jun 2027 05:54:08.846   03 Jun 2027 05:56:40.813           151.967                Anadyr1          4748.969
       302   03 Jun 2027 05:56:50.387   03 Jun 2027 05:56:55.639             5.252               Magadan1           164.125
       303   03 Jun 2027 06:34:20.742   03 Jun 2027 06:34:28.503             7.761            RioGallegos           242.531
       304   03 Jun 2027 07:26:59.118   03 Jun 2027 07:27:41.152            42.034                Novosib          1313.562
       305   03 Jun 2027 07:28:13.469   03 Jun 2027 07:28:34.424            20.955                Irkutsk           654.844
       306   03 Jun 2027 07:28:49.019   03 Jun 2027 07:28:54.337             5.318                Novosib           166.188
       307   03 Jun 2027 07:28:56.924   03 Jun 2027 07:30:02.175            65.251                Norilsk          2039.094
       308   03 Jun 2027 07:30:04.258   03 Jun 2027 07:32:43.369           159.111                Irkutsk          4972.219
       309   03 Jun 2027 08:43:25.002   03 Jun 2027 08:45:18.068           113.066                Sumatra          3533.313
       310   03 Jun 2027 08:53:29.872   03 Jun 2027 08:53:32.285             2.413                  Delhi            75.406
       311   03 Jun 2027 09:04:21.630   03 Jun 2027 09:04:42.194            20.564                Irkutsk           642.625
       312   03 Jun 2027 09:04:52.619   03 Jun 2027 09:06:08.270            75.651              Murmansk1          2364.094
       313   03 Jun 2027 09:06:26.698   03 Jun 2027 09:09:26.820           180.122              Murmansk2          5628.813
       314   03 Jun 2027 09:09:26.820   03 Jun 2027 09:10:06.042            39.222              Murmansk1          1225.687
       315   03 Jun 2027 09:11:11.203   03 Jun 2027 09:11:51.404            40.201              Murmansk2          1256.281
       316   03 Jun 2027 09:12:24.203   03 Jun 2027 09:13:08.631            44.428                Norilsk          1388.375
       317   03 Jun 2027 09:46:30.602   03 Jun 2027 09:47:00.065            29.463            RioGallegos           920.719
       318   03 Jun 2027 09:48:25.745   03 Jun 2027 09:49:17.568            51.823            RioGallegos          1619.469
       319   03 Jun 2027 10:21:06.208   03 Jun 2027 10:22:03.852            57.644                Sumatra          1801.375
       320   03 Jun 2027 10:41:13.831   03 Jun 2027 10:42:09.066            55.235                 Moscow          1726.094
       321   03 Jun 2027 10:42:23.343   03 Jun 2027 10:43:17.113            53.770                 Moscow          1680.312
       322   03 Jun 2027 10:43:32.477   03 Jun 2027 10:44:47.111            74.634                 Moscow          2332.312
       323   03 Jun 2027 10:46:26.617   03 Jun 2027 10:46:28.309             1.692                 Moscow            52.875
       324   03 Jun 2027 10:48:11.945   03 Jun 2027 10:48:35.235            23.290              Murmansk1           727.813
       325   03 Jun 2027 12:07:41.488   03 Jun 2027 12:10:05.271           143.783                  Delhi          4493.219
       326   03 Jun 2027 12:11:43.807   03 Jun 2027 12:12:20.089            36.282                 Moscow          1133.812
       327   03 Jun 2027 12:12:49.121   03 Jun 2027 12:14:32.745           103.624                 Moscow          3238.250
       328   03 Jun 2027 12:14:47.391   03 Jun 2027 12:15:16.917            29.526              Murmansk1           922.688
       329   03 Jun 2027 12:16:39.451   03 Jun 2027 12:17:41.075            61.624              Murmansk1          1925.750
       330   03 Jun 2027 13:26:10.295   03 Jun 2027 13:29:03.556           173.261               CapeTown          5414.406
       331   03 Jun 2027 13:32:06.906   03 Jun 2027 13:32:44.409            37.503               CapeTown          1171.969
       332   03 Jun 2027 13:51:06.153   03 Jun 2027 13:52:06.119            59.966              Murmansk1          1873.938
       333   03 Jun 2027 13:52:14.390   03 Jun 2027 13:53:55.293           100.903              Murmansk2          3153.219
       334   03 Jun 2027 13:55:33.156   03 Jun 2027 13:56:15.570            42.414              Murmansk1          1325.437
       335   03 Jun 2027 14:03:06.699   03 Jun 2027 14:03:14.930             8.231              Murmansk1           257.219
       336   03 Jun 2027 14:05:35.764   03 Jun 2027 14:09:14.821           219.057                Anadyr1          6845.531
       337   03 Jun 2027 15:30:01.611   03 Jun 2027 15:32:19.362           137.751              Murmansk2          4304.719
       338   03 Jun 2027 15:40:58.959   03 Jun 2027 15:42:49.564           110.605                Anadyr1          3456.406
       339   03 Jun 2027 15:43:11.741   03 Jun 2027 15:43:30.658            18.917                Anadyr2           591.156
       340   03 Jun 2027 15:44:55.465   03 Jun 2027 15:48:36.270           220.805               Magadan2          6900.156
       341   03 Jun 2027 15:50:10.584   03 Jun 2027 15:50:19.817             9.233               Magadan1           288.531
       342   03 Jun 2027 15:50:36.800   03 Jun 2027 15:50:57.003            20.203               Magadan1           631.344
       343   03 Jun 2027 17:16:52.218   03 Jun 2027 17:18:34.212           101.994                Anadyr2          3187.313
       344   03 Jun 2027 17:18:51.521   03 Jun 2027 17:19:31.495            39.974                Anadyr1          1249.187
       345   03 Jun 2027 17:19:54.942   03 Jun 2027 17:20:59.481            64.539               Magadan2          2016.844
       346   03 Jun 2027 17:21:32.012   03 Jun 2027 17:22:06.386            34.374               Magadan2          1074.188
       347   03 Jun 2027 17:27:06.875   03 Jun 2027 17:29:22.232           135.357               Magadan1          4229.906
       348   03 Jun 2027 18:52:44.983   03 Jun 2027 18:54:49.412           124.429                Anadyr1          3888.406
       349   03 Jun 2027 18:55:04.164   03 Jun 2027 18:55:22.188            18.024               Magadan2           563.250
       350   03 Jun 2027 18:55:27.818   03 Jun 2027 18:58:33.115           185.297                Norilsk          5790.531
       351   03 Jun 2027 19:01:12.425   03 Jun 2027 19:01:41.706            29.281                Irkutsk           915.031
       352   03 Jun 2027 19:02:49.269   03 Jun 2027 19:04:06.540            77.271                Irkutsk          2414.719
       353   03 Jun 2027 19:05:02.094   03 Jun 2027 19:05:56.813            54.719                Irkutsk          1709.969
       354   03 Jun 2027 19:48:37.105   03 Jun 2027 19:49:17.031            39.926            RioGallegos          1247.687
       355   03 Jun 2027 19:49:33.023   03 Jun 2027 19:49:57.861            24.838            RioGallegos           776.187
       356   03 Jun 2027 20:30:37.190   03 Jun 2027 20:30:55.188            17.998                Norilsk           562.438
       357   03 Jun 2027 20:31:08.469   03 Jun 2027 20:31:55.798            47.329               Magadan2          1479.031
       358   03 Jun 2027 20:34:32.852   03 Jun 2027 20:35:12.249            39.397               Magadan1          1231.156
       359   03 Jun 2027 20:35:34.069   03 Jun 2027 20:36:13.810            39.741                Norilsk          1241.906
       360   03 Jun 2027 20:36:27.478   03 Jun 2027 20:37:03.847            36.369                Irkutsk          1136.531
       361   03 Jun 2027 20:37:31.453   03 Jun 2027 20:39:31.447           119.994                Novosib          3749.812
       362   03 Jun 2027 20:39:59.027   03 Jun 2027 20:40:23.317            24.290                Novosib           759.063
       363   03 Jun 2027 20:41:08.751   03 Jun 2027 20:41:33.136            24.385                Novosib           762.031
       364   03 Jun 2027 20:41:50.730   03 Jun 2027 20:42:07.249            16.519                Novosib           516.219
       365   03 Jun 2027 20:48:20.617   03 Jun 2027 20:49:12.815            52.198                Sumatra          1631.188
       366   03 Jun 2027 20:56:45.394   03 Jun 2027 20:57:52.215            66.821                Sumatra          2088.156
       367   03 Jun 2027 22:07:12.033   03 Jun 2027 22:08:29.945            77.912               Magadan1          2434.750
       368   03 Jun 2027 22:10:29.344   03 Jun 2027 22:10:51.287            21.943                Irkutsk           685.719
       369   03 Jun 2027 22:11:56.902   03 Jun 2027 22:12:07.518            10.616                Irkutsk           331.750
       370   03 Jun 2027 22:12:08.360   03 Jun 2027 22:13:19.754            71.394                Novosib          2231.063
       371   03 Jun 2027 22:18:01.202   03 Jun 2027 22:20:32.724           151.522                  Delhi          4735.062
       372   03 Jun 2027 22:28:50.884   03 Jun 2027 22:29:42.620            51.736                  Delhi          1616.750
       373   03 Jun 2027 23:38:07.824   03 Jun 2027 23:38:20.210            12.386                Anadyr2           387.062
       374   03 Jun 2027 23:39:02.092   03 Jun 2027 23:39:16.755            14.663                Anadyr1           458.219
       375   03 Jun 2027 23:42:18.359   03 Jun 2027 23:44:40.030           141.671               Magadan2          4427.219
       376   03 Jun 2027 23:44:52.023   03 Jun 2027 23:47:06.856           134.833              Murmansk1          4213.531
       377   03 Jun 2027 23:47:15.127   03 Jun 2027 23:49:00.147           105.020              Murmansk1          3281.875
       378   03 Jun 2027 23:50:52.118   03 Jun 2027 23:51:22.339            30.221                 Moscow           944.406
       379   03 Jun 2027 23:53:25.214   03 Jun 2027 23:53:29.607             4.393                 Moscow           137.281
       380   03 Jun 2027 23:54:03.424   03 Jun 2027 23:55:07.330            63.906                 Moscow          1997.062
       381   04 Jun 2027 00:17:40.240   04 Jun 2027 00:18:25.550            45.310               CapeTown          1415.937
       382   04 Jun 2027 00:19:18.881   04 Jun 2027 00:20:14.956            56.075               CapeTown          1752.344
       383   04 Jun 2027 01:14:20.553   04 Jun 2027 01:15:28.015            67.462               Magadan1          2108.188
       384   04 Jun 2027 01:15:28.015   04 Jun 2027 01:15:38.838            10.823               Magadan2           338.219
       385   04 Jun 2027 01:18:08.258   04 Jun 2027 01:18:29.563            21.305               Magadan1           665.781
       386   04 Jun 2027 01:20:42.038   04 Jun 2027 01:22:29.680           107.642              Murmansk2          3363.813
       387   04 Jun 2027 01:22:59.301   04 Jun 2027 01:23:14.008            14.707              Murmansk2           459.594
       388   04 Jun 2027 01:23:19.186   04 Jun 2027 01:23:42.786            23.600              Murmansk2           737.500
       389   04 Jun 2027 01:23:47.504   04 Jun 2027 01:24:30.282            42.778              Murmansk2          1336.812
       390   04 Jun 2027 01:31:34.878   04 Jun 2027 01:31:50.823            15.945                 Moscow           498.281
       391   04 Jun 2027 01:36:24.385   04 Jun 2027 01:36:37.356            12.971                 Moscow           405.344
       392   04 Jun 2027 01:48:01.292   04 Jun 2027 01:49:30.105            88.813               CapeTown          2775.406
       393   04 Jun 2027 02:44:33.049   04 Jun 2027 02:45:50.609            77.560                Anadyr2          2423.750
       394   04 Jun 2027 02:46:25.855   04 Jun 2027 02:47:22.101            56.246               Magadan2          1757.687
       395   04 Jun 2027 02:47:24.368   04 Jun 2027 02:47:34.590            10.222               Magadan1           319.437
       396   04 Jun 2027 02:48:38.395   04 Jun 2027 02:49:00.570            22.175               Magadan1           692.969
       397   04 Jun 2027 02:49:13.692   04 Jun 2027 02:49:20.183             6.491               Magadan1           202.844
       398   04 Jun 2027 02:51:33.247   04 Jun 2027 02:51:38.135             4.888               Magadan1           152.750
       399   04 Jun 2027 02:52:57.988   04 Jun 2027 02:53:00.929             2.941               Magadan1            91.906
       400   04 Jun 2027 02:53:31.549   04 Jun 2027 02:54:14.600            43.051                Norilsk          1345.344
       401   04 Jun 2027 02:56:40.125   04 Jun 2027 02:57:22.905            42.780              Murmansk1          1336.875
       402   04 Jun 2027 02:57:29.709   04 Jun 2027 02:58:21.628            51.919              Murmansk2          1622.469
       403   04 Jun 2027 02:59:57.313   04 Jun 2027 03:00:55.650            58.337                 Moscow          1823.031
       404   04 Jun 2027 03:05:36.391   04 Jun 2027 03:06:06.759            30.368              Murmansk2           949.000
       405   04 Jun 2027 03:06:06.759   04 Jun 2027 03:06:15.673             8.914              Murmansk1           278.563
       406   04 Jun 2027 03:25:20.829   04 Jun 2027 03:25:30.571             9.742               CapeTown           304.437
       407   04 Jun 2027 04:20:20.736   04 Jun 2027 04:22:10.218           109.482               Magadan2          3421.313
       408   04 Jun 2027 04:25:06.770   04 Jun 2027 04:25:11.996             5.226               Magadan2           163.313
       409   04 Jun 2027 04:25:30.922   04 Jun 2027 04:27:56.380           145.458                Anadyr1          4545.563
       410   04 Jun 2027 04:27:56.801   04 Jun 2027 04:29:13.881            77.080                Anadyr2          2408.750
       411   04 Jun 2027 04:29:21.351   04 Jun 2027 04:30:07.208            45.857               Magadan2          1433.031
       412   04 Jun 2027 04:30:25.160   04 Jun 2027 04:31:07.802            42.642                Norilsk          1332.562
       413   04 Jun 2027 04:31:11.700   04 Jun 2027 04:31:58.173            46.473                Anadyr2          1452.281
       414   04 Jun 2027 04:32:29.109   04 Jun 2027 04:32:43.923            14.814              Murmansk1           462.938
       415   04 Jun 2027 05:13:08.990   04 Jun 2027 05:13:37.730            28.740            RioGallegos           898.125
       416   04 Jun 2027 05:14:04.423   04 Jun 2027 05:14:39.190            34.767            RioGallegos          1086.469
       417   04 Jun 2027 06:01:08.479   04 Jun 2027 06:01:38.724            30.245               Magadan2           945.156
       418   04 Jun 2027 06:01:56.458   04 Jun 2027 06:03:04.636            68.178               Magadan2          2130.562
       419   04 Jun 2027 06:03:09.722   04 Jun 2027 06:04:15.924            66.202                Anadyr1          2068.812
       420   04 Jun 2027 06:04:34.925   04 Jun 2027 06:05:27.334            52.409                Norilsk          1637.781
       421   04 Jun 2027 06:05:30.370   04 Jun 2027 06:08:29.985           179.615                Anadyr2          5612.969
       422   04 Jun 2027 06:44:15.361   04 Jun 2027 06:46:07.202           111.841            RioGallegos          3495.031
       423   04 Jun 2027 06:46:34.889   04 Jun 2027 06:46:39.149             4.260            RioGallegos           133.125
       424   04 Jun 2027 07:39:42.977   04 Jun 2027 07:41:48.045           125.068                Novosib          3908.375
       425   04 Jun 2027 07:42:00.901   04 Jun 2027 07:42:19.596            18.695                Norilsk           584.219
       426   04 Jun 2027 07:42:29.807   04 Jun 2027 07:42:33.001             3.194                Norilsk            99.813
       427   04 Jun 2027 07:42:33.284   04 Jun 2027 07:44:21.887           108.603              Murmansk1          3393.844
       428   04 Jun 2027 07:44:21.887   04 Jun 2027 07:45:03.196            41.309              Murmansk2          1290.906
       429   04 Jun 2027 07:45:51.078   04 Jun 2027 07:45:54.522             3.444              Murmansk1           107.625
       430   04 Jun 2027 08:19:35.847   04 Jun 2027 08:19:55.005            19.158            RioGallegos           598.687
       431   04 Jun 2027 08:20:26.184   04 Jun 2027 08:21:10.609            44.425            RioGallegos          1388.281
       432   04 Jun 2027 08:54:19.472   04 Jun 2027 08:54:58.439            38.967                Sumatra          1217.719
       433   04 Jun 2027 08:58:01.660   04 Jun 2027 08:58:40.728            39.068                Sumatra          1220.875
       434   04 Jun 2027 09:04:42.222   04 Jun 2027 09:05:38.757            56.535                  Delhi          1766.719
       435   04 Jun 2027 09:14:43.390   04 Jun 2027 09:15:08.561            25.171                Irkutsk           786.594
       436   04 Jun 2027 09:15:17.557   04 Jun 2027 09:15:22.882             5.325                Novosib           166.406
       437   04 Jun 2027 09:15:26.829   04 Jun 2027 09:15:54.389            27.560                Novosib           861.250
       438   04 Jun 2027 09:16:07.000   04 Jun 2027 09:16:40.972            33.972                Norilsk          1061.625
       439   04 Jun 2027 09:16:45.891   04 Jun 2027 09:17:00.054            14.163              Murmansk2           442.594
       440   04 Jun 2027 09:17:00.054   04 Jun 2027 09:18:00.199            60.145              Murmansk1          1879.531
       441   04 Jun 2027 09:18:05.658   04 Jun 2027 09:18:20.166            14.508                Irkutsk           453.375
       442   04 Jun 2027 09:18:21.911   04 Jun 2027 09:18:22.214             0.303                Norilsk             9.469
       443   04 Jun 2027 09:18:24.393   04 Jun 2027 09:18:50.819            26.426                Norilsk           825.813
       444   04 Jun 2027 09:18:59.715   04 Jun 2027 09:19:16.855            17.140                Novosib           535.625
       445   04 Jun 2027 09:19:19.024   04 Jun 2027 09:19:47.649            28.625                Norilsk           894.531
       446   04 Jun 2027 09:19:55.793   04 Jun 2027 09:20:38.504            42.711                 Moscow          1334.719
       447   04 Jun 2027 09:20:41.502   04 Jun 2027 09:21:35.242            53.740                Norilsk          1679.375
       448   04 Jun 2027 09:59:29.587   04 Jun 2027 10:00:31.445            61.858            RioGallegos          1933.062
       449   04 Jun 2027 10:38:41.642   04 Jun 2027 10:39:23.752            42.110                  Delhi          1315.938
       450   04 Jun 2027 10:41:39.543   04 Jun 2027 10:43:11.460            91.917                  Delhi          2872.406
       451   04 Jun 2027 10:52:27.124   04 Jun 2027 10:53:22.609            55.485              Murmansk2          1733.906
       452   04 Jun 2027 10:53:30.256   04 Jun 2027 10:53:51.045            20.789              Murmansk2           649.656
       453   04 Jun 2027 10:53:52.552   04 Jun 2027 10:54:30.646            38.094              Murmansk2          1190.437
       454   04 Jun 2027 10:54:42.894   04 Jun 2027 10:55:12.749            29.855              Murmansk2           932.969
       455   04 Jun 2027 10:55:14.149   04 Jun 2027 10:55:24.751            10.602                 Moscow           331.312
       456   04 Jun 2027 10:55:27.362   04 Jun 2027 10:55:33.226             5.864                Norilsk           183.250
       457   04 Jun 2027 10:55:42.358   04 Jun 2027 10:56:08.939            26.581                Norilsk           830.656
       458   04 Jun 2027 10:56:11.157   04 Jun 2027 10:56:27.660            16.503                Norilsk           515.719
       459   04 Jun 2027 10:56:42.589   04 Jun 2027 10:56:44.724             2.135              Murmansk1            66.719
       460   04 Jun 2027 10:56:46.192   04 Jun 2027 10:57:25.233            39.041                Novosib          1220.031
       461   04 Jun 2027 12:22:55.972   04 Jun 2027 12:26:56.985           241.013                 Moscow          7531.656
       462   04 Jun 2027 12:27:04.135   04 Jun 2027 12:28:34.369            90.234              Murmansk1          2819.813
       463   04 Jun 2027 12:28:34.369   04 Jun 2027 12:28:40.193             5.824              Murmansk2           182.000
       464   04 Jun 2027 12:29:42.551   04 Jun 2027 12:29:46.874             4.323              Murmansk1           135.094
       465   04 Jun 2027 12:30:16.498   04 Jun 2027 12:30:26.219             9.721              Murmansk1           303.781
       466   04 Jun 2027 12:33:29.921   04 Jun 2027 12:33:48.184            18.263              Murmansk1           570.719
       467   04 Jun 2027 13:37:38.919   04 Jun 2027 13:39:26.403           107.484               CapeTown          3358.875
       468   04 Jun 2027 13:40:19.176   04 Jun 2027 13:42:29.374           130.198               CapeTown          4068.688
       469   04 Jun 2027 13:44:21.410   04 Jun 2027 13:44:28.577             7.167               CapeTown           223.969
       470   04 Jun 2027 14:03:22.093   04 Jun 2027 14:04:13.780            51.687              Murmansk1          1615.219
       471   04 Jun 2027 14:04:18.106   04 Jun 2027 14:05:32.597            74.491              Murmansk2          2327.844
       472   04 Jun 2027 14:05:40.725   04 Jun 2027 14:06:06.611            25.886              Murmansk2           808.938
       473   04 Jun 2027 14:11:54.495   04 Jun 2027 14:12:29.257            34.762              Murmansk2          1086.312
       474   04 Jun 2027 14:17:28.703   04 Jun 2027 14:20:20.404           171.701                Anadyr1          5365.656
       475   04 Jun 2027 14:20:57.654   04 Jun 2027 14:21:18.793            21.139                Anadyr2           660.594
       476   04 Jun 2027 14:24:55.027   04 Jun 2027 14:25:43.310            48.283                Anadyr2          1508.844
       477   04 Jun 2027 15:42:37.484   04 Jun 2027 15:42:48.827            11.343              Murmansk1           354.469
       478   04 Jun 2027 15:43:35.479   04 Jun 2027 15:45:13.741            98.262              Murmansk1          3070.687
       479   04 Jun 2027 15:52:59.304   04 Jun 2027 15:53:49.743            50.439                Anadyr1          1576.219
       480   04 Jun 2027 15:54:14.992   04 Jun 2027 15:54:48.922            33.930                Anadyr2          1060.312
       481   04 Jun 2027 15:54:58.352   04 Jun 2027 15:55:14.165            15.813                Anadyr1           494.156
       482   04 Jun 2027 15:55:45.359   04 Jun 2027 15:55:55.732            10.373                Anadyr1           324.156
