uniorb/output/strategy_1/Drop/Drop_KinoSat_110404.txt

KinoSat_110404
-------------------------
    Access    *     Start Time (UTCG)     *     Stop Time (UTCG)  *   Duration (s)        *       Station  *  Data (Mbytes)
         1   01 Jun 2027 04:03:28.971   01 Jun 2027 04:03:47.717            18.746               Magadan1          2343.250
         2   01 Jun 2027 04:04:15.603   01 Jun 2027 04:06:14.357           118.754               Magadan2         14844.250
         3   01 Jun 2027 04:06:34.719   01 Jun 2027 04:07:12.318            37.599               Magadan1          4699.875
         4   01 Jun 2027 04:07:18.878   01 Jun 2027 04:07:54.083            35.205               Magadan2          4400.625
         5   01 Jun 2027 04:08:11.720   01 Jun 2027 04:08:28.362            16.642               Magadan1          2080.250
         6   01 Jun 2027 04:08:49.483   01 Jun 2027 04:09:08.102            18.619                Norilsk          2327.375
         7   01 Jun 2027 04:13:37.812   01 Jun 2027 04:13:50.926            13.114                Norilsk          1639.250
         8   01 Jun 2027 04:43:26.907   01 Jun 2027 04:43:55.913            29.006            RioGallegos          3625.750
         9   01 Jun 2027 04:51:19.614   01 Jun 2027 04:51:38.197            18.583            RioGallegos          2322.875
        10   01 Jun 2027 05:19:19.709   01 Jun 2027 05:20:28.976            69.267                Sumatra          8658.375
        11   01 Jun 2027 05:24:02.302   01 Jun 2027 05:25:03.687            61.385                Sumatra          7673.125
        12   01 Jun 2027 05:40:57.331   01 Jun 2027 05:41:42.375            45.044                Irkutsk          5630.500
        13   01 Jun 2027 05:42:10.189   01 Jun 2027 05:42:40.421            30.232              Murmansk1          3779.000
        14   01 Jun 2027 05:42:48.371   01 Jun 2027 05:44:28.535           100.164                Novosib         12520.500
        15   01 Jun 2027 05:45:41.945   01 Jun 2027 05:46:03.162            21.217                Novosib          2652.125
        16   01 Jun 2027 06:25:14.404   01 Jun 2027 06:25:21.413             7.009            RioGallegos           876.125
        17   01 Jun 2027 06:54:48.924   01 Jun 2027 06:55:10.372            21.448                Sumatra          2681.000
        18   01 Jun 2027 06:56:43.757   01 Jun 2027 06:57:48.090            64.333                Sumatra          8041.625
        19   01 Jun 2027 07:05:02.027   01 Jun 2027 07:05:31.346            29.319                  Delhi          3664.875
        20   01 Jun 2027 07:07:09.651   01 Jun 2027 07:07:16.422             6.771                  Delhi           846.375
        21   01 Jun 2027 07:18:24.426   01 Jun 2027 07:19:05.634            41.208                Novosib          5151.000
        22   01 Jun 2027 07:19:16.664   01 Jun 2027 07:19:41.213            24.549              Murmansk1          3068.625
        23   01 Jun 2027 07:19:48.350   01 Jun 2027 07:20:32.732            44.382                 Moscow          5547.750
        24   01 Jun 2027 07:20:39.857   01 Jun 2027 07:21:06.025            26.168                 Moscow          3271.000
        25   01 Jun 2027 07:21:14.896   01 Jun 2027 07:22:08.622            53.726                Novosib          6715.750
        26   01 Jun 2027 08:53:58.342   01 Jun 2027 08:54:26.429            28.087                Norilsk          3510.875
        27   01 Jun 2027 08:54:40.120   01 Jun 2027 08:56:24.667           104.547                 Moscow         13068.375
        28   01 Jun 2027 10:42:28.932   01 Jun 2027 10:47:32.031           303.099                Anadyr1         37887.375
        29   01 Jun 2027 12:21:35.639   01 Jun 2027 12:22:19.856            44.217                Anadyr1          5527.125
        30   01 Jun 2027 13:55:35.035   01 Jun 2027 14:01:07.755           332.720               Magadan2         41590.000
        31   01 Jun 2027 14:02:05.950   01 Jun 2027 14:04:32.616           146.666               Magadan1         18333.250
        32   01 Jun 2027 16:23:43.209   01 Jun 2027 16:30:18.709           395.500            RioGallegos         49437.500
        33   01 Jun 2027 17:13:33.629   01 Jun 2027 17:15:11.274            97.645                Irkutsk         12205.625
        34   01 Jun 2027 17:15:11.715   01 Jun 2027 17:15:16.331             4.616                Irkutsk           577.000
        35   01 Jun 2027 17:25:06.560   01 Jun 2027 17:26:43.674            97.114                Sumatra         12139.250
        36   01 Jun 2027 17:28:57.325   01 Jun 2027 17:31:37.405           160.080                Sumatra         20010.000
        37   01 Jun 2027 18:46:45.057   01 Jun 2027 18:48:22.619            97.562                Novosib         12195.250
        38   01 Jun 2027 18:55:03.894   01 Jun 2027 18:56:44.024           100.130                  Delhi          8830.125
        39   02 Jun 2027 04:19:32.379   02 Jun 2027 04:19:59.063            26.684                Novosib          3335.500
        40   02 Jun 2027 04:20:10.026   02 Jun 2027 04:20:33.088            23.062                Irkutsk          2882.750
        41   02 Jun 2027 04:20:50.338   02 Jun 2027 04:21:40.262            49.924                Novosib          6240.500
        42   02 Jun 2027 05:30:55.466   02 Jun 2027 05:32:46.183           110.717                Sumatra         13839.625
        43   02 Jun 2027 05:46:25.748   02 Jun 2027 05:47:38.572            72.824                  Delhi          9103.000
        44   02 Jun 2027 05:53:28.898   02 Jun 2027 05:54:25.114            56.216                Irkutsk          7027.000
        45   02 Jun 2027 05:54:40.103   02 Jun 2027 05:55:39.300            59.197                Irkutsk          7399.625
        46   02 Jun 2027 05:55:59.286   02 Jun 2027 05:56:39.091            39.805                Novosib          4975.625
        47   02 Jun 2027 07:07:17.207   02 Jun 2027 07:08:18.431            61.224                Sumatra          7653.000
        48   02 Jun 2027 07:14:39.516   02 Jun 2027 07:15:26.708            47.192                  Delhi          5899.000
        49   02 Jun 2027 07:30:17.069   02 Jun 2027 07:30:27.327            10.258                Irkutsk          1282.250
        50   02 Jun 2027 07:30:28.488   02 Jun 2027 07:30:54.822            26.334                Novosib          3291.750
        51   02 Jun 2027 07:31:09.429   02 Jun 2027 07:31:18.984             9.555                Irkutsk          1194.375
        52   02 Jun 2027 07:31:33.494   02 Jun 2027 07:31:54.558            21.064              Murmansk2          2633.000
        53   02 Jun 2027 07:31:55.466   02 Jun 2027 07:32:14.190            18.724                 Moscow          2340.500
        54   02 Jun 2027 07:32:25.138   02 Jun 2027 07:32:53.147            28.009                 Moscow          3501.125
        55   02 Jun 2027 07:33:53.442   02 Jun 2027 07:34:00.434             6.992                Novosib           874.000
        56   02 Jun 2027 07:34:45.002   02 Jun 2027 07:34:51.429             6.427                 Moscow           803.375
        57   02 Jun 2027 08:52:31.749   02 Jun 2027 08:53:22.337            50.588                  Delhi          6323.500
        58   02 Jun 2027 09:06:00.104   02 Jun 2027 09:06:01.020             0.916                 Moscow           114.500
        59   02 Jun 2027 09:06:19.548   02 Jun 2027 09:07:51.781            92.233              Murmansk2         11529.125
        60   02 Jun 2027 09:07:55.649   02 Jun 2027 09:08:24.278            28.629              Murmansk2          3578.625
        61   02 Jun 2027 09:08:34.486   02 Jun 2027 09:08:45.271            10.785                 Moscow          1348.125
        62   02 Jun 2027 09:08:48.160   02 Jun 2027 09:09:02.362            14.202              Murmansk2          1775.250
        63   02 Jun 2027 09:09:28.058   02 Jun 2027 09:09:51.715            23.657              Murmansk2          2957.125
        64   02 Jun 2027 10:16:39.784   02 Jun 2027 10:18:05.610            85.826               CapeTown         10728.250
        65   02 Jun 2027 10:54:06.560   02 Jun 2027 11:00:32.227           385.667                Anadyr2         48208.375
        66   02 Jun 2027 14:07:29.488   02 Jun 2027 14:09:35.358           125.870               Magadan1         15733.750
        67   02 Jun 2027 14:10:11.952   02 Jun 2027 14:11:49.125            97.173               Magadan2         12146.625
        68   02 Jun 2027 14:12:23.014   02 Jun 2027 14:12:55.897            32.883               Magadan2          4110.375
        69   02 Jun 2027 14:15:27.532   02 Jun 2027 14:17:00.642            93.110               Magadan1         11638.750
        70   02 Jun 2027 16:35:26.509   02 Jun 2027 16:35:29.153             2.644            RioGallegos           330.500
        71   02 Jun 2027 16:37:34.926   02 Jun 2027 16:41:33.356           238.430            RioGallegos         29803.750
        72   02 Jun 2027 17:22:55.994   02 Jun 2027 17:25:36.828           160.834                Irkutsk         20104.250
        73   02 Jun 2027 17:25:38.697   02 Jun 2027 17:28:06.700           148.003                Novosib         18500.375
        74   02 Jun 2027 17:38:36.204   02 Jun 2027 17:40:22.790           106.586                Sumatra         13323.250
        75   02 Jun 2027 17:40:58.923   02 Jun 2027 17:42:51.137           112.214                Sumatra         14026.750
        76   02 Jun 2027 19:06:38.404   02 Jun 2027 19:08:40.088           121.684                  Delhi         15210.500
        77   02 Jun 2027 19:10:09.010   02 Jun 2027 19:10:28.586            19.576                  Delhi          2447.000
        78   02 Jun 2027 20:37:03.555   02 Jun 2027 20:37:26.921            23.366              Murmansk2          2920.750
        79   02 Jun 2027 20:38:17.977   02 Jun 2027 20:40:43.274           145.297                 Moscow         18162.125
        80   02 Jun 2027 22:08:43.226   02 Jun 2027 22:09:29.052            45.826              Murmansk2          5728.250
        81   02 Jun 2027 22:13:57.680   02 Jun 2027 22:15:01.389            63.709                 Moscow          7963.625
        82   02 Jun 2027 22:36:38.455   02 Jun 2027 22:38:39.348           120.893               CapeTown         15111.625
        83   03 Jun 2027 04:32:36.010   03 Jun 2027 04:32:42.695             6.685                Irkutsk           835.625
        84   03 Jun 2027 05:07:25.924   03 Jun 2027 05:08:46.343            80.419            RioGallegos         10052.375
        85   03 Jun 2027 05:42:38.685   03 Jun 2027 05:47:01.837           263.152                Sumatra         32894.000
        86   03 Jun 2027 05:54:48.855   03 Jun 2027 05:55:23.278            34.423                  Delhi          4302.875
        87   03 Jun 2027 06:05:21.590   03 Jun 2027 06:05:36.804            15.214                Novosib          1901.750
        88   03 Jun 2027 06:05:41.682   03 Jun 2027 06:06:04.899            23.217                Norilsk          2902.125
        89   03 Jun 2027 06:06:05.289   03 Jun 2027 06:07:22.267            76.978                Irkutsk          9622.250
        90   03 Jun 2027 06:07:40.988   03 Jun 2027 06:08:06.509            25.521              Murmansk1          3190.125
        91   03 Jun 2027 06:08:11.398   03 Jun 2027 06:08:59.179            47.781              Murmansk1          5972.625
        92   03 Jun 2027 07:19:57.548   03 Jun 2027 07:21:25.972            88.424                Sumatra         11053.000
        93   03 Jun 2027 07:43:06.800   03 Jun 2027 07:43:26.813            20.013              Murmansk2          2501.625
        94   03 Jun 2027 07:43:31.382   03 Jun 2027 07:43:48.902            17.520              Murmansk1          2190.000
        95   03 Jun 2027 07:43:53.957   03 Jun 2027 07:44:45.676            51.719              Murmansk1          6464.875
        96   03 Jun 2027 09:05:34.044   03 Jun 2027 09:05:43.371             9.327                  Delhi          1165.875
        97   03 Jun 2027 09:06:16.369   03 Jun 2027 09:07:02.263            45.894                  Delhi          5736.750
        98   03 Jun 2027 09:16:34.534   03 Jun 2027 09:17:25.695            51.161                Novosib          6395.125
        99   03 Jun 2027 09:17:26.586   03 Jun 2027 09:18:57.973            91.387                Novosib         11423.375
       100   03 Jun 2027 09:19:36.937   03 Jun 2027 09:20:35.364            58.427              Murmansk2          7303.375
       101   03 Jun 2027 09:20:38.855   03 Jun 2027 09:22:33.895           115.040                 Moscow         14380.000
       102   03 Jun 2027 10:27:09.110   03 Jun 2027 10:29:45.971           156.861               CapeTown         19607.625
       103   03 Jun 2027 10:33:52.751   03 Jun 2027 10:33:54.063             1.312               CapeTown           164.000
       104   03 Jun 2027 11:05:51.843   03 Jun 2027 11:11:59.082           367.239                Anadyr2         45904.875
       105   03 Jun 2027 12:45:51.691   03 Jun 2027 12:48:45.154           173.463               Magadan1         21682.875
       106   03 Jun 2027 14:19:25.378   03 Jun 2027 14:21:09.261           103.883               Magadan2         12985.375
       107   03 Jun 2027 16:47:14.004   03 Jun 2027 16:49:41.179           147.175            RioGallegos         18396.875
       108   03 Jun 2027 16:51:15.212   03 Jun 2027 16:53:04.545           109.333            RioGallegos         13666.625
       109   03 Jun 2027 17:34:49.454   03 Jun 2027 17:36:54.322           124.868                Irkutsk         15608.500
       110   03 Jun 2027 17:39:12.396   03 Jun 2027 17:42:25.673           193.277                Novosib         24159.625
       111   03 Jun 2027 17:48:32.736   03 Jun 2027 17:49:14.029            41.293                Sumatra          5161.625
       112   03 Jun 2027 17:50:10.229   03 Jun 2027 17:51:21.360            71.131                Sumatra          8891.375
       113   03 Jun 2027 17:53:06.212   03 Jun 2027 17:53:19.557            13.345                Sumatra          1668.125
       114   03 Jun 2027 19:18:19.949   03 Jun 2027 19:22:25.854           245.905                  Delhi         30738.125
       115   03 Jun 2027 19:23:28.112   03 Jun 2027 19:24:32.855            64.743                  Delhi          8092.875
       116   03 Jun 2027 20:45:44.250   03 Jun 2027 20:46:34.039            49.789              Murmansk1          6223.625
       117   03 Jun 2027 20:49:41.728   03 Jun 2027 20:52:42.972           181.244                 Moscow         22655.500
       118   04 Jun 2027 03:05:41.303   04 Jun 2027 03:07:02.140            80.837                Anadyr1         10104.625
       119   04 Jun 2027 04:32:27.460   04 Jun 2027 04:33:07.999            40.539                Irkutsk          5067.375
       120   04 Jun 2027 04:39:11.505   04 Jun 2027 04:39:54.195            42.690                Irkutsk          5336.250
       121   04 Jun 2027 04:40:01.772   04 Jun 2027 04:40:37.536            35.764                Irkutsk          4470.500
       122   04 Jun 2027 04:40:54.070   04 Jun 2027 04:41:11.726            17.656                Irkutsk          2207.000
       123   04 Jun 2027 04:41:19.402   04 Jun 2027 04:42:22.664            63.262               Magadan2          7907.750
       124   04 Jun 2027 04:42:41.801   04 Jun 2027 04:43:56.471            74.670               Magadan2          9333.750
       125   04 Jun 2027 04:44:30.844   04 Jun 2027 04:45:22.738            51.894                Novosib          6486.750
       126   04 Jun 2027 05:19:30.428   04 Jun 2027 05:20:38.575            68.147            RioGallegos          8518.375
       127   04 Jun 2027 05:54:28.293   04 Jun 2027 05:55:32.913            64.620                Sumatra          8077.500
       128   04 Jun 2027 05:57:26.493   04 Jun 2027 05:58:30.007            63.514                Sumatra          7939.250
       129   04 Jun 2027 06:05:41.847   04 Jun 2027 06:07:36.906           115.059                  Delhi         14382.375
       130   04 Jun 2027 06:16:58.393   04 Jun 2027 06:17:51.197            52.804              Murmansk1          6600.500
       131   04 Jun 2027 06:17:51.197   04 Jun 2027 06:18:13.000            21.803              Murmansk2          2725.375
       132   04 Jun 2027 06:18:28.500   04 Jun 2027 06:20:26.966           118.466                Irkutsk         14808.250
       133   04 Jun 2027 07:38:33.514   04 Jun 2027 07:39:12.452            38.938                  Delhi          4867.250
       134   04 Jun 2027 07:54:35.194   04 Jun 2027 07:56:57.670           142.476                Novosib         17809.500
       135   04 Jun 2027 09:26:15.251   04 Jun 2027 09:27:16.109            60.858                 Moscow          7607.250
       136   04 Jun 2027 09:27:19.319   04 Jun 2027 09:27:39.199            19.880                 Moscow          2485.000
       137   04 Jun 2027 09:27:50.806   04 Jun 2027 09:28:15.010            24.204                Novosib          3025.500
       138   04 Jun 2027 09:28:22.914   04 Jun 2027 09:29:34.559            71.645                 Moscow          8955.625
       139   04 Jun 2027 09:29:44.955   04 Jun 2027 09:29:54.623             9.668              Murmansk2          1208.500
       140   04 Jun 2027 09:30:04.471   04 Jun 2027 09:31:10.579            66.108              Murmansk2          8263.500
       141   04 Jun 2027 09:31:19.353   04 Jun 2027 09:31:22.194             2.841                 Moscow           355.125
       142   04 Jun 2027 09:31:33.499   04 Jun 2027 09:32:22.636            49.137              Murmansk1          6142.125
       143   04 Jun 2027 09:32:25.444   04 Jun 2027 09:33:04.385            38.941                 Moscow          4867.625
       144   04 Jun 2027 09:33:37.508   04 Jun 2027 09:34:22.407            44.899                Norilsk          5612.375
       145   04 Jun 2027 10:38:20.210   04 Jun 2027 10:41:31.728           191.518               CapeTown         23939.750
       146   04 Jun 2027 10:43:39.560   04 Jun 2027 10:45:51.681           132.121               CapeTown         16515.125
       147   04 Jun 2027 11:17:41.500   04 Jun 2027 11:18:32.667            51.167                Anadyr2          6395.875
       148   04 Jun 2027 11:18:32.667   04 Jun 2027 11:21:44.569           191.902                Anadyr1         23987.750
       149   04 Jun 2027 12:57:04.887   04 Jun 2027 12:59:59.103           174.216               Magadan1         21777.000
       150   04 Jun 2027 14:33:39.786   04 Jun 2027 14:34:19.852            40.066               Magadan1          5008.250
       151   04 Jun 2027 16:13:26.517   04 Jun 2027 16:17:59.581           273.064                Irkutsk         34133.000
       152   04 Jun 2027 16:59:04.596   04 Jun 2027 17:00:37.100            92.504            RioGallegos         11563.000
       153   04 Jun 2027 17:01:44.006   04 Jun 2027 17:02:17.319            33.313            RioGallegos          4164.125
       154   04 Jun 2027 17:48:05.288   04 Jun 2027 17:51:12.252           186.964                Novosib         23370.500
       155   04 Jun 2027 17:51:43.379   04 Jun 2027 17:52:30.433            47.054                Novosib          5881.750
       156   04 Jun 2027 18:03:30.131   04 Jun 2027 18:03:52.909            22.778                Sumatra          2847.250
       157   04 Jun 2027 19:30:06.870   04 Jun 2027 19:34:26.457           259.587                  Delhi         32448.375
       158   04 Jun 2027 20:56:56.617   04 Jun 2027 20:57:07.268            10.651              Murmansk2          1331.375
       159   04 Jun 2027 20:57:28.562   04 Jun 2027 20:58:24.294            55.732              Murmansk1          6966.500
       160   04 Jun 2027 21:01:17.948   04 Jun 2027 21:02:37.221            79.273                 Moscow          9909.125
       161   04 Jun 2027 23:03:00.162   04 Jun 2027 23:03:45.186            45.024               CapeTown          5628.000
       162   05 Jun 2027 03:15:21.355   05 Jun 2027 03:15:48.196            26.841                Anadyr2          3355.125
       163   05 Jun 2027 03:16:22.525   05 Jun 2027 03:17:25.786            63.261               Magadan2          7907.625
       164   05 Jun 2027 03:17:33.486   05 Jun 2027 03:17:43.234             9.748                Anadyr2          1218.500
       165   05 Jun 2027 03:18:24.200   05 Jun 2027 03:19:57.230            93.030               Magadan2         11628.750
       166   05 Jun 2027 03:19:59.301   05 Jun 2027 03:20:35.334            36.033                Anadyr1          4504.125
       167   05 Jun 2027 04:38:02.901   05 Jun 2027 04:38:05.305             2.404                Sumatra           300.500
       168   05 Jun 2027 04:51:23.601   05 Jun 2027 04:51:46.152            22.551               Magadan1          2818.875
       169   05 Jun 2027 04:51:46.152   05 Jun 2027 04:52:28.763            42.611               Magadan2          5326.375
       170   05 Jun 2027 04:52:28.763   05 Jun 2027 04:52:38.532             9.769               Magadan1          1221.125
       171   05 Jun 2027 04:53:07.073   05 Jun 2027 04:54:29.711            82.638                Norilsk         10329.750
       172   05 Jun 2027 04:54:38.288   05 Jun 2027 04:55:20.710            42.422                Norilsk          5302.750
       173   05 Jun 2027 04:55:36.631   05 Jun 2027 04:55:37.124             0.493               Magadan2            61.625
       174   05 Jun 2027 04:55:39.507   05 Jun 2027 04:56:55.232            75.725              Murmansk2          9465.625
       175   05 Jun 2027 05:31:38.447   05 Jun 2027 05:32:27.149            48.702            RioGallegos          6087.750
       176   05 Jun 2027 06:06:23.713   05 Jun 2027 06:07:45.701            81.988                Sumatra         10248.500
       177   05 Jun 2027 06:08:23.473   05 Jun 2027 06:09:23.119            59.646                Sumatra          7455.750
       178   05 Jun 2027 06:16:52.368   05 Jun 2027 06:19:44.660           172.292                  Delhi         21536.500
       179   05 Jun 2027 06:29:05.672   05 Jun 2027 06:30:21.134            75.462                Irkutsk          9432.750
       180   05 Jun 2027 06:30:52.032   05 Jun 2027 06:31:57.520            65.488                Irkutsk          8186.000
       181   05 Jun 2027 06:32:20.181   05 Jun 2027 06:33:03.648            43.467                Norilsk          5433.375
       182   05 Jun 2027 06:34:01.537   05 Jun 2027 06:34:11.249             9.712              Murmansk2          1214.000
       183   05 Jun 2027 07:47:06.360   05 Jun 2027 07:48:17.820            71.460                Sumatra          8932.500
       184   05 Jun 2027 07:50:38.529   05 Jun 2027 07:51:04.566            26.037                  Delhi          3254.625
       185   05 Jun 2027 08:05:37.849   05 Jun 2027 08:05:55.222            17.373              Murmansk2          2171.625
       186   05 Jun 2027 08:06:12.978   05 Jun 2027 08:07:10.979            58.001                Norilsk          7250.125
       187   05 Jun 2027 08:07:16.403   05 Jun 2027 08:07:51.391            34.988              Murmansk2          4373.500
       188   05 Jun 2027 08:08:03.524   05 Jun 2027 08:08:48.130            44.606                Norilsk          5575.750
       189   05 Jun 2027 08:09:06.137   05 Jun 2027 08:09:10.116             3.979                Novosib           497.375
       190   05 Jun 2027 08:09:19.916   05 Jun 2027 08:10:05.122            45.206              Murmansk2          5650.750
       191   05 Jun 2027 09:38:17.315   05 Jun 2027 09:38:45.041            27.726                 Moscow          3465.750
       192   05 Jun 2027 09:38:56.317   05 Jun 2027 09:39:50.059            53.742              Murmansk1          6717.750
       193   05 Jun 2027 09:40:09.680   05 Jun 2027 09:41:31.939            82.259                 Moscow         10282.375
       194   05 Jun 2027 09:41:36.522   05 Jun 2027 09:41:46.357             9.835              Murmansk2          1229.375
       195   05 Jun 2027 09:41:58.064   05 Jun 2027 09:43:18.045            79.981              Murmansk2          9997.625
       196   05 Jun 2027 09:43:30.949   05 Jun 2027 09:43:44.576            13.627              Murmansk1          1703.375
       197   05 Jun 2027 09:43:51.226   05 Jun 2027 09:44:10.098            18.872              Murmansk2          2359.000
       198   05 Jun 2027 09:44:10.098   05 Jun 2027 09:44:32.125            22.027              Murmansk1          2753.375
       199   05 Jun 2027 09:44:38.450   05 Jun 2027 09:45:24.992            46.542                 Moscow          5817.750
       200   05 Jun 2027 10:49:47.133   05 Jun 2027 10:53:21.753           214.620               CapeTown         26827.500
       201   05 Jun 2027 10:55:42.665   05 Jun 2027 10:57:05.497            82.832               CapeTown         10354.000
       202   05 Jun 2027 11:29:34.003   05 Jun 2027 11:30:53.680            79.677                Anadyr1          9959.625
       203   05 Jun 2027 11:31:40.209   05 Jun 2027 11:33:54.200           133.991                Anadyr1         16748.875
       204   05 Jun 2027 13:08:38.068   05 Jun 2027 13:11:58.873           200.805               Magadan2         25100.625
       205   05 Jun 2027 16:24:37.425   05 Jun 2027 16:30:34.257           356.832                Irkutsk         44604.000
       206   05 Jun 2027 16:40:54.700   05 Jun 2027 16:43:21.085           146.385                Sumatra         18298.125
       207   05 Jun 2027 17:59:43.206   05 Jun 2027 18:03:12.823           209.617                Novosib         26202.125
       208   05 Jun 2027 21:08:57.994   05 Jun 2027 21:09:59.282            61.288              Murmansk2          7661.000
       209   05 Jun 2027 21:13:00.955   05 Jun 2027 21:14:51.714           110.759                 Moscow         13844.875
       210   05 Jun 2027 21:15:58.907   05 Jun 2027 21:18:15.202           136.295              Murmansk1         17036.875
       211   05 Jun 2027 21:40:21.301   05 Jun 2027 21:42:02.278           100.977               CapeTown         12622.125
       212   06 Jun 2027 03:27:07.978   06 Jun 2027 03:27:54.167            46.189                Anadyr2          5773.625
       213   06 Jun 2027 03:28:11.833   06 Jun 2027 03:28:29.204            17.371               Magadan1          2171.375
       214   06 Jun 2027 03:28:33.465   06 Jun 2027 03:28:57.992            24.527               Magadan1          3065.875
       215   06 Jun 2027 03:29:12.818   06 Jun 2027 03:29:28.522            15.704               Magadan2          1963.000
       216   06 Jun 2027 03:29:30.922   06 Jun 2027 03:31:02.937            92.015                Anadyr1         11501.875
       217   06 Jun 2027 03:31:40.569   06 Jun 2027 03:32:37.487            56.918               Magadan1          7114.750
       218   06 Jun 2027 03:32:39.159   06 Jun 2027 03:32:56.234            17.075               Magadan1          2134.375
       219   06 Jun 2027 04:46:02.833   06 Jun 2027 04:47:33.289            90.456                Sumatra         11307.000
       220   06 Jun 2027 05:03:48.163   06 Jun 2027 05:04:31.754            43.591               Magadan2          5448.875
       221   06 Jun 2027 05:04:40.677   06 Jun 2027 05:05:15.475            34.798               Magadan2          4349.750
       222   06 Jun 2027 05:05:23.312   06 Jun 2027 05:06:25.222            61.910               Magadan2          7738.750
       223   06 Jun 2027 05:06:28.705   06 Jun 2027 05:07:08.091            39.386               Magadan2          4923.250
       224   06 Jun 2027 05:07:32.617   06 Jun 2027 05:07:51.044            18.427                Norilsk          2303.375
       225   06 Jun 2027 05:07:52.055   06 Jun 2027 05:08:38.334            46.279                Norilsk          5784.875
       226   06 Jun 2027 05:43:50.155   06 Jun 2027 05:44:18.886            28.731            RioGallegos          3591.375
       227   06 Jun 2027 06:18:24.720   06 Jun 2027 06:20:37.568           132.848                Sumatra         16606.000
       228   06 Jun 2027 06:29:39.433   06 Jun 2027 06:31:31.533           112.100                  Delhi         14012.500
       229   06 Jun 2027 06:41:01.699   06 Jun 2027 06:41:37.816            36.117                 Moscow          4514.625
       230   06 Jun 2027 06:41:58.455   06 Jun 2027 06:43:24.055            85.600              Murmansk1         10700.000
       231   06 Jun 2027 06:43:59.004   06 Jun 2027 06:44:32.607            33.603                Novosib          4200.375
       232   06 Jun 2027 06:44:52.773   06 Jun 2027 06:44:56.795             4.022                 Moscow           502.750
       233   06 Jun 2027 06:45:07.710   06 Jun 2027 06:45:40.463            32.753              Murmansk2          4094.125
       234   06 Jun 2027 08:02:49.197   06 Jun 2027 08:03:52.896            63.699                  Delhi          7962.375
       235   06 Jun 2027 08:05:38.786   06 Jun 2027 08:06:07.533            28.747                  Delhi          3593.375
       236   06 Jun 2027 08:16:48.918   06 Jun 2027 08:17:40.272            51.354                Norilsk          6419.250
       237   06 Jun 2027 08:17:50.523   06 Jun 2027 08:18:01.800            11.277                 Moscow          1409.625
       238   06 Jun 2027 08:18:12.424   06 Jun 2027 08:18:39.916            27.492                Novosib          3436.500
       239   06 Jun 2027 08:18:43.728   06 Jun 2027 08:18:57.925            14.197                 Moscow          1774.625
       240   06 Jun 2027 08:19:00.383   06 Jun 2027 08:19:27.517            27.134                 Moscow          3391.750
       241   06 Jun 2027 08:19:44.717   06 Jun 2027 08:20:42.964            58.247                Novosib          7280.875
       242   06 Jun 2027 08:21:14.233   06 Jun 2027 08:21:53.735            39.502              Murmansk2          4937.750
       243   06 Jun 2027 09:50:28.321   06 Jun 2027 09:51:11.096            42.775              Murmansk2          5346.875
       244   06 Jun 2027 09:51:33.199   06 Jun 2027 09:52:14.271            41.072                 Moscow          5134.000
       245   06 Jun 2027 09:52:18.097   06 Jun 2027 09:52:23.920             5.823              Murmansk1           727.875
       246   06 Jun 2027 09:52:44.833   06 Jun 2027 09:54:28.203           103.370              Murmansk1         12921.250
       247   06 Jun 2027 09:54:31.799   06 Jun 2027 09:54:51.155            19.356                 Moscow          2419.500
       248   06 Jun 2027 09:54:53.599   06 Jun 2027 09:55:21.099            27.500                 Moscow          3437.500
       249   06 Jun 2027 09:55:33.234   06 Jun 2027 09:56:02.715            29.481                Norilsk          3685.125
       250   06 Jun 2027 11:01:23.361   06 Jun 2027 11:05:42.843           259.482               CapeTown         32435.250
       251   06 Jun 2027 11:07:20.763   06 Jun 2027 11:07:56.652            35.889               CapeTown          4486.125
       252   06 Jun 2027 11:41:28.529   06 Jun 2027 11:44:34.558           186.029                Anadyr1         23253.625
       253   06 Jun 2027 13:20:19.879   06 Jun 2027 13:24:19.814           239.935               Magadan1         29991.875
       254   06 Jun 2027 15:49:49.688   06 Jun 2027 15:52:20.698           151.010            RioGallegos         18876.250
       255   06 Jun 2027 16:36:07.327   06 Jun 2027 16:39:47.460           220.133                Irkutsk         27516.625
       256   06 Jun 2027 16:41:07.152   06 Jun 2027 16:42:37.729            90.577                Irkutsk         11322.125
       257   06 Jun 2027 16:51:24.567   06 Jun 2027 16:53:41.568           137.001                Sumatra         17125.125
       258   06 Jun 2027 18:13:22.485   06 Jun 2027 18:15:14.035           111.550                Novosib         13943.750
       259   06 Jun 2027 18:17:26.273   06 Jun 2027 18:17:32.193             5.920                Novosib           740.000
       260   06 Jun 2027 18:22:26.091   06 Jun 2027 18:23:35.601            69.510                  Delhi          8688.750
       261   06 Jun 2027 21:21:27.710   06 Jun 2027 21:21:59.276            31.566              Murmansk1          3945.750
       262   06 Jun 2027 21:24:48.337   06 Jun 2027 21:27:02.786           134.449                 Moscow         16806.125
       263   06 Jun 2027 21:27:53.959   06 Jun 2027 21:28:57.565            63.606                 Moscow          7950.750
       264   06 Jun 2027 21:31:14.149   06 Jun 2027 21:32:02.595            48.446                 Moscow          6055.750
       265   06 Jun 2027 21:51:16.136   06 Jun 2027 21:52:50.240            94.104               CapeTown         11763.000
       266   06 Jun 2027 21:53:35.506   06 Jun 2027 21:55:22.170           106.664               CapeTown         13333.000
       267   07 Jun 2027 03:41:00.064   07 Jun 2027 03:41:30.168            30.104                Anadyr1          3763.000
       268   07 Jun 2027 03:41:30.168   07 Jun 2027 03:43:03.779            93.611                Anadyr2         11701.375
       269   07 Jun 2027 03:43:20.187   07 Jun 2027 03:44:10.474            50.287               Magadan2          6285.875
       270   07 Jun 2027 03:44:21.555   07 Jun 2027 03:44:53.092            31.537               Magadan2          3942.125
       271   07 Jun 2027 04:56:54.018   07 Jun 2027 04:59:32.744           158.726                Sumatra         19840.750
       272   07 Jun 2027 05:16:18.091   07 Jun 2027 05:16:22.700             4.609                Irkutsk           576.125
       273   07 Jun 2027 05:16:40.445   07 Jun 2027 05:17:37.597            57.152                Irkutsk          7144.000
       274   07 Jun 2027 05:17:52.717   07 Jun 2027 05:20:17.496           144.779                Novosib         18097.375
       275   07 Jun 2027 05:20:53.805   07 Jun 2027 05:20:55.270             1.465                Irkutsk           183.125
       276   07 Jun 2027 06:33:18.511   07 Jun 2027 06:35:33.463           134.952                Sumatra         16869.000
       277   07 Jun 2027 06:41:35.681   07 Jun 2027 06:43:23.865           108.184                  Delhi         13523.000
       278   07 Jun 2027 06:53:39.002   07 Jun 2027 06:54:10.321            31.319              Murmansk2          3914.875
       279   07 Jun 2027 06:54:15.823   07 Jun 2027 06:56:18.223           122.400                Irkutsk         15300.000
       280   07 Jun 2027 08:15:06.056   07 Jun 2027 08:15:36.671            30.615                  Delhi          3826.875
       281   07 Jun 2027 08:17:16.841   07 Jun 2027 08:17:29.639            12.798                  Delhi          1599.750
       282   07 Jun 2027 08:18:19.250   07 Jun 2027 08:19:41.239            81.989                  Delhi         10248.625
       283   07 Jun 2027 08:28:28.987   07 Jun 2027 08:28:35.453             6.466              Murmansk2           808.250
       284   07 Jun 2027 08:28:50.804   07 Jun 2027 08:29:39.196            48.392                Norilsk          6049.000
       285   07 Jun 2027 08:29:41.425   07 Jun 2027 08:29:55.214            13.789              Murmansk1          1723.625
       286   07 Jun 2027 08:30:03.201   07 Jun 2027 08:30:40.931            37.730              Murmansk2          4716.250
       287   07 Jun 2027 08:30:46.772   07 Jun 2027 08:31:02.834            16.062              Murmansk2          2007.750
       288   07 Jun 2027 08:31:05.228   07 Jun 2027 08:32:29.236            84.008                 Moscow         10501.000
       289   07 Jun 2027 10:04:53.287   07 Jun 2027 10:05:39.473            46.186              Murmansk2          5773.250
       290   07 Jun 2027 10:05:42.356   07 Jun 2027 10:06:50.726            68.370                 Moscow          8546.250
       291   07 Jun 2027 10:07:23.494   07 Jun 2027 10:07:26.148             2.654                 Moscow           331.750
       292   07 Jun 2027 10:07:26.726   07 Jun 2027 10:08:45.684            78.958              Murmansk2          9869.750
       293   07 Jun 2027 11:13:06.020   07 Jun 2027 11:17:12.056           246.036               CapeTown         30754.500
       294   07 Jun 2027 11:18:52.561   07 Jun 2027 11:19:14.581            22.020               CapeTown          2752.500
       295   07 Jun 2027 11:53:24.547   07 Jun 2027 11:55:14.028           109.481                Anadyr1         13685.125
       296   07 Jun 2027 11:55:49.163   07 Jun 2027 11:57:20.955            91.792                Anadyr2         11474.000
       297   07 Jun 2027 13:32:06.729   07 Jun 2027 13:35:59.889           233.160               Magadan1         29145.000
       298   07 Jun 2027 16:00:53.431   07 Jun 2027 16:04:06.767           193.336            RioGallegos         24167.000
       299   07 Jun 2027 16:06:41.875   07 Jun 2027 16:07:21.734            39.859            RioGallegos          4982.375
       300   07 Jun 2027 16:48:39.281   07 Jun 2027 16:51:40.144           180.863                Irkutsk         22607.875
       301   07 Jun 2027 16:53:33.909   07 Jun 2027 16:54:13.038            39.129                Irkutsk          4891.125
       302   07 Jun 2027 17:02:28.749   07 Jun 2027 17:07:13.655           284.906                Sumatra         35613.250
       303   07 Jun 2027 18:26:36.557   07 Jun 2027 18:27:26.050            49.493                Novosib          6186.625
       304   07 Jun 2027 18:32:46.237   07 Jun 2027 18:35:14.724           148.487                  Delhi         18560.875
       305   07 Jun 2027 18:36:48.450   07 Jun 2027 18:37:32.787            44.337                  Delhi          5542.125
       306   07 Jun 2027 21:34:41.730   07 Jun 2027 21:36:23.914           102.184              Murmansk1         12773.000
       307   07 Jun 2027 21:40:48.381   07 Jun 2027 21:40:54.465             6.084                 Moscow           760.500
       308   07 Jun 2027 21:42:49.389   07 Jun 2027 21:43:32.154            42.765                 Moscow          5345.625
       309   07 Jun 2027 22:02:26.870   07 Jun 2027 22:05:05.543           158.673               CapeTown         19834.125
       310   07 Jun 2027 22:11:29.667   07 Jun 2027 22:11:46.942            17.275               CapeTown          2159.375
       311   08 Jun 2027 03:53:01.551   08 Jun 2027 03:53:31.292            29.741                Anadyr1          3717.625
       312   08 Jun 2027 03:54:28.468   08 Jun 2027 03:55:38.455            69.987               Magadan1          8748.375
       313   08 Jun 2027 03:55:43.563   08 Jun 2027 03:56:48.753            65.190               Magadan2          8148.750
       314   08 Jun 2027 05:08:07.468   08 Jun 2027 05:09:24.334            76.866                Sumatra          9608.250
       315   08 Jun 2027 05:28:21.947   08 Jun 2027 05:29:08.686            46.739                Irkutsk          5842.375
       316   08 Jun 2027 05:29:30.938   08 Jun 2027 05:29:35.726             4.788                Novosib           598.500
       317   08 Jun 2027 05:29:38.633   08 Jun 2027 05:32:16.284           157.651                Irkutsk         19706.375
       318   08 Jun 2027 06:17:41.913   08 Jun 2027 06:17:47.288             5.375            RioGallegos           671.875
       319   08 Jun 2027 06:42:44.130   08 Jun 2027 06:43:41.124            56.994                Sumatra          7124.250
       320   08 Jun 2027 06:53:28.251   08 Jun 2027 06:55:21.494           113.243                  Delhi         14155.375
       321   08 Jun 2027 07:05:26.696   08 Jun 2027 07:05:46.675            19.979              Murmansk1          2497.375
       322   08 Jun 2027 07:05:56.697   08 Jun 2027 07:06:16.666            19.969              Murmansk2          2496.125
       323   08 Jun 2027 07:06:16.666   08 Jun 2027 07:06:25.242             8.576              Murmansk1          1072.000
       324   08 Jun 2027 07:06:41.365   08 Jun 2027 07:07:06.309            24.944                 Moscow          3118.000
       325   08 Jun 2027 07:07:11.750   08 Jun 2027 07:08:55.590           103.840                Novosib         12980.000
       326   08 Jun 2027 08:27:30.036   08 Jun 2027 08:29:15.997           105.961                  Delhi         13245.125
       327   08 Jun 2027 08:40:28.602   08 Jun 2027 08:41:26.632            58.030              Murmansk1          7253.750
       328   08 Jun 2027 08:41:43.014   08 Jun 2027 08:41:55.647            12.633              Murmansk1          1579.125
       329   08 Jun 2027 08:41:56.755   08 Jun 2027 08:42:19.074            22.319                Norilsk          2789.875
       330   08 Jun 2027 08:42:28.158   08 Jun 2027 08:42:52.761            24.603              Murmansk2          3075.375
       331   08 Jun 2027 08:43:02.781   08 Jun 2027 08:43:11.160             8.379                 Moscow          1047.375
       332   08 Jun 2027 08:43:12.474   08 Jun 2027 08:43:40.527            28.053                Norilsk          3506.625
       333   08 Jun 2027 08:43:43.516   08 Jun 2027 08:44:08.967            25.451              Murmansk1          3181.375
       334   08 Jun 2027 08:44:14.273   08 Jun 2027 08:44:59.575            45.302              Murmansk1          5662.750
       335   08 Jun 2027 10:18:29.831   08 Jun 2027 10:20:40.294           130.463              Murmansk1         16307.875
       336   08 Jun 2027 10:31:23.921   08 Jun 2027 10:34:26.078           182.157                Anadyr2         22769.625
       337   08 Jun 2027 11:24:53.551   08 Jun 2027 11:27:11.449           137.898               CapeTown         17237.250
       338   08 Jun 2027 12:05:21.713   08 Jun 2027 12:06:52.432            90.719                Anadyr2         11339.875
       339   08 Jun 2027 12:08:00.438   08 Jun 2027 12:09:49.258           108.820                Anadyr1         13602.500
       340   08 Jun 2027 13:43:56.951   08 Jun 2027 13:46:59.295           182.344               Magadan1         22793.000
       341   08 Jun 2027 13:48:00.998   08 Jun 2027 13:50:13.661           132.663               Magadan1         16582.875
       342   08 Jun 2027 16:12:20.382   08 Jun 2027 16:15:56.290           215.908            RioGallegos         26988.500
       343   08 Jun 2027 16:18:44.978   08 Jun 2027 16:20:16.724            91.746            RioGallegos         11468.250
       344   08 Jun 2027 17:02:21.052   08 Jun 2027 17:03:23.284            62.232                Irkutsk          7779.000
       345   08 Jun 2027 17:15:20.709   08 Jun 2027 17:20:15.947           295.238                Sumatra         36904.750
       346   08 Jun 2027 18:37:41.102   08 Jun 2027 18:39:18.155            97.053                Novosib         12131.625
       347   08 Jun 2027 18:43:53.610   08 Jun 2027 18:46:53.898           180.288                  Delhi         22536.000
       348   08 Jun 2027 21:44:55.896   08 Jun 2027 21:46:21.149            85.253              Murmansk1         10656.625
       349   08 Jun 2027 21:48:31.644   08 Jun 2027 21:50:02.911            91.267                 Moscow         11408.375
       350   08 Jun 2027 21:54:20.209   08 Jun 2027 21:54:31.106            10.897              Murmansk1          1362.125
       351   08 Jun 2027 21:58:01.777   08 Jun 2027 21:59:57.453           115.676                 Moscow         14459.500
       352   08 Jun 2027 22:19:45.628   08 Jun 2027 22:21:03.127            77.499               CapeTown          9687.375
       353   09 Jun 2027 04:07:28.716   09 Jun 2027 04:08:42.921            74.205               Magadan1          9275.625
       354   09 Jun 2027 04:43:41.501   09 Jun 2027 04:44:11.082            29.581            RioGallegos          3697.625
       355   09 Jun 2027 04:51:36.226   09 Jun 2027 04:51:52.872            16.646            RioGallegos          2080.750
       356   09 Jun 2027 05:19:33.992   09 Jun 2027 05:20:44.019            70.027                Sumatra          8753.375
       357   09 Jun 2027 05:21:15.618   09 Jun 2027 05:23:13.264           117.646                Sumatra         14705.750
       358   09 Jun 2027 05:40:58.198   09 Jun 2027 05:41:42.925            44.727                Irkutsk          5590.875
       359   09 Jun 2027 05:41:55.759   09 Jun 2027 05:44:06.663           130.904                Irkutsk         16363.000
       360   09 Jun 2027 07:03:04.999   09 Jun 2027 07:05:16.621           131.622                  Delhi         16452.750
       361   09 Jun 2027 07:18:35.193   09 Jun 2027 07:19:07.451            32.258                Irkutsk          4032.250
       362   09 Jun 2027 07:19:09.207   09 Jun 2027 07:20:05.992            56.785                 Moscow          7098.125
       363   09 Jun 2027 07:20:29.264   09 Jun 2027 07:21:18.112            48.848              Murmansk2          6106.000
       364   09 Jun 2027 08:40:02.719   09 Jun 2027 08:40:37.492            34.773                  Delhi          4346.625
       365   09 Jun 2027 08:47:36.910   09 Jun 2027 08:48:54.965            78.055                  Delhi          9756.875
       366   09 Jun 2027 08:52:54.467   09 Jun 2027 08:53:37.850            43.383                Norilsk          5422.875
       367   09 Jun 2027 08:53:44.670   09 Jun 2027 08:53:56.340            11.670              Murmansk1          1458.750
       368   09 Jun 2027 08:54:03.926   09 Jun 2027 08:54:22.137            18.211              Murmansk1          2276.375
       369   09 Jun 2027 08:54:42.731   09 Jun 2027 08:56:01.642            78.911                Novosib          9863.875
       370   09 Jun 2027 08:56:02.019   09 Jun 2027 08:56:10.103             8.084              Murmansk1          1010.500
       371   09 Jun 2027 08:56:21.335   09 Jun 2027 08:56:49.893            28.558                Novosib          3569.750
       372   09 Jun 2027 08:56:50.773   09 Jun 2027 08:57:00.564             9.791              Murmansk1          1223.875
       373   09 Jun 2027 10:42:43.209   09 Jun 2027 10:47:47.526           304.317                Anadyr2         38039.625
       374   09 Jun 2027 11:39:32.183   09 Jun 2027 11:39:51.770            19.587               CapeTown          2448.375
       375   09 Jun 2027 12:17:19.783   09 Jun 2027 12:18:38.121            78.338                Anadyr1          9792.250
       376   09 Jun 2027 12:20:09.463   09 Jun 2027 12:21:50.652           101.189                Anadyr2         12648.625
       377   09 Jun 2027 13:55:49.592   09 Jun 2027 13:59:53.220           243.628               Magadan1         30453.500
       378   09 Jun 2027 14:00:02.428   09 Jun 2027 14:00:09.519             7.091               Magadan1           886.375
       379   09 Jun 2027 16:23:57.604   09 Jun 2027 16:30:32.615           395.011            RioGallegos         49376.375
       380   09 Jun 2027 17:12:14.442   09 Jun 2027 17:13:48.538            94.096                Irkutsk         11762.000
       381   09 Jun 2027 17:15:26.333   09 Jun 2027 17:15:30.989             4.656                Irkutsk           582.000
       382   09 Jun 2027 17:25:20.897   09 Jun 2027 17:29:12.018           231.121                Sumatra         28890.125
       383   09 Jun 2027 17:31:54.018   09 Jun 2027 17:32:09.697            15.679                Sumatra          1959.875
       384   09 Jun 2027 18:46:59.622   09 Jun 2027 18:48:37.585            97.963                Novosib         12245.375
       385   09 Jun 2027 18:49:45.252   09 Jun 2027 18:51:20.993            95.741                Novosib         11967.625
       386   09 Jun 2027 18:55:18.157   09 Jun 2027 18:56:58.827           100.670                  Delhi         12583.750
       387   09 Jun 2027 20:27:46.334   09 Jun 2027 20:28:59.349            73.015                 Moscow          9126.875
       388   09 Jun 2027 21:56:56.763   09 Jun 2027 21:58:43.076           106.313              Murmansk2         13289.125
       389   09 Jun 2027 22:02:27.514   09 Jun 2027 22:03:17.217            49.703                 Moscow          6212.875
       390   09 Jun 2027 22:25:17.101   09 Jun 2027 22:26:38.246            81.145               CapeTown         10143.125
       391   09 Jun 2027 22:29:56.507   09 Jun 2027 22:30:33.437            36.930               CapeTown          4616.250
       392   10 Jun 2027 04:19:39.424   10 Jun 2027 04:20:35.164            55.740               Magadan2          6967.500
       393   10 Jun 2027 04:20:47.916   10 Jun 2027 04:20:52.340             4.424                Irkutsk           553.000
       394   10 Jun 2027 04:21:30.396   10 Jun 2027 04:21:47.365            16.969              Murmansk1          2121.125
       395   10 Jun 2027 04:21:55.032   10 Jun 2027 04:21:59.477             4.445                Novosib           555.625
       396   10 Jun 2027 04:55:39.417   10 Jun 2027 04:56:33.798            54.381            RioGallegos          6797.625
       397   10 Jun 2027 05:31:09.852   10 Jun 2027 05:33:00.701           110.849                Sumatra         13856.125
       398   10 Jun 2027 05:44:52.577   10 Jun 2027 05:45:33.799            41.222                  Delhi          5152.750
       399   10 Jun 2027 05:46:40.693   10 Jun 2027 05:47:55.075            74.382                  Delhi          9297.750
       400   10 Jun 2027 05:53:34.689   10 Jun 2027 05:55:06.452            91.763                Novosib         11470.375
       401   10 Jun 2027 05:55:10.646   10 Jun 2027 05:55:27.716            17.070                Novosib          2133.750
       402   10 Jun 2027 05:55:41.694   10 Jun 2027 05:56:14.715            33.021                Norilsk          4127.625
       403   10 Jun 2027 05:56:20.194   10 Jun 2027 05:56:57.731            37.537                Novosib          4692.125
       404   10 Jun 2027 07:08:32.699   10 Jun 2027 07:09:11.729            39.030                Sumatra          4878.750
       405   10 Jun 2027 07:14:54.056   10 Jun 2027 07:15:42.102            48.046                  Delhi          6005.750
       406   10 Jun 2027 07:16:34.060   10 Jun 2027 07:16:59.966            25.906                  Delhi          3238.250
       407   10 Jun 2027 07:30:22.406   10 Jun 2027 07:30:51.976            29.570                Norilsk          3696.250
       408   10 Jun 2027 07:30:53.592   10 Jun 2027 07:31:11.602            18.010                 Moscow          2251.250
       409   10 Jun 2027 07:31:18.493   10 Jun 2027 07:31:27.555             9.062              Murmansk2          1132.750
       410   10 Jun 2027 07:31:32.327   10 Jun 2027 07:31:53.913            21.586                Novosib          2698.250
       411   10 Jun 2027 07:31:58.930   10 Jun 2027 07:32:11.398            12.468              Murmansk2          1558.500
       412   10 Jun 2027 07:32:13.160   10 Jun 2027 07:32:29.349            16.189                 Moscow          2023.625
       413   10 Jun 2027 07:32:37.105   10 Jun 2027 07:32:52.365            15.260                Norilsk          1907.500
       414   10 Jun 2027 07:33:07.778   10 Jun 2027 07:33:51.563            43.785                 Moscow          5473.125
       415   10 Jun 2027 07:34:07.953   10 Jun 2027 07:34:16.066             8.113                Novosib          1014.125
       416   10 Jun 2027 08:52:47.038   10 Jun 2027 08:53:36.690            49.652                  Delhi          6206.500
       417   10 Jun 2027 09:04:52.682   10 Jun 2027 09:06:42.285           109.603                Novosib         13700.375
       418   10 Jun 2027 09:07:06.803   10 Jun 2027 09:08:06.921            60.118                 Moscow          7514.750
       419   10 Jun 2027 09:08:10.952   10 Jun 2027 09:08:41.101            30.149              Murmansk2          3768.625
       420   10 Jun 2027 09:08:51.835   10 Jun 2027 09:08:53.248             1.413                Novosib           176.625
       421   10 Jun 2027 09:09:00.938   10 Jun 2027 09:10:12.519            71.581                Norilsk          8947.625
       422   10 Jun 2027 10:16:52.572   10 Jun 2027 10:18:19.988            87.416               CapeTown         10927.000
       423   10 Jun 2027 10:54:20.974   10 Jun 2027 10:58:18.816           237.842                Anadyr2         29730.250
       424   10 Jun 2027 10:59:59.327   10 Jun 2027 11:00:47.970            48.643                Anadyr2          6080.375
       425   10 Jun 2027 12:32:02.828   10 Jun 2027 12:33:52.055           109.227                Anadyr2         13653.375
       426   10 Jun 2027 14:07:44.066   10 Jun 2027 14:09:49.616           125.550               Magadan2         15693.750
       427   10 Jun 2027 14:10:26.888   10 Jun 2027 14:12:08.012           101.124               Magadan1         12640.500
       428   10 Jun 2027 14:12:38.123   10 Jun 2027 14:13:10.396            32.273               Magadan1          4034.125
       429   10 Jun 2027 14:16:48.103   10 Jun 2027 14:17:15.234            27.131               Magadan2          3391.375
       430   10 Jun 2027 16:35:40.964   10 Jun 2027 16:41:47.563           366.599            RioGallegos         45824.875
       431   10 Jun 2027 17:23:10.538   10 Jun 2027 17:24:44.502            93.964                Irkutsk         11745.500
       432   10 Jun 2027 17:25:51.679   10 Jun 2027 17:26:08.800            17.121                Irkutsk          2140.125
       433   10 Jun 2027 17:27:26.427   10 Jun 2027 17:29:06.697           100.270                Novosib         12533.750
       434   10 Jun 2027 17:37:00.654   10 Jun 2027 17:38:50.662           110.008                Sumatra         13751.000
       435   10 Jun 2027 17:39:21.123   10 Jun 2027 17:40:35.797            74.674                Sumatra          9334.250
       436   10 Jun 2027 18:58:54.604   10 Jun 2027 19:00:50.526           115.922                Novosib         14490.250
       437   10 Jun 2027 19:06:52.776   10 Jun 2027 19:07:54.474            61.698                  Delhi          7712.250
       438   10 Jun 2027 19:08:54.800   10 Jun 2027 19:10:43.230           108.430                  Delhi         13553.750
       439   10 Jun 2027 20:37:18.418   10 Jun 2027 20:37:43.707            25.289              Murmansk1          3161.125
       440   10 Jun 2027 20:38:32.030   10 Jun 2027 20:40:58.238           146.208                 Moscow         18276.000
       441   10 Jun 2027 22:36:52.828   10 Jun 2027 22:38:54.161           121.333               CapeTown         15166.625
       442   11 Jun 2027 04:30:55.037   11 Jun 2027 04:31:40.954            45.917               Magadan2          5739.625
       443   11 Jun 2027 04:31:43.186   11 Jun 2027 04:32:50.826            67.640                Irkutsk          8455.000
       444   11 Jun 2027 05:07:40.595   11 Jun 2027 05:09:01.685            81.090            RioGallegos         10136.250
       445   11 Jun 2027 05:42:53.156   11 Jun 2027 05:43:13.526            20.370                Sumatra          2546.250
       446   11 Jun 2027 05:55:02.492   11 Jun 2027 05:55:38.484            35.992                  Delhi          4499.000
       447   11 Jun 2027 06:05:19.223   11 Jun 2027 06:07:21.195           121.972                Novosib         15246.500
       448   11 Jun 2027 06:07:36.771   11 Jun 2027 06:08:54.390            77.619                Irkutsk          9702.375
       449   11 Jun 2027 07:26:48.478   11 Jun 2027 07:28:21.089            92.611                  Delhi         11576.375
       450   11 Jun 2027 07:42:48.037   11 Jun 2027 07:44:00.638            72.601                 Moscow          9075.125
       451   11 Jun 2027 07:44:23.441   11 Jun 2027 07:44:31.354             7.913                Norilsk           989.125
       452   11 Jun 2027 07:45:45.072   11 Jun 2027 07:46:42.174            57.102              Murmansk2          7137.750
       453   11 Jun 2027 09:05:49.641   11 Jun 2027 09:06:30.964            41.323                  Delhi          5165.375
       454   11 Jun 2027 09:14:21.747   11 Jun 2027 09:14:35.438            13.691                Novosib          1711.375
       455   11 Jun 2027 09:14:37.929   11 Jun 2027 09:15:00.807            22.878              Murmansk2          2859.750
       456   11 Jun 2027 09:15:19.189   11 Jun 2027 09:16:49.493            90.304                Novosib         11288.000
       457   11 Jun 2027 09:16:59.567   11 Jun 2027 09:17:34.023            34.456                 Moscow          4307.000
       458   11 Jun 2027 09:17:39.278   11 Jun 2027 09:17:48.070             8.792              Murmansk1          1099.000
       459   11 Jun 2027 09:17:51.297   11 Jun 2027 09:17:58.351             7.054              Murmansk1           881.750
       460   11 Jun 2027 09:18:02.380   11 Jun 2027 09:18:33.741            31.361                Norilsk          3920.125
       461   11 Jun 2027 09:18:41.002   11 Jun 2027 09:19:12.958            31.956                Novosib          3994.500
       462   11 Jun 2027 09:19:19.570   11 Jun 2027 09:19:51.501            31.931              Murmansk1          3991.375
       463   11 Jun 2027 09:19:59.326   11 Jun 2027 09:20:06.454             7.128                Novosib           891.000
       464   11 Jun 2027 09:20:27.617   11 Jun 2027 09:20:51.400            23.783              Murmansk2          2972.875
       465   11 Jun 2027 09:21:02.727   11 Jun 2027 09:22:52.964           110.237                 Moscow         13779.625
       466   11 Jun 2027 10:27:22.981   11 Jun 2027 10:30:00.444           157.463               CapeTown         19682.875
       467   11 Jun 2027 11:06:06.329   11 Jun 2027 11:09:12.341           186.012                Anadyr2         23251.500
       468   11 Jun 2027 11:09:12.341   11 Jun 2027 11:10:27.229            74.888                Anadyr1          9361.000
       469   11 Jun 2027 12:46:05.472   11 Jun 2027 12:48:14.890           129.418               Magadan2         16177.250
       470   11 Jun 2027 14:19:39.973   11 Jun 2027 14:21:26.155           106.182               Magadan2         13272.750
       471   11 Jun 2027 14:22:32.070   11 Jun 2027 14:24:06.106            94.036               Magadan2         11754.500
       472   11 Jun 2027 16:47:28.507   11 Jun 2027 16:53:18.883           350.376            RioGallegos         43797.000
       473   11 Jun 2027 17:36:52.239   11 Jun 2027 17:42:34.384           342.145                Novosib         42768.125
       474   11 Jun 2027 17:51:36.147   11 Jun 2027 17:53:21.068           104.921                Sumatra         13115.125
       475   11 Jun 2027 19:18:34.398   11 Jun 2027 19:20:25.911           111.513                  Delhi         13939.125
       476   11 Jun 2027 20:46:49.203   11 Jun 2027 20:47:06.424            17.221              Murmansk1          2152.625
       477   11 Jun 2027 20:49:56.009   11 Jun 2027 20:52:57.954           181.945                 Moscow         22743.125
       478   11 Jun 2027 22:22:57.379   11 Jun 2027 22:23:20.350            22.971              Murmansk2          2871.375
       479   11 Jun 2027 22:50:50.915   11 Jun 2027 22:52:44.669           113.754               CapeTown         14219.250
       480   12 Jun 2027 03:05:36.288   12 Jun 2027 03:07:18.440           102.152                Anadyr1         12769.000
       481   12 Jun 2027 04:39:25.584   12 Jun 2027 04:39:49.402            23.818                Irkutsk          2977.250
       482   12 Jun 2027 04:40:08.929   12 Jun 2027 04:41:06.196            57.267                Irkutsk          7158.375
