uniorb/output/strategy_1/Drop/Drop_KinoSat_111804.txt

KinoSat_111804
-------------------------
    Access    *     Start Time (UTCG)     *     Stop Time (UTCG)  *   Duration (s)        *       Station  *  Data (Mbytes)
         1   01 Jun 2027 03:15:56.264   01 Jun 2027 03:16:09.046            12.782                Novosib           399.437
         2   01 Jun 2027 03:16:13.615   01 Jun 2027 03:18:52.429           158.814                Norilsk          4962.938
         3   01 Jun 2027 03:19:01.956   01 Jun 2027 03:20:04.850            62.894                Irkutsk          1965.438
         4   01 Jun 2027 03:20:17.610   01 Jun 2027 03:20:25.642             8.032                Irkutsk           251.000
         5   01 Jun 2027 03:20:38.112   01 Jun 2027 03:20:50.389            12.277                Norilsk           383.656
         6   01 Jun 2027 03:20:51.323   01 Jun 2027 03:21:21.013            29.690                 Moscow           927.813
         7   01 Jun 2027 03:21:30.784   01 Jun 2027 03:22:10.616            39.832                Irkutsk          1244.750
         8   01 Jun 2027 03:23:25.049   01 Jun 2027 03:23:37.882            12.833                Irkutsk           401.031
         9   01 Jun 2027 03:24:11.223   01 Jun 2027 03:26:58.170           166.947                  Delhi          5217.094
        10   01 Jun 2027 04:54:53.477   01 Jun 2027 04:55:55.325            61.848                Norilsk          1932.750
        11   01 Jun 2027 04:56:03.629   01 Jun 2027 04:57:20.278            76.649              Murmansk1          2395.281
        12   01 Jun 2027 04:57:20.278   01 Jun 2027 04:57:28.891             8.613              Murmansk2           269.156
        13   01 Jun 2027 04:57:32.891   01 Jun 2027 04:57:48.523            15.632                 Moscow           488.500
        14   01 Jun 2027 04:57:54.390   01 Jun 2027 04:57:58.093             3.703                Novosib           115.719
        15   01 Jun 2027 04:58:03.210   01 Jun 2027 05:00:28.213           145.003              Murmansk2          4531.344
        16   01 Jun 2027 05:01:05.518   01 Jun 2027 05:04:11.619           186.101                 Moscow          5815.656
        17   01 Jun 2027 05:16:17.308   01 Jun 2027 05:20:24.315           247.007               CapeTown          7718.969
        18   01 Jun 2027 05:20:41.011   01 Jun 2027 05:22:01.763            80.752               CapeTown          2523.500
        19   01 Jun 2027 06:31:34.789   01 Jun 2027 06:35:18.984           224.195                 Moscow          7006.094
        20   01 Jun 2027 06:39:51.439   01 Jun 2027 06:39:54.042             2.603                 Moscow            81.344
        21   01 Jun 2027 06:52:12.801   01 Jun 2027 06:53:20.576            67.775               CapeTown          2117.969
        22   01 Jun 2027 06:56:34.004   01 Jun 2027 06:57:20.905            46.901               CapeTown          1465.656
        23   01 Jun 2027 07:55:21.117   01 Jun 2027 07:58:29.681           188.564                Anadyr2          5892.625
        24   01 Jun 2027 07:59:42.887   01 Jun 2027 07:59:54.365            11.478                Anadyr2           358.687
        25   01 Jun 2027 09:30:35.692   01 Jun 2027 09:32:27.452           111.760                Anadyr2          3492.500
        26   01 Jun 2027 09:33:03.087   01 Jun 2027 09:33:33.180            30.093                Anadyr2           940.406
        27   01 Jun 2027 09:34:44.353   01 Jun 2027 09:36:39.703           115.350                Anadyr2          3604.688
        28   01 Jun 2027 11:02:59.464   01 Jun 2027 11:04:47.770           108.306               Magadan2          3384.563
        29   01 Jun 2027 11:05:38.326   01 Jun 2027 11:08:25.188           166.862               Magadan1          5214.437
        30   01 Jun 2027 11:08:29.033   01 Jun 2027 11:11:54.896           205.863               Magadan2          6433.219
        31   01 Jun 2027 15:45:45.415   01 Jun 2027 15:46:55.340            69.925                  Delhi          2185.156
        32   01 Jun 2027 15:54:11.919   01 Jun 2027 15:58:14.062           242.143                Novosib          7566.969
        33   01 Jun 2027 15:59:30.699   01 Jun 2027 15:59:45.463            14.764                Novosib           461.375
        34   01 Jun 2027 18:40:08.330   01 Jun 2027 18:40:43.961            35.631               CapeTown          1113.469
        35   01 Jun 2027 18:42:29.126   01 Jun 2027 18:42:46.288            17.162               CapeTown           536.313
        36   01 Jun 2027 19:08:58.007   01 Jun 2027 19:12:28.937           210.930                 Moscow          6591.563
        37   01 Jun 2027 19:13:01.980   01 Jun 2027 19:15:38.422           156.442              Murmansk1          4888.812
        38   01 Jun 2027 20:17:47.068   01 Jun 2027 20:19:14.953            87.885               CapeTown          2746.406
        39   01 Jun 2027 20:20:35.091   01 Jun 2027 20:22:43.351           128.260               CapeTown          4008.125
        40   01 Jun 2027 20:59:08.210   01 Jun 2027 21:00:24.489            76.279               Magadan2          2383.719
        41   01 Jun 2027 21:00:24.489   01 Jun 2027 21:00:45.310            20.821               Magadan1           650.656
        42   01 Jun 2027 21:01:05.300   01 Jun 2027 21:01:20.166            14.866               Magadan1           464.563
        43   01 Jun 2027 21:01:43.639   01 Jun 2027 21:02:07.149            23.510               Magadan1           734.687
        44   01 Jun 2027 21:03:27.013   01 Jun 2027 21:03:55.303            28.290               Magadan1           884.063
        45   01 Jun 2027 21:05:34.196   01 Jun 2027 21:05:58.340            24.144               Magadan2           754.500
        46   01 Jun 2027 22:32:35.448   01 Jun 2027 22:37:47.466           312.018                Anadyr2          9750.562
        47   01 Jun 2027 22:37:49.754   01 Jun 2027 22:38:29.416            39.662                Norilsk          1239.438
        48   01 Jun 2027 22:38:36.500   01 Jun 2027 22:40:00.804            84.304               Magadan2          2634.500
        49   01 Jun 2027 22:42:07.105   01 Jun 2027 22:43:40.840            93.735                Irkutsk          2929.219
        50   01 Jun 2027 23:26:54.172   01 Jun 2027 23:29:03.114           128.942            RioGallegos          4029.438
        51   01 Jun 2027 23:29:59.917   01 Jun 2027 23:30:11.385            11.468            RioGallegos           358.375
        52   02 Jun 2027 00:08:09.889   02 Jun 2027 00:08:57.546            47.657                Anadyr1          1489.281
        53   02 Jun 2027 00:09:03.995   02 Jun 2027 00:09:40.239            36.244                Anadyr2          1132.625
        54   02 Jun 2027 00:10:24.010   02 Jun 2027 00:12:09.366           105.356                Norilsk          3292.375
        55   02 Jun 2027 00:12:40.080   02 Jun 2027 00:13:38.606            58.526               Magadan2          1828.937
        56   02 Jun 2027 00:14:21.144   02 Jun 2027 00:14:43.114            21.970               Magadan1           686.563
        57   02 Jun 2027 00:15:31.791   02 Jun 2027 00:16:01.336            29.545                Irkutsk           923.281
        58   02 Jun 2027 00:16:05.802   02 Jun 2027 00:18:14.567           128.765                Novosib          4023.906
        59   02 Jun 2027 00:26:27.227   02 Jun 2027 00:26:29.940             2.713                Irkutsk            84.781
        60   02 Jun 2027 00:28:14.869   02 Jun 2027 00:30:58.575           163.706                Sumatra          5115.813
        61   02 Jun 2027 01:02:18.610   02 Jun 2027 01:02:54.461            35.851            RioGallegos          1120.344
        62   02 Jun 2027 01:11:19.391   02 Jun 2027 01:11:55.055            35.664            RioGallegos          1114.500
        63   02 Jun 2027 01:42:48.511   02 Jun 2027 01:43:29.316            40.805                Anadyr1          1275.156
        64   02 Jun 2027 01:44:08.620   02 Jun 2027 01:44:57.060            48.440                Anadyr2          1513.750
        65   02 Jun 2027 01:45:04.397   02 Jun 2027 01:45:09.972             5.575                Anadyr2           174.219
        66   02 Jun 2027 01:46:22.842   02 Jun 2027 01:48:08.611           105.769                Norilsk          3305.281
        67   02 Jun 2027 01:50:16.512   02 Jun 2027 01:52:03.402           106.890                Irkutsk          3340.312
        68   02 Jun 2027 01:52:57.723   02 Jun 2027 01:53:04.121             6.398                Novosib           199.938
        69   02 Jun 2027 01:53:18.852   02 Jun 2027 01:53:53.327            34.475                Novosib          1077.344
        70   02 Jun 2027 01:57:59.536   02 Jun 2027 01:59:25.101            85.565                  Delhi          2673.906
        71   02 Jun 2027 02:06:32.977   02 Jun 2027 02:08:47.442           134.465                Sumatra          4202.031
        72   02 Jun 2027 02:40:12.058   02 Jun 2027 02:41:37.167            85.109            RioGallegos          2659.656
        73   02 Jun 2027 02:47:13.950   02 Jun 2027 02:47:30.932            16.982            RioGallegos           530.688
        74   02 Jun 2027 03:28:34.490   02 Jun 2027 03:28:40.644             6.154                Novosib           192.313
        75   02 Jun 2027 03:28:44.796   02 Jun 2027 03:28:55.372            10.576              Murmansk1           330.500
        76   02 Jun 2027 03:29:03.902   02 Jun 2027 03:29:17.382            13.480                Novosib           421.250
        77   02 Jun 2027 03:29:22.178   02 Jun 2027 03:32:51.507           209.329                Norilsk          6541.531
        78   02 Jun 2027 03:33:05.578   02 Jun 2027 03:35:06.404           120.826                Irkutsk          3775.812
        79   02 Jun 2027 03:35:31.479   02 Jun 2027 03:36:58.173            86.694                Novosib          2709.187
        80   02 Jun 2027 03:38:20.998   02 Jun 2027 03:39:40.685            79.687                  Delhi          2490.219
        81   02 Jun 2027 05:07:14.671   02 Jun 2027 05:07:22.446             7.775              Murmansk1           242.969
        82   02 Jun 2027 05:07:24.545   02 Jun 2027 05:08:30.818            66.273                Norilsk          2071.031
        83   02 Jun 2027 05:08:44.261   02 Jun 2027 05:10:17.740            93.479                 Moscow          2921.219
        84   02 Jun 2027 05:10:30.707   02 Jun 2027 05:14:36.057           245.350                 Moscow          7667.187
        85   02 Jun 2027 05:15:30.456   02 Jun 2027 05:15:56.548            26.092                 Moscow           815.375
        86   02 Jun 2027 05:28:00.732   02 Jun 2027 05:28:47.964            47.232               CapeTown          1476.000
        87   02 Jun 2027 05:31:13.188   02 Jun 2027 05:31:26.545            13.357               CapeTown           417.406
        88   02 Jun 2027 05:31:51.509   02 Jun 2027 05:32:16.989            25.480               CapeTown           796.250
        89   02 Jun 2027 06:32:04.974   02 Jun 2027 06:35:10.002           185.028                Anadyr2          5782.125
        90   02 Jun 2027 06:35:16.035   02 Jun 2027 06:36:09.149            53.114                Anadyr2          1659.812
        91   02 Jun 2027 06:43:09.762   02 Jun 2027 06:45:26.025           136.263                 Moscow          4258.219
        92   02 Jun 2027 06:46:07.721   02 Jun 2027 06:46:48.960            41.239                 Moscow          1288.719
        93   02 Jun 2027 06:48:34.913   02 Jun 2027 06:48:45.102            10.189                 Moscow           318.406
        94   02 Jun 2027 07:04:41.088   02 Jun 2027 07:05:23.002            41.914               CapeTown          1309.813
        95   02 Jun 2027 07:08:34.929   02 Jun 2027 07:09:30.121            55.192               CapeTown          1724.750
        96   02 Jun 2027 08:07:07.253   02 Jun 2027 08:08:42.233            94.980               Magadan2          2968.125
        97   02 Jun 2027 08:08:59.421   02 Jun 2027 08:10:53.410           113.989               Magadan2          3562.156
        98   02 Jun 2027 08:11:33.343   02 Jun 2027 08:12:19.823            46.480               Magadan2          1452.500
        99   02 Jun 2027 09:40:18.459   02 Jun 2027 09:44:42.641           264.182                Anadyr1          8255.688
       100   02 Jun 2027 09:44:42.641   02 Jun 2027 09:46:29.567           106.926                Anadyr2          3341.437
       101   02 Jun 2027 11:18:21.756   02 Jun 2027 11:20:19.420           117.664               Magadan2          3677.000
       102   02 Jun 2027 11:20:22.375   02 Jun 2027 11:22:08.247           105.872               Magadan2          3308.500
       103   02 Jun 2027 11:24:40.096   02 Jun 2027 11:25:06.251            26.155              Murmansk2           817.344
       104   02 Jun 2027 11:59:18.236   02 Jun 2027 11:59:39.816            21.580            RioGallegos           674.375
       105   02 Jun 2027 12:00:10.344   02 Jun 2027 12:01:12.245            61.901            RioGallegos          1934.406
       106   02 Jun 2027 12:34:11.622   02 Jun 2027 12:37:14.659           183.037                Sumatra          5719.906
       107   02 Jun 2027 12:48:05.359   02 Jun 2027 12:49:28.534            83.175                Irkutsk          2599.219
       108   02 Jun 2027 12:50:14.599   02 Jun 2027 12:50:25.537            10.938                Novosib           341.812
       109   02 Jun 2027 12:50:50.437   02 Jun 2027 12:52:38.992           108.555                Irkutsk          3392.344
       110   02 Jun 2027 13:03:10.274   02 Jun 2027 13:03:32.676            22.402                Norilsk           700.063
       111   02 Jun 2027 13:38:28.694   02 Jun 2027 13:42:59.421           270.727            RioGallegos          8460.219
       112   02 Jun 2027 13:43:28.685   02 Jun 2027 13:45:42.882           134.197            RioGallegos          4193.656
       113   02 Jun 2027 14:13:15.034   02 Jun 2027 14:14:41.126            86.092                Sumatra          2690.375
       114   02 Jun 2027 14:17:14.769   02 Jun 2027 14:18:47.894            93.125                Sumatra          2910.156
       115   02 Jun 2027 14:29:11.240   02 Jun 2027 14:33:40.435           269.195                Irkutsk          8412.344
       116   02 Jun 2027 16:00:22.966   02 Jun 2027 16:01:35.339            72.373                  Delhi          2261.656
       117   02 Jun 2027 16:07:56.713   02 Jun 2027 16:10:37.154           160.441                Novosib          5013.781
       118   02 Jun 2027 16:14:37.763   02 Jun 2027 16:14:58.118            20.355                Norilsk           636.094
       119   02 Jun 2027 17:39:40.476   02 Jun 2027 17:39:43.033             2.557                 Moscow            79.906
       120   02 Jun 2027 17:40:33.617   02 Jun 2027 17:41:43.483            69.866                 Moscow          2183.312
       121   02 Jun 2027 17:42:58.217   02 Jun 2027 17:43:28.420            30.203              Murmansk2           943.844
       122   02 Jun 2027 17:43:46.049   02 Jun 2027 17:44:32.951            46.902                 Moscow          1465.687
       123   02 Jun 2027 17:44:51.488   02 Jun 2027 17:45:30.381            38.893              Murmansk2          1215.406
       124   02 Jun 2027 17:47:17.321   02 Jun 2027 17:47:25.856             8.535              Murmansk1           266.719
       125   02 Jun 2027 17:50:49.016   02 Jun 2027 17:50:51.866             2.850              Murmansk2            89.062
       126   02 Jun 2027 17:50:51.866   02 Jun 2027 17:51:14.019            22.153              Murmansk1           692.281
       127   02 Jun 2027 17:57:20.943   02 Jun 2027 17:58:25.112            64.169                Anadyr2          2005.281
       128   02 Jun 2027 18:52:10.502   02 Jun 2027 18:54:17.498           126.996               CapeTown          3968.625
       129   02 Jun 2027 18:55:13.144   02 Jun 2027 18:55:21.881             8.737               CapeTown           273.031
       130   02 Jun 2027 19:21:55.926   02 Jun 2027 19:27:16.558           320.632              Murmansk1         10019.750
       131   02 Jun 2027 19:28:23.073   02 Jun 2027 19:29:04.044            40.971              Murmansk1          1280.344
       132   02 Jun 2027 19:36:34.799   02 Jun 2027 19:37:15.855            41.056               Magadan1          1283.000
       133   02 Jun 2027 20:30:36.938   02 Jun 2027 20:36:08.238           331.300               CapeTown         10353.125
       134   02 Jun 2027 21:11:06.173   02 Jun 2027 21:12:07.921            61.748               Magadan1          1929.625
       135   02 Jun 2027 21:12:49.089   02 Jun 2027 21:13:25.699            36.610               Magadan2          1144.062
       136   02 Jun 2027 21:13:37.023   02 Jun 2027 21:13:46.859             9.836               Magadan2           307.375
       137   02 Jun 2027 21:15:23.495   02 Jun 2027 21:16:01.128            37.633               Magadan2          1176.031
       138   02 Jun 2027 22:44:36.097   02 Jun 2027 22:48:20.050           223.953                Anadyr1          6998.531
       139   02 Jun 2027 22:48:23.430   02 Jun 2027 22:51:58.018           214.588                Norilsk          6705.875
       140   02 Jun 2027 22:52:32.750   02 Jun 2027 22:53:12.239            39.489               Magadan2          1234.031
       141   02 Jun 2027 22:53:12.427   02 Jun 2027 22:53:48.580            36.153                Irkutsk          1129.781
       142   02 Jun 2027 22:59:09.299   02 Jun 2027 22:59:41.615            32.316               Magadan2          1009.875
       143   02 Jun 2027 23:38:46.252   02 Jun 2027 23:40:51.882           125.630            RioGallegos          3925.938
       144   02 Jun 2027 23:45:59.172   02 Jun 2027 23:46:14.539            15.367            RioGallegos           480.219
       145   02 Jun 2027 23:46:48.644   02 Jun 2027 23:47:46.950            58.306            RioGallegos          1822.062
       146   02 Jun 2027 23:49:43.186   02 Jun 2027 23:50:17.313            34.127            RioGallegos          1066.469
       147   03 Jun 2027 00:20:05.781   03 Jun 2027 00:21:44.162            98.381                Anadyr1          3074.406
       148   03 Jun 2027 00:22:25.401   03 Jun 2027 00:23:50.662            85.261                Norilsk          2664.406
       149   03 Jun 2027 00:23:58.455   03 Jun 2027 00:24:22.784            24.329               Magadan1           760.281
       150   03 Jun 2027 00:25:07.520   03 Jun 2027 00:25:26.630            19.110               Magadan1           597.187
       151   03 Jun 2027 00:25:49.791   03 Jun 2027 00:26:52.291            62.500               Magadan1          1953.125
       152   03 Jun 2027 00:27:00.932   03 Jun 2027 00:28:04.074            63.142                Irkutsk          1973.187
       153   03 Jun 2027 00:28:38.780   03 Jun 2027 00:29:11.485            32.705                Novosib          1022.031
       154   03 Jun 2027 00:33:00.772   03 Jun 2027 00:33:45.589            44.817                Novosib          1400.531
       155   03 Jun 2027 00:37:13.644   03 Jun 2027 00:37:40.644            27.000                Irkutsk           843.750
       156   03 Jun 2027 00:40:09.821   03 Jun 2027 00:43:11.920           182.099                Sumatra          5690.594
       157   03 Jun 2027 01:19:03.335   03 Jun 2027 01:19:16.861            13.526            RioGallegos           422.688
       158   03 Jun 2027 01:23:22.269   03 Jun 2027 01:23:34.063            11.794            RioGallegos           368.562
       159   03 Jun 2027 01:23:58.613   03 Jun 2027 01:24:01.528             2.915            RioGallegos            91.094
       160   03 Jun 2027 01:24:40.099   03 Jun 2027 01:25:02.600            22.501            RioGallegos           703.156
       161   03 Jun 2027 01:26:47.108   03 Jun 2027 01:27:02.234            15.126            RioGallegos           472.688
       162   03 Jun 2027 01:54:34.753   03 Jun 2027 01:55:28.192            53.439                Anadyr1          1669.969
       163   03 Jun 2027 01:56:09.977   03 Jun 2027 01:56:39.059            29.082                Anadyr2           908.813
       164   03 Jun 2027 01:58:25.258   03 Jun 2027 01:59:58.419            93.161                Norilsk          2911.281
       165   03 Jun 2027 02:02:06.941   03 Jun 2027 02:02:15.013             8.072                Norilsk           252.250
       166   03 Jun 2027 02:02:18.424   03 Jun 2027 02:04:11.680           113.256                Novosib          3539.250
       167   03 Jun 2027 02:04:45.652   03 Jun 2027 02:05:12.661            27.009                Novosib           844.031
       168   03 Jun 2027 02:07:21.918   03 Jun 2027 02:08:01.199            39.281                Irkutsk          1227.531
       169   03 Jun 2027 02:09:48.570   03 Jun 2027 02:10:41.149            52.579                  Delhi          1643.094
       170   03 Jun 2027 02:15:56.715   03 Jun 2027 02:16:03.177             6.462                  Delhi           201.938
       171   03 Jun 2027 02:17:33.575   03 Jun 2027 02:18:24.910            51.335                  Delhi          1604.219
       172   03 Jun 2027 02:20:20.175   03 Jun 2027 02:23:10.094           169.919                Sumatra          5309.969
       173   03 Jun 2027 02:54:32.856   03 Jun 2027 02:54:50.045            17.189            RioGallegos           537.156
       174   03 Jun 2027 02:57:30.968   03 Jun 2027 02:57:46.959            15.991            RioGallegos           499.719
       175   03 Jun 2027 02:59:07.573   03 Jun 2027 02:59:49.275            41.702            RioGallegos          1303.187
       176   03 Jun 2027 03:40:49.661   03 Jun 2027 03:41:32.334            42.673                Novosib          1333.531
       177   03 Jun 2027 03:41:32.736   03 Jun 2027 03:42:03.846            31.110              Murmansk2           972.187
       178   03 Jun 2027 03:42:10.084   03 Jun 2027 03:43:07.751            57.667                Novosib          1802.094
       179   03 Jun 2027 03:43:26.460   03 Jun 2027 03:43:29.495             3.035                Norilsk            94.844
       180   03 Jun 2027 03:43:33.428   03 Jun 2027 03:43:59.157            25.729                Norilsk           804.031
       181   03 Jun 2027 03:44:09.250   03 Jun 2027 03:44:51.938            42.688              Murmansk1          1334.000
       182   03 Jun 2027 03:44:51.938   03 Jun 2027 03:46:27.689            95.751              Murmansk2          2992.219
       183   03 Jun 2027 03:46:50.857   03 Jun 2027 03:46:55.976             5.119                Irkutsk           159.969
       184   03 Jun 2027 03:47:26.240   03 Jun 2027 03:53:52.765           386.525                  Delhi         12078.906
       185   03 Jun 2027 05:19:25.272   03 Jun 2027 05:19:58.280            33.008              Murmansk2          1031.500
       186   03 Jun 2027 05:20:07.742   03 Jun 2027 05:21:03.761            56.019              Murmansk1          1750.594
       187   03 Jun 2027 05:21:22.362   03 Jun 2027 05:22:31.287            68.925              Murmansk1          2153.906
       188   03 Jun 2027 05:22:46.329   03 Jun 2027 05:24:57.529           131.200              Murmansk2          4100.000
       189   03 Jun 2027 05:25:15.673   03 Jun 2027 05:28:34.070           198.397                 Moscow          6199.906
       190   03 Jun 2027 05:50:14.687   03 Jun 2027 05:52:09.930           115.243               CapeTown          3601.344
       191   03 Jun 2027 06:42:56.484   03 Jun 2027 06:43:31.895            35.411                Anadyr2          1106.594
       192   03 Jun 2027 06:44:14.103   03 Jun 2027 06:47:35.026           200.923                Anadyr2          6278.844
       193   03 Jun 2027 06:55:13.371   03 Jun 2027 07:01:25.857           372.486              Murmansk1         11640.188
       194   03 Jun 2027 07:01:26.846   03 Jun 2027 07:03:07.005           100.159                 Moscow          3129.969
       195   03 Jun 2027 07:17:18.611   03 Jun 2027 07:17:30.655            12.044               CapeTown           376.375
       196   03 Jun 2027 07:17:47.070   03 Jun 2027 07:20:05.125           138.055               CapeTown          4314.219
       197   03 Jun 2027 08:19:09.226   03 Jun 2027 08:21:02.376           113.150               Magadan1          3535.937
       198   03 Jun 2027 08:21:18.829   03 Jun 2027 08:22:18.400            59.571                Norilsk          1861.594
       199   03 Jun 2027 08:22:40.325   03 Jun 2027 08:25:11.377           151.052                Anadyr2          4720.375
       200   03 Jun 2027 09:52:14.796   03 Jun 2027 09:53:04.938            50.142               Magadan1          1566.937
       201   03 Jun 2027 09:53:04.938   03 Jun 2027 09:56:59.217           234.279               Magadan2          7321.219
       202   03 Jun 2027 09:57:37.529   03 Jun 2027 10:00:21.510           163.981                Anadyr1          5124.406
       203   03 Jun 2027 11:28:39.538   03 Jun 2027 11:33:00.253           260.715               Magadan1          8147.344
       204   03 Jun 2027 11:33:56.439   03 Jun 2027 11:34:19.653            23.214                Norilsk           725.438
       205   03 Jun 2027 11:34:22.850   03 Jun 2027 11:34:27.424             4.574              Murmansk1           142.938
       206   03 Jun 2027 11:34:27.424   03 Jun 2027 11:34:39.661            12.237              Murmansk2           382.406
       207   03 Jun 2027 11:34:55.949   03 Jun 2027 11:36:00.680            64.731              Murmansk2          2022.844
       208   03 Jun 2027 11:36:05.101   03 Jun 2027 11:36:40.327            35.226              Murmansk1          1100.813
       209   03 Jun 2027 11:36:40.327   03 Jun 2027 11:37:07.842            27.515              Murmansk2           859.844
       210   03 Jun 2027 12:11:27.825   03 Jun 2027 12:12:03.236            35.411            RioGallegos          1106.594
       211   03 Jun 2027 12:14:28.829   03 Jun 2027 12:15:46.067            77.238            RioGallegos          2413.688
       212   03 Jun 2027 12:46:09.442   03 Jun 2027 12:46:30.386            20.944                Sumatra           654.500
       213   03 Jun 2027 12:48:48.231   03 Jun 2027 12:50:10.864            82.633                Sumatra          2582.281
       214   03 Jun 2027 13:00:22.903   03 Jun 2027 13:04:48.190           265.287                Irkutsk          8290.219
       215   03 Jun 2027 13:51:30.791   03 Jun 2027 13:55:41.602           250.811            RioGallegos          7837.844
       216   03 Jun 2027 14:38:14.880   03 Jun 2027 14:38:22.325             7.445                Novosib           232.656
       217   03 Jun 2027 14:39:04.797   03 Jun 2027 14:40:12.051            67.254                Novosib          2101.687
       218   03 Jun 2027 14:42:15.634   03 Jun 2027 14:43:09.891            54.257                Novosib          1695.531
       219   03 Jun 2027 14:46:04.535   03 Jun 2027 14:46:50.370            45.835                Novosib          1432.344
       220   03 Jun 2027 14:51:52.477   03 Jun 2027 14:52:10.582            18.105                Norilsk           565.781
       221   03 Jun 2027 16:14:45.957   03 Jun 2027 16:18:03.904           197.947                 Moscow          6185.844
       222   03 Jun 2027 16:19:09.782   03 Jun 2027 16:19:33.122            23.340              Murmansk2           729.375
       223   03 Jun 2027 16:20:12.059   03 Jun 2027 16:20:41.479            29.420              Murmansk2           919.375
       224   03 Jun 2027 16:22:08.701   03 Jun 2027 16:23:50.485           101.784                Norilsk          3180.750
       225   03 Jun 2027 16:25:34.719   03 Jun 2027 16:27:51.684           136.965                Norilsk          4280.156
       226   03 Jun 2027 17:29:22.208   03 Jun 2027 17:29:37.482            15.274               CapeTown           477.312
       227   03 Jun 2027 17:32:26.233   03 Jun 2027 17:32:42.050            15.817               CapeTown           494.281
       228   03 Jun 2027 17:34:40.678   03 Jun 2027 17:34:51.442            10.764               CapeTown           336.375
       229   03 Jun 2027 17:38:00.231   03 Jun 2027 17:38:07.041             6.810               CapeTown           212.813
       230   03 Jun 2027 17:38:39.532   03 Jun 2027 17:38:58.863            19.331               CapeTown           604.094
       231   03 Jun 2027 17:52:05.534   03 Jun 2027 17:52:33.835            28.301                 Moscow           884.406
       232   03 Jun 2027 17:53:38.696   03 Jun 2027 17:55:46.166           127.470                 Moscow          3983.437
       233   03 Jun 2027 17:57:02.634   03 Jun 2027 17:57:10.944             8.310                 Moscow           259.688
       234   03 Jun 2027 17:57:32.330   03 Jun 2027 17:59:10.136            97.806              Murmansk1          3056.438
       235   03 Jun 2027 18:01:33.659   03 Jun 2027 18:02:03.024            29.365                 Moscow           917.656
       236   03 Jun 2027 18:10:25.339   03 Jun 2027 18:10:37.824            12.485                Anadyr2           390.156
       237   03 Jun 2027 18:14:20.412   03 Jun 2027 18:14:25.175             4.763                Anadyr2           148.844
       238   03 Jun 2027 18:15:13.024   03 Jun 2027 18:15:28.509            15.485                Anadyr1           483.906
       239   03 Jun 2027 18:18:05.197   03 Jun 2027 18:18:26.842            21.645                Anadyr2           676.406
       240   03 Jun 2027 19:04:15.453   03 Jun 2027 19:06:02.579           107.126               CapeTown          3347.687
       241   03 Jun 2027 19:10:27.540   03 Jun 2027 19:12:51.543           144.003               CapeTown          4500.094
       242   03 Jun 2027 19:34:32.659   03 Jun 2027 19:38:51.546           258.887              Murmansk2          8090.219
       243   03 Jun 2027 19:39:08.430   03 Jun 2027 19:40:04.447            56.017              Murmansk2          1750.531
       244   03 Jun 2027 19:40:07.787   03 Jun 2027 19:42:19.550           131.763              Murmansk2          4117.594
       245   03 Jun 2027 20:44:38.072   03 Jun 2027 20:45:41.277            63.205               CapeTown          1975.156
       246   03 Jun 2027 21:20:44.372   03 Jun 2027 21:21:16.470            32.098                Anadyr2          1003.063
       247   03 Jun 2027 21:21:46.069   03 Jun 2027 21:23:13.773            87.704                Anadyr2          2740.750
       248   03 Jun 2027 21:23:15.602   03 Jun 2027 21:23:55.553            39.951               Magadan1          1248.469
       249   03 Jun 2027 21:25:55.976   03 Jun 2027 21:26:52.406            56.430               Magadan1          1763.437
       250   03 Jun 2027 21:34:36.718   03 Jun 2027 21:34:54.018            17.300               Magadan2           540.625
       251   03 Jun 2027 22:18:56.288   03 Jun 2027 22:19:54.611            58.323            RioGallegos          1822.594
       252   03 Jun 2027 22:56:36.395   03 Jun 2027 23:00:45.010           248.615                Anadyr1          7769.219
       253   03 Jun 2027 23:00:55.077   03 Jun 2027 23:01:03.020             7.943                Norilsk           248.219
       254   03 Jun 2027 23:01:20.055   03 Jun 2027 23:01:47.702            27.647                Norilsk           863.969
       255   03 Jun 2027 23:01:56.518   03 Jun 2027 23:02:06.388             9.870               Magadan1           308.438
       256   03 Jun 2027 23:02:25.568   03 Jun 2027 23:02:36.275            10.707               Magadan2           334.594
       257   03 Jun 2027 23:03:19.065   03 Jun 2027 23:03:24.200             5.135                Norilsk           160.469
       258   03 Jun 2027 23:03:46.093   03 Jun 2027 23:04:15.558            29.465               Magadan1           920.781
       259   03 Jun 2027 23:04:15.558   03 Jun 2027 23:04:28.378            12.820               Magadan2           400.625
       260   03 Jun 2027 23:05:12.556   03 Jun 2027 23:05:34.438            21.882                Norilsk           683.813
       261   03 Jun 2027 23:05:50.591   03 Jun 2027 23:06:44.413            53.822                Irkutsk          1681.937
       262   03 Jun 2027 23:07:01.044   03 Jun 2027 23:07:02.974             1.930                Irkutsk            60.312
       263   03 Jun 2027 23:09:05.395   03 Jun 2027 23:09:30.517            25.122                Irkutsk           785.062
       264   03 Jun 2027 23:20:01.913   03 Jun 2027 23:21:26.507            84.594                Sumatra          2643.563
       265   03 Jun 2027 23:24:47.581   03 Jun 2027 23:26:00.307            72.726                Sumatra          2272.687
       266   04 Jun 2027 00:00:11.559   04 Jun 2027 00:00:32.559            21.000            RioGallegos           656.250
       267   04 Jun 2027 00:02:01.569   04 Jun 2027 00:02:40.723            39.154            RioGallegos          1223.562
       268   04 Jun 2027 00:32:00.678   04 Jun 2027 00:33:25.896            85.218                Anadyr1          2663.062
       269   04 Jun 2027 00:34:27.096   04 Jun 2027 00:36:13.853           106.757                Norilsk          3336.156
       270   04 Jun 2027 00:36:24.028   04 Jun 2027 00:37:02.780            38.752               Magadan1          1211.000
       271   04 Jun 2027 00:37:16.767   04 Jun 2027 00:38:50.192            93.425               Magadan1          2919.531
       272   04 Jun 2027 00:39:20.102   04 Jun 2027 00:41:15.788           115.686                Novosib          3615.187
       273   04 Jun 2027 00:55:19.159   04 Jun 2027 00:56:25.674            66.515                Sumatra          2078.594
       274   04 Jun 2027 01:01:26.323   04 Jun 2027 01:02:53.509            87.186                Sumatra          2724.562
       275   04 Jun 2027 01:36:03.035   04 Jun 2027 01:36:48.561            45.526            RioGallegos          1422.687
       276   04 Jun 2027 02:06:30.853   04 Jun 2027 02:06:42.953            12.100                Anadyr1           378.125
       277   04 Jun 2027 02:07:15.312   04 Jun 2027 02:07:27.568            12.256                Anadyr1           383.000
       278   04 Jun 2027 02:08:11.293   04 Jun 2027 02:08:44.218            32.925                Anadyr2          1028.906
       279   04 Jun 2027 02:10:27.638   04 Jun 2027 02:11:44.150            76.512                Norilsk          2391.000
       280   04 Jun 2027 02:11:49.682   04 Jun 2027 02:11:53.901             4.219                Norilsk           131.844
       281   04 Jun 2027 02:13:34.567   04 Jun 2027 02:13:47.873            13.306                Norilsk           415.812
       282   04 Jun 2027 02:13:55.000   04 Jun 2027 02:14:24.131            29.131              Murmansk1           910.344
       283   04 Jun 2027 02:14:24.131   04 Jun 2027 02:14:47.247            23.116              Murmansk2           722.375
       284   04 Jun 2027 02:14:47.603   04 Jun 2027 02:16:04.785            77.182                Irkutsk          2411.938
       285   04 Jun 2027 02:18:14.672   04 Jun 2027 02:19:23.802            69.130                Irkutsk          2160.313
       286   04 Jun 2027 02:25:27.773   04 Jun 2027 02:25:42.097            14.324                Irkutsk           447.625
       287   04 Jun 2027 02:28:35.377   04 Jun 2027 02:29:02.618            27.241                  Delhi           851.281
       288   04 Jun 2027 02:31:57.528   04 Jun 2027 02:33:43.559           106.031                  Delhi          3313.469
       289   04 Jun 2027 03:04:25.271   04 Jun 2027 03:05:13.110            47.839            RioGallegos          1494.969
       290   04 Jun 2027 03:05:25.163   04 Jun 2027 03:07:42.093           136.930            RioGallegos          4279.062
       291   04 Jun 2027 03:53:29.060   04 Jun 2027 03:56:04.245           155.185                Irkutsk          4849.531
       292   04 Jun 2027 03:56:25.069   04 Jun 2027 03:58:11.577           106.508                Irkutsk          3328.375
       293   04 Jun 2027 03:58:12.230   04 Jun 2027 03:58:45.155            32.925                Novosib          1028.906
       294   04 Jun 2027 03:58:47.106   04 Jun 2027 03:58:56.978             9.872              Murmansk2           308.500
       295   04 Jun 2027 04:01:18.538   04 Jun 2027 04:01:37.101            18.563                Novosib           580.094
       296   04 Jun 2027 04:03:43.911   04 Jun 2027 04:05:31.542           107.631                  Delhi          3363.469
       297   04 Jun 2027 05:31:53.809   04 Jun 2027 05:32:28.554            34.745                Novosib          1085.781
       298   04 Jun 2027 05:32:36.209   04 Jun 2027 05:34:24.028           107.819                Novosib          3369.344
       299   04 Jun 2027 05:34:44.821   04 Jun 2027 05:36:55.196           130.375              Murmansk2          4074.219
       300   04 Jun 2027 05:36:55.196   04 Jun 2027 05:37:09.283            14.087              Murmansk1           440.219
       301   04 Jun 2027 05:40:11.807   04 Jun 2027 05:40:12.624             0.817                 Moscow            25.531
       302   04 Jun 2027 05:55:33.502   04 Jun 2027 05:56:03.811            30.309               CapeTown           947.156
       303   04 Jun 2027 05:57:43.648   04 Jun 2027 05:58:25.987            42.339               CapeTown          1323.094
       304   04 Jun 2027 06:56:01.275   04 Jun 2027 06:56:30.876            29.601               Magadan1           925.031
       305   04 Jun 2027 06:56:30.876   04 Jun 2027 06:56:54.205            23.329               Magadan2           729.031
       306   04 Jun 2027 06:57:29.325   04 Jun 2027 06:58:01.336            32.011                Anadyr1          1000.344
       307   04 Jun 2027 06:58:01.336   04 Jun 2027 06:58:16.625            15.289                Anadyr2           477.781
       308   04 Jun 2027 06:58:57.499   04 Jun 2027 06:59:33.436            35.937               Magadan2          1123.031
       309   04 Jun 2027 06:59:57.839   04 Jun 2027 07:00:38.203            40.364                Anadyr2          1261.375
       310   04 Jun 2027 08:28:50.380   04 Jun 2027 08:30:17.219            86.839                Anadyr1          2713.719
       311   04 Jun 2027 08:30:25.710   04 Jun 2027 08:31:10.882            45.172               Magadan2          1411.625
       312   04 Jun 2027 08:31:18.947   04 Jun 2027 08:34:25.063           186.116                Anadyr1          5816.125
       313   04 Jun 2027 10:04:02.010   04 Jun 2027 10:05:07.158            65.148               Magadan1          2035.875
       314   04 Jun 2027 10:05:21.632   04 Jun 2027 10:06:30.681            69.049                Irkutsk          2157.781
       315   04 Jun 2027 10:06:46.186   04 Jun 2027 10:10:13.761           207.575               Magadan2          6486.719
       316   04 Jun 2027 10:10:29.735   04 Jun 2027 10:11:09.822            40.087                Norilsk          1252.719
       317   04 Jun 2027 10:11:17.942   04 Jun 2027 10:11:39.278            21.336                Novosib           666.750
       318   04 Jun 2027 10:11:43.861   04 Jun 2027 10:12:05.910            22.049                Anadyr1           689.031
       319   04 Jun 2027 10:12:24.629   04 Jun 2027 10:12:45.961            21.332                Norilsk           666.625
       320   04 Jun 2027 10:15:04.237   04 Jun 2027 10:15:35.730            31.493              Murmansk1           984.156
       321   04 Jun 2027 10:47:49.229   04 Jun 2027 10:48:03.898            14.669            RioGallegos           458.406
       322   04 Jun 2027 10:48:36.896   04 Jun 2027 10:48:39.955             3.059            RioGallegos            95.594
       323   04 Jun 2027 10:50:30.921   04 Jun 2027 10:51:06.157            35.236            RioGallegos          1101.125
       324   04 Jun 2027 11:25:20.318   04 Jun 2027 11:27:06.710           106.392                Sumatra          3324.750
       325   04 Jun 2027 11:41:40.856   04 Jun 2027 11:42:19.631            38.775                Novosib          1211.719
       326   04 Jun 2027 11:42:29.546   04 Jun 2027 11:43:42.676            73.130                Norilsk          2285.312
       327   04 Jun 2027 11:43:48.774   04 Jun 2027 11:46:47.256           178.482               Magadan2          5577.562
       328   04 Jun 2027 11:47:10.824   04 Jun 2027 11:47:55.345            44.521              Murmansk1          1391.281
       329   04 Jun 2027 11:47:59.318   04 Jun 2027 11:48:40.251            40.933                Irkutsk          1279.156
       330   04 Jun 2027 11:49:09.341   04 Jun 2027 11:49:20.028            10.687              Murmansk2           333.969
       331   04 Jun 2027 12:23:41.243   04 Jun 2027 12:24:43.183            61.940            RioGallegos          1935.625
       332   04 Jun 2027 12:26:26.891   04 Jun 2027 12:26:56.680            29.789            RioGallegos           930.906
       333   04 Jun 2027 12:58:12.948   04 Jun 2027 12:59:44.523            91.575                Sumatra          2861.719
       334   04 Jun 2027 13:01:17.822   04 Jun 2027 13:02:30.411            72.589                Sumatra          2268.406
       335   04 Jun 2027 13:12:44.824   04 Jun 2027 13:13:36.215            51.391                Irkutsk          1605.969
       336   04 Jun 2027 13:14:42.641   04 Jun 2027 13:16:48.920           126.279                Irkutsk          3946.219
       337   04 Jun 2027 13:22:39.878   04 Jun 2027 13:22:59.049            19.171                Irkutsk           599.094
       338   04 Jun 2027 13:27:37.176   04 Jun 2027 13:28:01.632            24.456                Norilsk           764.250
       339   04 Jun 2027 13:29:15.153   04 Jun 2027 13:29:15.237             0.084                Norilsk             2.625
       340   04 Jun 2027 14:04:59.940   04 Jun 2027 14:08:33.938           213.998            RioGallegos          6687.438
       341   04 Jun 2027 14:50:40.910   04 Jun 2027 14:51:15.456            34.546                Novosib          1079.562
       342   04 Jun 2027 14:51:18.297   04 Jun 2027 14:52:30.153            71.856                  Delhi          2245.500
       343   04 Jun 2027 14:54:15.580   04 Jun 2027 14:55:29.505            73.925                Novosib          2310.156
       344   04 Jun 2027 14:55:46.856   04 Jun 2027 14:55:49.329             2.473                Novosib            77.281
       345   04 Jun 2027 14:56:00.692   04 Jun 2027 14:56:51.747            51.055                Norilsk          1595.469
       346   04 Jun 2027 15:04:14.545   04 Jun 2027 15:04:34.302            19.757                Norilsk           617.406
       347   04 Jun 2027 16:26:46.888   04 Jun 2027 16:29:38.586           171.698                 Moscow          5365.563
       348   04 Jun 2027 16:30:05.780   04 Jun 2027 16:30:45.436            39.656                 Moscow          1239.250
       349   04 Jun 2027 16:31:08.377   04 Jun 2027 16:31:35.189            26.812              Murmansk1           837.875
       350   04 Jun 2027 16:33:35.159   04 Jun 2027 16:33:38.082             2.923              Murmansk2            91.344
       351   04 Jun 2027 16:33:51.569   04 Jun 2027 16:34:28.943            37.374                 Moscow          1167.937
       352   04 Jun 2027 16:34:54.177   04 Jun 2027 16:39:27.158           272.981                Norilsk          8530.656
       353   04 Jun 2027 17:50:04.147   04 Jun 2027 17:50:18.863            14.716               CapeTown           459.875
       354   04 Jun 2027 18:04:35.424   04 Jun 2027 18:05:38.100            62.676                 Moscow          1958.625
       355   04 Jun 2027 18:07:33.632   04 Jun 2027 18:08:36.053            62.421              Murmansk1          1950.656
       356   04 Jun 2027 18:08:48.966   04 Jun 2027 18:09:35.170            46.204                 Moscow          1443.875
       357   04 Jun 2027 18:11:09.017   04 Jun 2027 18:11:21.860            12.843              Murmansk2           401.344
       358   04 Jun 2027 18:11:34.515   04 Jun 2027 18:12:11.774            37.259              Murmansk2          1164.344
       359   04 Jun 2027 18:17:04.061   04 Jun 2027 18:17:13.723             9.662              Murmansk2           301.937
       360   04 Jun 2027 18:18:44.700   04 Jun 2027 18:19:09.663            24.963              Murmansk1           780.094
       361   04 Jun 2027 18:24:49.846   04 Jun 2027 18:24:59.127             9.281                Anadyr2           290.031
       362   04 Jun 2027 18:25:19.036   04 Jun 2027 18:25:30.977            11.941                Anadyr2           373.156
       363   04 Jun 2027 18:26:13.326   04 Jun 2027 18:26:21.515             8.189                Anadyr2           255.906
       364   04 Jun 2027 18:29:27.754   04 Jun 2027 18:29:48.325            20.571                Anadyr1           642.844
       365   04 Jun 2027 18:30:23.080   04 Jun 2027 18:30:42.717            19.637                Anadyr1           613.656
       366   04 Jun 2027 19:16:23.302   04 Jun 2027 19:18:05.559           102.257               CapeTown          3195.531
       367   04 Jun 2027 19:27:38.549   04 Jun 2027 19:28:28.995            50.446               CapeTown          1576.437
       368   04 Jun 2027 19:47:13.007   04 Jun 2027 19:54:20.454           427.447              Murmansk1         13357.719
       369   04 Jun 2027 21:32:46.159   04 Jun 2027 21:34:25.615            99.456                Anadyr2          3108.000
       370   04 Jun 2027 21:34:34.443   04 Jun 2027 21:35:47.958            73.515                Anadyr1          2297.344
       371   04 Jun 2027 21:35:52.162   04 Jun 2027 21:35:54.859             2.697                Anadyr1            84.281
       372   04 Jun 2027 21:36:07.431   04 Jun 2027 21:36:27.306            19.875                Anadyr1           621.094
       373   04 Jun 2027 21:36:48.485   04 Jun 2027 21:38:33.608           105.123               Magadan1          3285.094
       374   04 Jun 2027 21:39:27.222   04 Jun 2027 21:40:26.289            59.067               Magadan2          1845.844
       375   04 Jun 2027 21:43:19.635   04 Jun 2027 21:43:22.339             2.704               Magadan2            84.500
       376   04 Jun 2027 21:43:25.496   04 Jun 2027 21:44:19.701            54.205               Magadan2          1693.906
       377   04 Jun 2027 22:29:05.058   04 Jun 2027 22:31:30.820           145.762            RioGallegos          4555.062
       378   04 Jun 2027 23:08:36.279   04 Jun 2027 23:09:53.152            76.873                Anadyr1          2402.281
       379   04 Jun 2027 23:09:53.438   04 Jun 2027 23:10:30.465            37.027                Anadyr2          1157.094
       380   04 Jun 2027 23:10:42.922   04 Jun 2027 23:12:16.425            93.503                Norilsk          2921.969
       381   04 Jun 2027 23:12:20.615   04 Jun 2027 23:12:46.285            25.670               Magadan1           802.187
       382   04 Jun 2027 23:13:10.402   04 Jun 2027 23:13:17.150             6.748                Norilsk           210.875
       383   04 Jun 2027 23:13:22.637   04 Jun 2027 23:13:39.378            16.741                Norilsk           523.156
       384   04 Jun 2027 23:14:14.524   04 Jun 2027 23:14:39.239            24.715               Magadan2           772.344
       385   04 Jun 2027 23:15:42.208   04 Jun 2027 23:16:17.520            35.312                Irkutsk          1103.500
       386   04 Jun 2027 23:17:51.328   04 Jun 2027 23:18:11.453            20.125                Irkutsk           628.906
       387   04 Jun 2027 23:19:39.349   04 Jun 2027 23:19:55.559            16.210                Irkutsk           506.562
       388   04 Jun 2027 23:20:25.462   04 Jun 2027 23:21:01.007            35.545                Irkutsk          1110.781
       389   04 Jun 2027 23:30:47.782   04 Jun 2027 23:32:45.370           117.588                Sumatra          3674.625
       390   05 Jun 2027 00:09:28.670   05 Jun 2027 00:09:44.622            15.952            RioGallegos           498.500
       391   05 Jun 2027 00:10:28.393   05 Jun 2027 00:10:39.023            10.630            RioGallegos           332.187
       392   05 Jun 2027 00:11:44.459   05 Jun 2027 00:12:00.124            15.665            RioGallegos           489.531
       393   05 Jun 2027 00:12:08.857   05 Jun 2027 00:13:18.742            69.885            RioGallegos          2183.906
       394   05 Jun 2027 00:43:54.500   05 Jun 2027 00:44:18.656            24.156                Anadyr1           754.875
       395   05 Jun 2027 00:44:43.566   05 Jun 2027 00:45:21.170            37.604                Anadyr2          1175.125
       396   05 Jun 2027 00:46:29.026   05 Jun 2027 00:48:16.097           107.071                Norilsk          3345.969
       397   05 Jun 2027 00:48:45.496   05 Jun 2027 00:48:49.534             4.038               Magadan2           126.187
       398   05 Jun 2027 00:49:07.095   05 Jun 2027 00:50:23.838            76.743               Magadan1          2398.219
       399   05 Jun 2027 00:50:25.076   05 Jun 2027 00:51:34.658            69.582                Irkutsk          2174.437
       400   05 Jun 2027 00:56:18.701   05 Jun 2027 00:56:52.682            33.981                Novosib          1061.906
       401   05 Jun 2027 00:59:06.309   05 Jun 2027 00:59:39.219            32.910                Novosib          1028.437
       402   05 Jun 2027 01:01:03.342   05 Jun 2027 01:01:03.871             0.529                Novosib            16.531
       403   05 Jun 2027 01:01:21.090   05 Jun 2027 01:01:29.440             8.350                  Delhi           260.937
       404   05 Jun 2027 01:02:21.604   05 Jun 2027 01:02:32.191            10.587                  Delhi           330.844
       405   05 Jun 2027 01:02:54.887   05 Jun 2027 01:03:09.088            14.201                  Delhi           443.781
       406   05 Jun 2027 01:04:16.878   05 Jun 2027 01:04:58.326            41.448                Sumatra          1295.250
       407   05 Jun 2027 01:10:23.926   05 Jun 2027 01:12:43.066           139.140                Sumatra          4348.125
       408   05 Jun 2027 02:19:15.245   05 Jun 2027 02:20:05.407            50.162                Anadyr2          1567.562
       409   05 Jun 2027 02:22:29.970   05 Jun 2027 02:23:41.197            71.227                Norilsk          2225.844
       410   05 Jun 2027 02:25:25.664   05 Jun 2027 02:27:09.253           103.589              Murmansk2          3237.156
       411   05 Jun 2027 02:27:26.939   05 Jun 2027 02:28:05.991            39.052                Novosib          1220.375
       412   05 Jun 2027 02:29:32.319   05 Jun 2027 02:30:17.990            45.671                Novosib          1427.219
       413   05 Jun 2027 02:36:14.153   05 Jun 2027 02:36:16.098             1.945                  Delhi            60.781
       414   05 Jun 2027 02:36:48.946   05 Jun 2027 02:37:05.786            16.840                  Delhi           526.250
       415   05 Jun 2027 02:37:23.932   05 Jun 2027 02:39:04.711           100.779                  Delhi          3149.344
       416   05 Jun 2027 03:15:31.666   05 Jun 2027 03:15:34.827             3.161            RioGallegos            98.781
       417   05 Jun 2027 03:17:05.838   05 Jun 2027 03:17:53.463            47.625            RioGallegos          1488.281
       418   05 Jun 2027 03:18:38.847   05 Jun 2027 03:20:23.086           104.239            RioGallegos          3257.469
       419   05 Jun 2027 04:05:02.316   05 Jun 2027 04:05:24.625            22.309                Irkutsk           697.156
       420   05 Jun 2027 04:06:43.507   05 Jun 2027 04:08:25.439           101.932                Irkutsk          3185.375
       421   05 Jun 2027 04:08:39.095   05 Jun 2027 04:09:19.859            40.764                Irkutsk          1273.875
       422   05 Jun 2027 04:09:29.660   05 Jun 2027 04:11:06.459            96.799                Norilsk          3024.969
       423   05 Jun 2027 04:11:19.659   05 Jun 2027 04:11:35.831            16.172                  Delhi           505.375
       424   05 Jun 2027 04:12:44.384   05 Jun 2027 04:13:57.531            73.147                Novosib          2285.844
       425   05 Jun 2027 04:17:03.339   05 Jun 2027 04:18:59.417           116.078                  Delhi          3627.438
       426   05 Jun 2027 05:43:34.162   05 Jun 2027 05:44:37.787            63.625                Novosib          1988.281
       427   05 Jun 2027 05:46:11.678   05 Jun 2027 05:49:19.190           187.512              Murmansk1          5859.750
       428   05 Jun 2027 05:49:24.763   05 Jun 2027 05:51:13.280           108.517                 Moscow          3391.156
       429   05 Jun 2027 06:03:42.369   05 Jun 2027 06:06:18.223           155.854               CapeTown          4870.438
       430   05 Jun 2027 07:07:53.317   05 Jun 2027 07:08:22.886            29.569               Magadan2           924.031
       431   05 Jun 2027 07:08:38.693   05 Jun 2027 07:09:01.140            22.447               Magadan1           701.469
       432   05 Jun 2027 07:09:05.690   05 Jun 2027 07:11:19.373           133.683                Anadyr2          4177.594
       433   05 Jun 2027 07:11:19.373   05 Jun 2027 07:11:54.771            35.398                Anadyr1          1106.188
       434   05 Jun 2027 07:43:20.423   05 Jun 2027 07:44:19.338            58.915               CapeTown          1841.094
       435   05 Jun 2027 08:42:59.674   05 Jun 2027 08:43:08.686             9.012               Magadan1           281.625
       436   05 Jun 2027 08:43:12.171   05 Jun 2027 08:44:57.031           104.860               Magadan2          3276.875
       437   05 Jun 2027 08:45:07.754   05 Jun 2027 08:45:40.241            32.487               Magadan2          1015.219
       438   05 Jun 2027 08:46:47.934   05 Jun 2027 08:47:43.298            55.364                Anadyr2          1730.125
       439   05 Jun 2027 08:47:43.298   05 Jun 2027 08:47:50.978             7.680                Anadyr1           240.000
       440   05 Jun 2027 08:48:22.182   05 Jun 2027 08:49:10.232            48.050                Anadyr1          1501.563
       441   05 Jun 2027 08:52:50.536   05 Jun 2027 08:53:26.094            35.558                 Moscow          1111.188
       442   05 Jun 2027 10:17:08.045   05 Jun 2027 10:18:04.074            56.029               Magadan1          1750.906
       443   05 Jun 2027 10:18:09.553   05 Jun 2027 10:18:29.460            19.907                Norilsk           622.094
       444   05 Jun 2027 10:18:39.858   05 Jun 2027 10:18:52.049            12.191                Norilsk           380.969
       445   05 Jun 2027 10:18:56.645   05 Jun 2027 10:19:22.915            26.270                Novosib           820.937
       446   05 Jun 2027 10:19:44.320   05 Jun 2027 10:19:56.885            12.565                Novosib           392.656
       447   05 Jun 2027 10:19:58.124   05 Jun 2027 10:20:06.161             8.037                Novosib           251.156
       448   05 Jun 2027 10:20:12.898   05 Jun 2027 10:20:31.262            18.364                Irkutsk           573.875
       449   05 Jun 2027 10:20:40.214   05 Jun 2027 10:23:41.178           180.964                Anadyr1          5655.125
       450   05 Jun 2027 10:24:01.870   05 Jun 2027 10:24:17.719            15.849                Norilsk           495.281
       451   05 Jun 2027 10:24:22.867   05 Jun 2027 10:24:44.772            21.905              Murmansk1           684.531
       452   05 Jun 2027 10:25:54.993   05 Jun 2027 10:26:07.215            12.222              Murmansk1           381.937
       453   05 Jun 2027 10:59:38.884   05 Jun 2027 11:00:31.911            53.027            RioGallegos          1657.094
       454   05 Jun 2027 11:01:46.236   05 Jun 2027 11:01:48.838             2.602            RioGallegos            81.313
       455   05 Jun 2027 11:02:35.831   05 Jun 2027 11:03:11.278            35.447            RioGallegos          1107.719
       456   05 Jun 2027 11:36:21.185   05 Jun 2027 11:38:18.778           117.593                Sumatra          3674.781
       457   05 Jun 2027 11:55:40.136   05 Jun 2027 11:57:35.582           115.446               Magadan2          3607.687
       458   05 Jun 2027 11:57:48.248   05 Jun 2027 11:57:56.250             8.002                Norilsk           250.062
       459   05 Jun 2027 11:58:00.177   05 Jun 2027 11:58:50.689            50.512              Murmansk2          1578.500
       460   05 Jun 2027 11:58:51.752   05 Jun 2027 11:59:29.432            37.680                Novosib          1177.500
       461   05 Jun 2027 11:59:31.997   05 Jun 2027 11:59:59.004            27.007              Murmansk2           843.969
       462   05 Jun 2027 12:00:01.207   05 Jun 2027 12:00:39.172            37.965              Murmansk2          1186.406
       463   05 Jun 2027 12:01:47.985   05 Jun 2027 12:02:03.088            15.103                Novosib           471.969
       464   05 Jun 2027 12:02:52.516   05 Jun 2027 12:03:24.042            31.526                Norilsk           985.188
       465   05 Jun 2027 12:03:38.466   05 Jun 2027 12:04:17.064            38.598                Norilsk          1206.188
       466   05 Jun 2027 12:05:20.868   05 Jun 2027 12:05:31.504            10.636                Norilsk           332.375
       467   05 Jun 2027 12:05:43.670   05 Jun 2027 12:05:58.562            14.892              Murmansk1           465.375
       468   05 Jun 2027 12:06:21.329   05 Jun 2027 12:06:57.882            36.553              Murmansk1          1142.281
       469   05 Jun 2027 12:08:04.555   05 Jun 2027 12:08:22.663            18.108              Murmansk2           565.875
       470   05 Jun 2027 12:41:18.870   05 Jun 2027 12:41:47.416            28.546            RioGallegos           892.063
       471   05 Jun 2027 12:44:15.554   05 Jun 2027 12:45:01.452            45.898            RioGallegos          1434.313
       472   05 Jun 2027 12:45:50.105   05 Jun 2027 12:46:02.591            12.486            RioGallegos           390.188
       473   05 Jun 2027 12:46:45.487   05 Jun 2027 12:47:31.093            45.606            RioGallegos          1425.188
       474   05 Jun 2027 13:15:57.103   05 Jun 2027 13:18:14.865           137.762                Sumatra          4305.062
       475   05 Jun 2027 13:25:45.229   05 Jun 2027 13:26:00.308            15.079                Irkutsk           471.219
       476   05 Jun 2027 13:29:52.807   05 Jun 2027 13:30:16.625            23.818                Irkutsk           744.312
       477   05 Jun 2027 13:32:33.246   05 Jun 2027 13:35:11.078           157.832                Irkutsk          4932.250
       478   05 Jun 2027 14:55:00.607   05 Jun 2027 14:55:56.781            56.174                  Delhi          1755.438
       479   05 Jun 2027 14:59:25.887   05 Jun 2027 15:00:07.245            41.358                  Delhi          1292.438
       480   05 Jun 2027 15:02:04.068   05 Jun 2027 15:03:14.807            70.739                  Delhi          2210.594
       481   05 Jun 2027 15:03:27.931   05 Jun 2027 15:06:14.641           166.710                Novosib          5209.688
       482   05 Jun 2027 15:09:50.263   05 Jun 2027 15:11:05.868            75.605                Norilsk          2362.656
