uniorb/output/strategy_2/Camera/Camera_KinoSat_110201.txt

KinoSat_110201
-------------------------
    Access    *     Start Time (UTCG)     *     Stop Time (UTCG)  *   Duration (s) *   Data (Mbytes)
         1   01 Jun 2027 03:03:43.318   01 Jun 2027 03:03:51.308             7.990          3995.000
         2   01 Jun 2027 03:04:06.675   01 Jun 2027 03:04:17.469            10.794          5397.000
         3   01 Jun 2027 03:05:37.230   01 Jun 2027 03:05:39.879             2.649          1324.500
         4   01 Jun 2027 03:06:06.057   01 Jun 2027 03:06:07.258             1.201           600.500
         5   01 Jun 2027 03:06:28.006   01 Jun 2027 03:06:28.484             0.478           239.000
         6   01 Jun 2027 03:06:48.051   01 Jun 2027 03:06:51.088             3.037          1518.500
         7   01 Jun 2027 03:07:03.528   01 Jun 2027 03:07:17.143            13.615          6807.500
         8   01 Jun 2027 03:07:58.223   01 Jun 2027 03:07:58.939             0.716           358.000
         9   01 Jun 2027 03:08:17.963   01 Jun 2027 03:08:18.437             0.474           237.000
        10   01 Jun 2027 03:08:52.449   01 Jun 2027 03:08:56.296             3.847          1923.500
        11   01 Jun 2027 03:09:22.146   01 Jun 2027 03:09:22.474             0.328           164.000
        12   01 Jun 2027 03:09:35.336   01 Jun 2027 03:09:45.256             9.920          4960.000
        13   01 Jun 2027 04:40:12.244   01 Jun 2027 04:40:27.388            15.144          7572.000
        14   01 Jun 2027 04:41:21.434   01 Jun 2027 04:41:21.550             0.116            58.000
        15   01 Jun 2027 04:41:51.288   01 Jun 2027 04:42:12.639            21.351         10675.500
        16   01 Jun 2027 04:43:56.336   01 Jun 2027 04:44:06.881            10.545          5272.500
        17   01 Jun 2027 04:44:53.959   01 Jun 2027 04:44:56.536             2.577          1288.500
        18   01 Jun 2027 04:45:26.882   01 Jun 2027 04:45:38.035            11.153          5576.500
        19   01 Jun 2027 04:46:27.664   01 Jun 2027 04:46:36.159             8.495          4247.500
        20   01 Jun 2027 06:18:30.020   01 Jun 2027 06:18:33.198             3.178          1589.000
        21   01 Jun 2027 06:19:20.342   01 Jun 2027 06:19:28.685             8.343          4171.500
        22   01 Jun 2027 06:20:09.030   01 Jun 2027 06:20:09.172             0.142            71.000
        23   01 Jun 2027 06:20:11.484   01 Jun 2027 06:20:12.322             0.838           419.000
        24   01 Jun 2027 06:20:23.563   01 Jun 2027 06:20:23.892             0.329           164.500
        25   01 Jun 2027 06:20:56.452   01 Jun 2027 06:21:03.230             6.778          3389.000
        26   01 Jun 2027 06:21:41.210   01 Jun 2027 06:21:51.031             9.821          4910.500
        27   01 Jun 2027 07:53:56.948   01 Jun 2027 07:54:21.257            24.309         12154.500
        28   01 Jun 2027 07:56:13.750   01 Jun 2027 07:56:17.008             3.258          1629.000
        29   01 Jun 2027 07:57:02.779   01 Jun 2027 07:57:05.401             2.622          1311.000
        30   01 Jun 2027 07:57:35.067   01 Jun 2027 07:57:38.438             3.371          1685.500
        31   01 Jun 2027 07:57:52.237   01 Jun 2027 07:57:56.141             3.904          1952.000
        32   01 Jun 2027 07:58:19.070   01 Jun 2027 07:58:22.954             3.884          1942.000
        33   01 Jun 2027 07:58:46.242   01 Jun 2027 07:58:52.300             6.058          3029.000
        34   02 Jun 2027 03:15:25.712   02 Jun 2027 03:15:31.030             5.318          2659.000
        35   02 Jun 2027 03:15:41.195   02 Jun 2027 03:15:46.641             5.446          2723.000
        36   02 Jun 2027 03:16:34.440   02 Jun 2027 03:16:34.520             0.080            40.000
        37   02 Jun 2027 03:17:21.075   02 Jun 2027 03:17:43.680            22.605         11302.500
        38   02 Jun 2027 03:19:39.142   02 Jun 2027 03:19:39.615             0.473           236.500
        39   02 Jun 2027 03:20:07.767   02 Jun 2027 03:20:11.603             3.836          1918.000
        40   02 Jun 2027 03:20:41.014   02 Jun 2027 03:20:41.743             0.729           364.500
        41   02 Jun 2027 03:20:49.469   02 Jun 2027 03:20:51.648             2.179          1089.500
        42   02 Jun 2027 03:21:29.641   02 Jun 2027 03:21:32.139             2.498          1249.000
        43   02 Jun 2027 03:22:00.407   02 Jun 2027 03:22:04.544             4.137          2068.500
        44   02 Jun 2027 03:22:32.712   02 Jun 2027 03:22:39.644             6.932          3466.000
        45   02 Jun 2027 04:52:32.563   02 Jun 2027 04:52:53.729            21.166         10583.000
        46   02 Jun 2027 04:54:20.858   02 Jun 2027 04:54:22.812             1.954           977.000
        47   02 Jun 2027 04:54:34.066   02 Jun 2027 04:54:38.546             4.480          2240.000
        48   02 Jun 2027 04:55:39.393   02 Jun 2027 04:55:47.346             7.953          3976.500
        49   02 Jun 2027 04:56:18.678   02 Jun 2027 04:56:24.915             6.237          3118.500
        50   02 Jun 2027 04:57:30.657   02 Jun 2027 04:57:35.277             4.620          2310.000
        51   02 Jun 2027 04:57:55.688   02 Jun 2027 04:57:58.333             2.645          1322.500
        52   02 Jun 2027 06:30:27.847   02 Jun 2027 06:30:29.215             1.368           684.000
        53   02 Jun 2027 06:31:07.949   02 Jun 2027 06:31:19.480            11.531          5765.500
        54   02 Jun 2027 06:32:10.959   02 Jun 2027 06:32:11.650             0.691           345.500
        55   02 Jun 2027 06:32:31.121   02 Jun 2027 06:32:36.322             5.201          2600.500
        56   02 Jun 2027 06:33:43.686   02 Jun 2027 06:33:45.590             1.904           952.000
        57   02 Jun 2027 06:34:01.563   02 Jun 2027 06:34:02.143             0.580           290.000
        58   02 Jun 2027 08:03:32.905   02 Jun 2027 08:03:41.519             8.614          4307.000
        59   02 Jun 2027 08:04:18.649   02 Jun 2027 08:04:20.936             2.287          1143.500
        60   02 Jun 2027 08:05:09.419   02 Jun 2027 08:05:20.892            11.473          5736.500
        61   02 Jun 2027 08:06:09.477   02 Jun 2027 08:06:23.146            13.669          6834.500
        62   02 Jun 2027 08:07:54.376   02 Jun 2027 08:07:56.882             2.506          1253.000
        63   02 Jun 2027 08:08:13.305   02 Jun 2027 08:08:28.350            15.045          7522.500
        64   02 Jun 2027 08:09:43.146   02 Jun 2027 08:09:45.383             2.237          1118.500
        65   02 Jun 2027 08:10:35.359   02 Jun 2027 08:10:38.033             2.674          1337.000
        66   02 Jun 2027 08:10:51.556   02 Jun 2027 08:10:51.835             0.279           139.500
        67   03 Jun 2027 03:27:43.988   03 Jun 2027 03:27:45.068             1.080           540.000
        68   03 Jun 2027 03:28:08.149   03 Jun 2027 03:28:13.232             5.083          2541.500
        69   03 Jun 2027 03:28:35.600   03 Jun 2027 03:28:45.491             9.891          4945.500
        70   03 Jun 2027 03:28:47.060   03 Jun 2027 03:28:58.629            11.569          5784.500
        71   03 Jun 2027 03:30:23.819   03 Jun 2027 03:30:26.055             2.236          1118.000
        72   03 Jun 2027 03:30:54.534   03 Jun 2027 03:30:55.851             1.317           658.500
        73   03 Jun 2027 03:31:10.752   03 Jun 2027 03:31:20.764            10.012          5006.000
        74   03 Jun 2027 03:32:05.428   03 Jun 2027 03:32:16.866            11.438          5719.000
        75   03 Jun 2027 03:33:11.812   03 Jun 2027 03:33:20.494             8.682          4341.000
        76   03 Jun 2027 03:33:59.579   03 Jun 2027 03:34:14.680            15.101          7550.500
        77   03 Jun 2027 03:35:01.982   03 Jun 2027 03:35:02.344             0.362           181.000
        78   03 Jun 2027 05:04:28.591   03 Jun 2027 05:04:29.335             0.744           372.000
        79   03 Jun 2027 05:04:30.674   03 Jun 2027 05:04:44.462            13.788          6894.000
        80   03 Jun 2027 05:06:22.597   03 Jun 2027 05:06:22.750             0.153            76.500
        81   03 Jun 2027 05:06:31.139   03 Jun 2027 05:06:32.583             1.444           722.000
        82   03 Jun 2027 05:06:50.795   03 Jun 2027 05:06:51.753             0.958           479.000
        83   03 Jun 2027 05:07:23.274   03 Jun 2027 05:07:24.297             1.023           511.500
        84   03 Jun 2027 05:07:49.840   03 Jun 2027 05:07:50.465             0.625           312.500
        85   03 Jun 2027 05:08:28.154   03 Jun 2027 05:08:28.614             0.460           230.000
        86   03 Jun 2027 05:09:56.303   03 Jun 2027 05:09:58.831             2.528          1264.000
        87   03 Jun 2027 05:10:13.216   03 Jun 2027 05:10:31.817            18.601          9300.500
        88   03 Jun 2027 06:42:27.090   03 Jun 2027 06:42:31.365             4.275          2137.500
        89   03 Jun 2027 06:42:56.921   03 Jun 2027 06:43:14.032            17.111          8555.500
        90   03 Jun 2027 06:44:43.261   03 Jun 2027 06:44:45.862             2.601          1300.500
        91   03 Jun 2027 06:44:59.019   03 Jun 2027 06:45:14.390            15.371          7685.500
        92   03 Jun 2027 06:46:03.407   03 Jun 2027 06:46:06.347             2.940          1470.000
        93   03 Jun 2027 08:16:04.955   03 Jun 2027 08:16:26.379            21.424         10712.000
        94   03 Jun 2027 08:17:27.229   03 Jun 2027 08:17:30.750             3.521          1760.500
        95   03 Jun 2027 08:18:10.829   03 Jun 2027 08:18:11.916             1.087           543.500
        96   03 Jun 2027 08:18:20.194   03 Jun 2027 08:18:26.285             6.091          3045.500
        97   03 Jun 2027 08:20:08.341   03 Jun 2027 08:20:12.088             3.747          1873.500
        98   03 Jun 2027 08:20:56.563   03 Jun 2027 08:21:06.690            10.127          5063.500
        99   03 Jun 2027 08:22:41.576   03 Jun 2027 08:22:42.211             0.635           317.500
       100   03 Jun 2027 08:23:07.239   03 Jun 2027 08:23:29.271            22.032         11016.000
       101   04 Jun 2027 03:39:37.220   04 Jun 2027 03:39:41.063             3.843          1921.500
       102   04 Jun 2027 03:40:05.666   04 Jun 2027 03:40:06.003             0.337           168.500
       103   04 Jun 2027 03:40:30.361   04 Jun 2027 03:40:41.673            11.312          5656.000
       104   04 Jun 2027 03:41:15.349   04 Jun 2027 03:41:23.114             7.765          3882.500
       105   04 Jun 2027 03:42:06.455   04 Jun 2027 03:42:09.711             3.256          1628.000
       106   04 Jun 2027 03:42:49.582   04 Jun 2027 03:42:49.646             0.064            32.000
       107   04 Jun 2027 03:42:57.887   04 Jun 2027 03:43:07.551             9.664          4832.000
       108   04 Jun 2027 03:43:52.915   04 Jun 2027 03:44:13.554            20.639         10319.500
       109   04 Jun 2027 03:45:48.240   04 Jun 2027 03:45:50.193             1.953           976.500
       110   04 Jun 2027 03:45:55.359   04 Jun 2027 03:46:11.326            15.967          7983.500
       111   04 Jun 2027 05:16:21.238   04 Jun 2027 05:16:35.915            14.677          7338.500
       112   04 Jun 2027 05:16:58.323   04 Jun 2027 05:17:14.955            16.632          8316.000
       113   04 Jun 2027 05:19:20.261   04 Jun 2027 05:19:22.129             1.868           934.000
       114   04 Jun 2027 05:19:52.635   04 Jun 2027 05:19:55.693             3.058          1529.000
       115   04 Jun 2027 05:20:51.204   04 Jun 2027 05:21:02.888            11.684          5842.000
       116   04 Jun 2027 05:21:14.138   04 Jun 2027 05:21:15.739             1.601           800.500
       117   04 Jun 2027 05:21:26.526   04 Jun 2027 05:21:32.744             6.218          3109.000
       118   04 Jun 2027 05:22:40.322   04 Jun 2027 05:22:41.195             0.873           436.500
       119   04 Jun 2027 05:22:55.281   04 Jun 2027 05:23:02.492             7.211          3605.500
       120   04 Jun 2027 06:54:27.153   04 Jun 2027 06:54:34.197             7.044          3522.000
       121   04 Jun 2027 06:55:57.080   04 Jun 2027 06:55:58.130             1.050           525.000
       122   04 Jun 2027 06:56:07.289   04 Jun 2027 06:56:09.489             2.200          1100.000
       123   04 Jun 2027 06:56:48.753   04 Jun 2027 06:56:51.940             3.187          1593.500
       124   04 Jun 2027 06:57:11.486   04 Jun 2027 06:57:21.621            10.135          5067.500
       125   04 Jun 2027 06:58:11.752   04 Jun 2027 06:58:12.763             1.011           505.500
       126   04 Jun 2027 08:30:12.153   04 Jun 2027 08:30:17.215             5.062          2531.000
       127   04 Jun 2027 08:30:53.516   04 Jun 2027 08:31:29.520            36.004         18002.000
       128   05 Jun 2027 03:51:45.069   05 Jun 2027 03:51:51.255             6.186          3093.000
       129   05 Jun 2027 03:51:52.132   05 Jun 2027 03:51:58.760             6.628          3314.000
       130   05 Jun 2027 03:52:57.071   05 Jun 2027 03:52:58.523             1.452           726.000
       131   05 Jun 2027 03:53:00.886   05 Jun 2027 03:53:01.283             0.397           198.500
       132   05 Jun 2027 03:53:30.163   05 Jun 2027 03:53:42.315            12.152          6076.000
       133   05 Jun 2027 03:54:34.813   05 Jun 2027 03:54:36.095             1.282           641.000
       134   05 Jun 2027 03:54:50.841   05 Jun 2027 03:54:57.695             6.854          3427.000
       135   05 Jun 2027 03:55:51.591   05 Jun 2027 03:55:55.051             3.460          1730.000
       136   05 Jun 2027 03:56:15.093   05 Jun 2027 03:56:18.570             3.477          1738.500
       137   05 Jun 2027 03:56:41.031   05 Jun 2027 03:56:42.396             1.365           682.500
       138   05 Jun 2027 03:56:49.812   05 Jun 2027 03:56:52.169             2.357          1178.500
       139   05 Jun 2027 03:57:32.392   05 Jun 2027 03:57:34.767             2.375          1187.500
       140   05 Jun 2027 03:57:50.783   05 Jun 2027 03:57:54.998             4.215          2107.500
       141   05 Jun 2027 03:58:26.167   05 Jun 2027 03:58:28.761             2.594          1297.000
       142   05 Jun 2027 03:58:33.935   05 Jun 2027 03:58:36.025             2.090          1045.000
       143   05 Jun 2027 03:58:59.209   05 Jun 2027 03:59:02.616             3.407          1703.500
       144   05 Jun 2027 05:28:59.627   05 Jun 2027 05:29:00.432             0.805           402.500
       145   05 Jun 2027 05:30:08.604   05 Jun 2027 05:30:11.814             3.210          1605.000
       146   05 Jun 2027 05:30:40.011   05 Jun 2027 05:30:40.357             0.346           173.000
       147   05 Jun 2027 05:31:01.873   05 Jun 2027 05:31:08.073             6.200          3100.000
       148   05 Jun 2027 05:31:41.340   05 Jun 2027 05:31:43.964             2.624          1312.000
       149   05 Jun 2027 05:31:46.236   05 Jun 2027 05:31:48.511             2.275          1137.500
       150   05 Jun 2027 05:31:55.059   05 Jun 2027 05:31:56.250             1.191           595.500
       151   05 Jun 2027 05:32:29.822   05 Jun 2027 05:32:32.425             2.603          1301.500
       152   05 Jun 2027 05:32:43.228   05 Jun 2027 05:32:44.008             0.780           390.000
       153   05 Jun 2027 05:32:54.165   05 Jun 2027 05:32:56.558             2.393          1196.500
       154   05 Jun 2027 05:33:25.138   05 Jun 2027 05:33:28.582             3.444          1722.000
       155   05 Jun 2027 05:34:01.840   05 Jun 2027 05:34:08.652             6.812          3406.000
       156   05 Jun 2027 05:34:45.348   05 Jun 2027 05:34:51.776             6.428          3214.000
       157   05 Jun 2027 07:05:41.177   05 Jun 2027 07:05:56.453            15.276          7638.000
       158   05 Jun 2027 07:07:17.962   05 Jun 2027 07:07:33.848            15.886          7943.000
       159   05 Jun 2027 07:09:00.790   05 Jun 2027 07:09:08.048             7.258          3629.000
       160   05 Jun 2027 07:09:59.940   05 Jun 2027 07:10:17.718            17.778          8889.000
       161   05 Jun 2027 08:40:53.291   05 Jun 2027 08:40:56.129             2.838          1419.000
       162   05 Jun 2027 08:42:28.641   05 Jun 2027 08:42:34.384             5.743          2871.500
       163   05 Jun 2027 08:43:27.858   05 Jun 2027 08:43:42.539            14.681          7340.500
       164   05 Jun 2027 08:44:43.371   05 Jun 2027 08:45:02.868            19.497          9748.500
       165   06 Jun 2027 04:04:10.287   06 Jun 2027 04:04:11.657             1.370           685.000
       166   06 Jun 2027 04:04:50.892   06 Jun 2027 04:05:09.651            18.759          9379.500
       167   06 Jun 2027 04:07:08.417   06 Jun 2027 04:07:22.054            13.637          6818.500
       168   06 Jun 2027 04:07:50.432   06 Jun 2027 04:07:50.804             0.372           186.000
       169   06 Jun 2027 04:08:29.774   06 Jun 2027 04:08:33.779             4.005          2002.500
       170   06 Jun 2027 04:08:51.796   06 Jun 2027 04:08:58.535             6.739          3369.500
       171   06 Jun 2027 04:09:26.261   06 Jun 2027 04:09:30.008             3.747          1873.500
       172   06 Jun 2027 04:09:34.227   06 Jun 2027 04:09:39.880             5.653          2826.500
       173   06 Jun 2027 04:09:58.234   06 Jun 2027 04:10:16.882            18.648          9324.000
       174   06 Jun 2027 05:41:09.128   06 Jun 2027 05:41:29.943            20.815         10407.500
       175   06 Jun 2027 05:41:58.376   06 Jun 2027 05:42:00.176             1.800           900.000
       176   06 Jun 2027 05:43:07.084   06 Jun 2027 05:43:16.922             9.838          4919.000
       177   06 Jun 2027 05:44:06.479   06 Jun 2027 05:44:07.153             0.674           337.000
       178   06 Jun 2027 05:44:29.480   06 Jun 2027 05:44:40.579            11.099          5549.500
       179   06 Jun 2027 05:45:33.664   06 Jun 2027 05:45:43.561             9.897          4948.500
       180   06 Jun 2027 05:46:22.537   06 Jun 2027 05:46:28.649             6.112          3056.000
       181   06 Jun 2027 07:17:55.983   06 Jun 2027 07:18:08.888            12.905          6452.500
       182   06 Jun 2027 07:19:19.545   06 Jun 2027 07:19:29.445             9.900          4950.000
       183   06 Jun 2027 07:20:09.050   06 Jun 2027 07:20:12.287             3.237          1618.500
       184   06 Jun 2027 07:20:32.132   06 Jun 2027 07:20:43.863            11.731          5865.500
       185   06 Jun 2027 07:21:05.696   06 Jun 2027 07:21:09.427             3.731          1865.500
       186   06 Jun 2027 07:21:50.598   06 Jun 2027 07:21:56.613             6.015          3007.500
       187   06 Jun 2027 08:56:06.436   06 Jun 2027 08:56:14.642             8.206          4103.000
       188   06 Jun 2027 08:56:59.529   06 Jun 2027 08:57:01.659             2.130          1065.000
       189   07 Jun 2027 04:16:36.330   07 Jun 2027 04:16:46.343            10.013          5006.500
       190   07 Jun 2027 04:18:22.388   07 Jun 2027 04:18:22.602             0.214           107.000
       191   07 Jun 2027 04:18:50.833   07 Jun 2027 04:18:58.132             7.299          3649.500
       192   07 Jun 2027 04:19:53.999   07 Jun 2027 04:19:54.180             0.181            90.500
       193   07 Jun 2027 04:20:07.368   07 Jun 2027 04:20:16.543             9.175          4587.500
       194   07 Jun 2027 04:20:18.812   07 Jun 2027 04:20:35.742            16.930          8465.000
       195   07 Jun 2027 04:22:40.619   07 Jun 2027 04:22:43.007             2.388          1194.000
       196   07 Jun 2027 05:54:10.360   07 Jun 2027 05:54:12.094             1.734           867.000
       197   07 Jun 2027 05:54:22.051   07 Jun 2027 05:54:22.182             0.131            65.500
       198   07 Jun 2027 05:54:41.362   07 Jun 2027 05:54:45.901             4.539          2269.500
       199   07 Jun 2027 05:55:04.933   07 Jun 2027 05:55:07.874             2.941          1470.500
       200   07 Jun 2027 05:56:11.056   07 Jun 2027 05:56:11.199             0.143            71.500
       201   07 Jun 2027 05:56:12.325   07 Jun 2027 05:56:15.319             2.994          1497.000
       202   07 Jun 2027 05:57:12.231   07 Jun 2027 05:57:12.881             0.650           325.000
       203   07 Jun 2027 05:57:32.956   07 Jun 2027 05:57:35.748             2.792          1396.000
       204   07 Jun 2027 05:58:07.162   07 Jun 2027 05:58:13.098             5.936          2968.000
       205   07 Jun 2027 07:30:13.565   07 Jun 2027 07:30:14.191             0.626           313.000
       206   07 Jun 2027 07:30:20.874   07 Jun 2027 07:30:22.598             1.724           862.000
       207   07 Jun 2027 07:30:43.651   07 Jun 2027 07:30:46.786             3.135          1567.500
       208   07 Jun 2027 07:31:16.634   07 Jun 2027 07:31:28.004            11.370          5685.000
       209   07 Jun 2027 07:32:21.535   07 Jun 2027 07:32:23.579             2.044          1022.000
       210   07 Jun 2027 07:32:42.550   07 Jun 2027 07:32:45.941             3.391          1695.500
       211   07 Jun 2027 07:33:35.671   07 Jun 2027 07:33:40.093             4.422          2211.000
       212   07 Jun 2027 07:33:58.231   07 Jun 2027 07:34:03.452             5.221          2610.500
       213   08 Jun 2027 04:28:48.240   08 Jun 2027 04:29:02.192            13.952          6976.000
       214   08 Jun 2027 04:30:08.401   08 Jun 2027 04:30:11.955             3.554          1777.000
       215   08 Jun 2027 04:30:15.525   08 Jun 2027 04:30:19.852             4.327          2163.500
       216   08 Jun 2027 04:31:34.097   08 Jun 2027 04:31:41.925             7.828          3914.000
       217   08 Jun 2027 04:32:13.897   08 Jun 2027 04:32:14.825             0.928           464.000
       218   08 Jun 2027 04:33:16.802   08 Jun 2027 04:33:19.085             2.283          1141.500
       219   08 Jun 2027 04:33:55.121   08 Jun 2027 04:33:55.913             0.792           396.000
       220   08 Jun 2027 04:34:24.618   08 Jun 2027 04:34:31.459             6.841          3420.500
       221   08 Jun 2027 06:06:13.792   08 Jun 2027 06:06:15.825             2.033          1016.500
       222   08 Jun 2027 06:06:32.063   08 Jun 2027 06:06:40.486             8.423          4211.500
       223   08 Jun 2027 06:07:21.257   08 Jun 2027 06:07:30.174             8.917          4458.500
       224   08 Jun 2027 06:08:17.151   08 Jun 2027 06:08:22.617             5.466          2733.000
       225   08 Jun 2027 06:08:31.391   08 Jun 2027 06:08:32.097             0.706           353.000
       226   08 Jun 2027 06:08:49.787   08 Jun 2027 06:08:51.014             1.227           613.500
       227   08 Jun 2027 06:09:19.894   08 Jun 2027 06:09:31.487            11.593          5796.500
       228   08 Jun 2027 06:10:41.002   08 Jun 2027 06:10:42.103             1.101           550.500
       229   08 Jun 2027 07:42:17.678   08 Jun 2027 07:42:37.839            20.161         10080.500
       230   08 Jun 2027 07:44:11.012   08 Jun 2027 07:44:13.542             2.530          1265.000
       231   08 Jun 2027 07:44:29.200   08 Jun 2027 07:44:41.797            12.597          6298.500
       232   08 Jun 2027 07:45:17.894   08 Jun 2027 07:45:30.108            12.214          6107.000
       233   08 Jun 2027 07:46:40.761   08 Jun 2027 07:46:44.513             3.752          1876.000
       234   08 Jun 2027 07:46:46.472   08 Jun 2027 07:46:47.773             1.301           650.500
       235   08 Jun 2027 07:47:06.469   08 Jun 2027 07:47:09.230             2.761          1380.500
       236   09 Jun 2027 03:03:57.446   09 Jun 2027 03:04:06.820             9.374          4687.000
       237   09 Jun 2027 03:04:54.610   09 Jun 2027 03:04:59.082             4.472          2236.000
       238   09 Jun 2027 03:05:21.533   09 Jun 2027 03:05:22.694             1.161           580.500
       239   09 Jun 2027 03:06:17.654   09 Jun 2027 03:06:22.285             4.631          2315.500
       240   09 Jun 2027 03:06:42.817   09 Jun 2027 03:06:46.370             3.553          1776.500
       241   09 Jun 2027 03:07:02.826   09 Jun 2027 03:07:05.709             2.883          1441.500
       242   09 Jun 2027 03:07:20.967   09 Jun 2027 03:07:31.742            10.775          5387.500
       243   09 Jun 2027 03:08:21.676   09 Jun 2027 03:08:24.700             3.024          1512.000
       244   09 Jun 2027 03:08:40.819   09 Jun 2027 03:08:50.567             9.748          4874.000
       245   09 Jun 2027 03:09:37.082   09 Jun 2027 03:09:38.574             1.492           746.000
       246   09 Jun 2027 03:09:59.828   09 Jun 2027 03:10:01.146             1.318           659.000
       247   09 Jun 2027 03:10:33.351   09 Jun 2027 03:10:33.674             0.323           161.500
       248   09 Jun 2027 03:10:48.896   09 Jun 2027 03:10:51.270             2.374          1187.000
       249   09 Jun 2027 04:40:27.472   09 Jun 2027 04:40:42.385            14.913          7456.500
       250   09 Jun 2027 04:41:49.344   09 Jun 2027 04:41:57.885             8.541          4270.500
       251   09 Jun 2027 04:42:41.473   09 Jun 2027 04:42:48.452             6.979          3489.500
       252   09 Jun 2027 04:43:30.437   09 Jun 2027 04:43:31.050             0.613           306.500
       253   09 Jun 2027 04:43:41.524   09 Jun 2027 04:43:45.573             4.049          2024.500
       254   09 Jun 2027 04:44:35.461   09 Jun 2027 04:44:45.562            10.101          5050.500
       255   09 Jun 2027 04:45:34.932   09 Jun 2027 04:45:41.202             6.270          3135.000
       256   09 Jun 2027 04:46:25.919   09 Jun 2027 04:46:44.697            18.778          9389.000
       257   09 Jun 2027 06:18:45.019   09 Jun 2027 06:18:47.816             2.797          1398.500
       258   09 Jun 2027 06:19:35.134   09 Jun 2027 06:19:46.061            10.927          5463.500
       259   09 Jun 2027 06:20:36.258   09 Jun 2027 06:20:37.347             1.089           544.500
       260   09 Jun 2027 06:20:45.232   09 Jun 2027 06:20:52.008             6.776          3388.000
       261   09 Jun 2027 06:21:03.451   09 Jun 2027 06:21:03.451             0.000             0.000
       262   09 Jun 2027 06:22:05.896   09 Jun 2027 06:22:14.531             8.635          4317.500
       263   09 Jun 2027 07:54:11.168   09 Jun 2027 07:54:14.718             3.550          1775.000
       264   09 Jun 2027 07:54:44.918   09 Jun 2027 07:54:46.919             2.001          1000.500
       265   09 Jun 2027 07:54:50.984   09 Jun 2027 07:54:50.984             0.000             0.000
       266   09 Jun 2027 07:55:31.519   09 Jun 2027 07:55:34.803             3.284          1642.000
       267   09 Jun 2027 07:56:10.467   09 Jun 2027 07:56:13.532             3.065          1532.500
       268   09 Jun 2027 07:56:28.381   09 Jun 2027 07:56:32.834             4.453          2226.500
       269   09 Jun 2027 07:57:17.505   09 Jun 2027 07:57:22.503             4.998          2499.000
       270   09 Jun 2027 07:58:10.368   09 Jun 2027 07:58:13.383             3.015          1507.500
       271   09 Jun 2027 07:58:34.074   09 Jun 2027 07:58:37.905             3.831          1915.500
       272   09 Jun 2027 07:59:01.135   09 Jun 2027 07:59:07.030             5.895          2947.500
       273   10 Jun 2027 03:15:40.853   10 Jun 2027 03:15:45.922             5.069          2534.500
       274   10 Jun 2027 03:16:02.353   10 Jun 2027 03:16:02.353             0.000             0.000
       275   10 Jun 2027 03:16:09.763   10 Jun 2027 03:16:17.990             8.227          4113.500
       276   10 Jun 2027 03:16:52.129   10 Jun 2027 03:16:52.142             0.013             6.500
       277   10 Jun 2027 03:17:00.620   10 Jun 2027 03:17:07.683             7.063          3531.500
       278   10 Jun 2027 03:17:58.292   10 Jun 2027 03:18:06.404             8.112          4056.000
       279   10 Jun 2027 03:18:42.658   10 Jun 2027 03:18:48.492             5.834          2917.000
       280   10 Jun 2027 03:19:41.009   10 Jun 2027 03:19:52.865            11.856          5928.000
       281   10 Jun 2027 03:20:58.123   10 Jun 2027 03:20:58.715             0.592           296.000
       282   10 Jun 2027 03:21:04.398   10 Jun 2027 03:21:06.999             2.601          1300.500
       283   10 Jun 2027 03:21:14.118   10 Jun 2027 03:21:18.470             4.352          2176.000
       284   10 Jun 2027 03:21:48.170   10 Jun 2027 03:21:54.323             6.153          3076.500
       285   10 Jun 2027 03:22:34.899   10 Jun 2027 03:22:39.937             5.038          2519.000
       286   10 Jun 2027 04:52:47.196   10 Jun 2027 04:52:49.144             1.948           974.000
       287   10 Jun 2027 04:53:43.789   10 Jun 2027 04:53:55.931            12.142          6071.000
       288   10 Jun 2027 04:54:53.477   10 Jun 2027 04:54:57.664             4.187          2093.500
       289   10 Jun 2027 04:55:18.907   10 Jun 2027 04:55:19.444             0.537           268.500
       290   10 Jun 2027 04:55:39.477   10 Jun 2027 04:55:48.490             9.013          4506.500
       291   10 Jun 2027 04:56:32.909   10 Jun 2027 04:56:41.284             8.375          4187.500
       292   10 Jun 2027 04:57:48.787   10 Jun 2027 04:57:50.848             2.061          1030.500
       293   10 Jun 2027 04:58:10.201   10 Jun 2027 04:58:14.197             3.996          1998.000
       294   10 Jun 2027 04:59:04.408   10 Jun 2027 04:59:06.304             1.896           948.000
       295   10 Jun 2027 06:30:42.577   10 Jun 2027 06:30:43.878             1.301           650.500
       296   10 Jun 2027 06:31:08.435   10 Jun 2027 06:31:14.302             5.867          2933.500
       297   10 Jun 2027 06:32:11.440   10 Jun 2027 06:32:18.273             6.833          3416.500
       298   10 Jun 2027 06:32:51.996   10 Jun 2027 06:32:54.208             2.212          1106.000
       299   10 Jun 2027 06:33:05.749   10 Jun 2027 06:33:15.406             9.657          4828.500
       300   10 Jun 2027 06:34:16.363   10 Jun 2027 06:34:18.712             2.349          1174.500
       301   10 Jun 2027 08:03:47.812   10 Jun 2027 08:03:57.152             9.340          4670.000
       302   10 Jun 2027 08:04:33.471   10 Jun 2027 08:04:50.369            16.898          8449.000
       303   10 Jun 2027 08:06:25.346   10 Jun 2027 08:06:38.387            13.041          6520.500
       304   10 Jun 2027 08:08:11.725   10 Jun 2027 08:08:12.097             0.372           186.000
       305   10 Jun 2027 08:08:27.940   10 Jun 2027 08:08:49.581            21.641         10820.500
       306   10 Jun 2027 08:10:50.161   10 Jun 2027 08:10:58.737             8.576          4288.000
       307   10 Jun 2027 08:11:21.045   10 Jun 2027 08:11:46.603            25.558         12779.000
       308   11 Jun 2027 03:27:58.626   11 Jun 2027 03:28:00.607             1.981           990.500
       309   11 Jun 2027 03:28:25.535   11 Jun 2027 03:28:36.262            10.727          5363.500
       310   11 Jun 2027 03:29:19.814   11 Jun 2027 03:29:30.039            10.225          5112.500
       311   11 Jun 2027 03:30:12.596   11 Jun 2027 03:30:14.981             2.385          1192.500
       312   11 Jun 2027 03:30:38.508   11 Jun 2027 03:30:40.844             2.336          1168.000
       313   11 Jun 2027 03:30:50.478   11 Jun 2027 03:30:56.986             6.508          3254.000
       314   11 Jun 2027 03:31:39.518   11 Jun 2027 03:31:44.568             5.050          2525.000
       315   11 Jun 2027 03:32:31.837   11 Jun 2027 03:32:34.938             3.101          1550.500
       316   11 Jun 2027 03:32:50.349   11 Jun 2027 03:32:50.870             0.521           260.500
       317   11 Jun 2027 03:33:19.144   11 Jun 2027 03:33:26.719             7.575          3787.500
       318   11 Jun 2027 03:34:09.182   11 Jun 2027 03:34:12.196             3.014          1507.000
       319   11 Jun 2027 03:34:41.419   11 Jun 2027 03:34:50.828             9.409          4704.500
       320   11 Jun 2027 05:04:43.234   11 Jun 2027 05:04:58.990            15.756          7878.000
       321   11 Jun 2027 05:05:53.368   11 Jun 2027 05:06:28.866            35.498         17749.000
       322   11 Jun 2027 05:10:10.673   11 Jun 2027 05:10:11.188             0.515           257.500
       323   11 Jun 2027 05:10:16.067   11 Jun 2027 05:10:25.687             9.620          4810.000
       324   11 Jun 2027 06:42:41.859   11 Jun 2027 06:42:45.957             4.098          2049.000
       325   11 Jun 2027 06:43:11.449   11 Jun 2027 06:43:29.884            18.435          9217.500
       326   11 Jun 2027 06:44:58.074   11 Jun 2027 06:44:58.571             0.497           248.500
       327   11 Jun 2027 06:45:29.055   11 Jun 2027 06:45:32.910             3.855          1927.500
       328   11 Jun 2027 06:46:23.880   11 Jun 2027 06:46:36.944            13.064          6532.000
       329   11 Jun 2027 08:16:19.507   11 Jun 2027 08:16:41.082            21.575         10787.500
       330   11 Jun 2027 08:17:45.426   11 Jun 2027 08:17:47.526             2.100          1050.000
       331   11 Jun 2027 08:18:26.083   11 Jun 2027 08:18:27.091             1.008           504.000
       332   11 Jun 2027 08:18:34.364   11 Jun 2027 08:18:45.455            11.091          5545.500
       333   11 Jun 2027 08:19:55.304   11 Jun 2027 08:20:09.302            13.998          6999.000
       334   11 Jun 2027 08:21:09.138   11 Jun 2027 08:21:10.853             1.715           857.500
       335   11 Jun 2027 08:21:30.273   11 Jun 2027 08:21:32.834             2.561          1280.500
       336   11 Jun 2027 08:21:57.103   11 Jun 2027 08:21:58.462             1.359           679.500
       337   11 Jun 2027 08:22:56.327   11 Jun 2027 08:22:56.716             0.389           194.500
       338   12 Jun 2027 03:39:52.157   12 Jun 2027 03:39:52.712             0.555           277.500
       339   12 Jun 2027 03:40:17.169   12 Jun 2027 03:40:20.288             3.119          1559.500
       340   12 Jun 2027 03:40:24.163   12 Jun 2027 03:40:25.119             0.956           478.000
       341   12 Jun 2027 03:41:36.944   12 Jun 2027 03:41:49.302            12.358          6179.000
       342   12 Jun 2027 03:42:43.269   12 Jun 2027 03:42:45.813             2.544          1272.000
       343   12 Jun 2027 03:42:59.393   12 Jun 2027 03:43:01.658             2.265          1132.500
       344   12 Jun 2027 03:43:36.255   12 Jun 2027 03:43:42.764             6.509          3254.500
       345   12 Jun 2027 03:44:54.413   12 Jun 2027 03:44:57.187             2.774          1387.000
       346   12 Jun 2027 03:45:10.952   12 Jun 2027 03:45:19.412             8.460          4230.000
       347   12 Jun 2027 03:45:42.889   12 Jun 2027 03:45:53.629            10.740          5370.000
       348   12 Jun 2027 03:47:03.269   12 Jun 2027 03:47:06.340             3.071          1535.500
       349   12 Jun 2027 05:16:36.248   12 Jun 2027 05:16:50.452            14.204          7102.000
       350   12 Jun 2027 05:17:13.226   12 Jun 2027 05:17:33.134            19.908          9954.000
       351   12 Jun 2027 05:19:34.557   12 Jun 2027 05:19:36.764             2.207          1103.500
       352   12 Jun 2027 05:20:02.479   12 Jun 2027 05:20:03.442             0.963           481.500
       353   12 Jun 2027 05:20:07.449   12 Jun 2027 05:20:10.333             2.884          1442.000
       354   12 Jun 2027 05:21:06.452   12 Jun 2027 05:21:19.851            13.399          6699.500
       355   12 Jun 2027 05:22:12.637   12 Jun 2027 05:22:15.817             3.180          1590.000
       356   12 Jun 2027 05:22:34.389   12 Jun 2027 05:22:36.173             1.784           892.000
       357   12 Jun 2027 05:22:50.856   12 Jun 2027 05:22:55.931             5.075          2537.500
       358   12 Jun 2027 05:23:11.342   12 Jun 2027 05:23:19.859             8.517          4258.500
       359   12 Jun 2027 06:54:29.748   12 Jun 2027 06:54:31.919             2.171          1085.500
       360   12 Jun 2027 06:54:47.566   12 Jun 2027 06:54:48.961             1.395           697.500
       361   12 Jun 2027 06:55:14.050   12 Jun 2027 06:55:24.842            10.792          5396.000
       362   12 Jun 2027 06:56:09.698   12 Jun 2027 06:56:09.714             0.016             8.000
       363   12 Jun 2027 06:56:16.694   12 Jun 2027 06:56:20.329             3.635          1817.500
       364   12 Jun 2027 06:56:43.579   12 Jun 2027 06:56:51.656             8.077          4038.500
       365   12 Jun 2027 06:57:53.313   12 Jun 2027 06:57:55.482             2.169          1084.500
       366   12 Jun 2027 06:58:32.863   12 Jun 2027 06:58:42.733             9.870          4935.000
       367   12 Jun 2027 08:30:27.504   12 Jun 2027 08:30:31.815             4.311          2155.500
       368   12 Jun 2027 08:30:38.029   12 Jun 2027 08:30:44.025             5.996          2998.000
       369   12 Jun 2027 08:31:06.942   12 Jun 2027 08:31:06.942             0.000             0.000
       370   12 Jun 2027 08:32:05.218   12 Jun 2027 08:32:14.649             9.431          4715.500
       371   12 Jun 2027 08:32:58.451   12 Jun 2027 08:33:11.741            13.290          6645.000
       372   12 Jun 2027 08:34:07.886   12 Jun 2027 08:34:14.494             6.608          3304.000
       373   13 Jun 2027 03:52:00.398   13 Jun 2027 03:52:06.503             6.105          3052.500
       374   13 Jun 2027 03:53:03.834   13 Jun 2027 03:53:13.106             9.272          4636.000
       375   13 Jun 2027 03:54:16.122   13 Jun 2027 03:54:29.552            13.430          6715.000
       376   13 Jun 2027 03:56:04.907   13 Jun 2027 03:56:05.058             0.151            75.500
       377   13 Jun 2027 03:57:39.497   13 Jun 2027 03:57:46.962             7.465          3732.500
       378   13 Jun 2027 03:58:53.898   13 Jun 2027 03:59:04.925            11.027          5513.500
       379   13 Jun 2027 05:29:14.880   13 Jun 2027 05:29:14.976             0.096            48.000
       380   13 Jun 2027 05:30:22.952   13 Jun 2027 05:30:25.960             3.008          1504.000
       381   13 Jun 2027 05:30:38.985   13 Jun 2027 05:30:41.166             2.181          1090.500
       382   13 Jun 2027 05:30:51.038   13 Jun 2027 05:30:54.483             3.445          1722.500
       383   13 Jun 2027 05:31:17.865   13 Jun 2027 05:31:23.289             5.424          2712.000
       384   13 Jun 2027 05:31:57.860   13 Jun 2027 05:31:59.672             1.812           906.000
       385   13 Jun 2027 05:32:09.752   13 Jun 2027 05:32:12.040             2.288          1144.000
       386   13 Jun 2027 05:33:29.230   13 Jun 2027 05:33:32.542             3.312          1656.000
       387   13 Jun 2027 05:34:01.377   13 Jun 2027 05:34:02.526             1.149           574.500
       388   13 Jun 2027 05:34:21.317   13 Jun 2027 05:34:22.902             1.585           792.500
       389   13 Jun 2027 05:34:57.071   13 Jun 2027 05:35:01.248             4.177          2088.500
       390   13 Jun 2027 07:05:55.868   13 Jun 2027 07:06:10.562            14.694          7347.000
       391   13 Jun 2027 07:07:34.030   13 Jun 2027 07:07:36.476             2.446          1223.000
       392   13 Jun 2027 07:08:00.637   13 Jun 2027 07:08:17.972            17.335          8667.500
       393   13 Jun 2027 07:09:39.950   13 Jun 2027 07:09:46.072             6.122          3061.000
       394   13 Jun 2027 07:10:32.896   13 Jun 2027 07:10:35.329             2.433          1216.500
       395   13 Jun 2027 08:41:08.355   13 Jun 2027 08:41:10.810             2.455          1227.500
       396   13 Jun 2027 08:42:53.811   13 Jun 2027 08:43:00.251             6.440          3220.000
       397   13 Jun 2027 08:43:59.907   13 Jun 2027 08:44:16.254            16.347          8173.500
       398   13 Jun 2027 08:45:17.498   13 Jun 2027 08:45:17.498             0.000             0.000
       399   13 Jun 2027 08:45:23.920   13 Jun 2027 08:45:45.088            21.168         10584.000
