uniorb/output/strategy_2/Camera/Camera_KinoSat_111909.txt

KinoSat_111909
-------------------------
    Access    *     Start Time (UTCG)     *     Stop Time (UTCG)  *   Duration (s) *   Data (Mbytes)
         1   01 Jun 2027 03:59:02.365   01 Jun 2027 04:01:20.931           138.566         69283.000
         2   01 Jun 2027 04:01:27.209   01 Jun 2027 04:01:29.639             2.430          1215.000
         3   01 Jun 2027 04:03:33.883   01 Jun 2027 04:04:17.094            43.211         21605.500
         4   01 Jun 2027 04:04:58.733   01 Jun 2027 04:05:07.707             8.974          4487.000
         5   01 Jun 2027 05:38:06.749   01 Jun 2027 05:40:04.440           117.691         58845.500
         6   01 Jun 2027 05:40:16.096   01 Jun 2027 05:40:29.175            13.079          6539.500
         7   01 Jun 2027 05:42:08.944   01 Jun 2027 05:42:40.421            31.477         15738.500
         8   01 Jun 2027 05:42:50.103   01 Jun 2027 05:43:24.928            34.825         17412.500
         9   01 Jun 2027 05:43:26.759   01 Jun 2027 05:43:32.300             5.541          2770.500
        10   01 Jun 2027 05:44:54.895   01 Jun 2027 05:45:14.556            19.661          9830.500
        11   01 Jun 2027 07:02:56.562   01 Jun 2027 07:04:19.687            83.125         41562.500
        12   01 Jun 2027 07:14:36.360   01 Jun 2027 07:15:37.360            61.000         30500.000
        13   01 Jun 2027 08:36:55.645   01 Jun 2027 08:38:01.656            66.011         33005.500
        14   01 Jun 2027 08:38:52.540   01 Jun 2027 08:40:33.069           100.529         50264.500
        15   01 Jun 2027 10:11:53.204   01 Jun 2027 10:12:29.390            36.186         18093.000
        16   01 Jun 2027 10:13:00.084   01 Jun 2027 10:13:00.084             0.000             0.000
        17   01 Jun 2027 10:13:57.220   01 Jun 2027 10:14:14.178            16.958          8479.000
        18   01 Jun 2027 11:55:35.712   01 Jun 2027 11:56:39.675            63.963         31981.500
        19   02 Jun 2027 04:11:24.426   02 Jun 2027 04:12:25.548            61.122         30561.000
        20   02 Jun 2027 04:12:31.079   02 Jun 2027 04:12:33.430             2.351          1175.500
        21   02 Jun 2027 04:12:45.547   02 Jun 2027 04:13:24.788            39.241         19620.500
        22   02 Jun 2027 04:13:27.323   02 Jun 2027 04:14:40.680            73.357         36678.500
        23   02 Jun 2027 04:15:04.227   02 Jun 2027 04:15:05.181             0.954           477.000
        24   02 Jun 2027 04:15:14.164   02 Jun 2027 04:15:43.785            29.621         14810.500
        25   02 Jun 2027 04:15:46.190   02 Jun 2027 04:16:00.089            13.899          6949.500
        26   02 Jun 2027 04:16:19.456   02 Jun 2027 04:16:24.437             4.981          2490.500
        27   02 Jun 2027 05:50:10.323   02 Jun 2027 05:51:56.852           106.529         53264.500
        28   02 Jun 2027 05:52:05.879   02 Jun 2027 05:52:23.762            17.883          8941.500
        29   02 Jun 2027 05:52:23.805   02 Jun 2027 05:52:48.173            24.368         12184.000
        30   02 Jun 2027 05:53:33.714   02 Jun 2027 05:53:51.864            18.150          9075.000
        31   02 Jun 2027 05:54:02.691   02 Jun 2027 05:54:12.375             9.684          4842.000
        32   02 Jun 2027 07:14:29.865   02 Jun 2027 07:15:14.092            44.227         22113.500
        33   02 Jun 2027 07:15:36.575   02 Jun 2027 07:15:58.811            22.236         11118.000
        34   02 Jun 2027 07:16:22.370   02 Jun 2027 07:16:32.222             9.852          4926.000
        35   02 Jun 2027 07:26:49.594   02 Jun 2027 07:27:11.449            21.855         10927.500
        36   02 Jun 2027 08:48:28.866   02 Jun 2027 08:49:48.842            79.976         39988.000
        37   02 Jun 2027 08:50:37.533   02 Jun 2027 08:51:17.415            39.882         19941.000
        38   02 Jun 2027 08:52:02.580   02 Jun 2027 08:52:06.919             4.339          1684.749
        39   02 Jun 2027 10:23:21.331   02 Jun 2027 10:23:43.718            22.387         11128.469
        40   02 Jun 2027 10:25:45.480   02 Jun 2027 10:25:51.058             5.578          2732.844
        41   02 Jun 2027 10:32:19.204   02 Jun 2027 10:32:27.423             8.219          4109.500
        42   03 Jun 2027 04:24:05.767   03 Jun 2027 04:24:19.202            13.435          6717.500
        43   03 Jun 2027 04:24:28.946   03 Jun 2027 04:25:30.028            61.082         30541.000
        44   03 Jun 2027 04:25:47.647   03 Jun 2027 04:25:55.272             7.625          3812.500
        45   03 Jun 2027 04:26:15.400   03 Jun 2027 04:28:21.229           125.829         62914.500
        46   03 Jun 2027 06:02:36.668   03 Jun 2027 06:04:45.109           128.441         62081.813
        47   03 Jun 2027 06:05:52.299   03 Jun 2027 06:05:57.347             5.048          1997.188
        48   03 Jun 2027 07:26:26.242   03 Jun 2027 07:26:47.812            21.570         10035.844
        49   03 Jun 2027 07:27:35.530   03 Jun 2027 07:27:41.152             5.622          1310.844
        50   03 Jun 2027 07:27:45.968   03 Jun 2027 07:27:49.778             3.810           135.250
        51   03 Jun 2027 07:28:09.426   03 Jun 2027 07:28:11.507             2.081            92.406
        52   03 Jun 2027 07:28:25.725   03 Jun 2027 07:28:25.725             0.000             0.000
        53   03 Jun 2027 09:02:26.959   03 Jun 2027 09:02:57.518            30.559         11665.625
        54   03 Jun 2027 09:05:24.308   03 Jun 2027 09:05:34.044             9.736          4587.187
        55   03 Jun 2027 10:37:57.231   03 Jun 2027 10:38:16.582            19.351          8988.719
        56   03 Jun 2027 10:40:59.267   03 Jun 2027 10:40:59.851             0.584           292.000
        57   03 Jun 2027 10:44:00.106   03 Jun 2027 10:44:21.660            21.554         10424.875
        58   04 Jun 2027 03:00:03.429   04 Jun 2027 03:00:53.601            50.172         25086.000
        59   04 Jun 2027 03:01:30.914   04 Jun 2027 03:02:09.111            38.197         19098.500
        60   04 Jun 2027 03:02:51.771   04 Jun 2027 03:03:10.915            19.144          9572.000
        61   04 Jun 2027 03:03:48.663   04 Jun 2027 03:03:58.277             9.614          4807.000
        62   04 Jun 2027 04:36:43.508   04 Jun 2027 04:37:20.530            37.022         18511.000
        63   04 Jun 2027 04:37:20.599   04 Jun 2027 04:39:11.505           110.906         55453.000
        64   04 Jun 2027 04:39:34.541   04 Jun 2027 04:39:54.195            19.654          9827.000
        65   04 Jun 2027 04:40:01.772   04 Jun 2027 04:40:02.809             1.037           518.500
        66   04 Jun 2027 06:14:56.471   04 Jun 2027 06:16:20.587            84.116         42058.000
        67   04 Jun 2027 06:17:09.773   04 Jun 2027 06:17:14.973             5.200          2600.000
        68   04 Jun 2027 06:17:41.484   04 Jun 2027 06:17:46.087             4.603          1373.812
        69   04 Jun 2027 06:18:49.893   04 Jun 2027 06:18:55.853             5.960          1969.688
        70   04 Jun 2027 07:38:19.507   04 Jun 2027 07:38:37.200            17.693          8309.312
        71   04 Jun 2027 07:39:43.053   04 Jun 2027 07:39:45.568             2.515          1257.500
        72   04 Jun 2027 07:40:05.775   04 Jun 2027 07:40:09.675             3.900          1128.344
        73   04 Jun 2027 07:40:16.979   04 Jun 2027 07:40:17.064             0.085            42.500
        74   04 Jun 2027 07:40:35.085   04 Jun 2027 07:40:37.148             2.063           675.594
        75   04 Jun 2027 09:14:40.538   04 Jun 2027 09:15:08.561            28.023         11245.906
        76   04 Jun 2027 09:15:58.950   04 Jun 2027 09:16:03.804             4.854          1448.438
        77   04 Jun 2027 09:17:08.848   04 Jun 2027 09:17:08.848             0.000             0.000
        78   04 Jun 2027 10:50:30.847   04 Jun 2027 10:50:45.908            15.061          7530.500
        79   04 Jun 2027 10:51:49.008   04 Jun 2027 10:52:02.434            13.426          5288.094
        80   04 Jun 2027 10:52:25.154   04 Jun 2027 10:52:26.103             0.949           439.219
        81   04 Jun 2027 10:52:50.255   04 Jun 2027 10:52:53.858             3.603           590.406
        82   04 Jun 2027 10:54:06.766   04 Jun 2027 10:54:12.953             6.187          2234.000
        83   04 Jun 2027 10:55:06.570   04 Jun 2027 10:55:09.491             2.921           508.375
        84   04 Jun 2027 10:56:00.424   04 Jun 2027 10:56:00.424             0.000             0.000
        85   04 Jun 2027 10:56:42.535   04 Jun 2027 10:56:44.933             2.398          1199.000
        86   05 Jun 2027 03:10:33.166   05 Jun 2027 03:11:15.886            42.720         21360.000
        87   05 Jun 2027 03:11:57.799   05 Jun 2027 03:14:29.029           151.230         75615.000
        88   05 Jun 2027 03:15:01.840   05 Jun 2027 03:15:04.876             3.036          1518.000
        89   05 Jun 2027 03:15:29.814   05 Jun 2027 03:15:37.448             7.634          3817.000
        90   05 Jun 2027 03:16:00.590   05 Jun 2027 03:16:09.770             9.180          4590.000
        91   05 Jun 2027 03:16:13.353   05 Jun 2027 03:16:39.541            26.188         13094.000
        92   05 Jun 2027 03:17:33.459   05 Jun 2027 03:17:44.570            11.111          5555.500
        93   05 Jun 2027 04:48:47.616   05 Jun 2027 04:49:48.673            61.057         30528.500
        94   05 Jun 2027 04:49:54.332   05 Jun 2027 04:50:13.031            18.699          9349.500
        95   05 Jun 2027 04:50:21.893   05 Jun 2027 04:50:25.299             3.406          1186.156
        96   05 Jun 2027 04:50:32.017   05 Jun 2027 04:50:32.882             0.865           175.750
        97   05 Jun 2027 04:50:53.342   05 Jun 2027 04:50:54.536             1.194           496.000
        98   05 Jun 2027 04:51:37.991   05 Jun 2027 04:51:44.884             6.893           924.250
        99   05 Jun 2027 04:52:21.028   05 Jun 2027 04:52:25.168             4.140           941.063
       100   05 Jun 2027 04:54:01.655   05 Jun 2027 04:54:06.339             4.684          2017.062
       101   05 Jun 2027 04:54:28.107   05 Jun 2027 04:54:29.711             1.604           664.625
       102   05 Jun 2027 06:27:49.030   05 Jun 2027 06:28:09.478            20.448          8995.531
       103   05 Jun 2027 06:29:21.718   05 Jun 2027 06:29:22.690             0.972           486.000
       104   05 Jun 2027 06:29:50.149   05 Jun 2027 06:29:57.845             7.696          2629.593
       105   05 Jun 2027 07:50:13.384   05 Jun 2027 07:50:32.736            19.352          7982.375
       106   05 Jun 2027 07:51:44.239   05 Jun 2027 07:51:53.873             9.634          2081.125
       107   05 Jun 2027 07:52:05.444   05 Jun 2027 07:52:10.407             4.963           143.188
       108   05 Jun 2027 09:26:46.342   05 Jun 2027 09:27:01.781            15.439          7170.781
       109   05 Jun 2027 09:29:24.551   05 Jun 2027 09:29:29.874             5.323          2661.500
       110   05 Jun 2027 11:01:55.059   05 Jun 2027 11:02:17.890            22.831          8218.344
       111   05 Jun 2027 11:02:54.019   05 Jun 2027 11:02:54.019             0.000             0.000
       112   05 Jun 2027 11:07:54.633   05 Jun 2027 11:08:19.016            24.383          9909.156
       113   05 Jun 2027 11:08:35.418   05 Jun 2027 11:08:37.611             2.193           175.656
       114   06 Jun 2027 03:22:31.361   06 Jun 2027 03:23:23.499            52.138         26069.000
       115   06 Jun 2027 03:23:26.623   06 Jun 2027 03:26:19.206           172.583         86291.500
       116   06 Jun 2027 03:27:40.383   06 Jun 2027 03:27:40.383             0.000             0.000
       117   06 Jun 2027 03:28:08.980   06 Jun 2027 03:28:09.861             0.881           440.500
       118   06 Jun 2027 03:29:03.912   06 Jun 2027 03:29:20.071            16.159          8079.500
       119   06 Jun 2027 05:00:44.489   06 Jun 2027 05:01:37.769            53.280         26640.000
       120   06 Jun 2027 05:01:51.194   06 Jun 2027 05:02:33.581            42.387         18562.969
       121   06 Jun 2027 05:03:37.423   06 Jun 2027 05:03:39.711             2.288           958.375
       122   06 Jun 2027 05:04:05.858   06 Jun 2027 05:04:13.467             7.609            52.250
       123   06 Jun 2027 05:05:29.714   06 Jun 2027 05:05:32.092             2.378          1189.000
       124   06 Jun 2027 05:06:07.805   06 Jun 2027 05:06:10.669             2.864          1432.000
       125   06 Jun 2027 06:39:48.714   06 Jun 2027 06:40:03.771            15.057          7528.500
       126   06 Jun 2027 06:40:23.446   06 Jun 2027 06:40:25.508             2.062          1031.000
       127   06 Jun 2027 06:41:31.810   06 Jun 2027 06:41:37.816             6.006          2249.938
       128   06 Jun 2027 06:42:00.013   06 Jun 2027 06:42:02.151             2.138           693.656
       129   06 Jun 2027 06:42:22.757   06 Jun 2027 06:42:22.757             0.000             0.000
       130   06 Jun 2027 08:02:21.418   06 Jun 2027 08:02:38.896            17.478          8531.469
       131   06 Jun 2027 08:03:26.070   06 Jun 2027 08:03:32.837             6.767           959.719
       132   06 Jun 2027 08:04:49.291   06 Jun 2027 08:04:54.072             4.781          2004.656
       133   06 Jun 2027 08:05:25.750   06 Jun 2027 08:05:27.158             1.408           515.688
       134   06 Jun 2027 09:38:57.034   06 Jun 2027 09:39:07.211            10.177          4745.156
       135   06 Jun 2027 11:14:07.253   06 Jun 2027 11:14:26.156            18.903          9451.500
       136   06 Jun 2027 11:15:18.034   06 Jun 2027 11:15:18.034             0.000             0.000
       137   06 Jun 2027 11:15:55.741   06 Jun 2027 11:16:02.338             6.597          2954.813
       138   06 Jun 2027 11:17:14.491   06 Jun 2027 11:17:18.741             4.250          1693.031
       139   06 Jun 2027 11:20:30.860   06 Jun 2027 11:20:42.957            12.097          6003.719
       140   07 Jun 2027 03:34:32.506   07 Jun 2027 03:37:47.026           194.520         97260.000
       141   07 Jun 2027 03:38:12.671   07 Jun 2027 03:38:55.270            42.599         21299.500
       142   07 Jun 2027 03:39:36.594   07 Jun 2027 03:39:41.440             4.846          2423.000
       143   07 Jun 2027 03:39:45.088   07 Jun 2027 03:40:00.523            15.435          7717.500
       144   07 Jun 2027 03:41:02.169   07 Jun 2027 03:41:21.641            19.472          9736.000
       145   07 Jun 2027 03:41:26.511   07 Jun 2027 03:41:27.957             1.446           723.000
       146   07 Jun 2027 05:13:50.151   07 Jun 2027 05:14:38.551            48.400         24125.688
       147   07 Jun 2027 05:16:20.354   07 Jun 2027 05:16:21.293             0.939           469.500
       148   07 Jun 2027 05:16:22.726   07 Jun 2027 05:16:24.336             1.610           300.188
       149   07 Jun 2027 05:18:15.954   07 Jun 2027 05:18:17.182             1.228           614.000
       150   07 Jun 2027 05:18:47.334   07 Jun 2027 05:18:55.041             7.707          3658.313
       151   07 Jun 2027 05:20:09.507   07 Jun 2027 05:20:16.252             6.745          1243.938
       152   07 Jun 2027 05:20:32.450   07 Jun 2027 05:20:33.760             1.310           506.187
       153   07 Jun 2027 05:21:30.359   07 Jun 2027 05:21:34.941             4.582          1593.156
       154   07 Jun 2027 06:50:56.292   07 Jun 2027 06:51:08.140            11.848          5436.719
       155   07 Jun 2027 06:51:13.734   07 Jun 2027 06:51:15.042             1.308           174.813
       156   07 Jun 2027 06:51:59.317   07 Jun 2027 06:52:00.304             0.987           493.500
       157   07 Jun 2027 06:53:02.263   07 Jun 2027 06:53:07.596             5.333          2454.500
       158   07 Jun 2027 06:53:49.231   07 Jun 2027 06:53:49.231             0.000             0.000
       159   07 Jun 2027 06:54:10.321   07 Jun 2027 06:54:14.155             3.834          1884.562
       160   07 Jun 2027 06:54:23.274   07 Jun 2027 06:54:29.284             6.010           117.656
       161   07 Jun 2027 08:14:55.288   07 Jun 2027 08:15:18.594            23.306          9656.469
       162   07 Jun 2027 08:15:58.113   07 Jun 2027 08:16:08.350            10.237           979.500
       163   07 Jun 2027 08:17:17.353   07 Jun 2027 08:17:21.047             3.694           592.500
       164   07 Jun 2027 09:50:43.844   07 Jun 2027 09:50:59.890            16.046          7065.781
       165   07 Jun 2027 11:25:36.439   07 Jun 2027 11:26:01.219            24.780         10565.250
       166   07 Jun 2027 11:26:21.831   07 Jun 2027 11:26:28.793             6.962           644.125
       167   07 Jun 2027 11:27:42.686   07 Jun 2027 11:27:46.057             3.371          1059.312
       168   07 Jun 2027 11:28:29.302   07 Jun 2027 11:28:29.302             0.000             0.000
       169   07 Jun 2027 11:32:02.243   07 Jun 2027 11:32:02.243             0.000             0.000
       170   07 Jun 2027 11:32:21.681   07 Jun 2027 11:32:42.541            20.860          8613.250
       171   08 Jun 2027 03:47:13.302   08 Jun 2027 03:51:16.992           243.690        121845.000
       172   08 Jun 2027 03:51:32.159   08 Jun 2027 03:51:34.184             2.025          1012.500
       173   08 Jun 2027 03:51:36.439   08 Jun 2027 03:51:42.941             6.502          3251.000
       174   08 Jun 2027 03:51:44.950   08 Jun 2027 03:52:11.902            26.952         13476.000
       175   08 Jun 2027 03:52:59.175   08 Jun 2027 03:53:01.191             2.016          1008.000
       176   08 Jun 2027 05:25:59.024   08 Jun 2027 05:27:06.109            67.085         31867.375
       177   08 Jun 2027 05:27:32.187   08 Jun 2027 05:27:33.488             1.301           474.719
       178   08 Jun 2027 05:28:19.964   08 Jun 2027 05:28:27.648             7.684          1402.250
       179   08 Jun 2027 05:30:38.732   08 Jun 2027 05:30:45.927             7.195          3346.000
       180   08 Jun 2027 05:31:44.355   08 Jun 2027 05:31:47.460             3.105          1502.594
       181   08 Jun 2027 05:32:18.225   08 Jun 2027 05:32:20.311             2.086           764.875
       182   08 Jun 2027 05:32:59.238   08 Jun 2027 05:33:01.627             2.389          1162.531
       183   08 Jun 2027 06:51:33.709   08 Jun 2027 06:51:44.946            11.237          4601.219
       184   08 Jun 2027 07:02:54.660   08 Jun 2027 07:03:06.011            11.351          4459.500
       185   08 Jun 2027 07:03:56.474   08 Jun 2027 07:04:00.150             3.676          1090.219
       186   08 Jun 2027 08:25:30.527   08 Jun 2027 08:25:44.371            13.844          6922.000
       187   08 Jun 2027 08:25:57.572   08 Jun 2027 08:26:01.524             3.952          1333.563
       188   08 Jun 2027 08:26:47.073   08 Jun 2027 08:26:50.325             3.252          1194.844
       189   08 Jun 2027 08:28:00.416   08 Jun 2027 08:28:05.512             5.096           917.938
       190   08 Jun 2027 10:05:00.811   08 Jun 2027 10:05:18.187            17.376          8688.000
       191   08 Jun 2027 11:43:52.806   08 Jun 2027 11:43:52.806             0.000             0.000
       192   08 Jun 2027 11:44:09.126   08 Jun 2027 11:44:53.169            44.043         22021.500
       193   09 Jun 2027 03:59:21.028   09 Jun 2027 04:00:56.025            94.997         47498.500
       194   09 Jun 2027 04:00:56.402   09 Jun 2027 04:01:38.307            41.905         20952.500
       195   09 Jun 2027 04:01:49.875   09 Jun 2027 04:02:31.930            42.055         21027.500
       196   09 Jun 2027 04:02:55.363   09 Jun 2027 04:04:18.380            83.017         41508.500
       197   09 Jun 2027 05:38:24.945   09 Jun 2027 05:39:55.823            90.878         44505.187
       198   09 Jun 2027 05:40:53.869   09 Jun 2027 05:40:58.198             4.329          1790.281
       199   09 Jun 2027 05:41:25.178   09 Jun 2027 05:41:26.591             1.413           706.500
       200   09 Jun 2027 05:41:58.861   09 Jun 2027 05:42:01.318             2.457          1058.594
       201   09 Jun 2027 05:42:23.748   09 Jun 2027 05:42:27.729             3.981           700.937
       202   09 Jun 2027 05:43:04.650   09 Jun 2027 05:43:04.650             0.000             0.000
       203   09 Jun 2027 05:45:13.770   09 Jun 2027 05:45:26.781            13.011          5177.688
       204   09 Jun 2027 07:03:14.097   09 Jun 2027 07:03:35.986            21.889          8273.562
       205   09 Jun 2027 07:04:37.566   09 Jun 2027 07:04:42.759             5.193          1655.469
       206   09 Jun 2027 07:14:54.088   09 Jun 2027 07:15:03.216             9.128          4100.188
       207   09 Jun 2027 08:37:12.254   09 Jun 2027 08:37:26.422            14.168          7084.000
       208   09 Jun 2027 08:37:58.365   09 Jun 2027 08:38:06.317             7.952          2935.031
       209   09 Jun 2027 08:39:45.408   09 Jun 2027 08:39:53.687             8.279          3084.219
       210   09 Jun 2027 08:41:18.808   09 Jun 2027 08:41:30.605            11.797          2298.094
       211   09 Jun 2027 10:12:45.564   09 Jun 2027 10:12:57.320            11.756          5765.563
       212   09 Jun 2027 11:55:51.526   09 Jun 2027 11:56:50.999            59.473         28057.000
       213   10 Jun 2027 04:11:48.257   10 Jun 2027 04:12:05.997            17.740          8870.000
       214   10 Jun 2027 04:12:13.803   10 Jun 2027 04:12:43.465            29.662         14831.000
       215   10 Jun 2027 04:12:48.351   10 Jun 2027 04:13:42.511            54.160         27080.000
       216   10 Jun 2027 04:13:44.646   10 Jun 2027 04:15:09.819            85.173         42586.500
       217   10 Jun 2027 04:15:56.975   10 Jun 2027 04:15:58.711             1.736           868.000
       218   10 Jun 2027 04:16:03.857   10 Jun 2027 04:16:39.351            35.494         17747.000
       219   10 Jun 2027 05:50:30.004   10 Jun 2027 05:51:06.567            36.563         18281.500
       220   10 Jun 2027 05:51:32.635   10 Jun 2027 05:52:20.536            47.901         23950.500
       221   10 Jun 2027 05:53:48.524   10 Jun 2027 05:53:49.109             0.585           292.500
       222   10 Jun 2027 05:54:09.443   10 Jun 2027 05:54:30.270            20.827          8736.219
       223   10 Jun 2027 05:55:55.225   10 Jun 2027 05:56:02.941             7.716          2654.844
       224   10 Jun 2027 07:14:47.910   10 Jun 2027 07:15:11.230            23.320         10538.063
       225   10 Jun 2027 07:15:31.813   10 Jun 2027 07:15:35.103             3.290           555.500
       226   10 Jun 2027 07:15:57.625   10 Jun 2027 07:15:57.625             0.000             0.000
       227   10 Jun 2027 07:16:48.287   10 Jun 2027 07:16:53.857             5.570          2106.906
       228   10 Jun 2027 07:27:09.856   10 Jun 2027 07:27:19.412             9.556          4618.625
       229   10 Jun 2027 08:48:44.425   10 Jun 2027 08:49:00.843            16.418          6962.719
       230   10 Jun 2027 08:50:52.594   10 Jun 2027 08:50:57.341             4.747          2373.500
       231   10 Jun 2027 08:51:34.990   10 Jun 2027 08:51:43.206             8.216          1191.657
       232   10 Jun 2027 08:52:35.346   10 Jun 2027 08:52:35.346             0.000             0.000
       233   10 Jun 2027 08:53:41.522   10 Jun 2027 08:53:51.504             9.982          3661.687
       234   10 Jun 2027 08:54:01.709   10 Jun 2027 08:54:02.875             1.166           318.906
       235   10 Jun 2027 10:24:33.959   10 Jun 2027 10:24:33.959             0.000             0.000
       236   10 Jun 2027 10:25:47.930   10 Jun 2027 10:25:55.512             7.582          3791.000
       237   10 Jun 2027 10:32:35.457   10 Jun 2027 10:33:00.297            24.840         12420.000
       238   11 Jun 2027 04:24:24.345   11 Jun 2027 04:24:36.733            12.388          6194.000
       239   11 Jun 2027 04:24:47.317   11 Jun 2027 04:25:47.748            60.431         30215.500
       240   11 Jun 2027 04:25:55.890   11 Jun 2027 04:26:24.010            28.120         14060.000
       241   11 Jun 2027 04:26:33.184   11 Jun 2027 04:27:57.432            84.248         42124.000
       242   11 Jun 2027 04:28:04.740   11 Jun 2027 04:29:08.436            63.696         31848.000
       243   11 Jun 2027 04:29:23.947   11 Jun 2027 04:29:26.239             2.292          1146.000
       244   11 Jun 2027 06:02:55.321   11 Jun 2027 06:04:22.034            86.713         42262.124
       245   11 Jun 2027 06:05:03.039   11 Jun 2027 06:05:07.557             4.518          1281.406
       246   11 Jun 2027 06:06:14.510   11 Jun 2027 06:06:19.571             5.061          1854.000
       247   11 Jun 2027 06:07:18.227   11 Jun 2027 06:07:21.540             3.313          1641.844
       248   11 Jun 2027 07:26:43.796   11 Jun 2027 07:27:02.661            18.865          8923.563
       249   11 Jun 2027 09:02:43.577   11 Jun 2027 09:03:00.656            17.079          8539.500
       250   11 Jun 2027 09:03:26.811   11 Jun 2027 09:03:36.468             9.657          3514.625
       251   11 Jun 2027 09:04:23.064   11 Jun 2027 09:04:26.142             3.078          1456.125
       252   11 Jun 2027 09:05:24.463   11 Jun 2027 09:05:29.568             5.105           620.844
       253   11 Jun 2027 10:36:31.263   11 Jun 2027 10:36:40.361             9.098          4047.875
       254   11 Jun 2027 10:37:24.305   11 Jun 2027 10:37:24.694             0.389           116.031
       255   11 Jun 2027 10:38:35.958   11 Jun 2027 10:38:37.188             1.230           584.688
       256   11 Jun 2027 10:39:09.045   11 Jun 2027 10:39:16.595             7.550           995.531
       257   11 Jun 2027 10:40:10.821   11 Jun 2027 10:40:12.725             1.904           952.000
       258   11 Jun 2027 10:44:15.553   11 Jun 2027 10:44:34.955            19.402          8011.469
       259   12 Jun 2027 03:00:17.564   12 Jun 2027 03:00:45.961            28.397         14198.500
       260   12 Jun 2027 03:01:22.416   12 Jun 2027 03:01:46.598            24.182         12091.000
       261   12 Jun 2027 03:02:26.281   12 Jun 2027 03:02:41.714            15.433          7716.500
       262   12 Jun 2027 03:04:03.668   12 Jun 2027 03:04:47.267            43.599         21799.500
       263   12 Jun 2027 03:06:10.789   12 Jun 2027 03:06:13.053             2.264          1132.000
       264   12 Jun 2027 04:36:57.419   12 Jun 2027 04:37:24.088            26.669         13334.500
       265   12 Jun 2027 04:37:35.114   12 Jun 2027 04:39:44.929           129.815         64907.500
       266   12 Jun 2027 04:40:15.716   12 Jun 2027 04:40:17.651             1.935           967.500
       267   12 Jun 2027 04:40:18.550   12 Jun 2027 04:40:19.605             1.055           527.500
       268   12 Jun 2027 04:41:19.037   12 Jun 2027 04:41:19.700             0.663           331.500
       269   12 Jun 2027 04:42:48.322   12 Jun 2027 04:43:06.898            18.576          9288.000
       270   12 Jun 2027 06:15:25.902   12 Jun 2027 06:15:54.974            29.072         14536.000
       271   12 Jun 2027 06:16:19.957   12 Jun 2027 06:17:12.501            52.544         24563.812
       272   12 Jun 2027 06:18:14.907   12 Jun 2027 06:18:14.907             0.000             0.000
       273   12 Jun 2027 06:18:34.719   12 Jun 2027 06:18:40.826             6.107          2057.750
       274   12 Jun 2027 07:38:36.083   12 Jun 2027 07:39:02.487            26.404          9673.844
       275   12 Jun 2027 07:40:30.288   12 Jun 2027 07:40:36.481             6.193          2743.781
       276   12 Jun 2027 07:41:03.949   12 Jun 2027 07:41:08.483             4.534           385.094
       277   12 Jun 2027 09:14:57.511   12 Jun 2027 09:15:23.772            26.261          9587.125
       278   12 Jun 2027 09:16:14.893   12 Jun 2027 09:16:18.875             3.982          1314.281
       279   12 Jun 2027 09:16:59.237   12 Jun 2027 09:17:00.758             1.521           718.156
       280   12 Jun 2027 09:17:26.988   12 Jun 2027 09:17:33.537             6.549           819.688
       281   12 Jun 2027 10:47:16.372   12 Jun 2027 10:47:28.553            12.181          5017.594
       282   12 Jun 2027 10:49:21.158   12 Jun 2027 10:49:28.142             6.984          1876.125
       283   12 Jun 2027 10:50:36.372   12 Jun 2027 10:50:39.931             3.559           800.250
       284   12 Jun 2027 10:53:16.130   12 Jun 2027 10:53:27.750            11.620          4526.656
       285   12 Jun 2027 10:55:40.480   12 Jun 2027 10:55:44.401             3.921          1960.500
       286   12 Jun 2027 10:56:59.826   12 Jun 2027 10:57:02.314             2.488          1244.000
       287   13 Jun 2027 03:10:50.599   13 Jun 2027 03:13:53.575           182.976         91488.000
       288   13 Jun 2027 03:14:32.991   13 Jun 2027 03:14:32.991             0.000             0.000
       289   13 Jun 2027 03:15:58.135   13 Jun 2027 03:15:58.135             0.000             0.000
       290   13 Jun 2027 03:16:07.887   13 Jun 2027 03:16:15.613             7.726          3863.000
       291   13 Jun 2027 03:16:35.850   13 Jun 2027 03:16:52.417            16.567          8283.500
       292   13 Jun 2027 03:17:50.033   13 Jun 2027 03:17:50.458             0.425           212.500
       293   13 Jun 2027 04:49:03.659   13 Jun 2027 04:50:05.342            61.683         30841.500
       294   13 Jun 2027 04:50:11.430   13 Jun 2027 04:51:23.564            72.134         36067.000
       295   13 Jun 2027 04:52:11.577   13 Jun 2027 04:52:19.627             8.050          3660.781
       296   13 Jun 2027 04:53:12.104   13 Jun 2027 04:53:19.815             7.711          1639.906
       297   13 Jun 2027 04:53:51.434   13 Jun 2027 04:53:54.443             3.009           840.188
       298   13 Jun 2027 06:28:07.090   13 Jun 2027 06:28:28.688            21.598         10799.000
       299   13 Jun 2027 06:29:04.919   13 Jun 2027 06:29:12.665             7.746          1335.781
       300   13 Jun 2027 06:30:04.956   13 Jun 2027 06:30:04.956             0.000             0.000
       301   13 Jun 2027 06:30:17.545   13 Jun 2027 06:30:21.136             3.591          1205.875
       302   13 Jun 2027 06:31:02.352   13 Jun 2027 06:31:05.816             3.464           959.531
       303   13 Jun 2027 07:50:39.140   13 Jun 2027 07:50:56.737            17.597          7821.781
       304   13 Jun 2027 07:51:40.962   13 Jun 2027 07:51:42.789             1.827           874.375
       305   13 Jun 2027 07:52:17.752   13 Jun 2027 07:52:20.251             2.499          1092.594
       306   13 Jun 2027 07:53:15.134   13 Jun 2027 07:53:17.183             2.049          1024.500
       307   13 Jun 2027 09:27:04.580   13 Jun 2027 09:27:20.397            15.817          7292.094
       308   13 Jun 2027 09:28:56.763   13 Jun 2027 09:29:01.600             4.837          2418.500
       309   13 Jun 2027 09:29:29.261   13 Jun 2027 09:29:29.261             0.000             0.000
       310   13 Jun 2027 11:03:14.018   13 Jun 2027 11:03:30.844            16.826          8413.000
       311   13 Jun 2027 11:05:14.289   13 Jun 2027 11:05:31.769            17.480          8629.187
       312   13 Jun 2027 11:07:39.554   13 Jun 2027 11:07:39.554             0.000             0.000
       313   13 Jun 2027 11:08:15.235   13 Jun 2027 11:08:25.634            10.399          4564.688
       314   13 Jun 2027 11:08:54.194   13 Jun 2027 11:08:57.775             3.581           864.875
