uniorb/output/strategy_2/Camera/Camera_KinoSat_110408.txt

KinoSat_110408
-------------------------
    Access    *     Start Time (UTCG)     *     Stop Time (UTCG)  *   Duration (s) *   Data (Mbytes)
         1   01 Jun 2027 03:20:57.963   01 Jun 2027 03:20:59.677             1.714           857.000
         2   01 Jun 2027 03:21:24.768   01 Jun 2027 03:21:28.767             3.999          1999.500
         3   01 Jun 2027 03:22:01.289   01 Jun 2027 03:22:10.616             9.327          4663.500
         4   01 Jun 2027 03:23:25.049   01 Jun 2027 03:23:37.882            12.833          6416.500
         5   01 Jun 2027 03:24:29.740   01 Jun 2027 03:24:34.543             4.803          2401.500
         6   01 Jun 2027 03:24:54.235   01 Jun 2027 03:24:58.820             4.585          2292.500
         7   01 Jun 2027 03:25:36.927   01 Jun 2027 03:25:39.383             2.456          1228.000
         8   01 Jun 2027 03:26:04.584   01 Jun 2027 03:26:06.802             2.218          1109.000
         9   01 Jun 2027 03:26:30.673   01 Jun 2027 03:26:31.780             1.107           553.500
        10   01 Jun 2027 03:26:57.135   01 Jun 2027 03:26:58.066             0.931           465.500
        11   01 Jun 2027 03:27:01.975   01 Jun 2027 03:27:05.393             3.418          1709.000
        12   01 Jun 2027 03:27:27.481   01 Jun 2027 03:27:38.524            11.043          5521.500
        13   01 Jun 2027 03:28:22.194   01 Jun 2027 03:28:29.002             6.808          3404.000
        14   01 Jun 2027 03:29:21.956   01 Jun 2027 03:29:24.127             2.171          1085.500
        15   01 Jun 2027 03:29:33.412   01 Jun 2027 03:29:35.371             1.959           979.500
        16   01 Jun 2027 03:29:47.959   01 Jun 2027 03:29:48.046             0.087            43.500
        17   01 Jun 2027 03:29:51.274   01 Jun 2027 03:30:05.910            14.636          7318.000
        18   01 Jun 2027 04:58:52.355   01 Jun 2027 04:58:53.307             0.952           476.000
        19   01 Jun 2027 04:59:03.558   01 Jun 2027 04:59:13.611            10.053          5026.500
        20   01 Jun 2027 04:59:24.190   01 Jun 2027 04:59:30.560             6.370          3185.000
        21   01 Jun 2027 05:00:51.928   01 Jun 2027 05:01:17.489            25.561         12780.500
        22   01 Jun 2027 05:03:54.219   01 Jun 2027 05:03:57.151             2.932          1466.000
        23   01 Jun 2027 05:04:41.894   01 Jun 2027 05:04:46.520             4.626          2313.000
        24   01 Jun 2027 05:05:39.587   01 Jun 2027 05:05:44.399             4.812          2406.000
        25   01 Jun 2027 06:35:36.482   01 Jun 2027 06:35:40.222             3.740          1870.000
        26   01 Jun 2027 06:35:53.163   01 Jun 2027 06:35:58.493             5.330          2665.000
        27   01 Jun 2027 06:36:28.914   01 Jun 2027 06:36:39.063            10.149          5074.500
        28   01 Jun 2027 06:37:41.152   01 Jun 2027 06:38:02.701            21.549         10774.500
        29   01 Jun 2027 06:39:46.042   01 Jun 2027 06:39:49.941             3.899          1949.500
        30   01 Jun 2027 06:40:30.696   01 Jun 2027 06:40:32.863             2.167          1083.500
        31   01 Jun 2027 06:41:23.821   01 Jun 2027 06:41:35.902            12.081          6040.500
        32   01 Jun 2027 08:13:30.004   01 Jun 2027 08:13:38.823             8.819          4409.500
        33   01 Jun 2027 08:14:15.739   01 Jun 2027 08:14:30.392            14.653          7326.500
        34   01 Jun 2027 08:15:31.587   01 Jun 2027 08:15:37.090             5.503          2751.500
        35   01 Jun 2027 08:16:16.721   01 Jun 2027 08:16:16.779             0.058            29.000
        36   01 Jun 2027 08:16:22.947   01 Jun 2027 08:16:23.157             0.210           105.000
        37   01 Jun 2027 08:16:24.402   01 Jun 2027 08:16:25.637             1.235           617.500
        38   01 Jun 2027 08:16:52.452   01 Jun 2027 08:16:57.749             5.297          2648.500
        39   01 Jun 2027 08:17:35.384   01 Jun 2027 08:17:36.475             1.091           545.500
        40   01 Jun 2027 09:49:27.836   01 Jun 2027 09:49:41.449            13.613          6806.500
        41   01 Jun 2027 09:51:30.249   01 Jun 2027 09:51:55.303            25.054         12527.000
        42   02 Jun 2027 03:33:50.967   02 Jun 2027 03:34:03.316            12.349          6174.500
        43   02 Jun 2027 03:34:32.236   02 Jun 2027 03:34:32.236             0.000             0.000
        44   02 Jun 2027 03:35:06.281   02 Jun 2027 03:35:17.927            11.646          5823.000
        45   02 Jun 2027 03:36:08.687   02 Jun 2027 03:36:10.296             1.609           804.500
        46   02 Jun 2027 03:36:35.953   02 Jun 2027 03:36:43.052             7.099          3549.500
        47   02 Jun 2027 03:37:16.498   02 Jun 2027 03:37:27.355            10.857          5428.500
        48   02 Jun 2027 03:38:11.643   02 Jun 2027 03:38:17.846             6.203          3101.500
        49   02 Jun 2027 03:38:39.034   02 Jun 2027 03:38:53.421            14.387          7193.500
        50   02 Jun 2027 03:40:06.097   02 Jun 2027 03:40:12.299             6.202          3101.000
        51   02 Jun 2027 03:40:49.518   02 Jun 2027 03:40:51.662             2.144          1072.000
        52   02 Jun 2027 03:41:11.127   02 Jun 2027 03:41:13.709             2.582          1291.000
        53   02 Jun 2027 03:41:57.293   02 Jun 2027 03:42:02.808             5.515          2757.500
        54   02 Jun 2027 03:42:21.047   02 Jun 2027 03:42:21.540             0.493           246.500
        55   02 Jun 2027 05:11:00.815   02 Jun 2027 05:11:03.549             2.734          1367.000
        56   02 Jun 2027 05:11:21.907   02 Jun 2027 05:11:34.950            13.043          6521.500
        57   02 Jun 2027 05:12:34.248   02 Jun 2027 05:12:40.253             6.005          3002.500
        58   02 Jun 2027 05:13:22.958   02 Jun 2027 05:13:31.001             8.043          4021.500
        59   02 Jun 2027 05:14:28.122   02 Jun 2027 05:14:31.610             3.488          1744.000
        60   02 Jun 2027 05:14:56.243   02 Jun 2027 05:14:56.637             0.394           197.000
        61   02 Jun 2027 05:15:23.102   02 Jun 2027 05:15:28.566             5.464          2732.000
        62   02 Jun 2027 05:15:56.835   02 Jun 2027 05:15:57.718             0.883           441.500
        63   02 Jun 2027 05:16:14.763   02 Jun 2027 05:16:27.727            12.964          6482.000
        64   02 Jun 2027 05:17:10.182   02 Jun 2027 05:17:19.055             8.873          4436.500
        65   02 Jun 2027 06:48:15.143   02 Jun 2027 06:48:15.729             0.586           293.000
        66   02 Jun 2027 06:49:27.007   02 Jun 2027 06:49:32.431             5.424          2712.000
        67   02 Jun 2027 06:49:41.218   02 Jun 2027 06:49:50.276             9.058          4529.000
        68   02 Jun 2027 06:51:03.412   02 Jun 2027 06:51:04.534             1.122           561.000
        69   02 Jun 2027 06:51:26.430   02 Jun 2027 06:51:29.089             2.659          1329.500
        70   02 Jun 2027 06:51:48.141   02 Jun 2027 06:51:48.143             0.002             1.000
        71   02 Jun 2027 06:51:52.952   02 Jun 2027 06:51:54.605             1.653           826.500
        72   02 Jun 2027 06:52:21.568   02 Jun 2027 06:52:29.156             7.588          3794.000
        73   02 Jun 2027 06:53:18.014   02 Jun 2027 06:53:26.279             8.265          4132.500
        74   02 Jun 2027 08:24:55.955   02 Jun 2027 08:24:58.612             2.657          1328.500
        75   02 Jun 2027 08:25:12.569   02 Jun 2027 08:25:12.746             0.177            88.500
        76   02 Jun 2027 08:25:29.216   02 Jun 2027 08:25:36.515             7.299          3649.500
        77   02 Jun 2027 08:26:17.628   02 Jun 2027 08:26:39.793            22.165         11082.500
        78   02 Jun 2027 08:29:20.997   02 Jun 2027 08:29:21.364             0.367           183.500
        79   02 Jun 2027 08:29:25.170   02 Jun 2027 08:29:30.364             5.194          2597.000
        80   02 Jun 2027 10:00:08.526   02 Jun 2027 10:00:19.919            11.393          5696.500
        81   02 Jun 2027 10:01:54.056   02 Jun 2027 10:01:57.818             3.762          1881.000
        82   02 Jun 2027 10:03:13.615   02 Jun 2027 10:03:15.190             1.575           787.500
        83   02 Jun 2027 10:03:55.958   02 Jun 2027 10:04:18.373            22.415         11207.500
        84   02 Jun 2027 10:04:32.505   02 Jun 2027 10:04:50.264            17.759          8879.500
        85   03 Jun 2027 03:46:17.242   03 Jun 2027 03:46:18.901             1.659           829.500
        86   03 Jun 2027 03:46:46.168   03 Jun 2027 03:46:50.857             4.689          2344.500
        87   03 Jun 2027 03:46:55.976   03 Jun 2027 03:46:58.041             2.065          1032.500
        88   03 Jun 2027 03:47:20.065   03 Jun 2027 03:47:25.243             5.178          2589.000
        89   03 Jun 2027 03:48:09.474   03 Jun 2027 03:48:12.048             2.574          1287.000
        90   03 Jun 2027 03:48:42.146   03 Jun 2027 03:48:55.888            13.742          6871.000
        91   03 Jun 2027 03:49:56.315   03 Jun 2027 03:49:59.493             3.178          1589.000
        92   03 Jun 2027 03:50:24.576   03 Jun 2027 03:50:27.792             3.216          1608.000
        93   03 Jun 2027 03:50:57.621   03 Jun 2027 03:50:58.651             1.030           515.000
        94   03 Jun 2027 03:51:07.518   03 Jun 2027 03:51:08.429             0.911           455.500
        95   03 Jun 2027 03:52:43.111   03 Jun 2027 03:52:44.068             0.957           478.500
        96   03 Jun 2027 03:52:55.102   03 Jun 2027 03:52:59.863             4.761          2380.500
        97   03 Jun 2027 03:53:11.636   03 Jun 2027 03:53:11.636             0.000             0.000
        98   03 Jun 2027 03:53:35.864   03 Jun 2027 03:53:44.807             8.943          4471.500
        99   03 Jun 2027 05:23:25.532   03 Jun 2027 05:23:30.053             4.521          2260.500
       100   03 Jun 2027 05:23:57.066   03 Jun 2027 05:24:17.707            20.641         10320.500
       101   03 Jun 2027 05:25:21.698   03 Jun 2027 05:25:22.760             1.062           531.000
       102   03 Jun 2027 05:25:42.637   03 Jun 2027 05:25:44.440             1.803           901.500
       103   03 Jun 2027 05:26:20.064   03 Jun 2027 05:26:30.546            10.482          5241.000
       104   03 Jun 2027 05:28:16.050   03 Jun 2027 05:28:16.259             0.209           104.500
       105   03 Jun 2027 05:28:38.506   03 Jun 2027 05:28:41.147             2.641          1320.500
       106   03 Jun 2027 05:29:06.666   03 Jun 2027 05:29:13.566             6.900          3450.000
       107   03 Jun 2027 05:29:21.121   03 Jun 2027 05:29:23.317             2.196          1098.000
       108   03 Jun 2027 07:00:23.548   03 Jun 2027 07:00:23.584             0.036            18.000
       109   03 Jun 2027 07:00:43.457   03 Jun 2027 07:01:14.167            30.710         15355.000
       110   03 Jun 2027 07:03:26.585   03 Jun 2027 07:03:27.768             1.183           591.500
       111   03 Jun 2027 07:03:44.425   03 Jun 2027 07:03:47.770             3.345          1672.500
       112   03 Jun 2027 07:04:07.114   03 Jun 2027 07:04:11.045             3.931          1965.500
       113   03 Jun 2027 07:05:09.448   03 Jun 2027 07:05:09.984             0.536           268.000
       114   03 Jun 2027 08:37:10.699   03 Jun 2027 08:37:17.858             7.159          3579.500
       115   03 Jun 2027 08:38:36.440   03 Jun 2027 08:38:48.027            11.587          5793.500
       116   03 Jun 2027 08:40:09.455   03 Jun 2027 08:40:12.551             3.096          1548.000
       117   03 Jun 2027 08:40:21.637   03 Jun 2027 08:40:21.637             0.000             0.000
       118   03 Jun 2027 08:41:08.141   03 Jun 2027 08:41:22.374            14.233          7116.500
       119   03 Jun 2027 10:15:21.181   03 Jun 2027 10:15:25.390             4.209          2104.500
       120   03 Jun 2027 10:16:15.637   03 Jun 2027 10:16:21.741             6.104          3052.000
       121   04 Jun 2027 03:59:30.607   04 Jun 2027 03:59:35.159             4.552          2276.000
       122   04 Jun 2027 04:01:16.283   04 Jun 2027 04:01:18.538             2.255          1127.500
       123   04 Jun 2027 04:01:37.101   04 Jun 2027 04:01:45.417             8.316          4158.000
       124   04 Jun 2027 04:02:42.699   04 Jun 2027 04:02:46.988             4.289          2144.500
       125   04 Jun 2027 04:03:56.445   04 Jun 2027 04:04:11.793            15.348          7674.000
       126   04 Jun 2027 04:05:29.599   04 Jun 2027 04:05:29.715             0.116            58.000
       127   04 Jun 2027 04:05:32.480   04 Jun 2027 04:05:36.990             4.510          2255.000
       128   04 Jun 2027 04:06:17.658   04 Jun 2027 04:06:19.781             2.123          1061.500
       129   04 Jun 2027 05:35:51.112   04 Jun 2027 05:36:12.229            21.117         10558.500
       130   04 Jun 2027 05:37:50.557   04 Jun 2027 05:37:51.697             1.140           570.000
       131   04 Jun 2027 05:38:23.800   04 Jun 2027 05:38:25.983             2.183          1091.500
       132   04 Jun 2027 05:38:51.838   04 Jun 2027 05:38:54.096             2.258          1129.000
       133   04 Jun 2027 05:39:07.603   04 Jun 2027 05:39:08.189             0.586           293.000
       134   04 Jun 2027 05:39:36.743   04 Jun 2027 05:39:37.460             0.717           358.500
       135   04 Jun 2027 05:40:20.613   04 Jun 2027 05:40:24.116             3.503          1751.500
       136   04 Jun 2027 05:41:11.067   04 Jun 2027 05:41:11.117             0.050            25.000
       137   04 Jun 2027 05:41:12.052   04 Jun 2027 05:41:14.073             2.021          1010.500
       138   04 Jun 2027 05:41:41.380   04 Jun 2027 05:41:45.532             4.152          2076.000
       139   04 Jun 2027 07:13:25.142   04 Jun 2027 07:13:26.704             1.562           781.000
       140   04 Jun 2027 07:13:54.461   04 Jun 2027 07:14:13.092            18.631          9315.500
       141   04 Jun 2027 07:15:29.569   04 Jun 2027 07:15:31.809             2.240          1120.000
       142   04 Jun 2027 07:15:46.563   04 Jun 2027 07:15:47.832             1.269           634.500
       143   04 Jun 2027 07:16:05.472   04 Jun 2027 07:16:18.477            13.005          6502.500
       144   04 Jun 2027 07:16:29.444   04 Jun 2027 07:16:35.646             6.202          3101.000
       145   04 Jun 2027 08:49:28.531   04 Jun 2027 08:49:32.292             3.761          1880.500
       146   04 Jun 2027 08:49:50.723   04 Jun 2027 08:49:56.307             5.584          2792.000
       147   04 Jun 2027 08:50:21.715   04 Jun 2027 08:50:27.018             5.303          2651.500
       148   04 Jun 2027 08:50:54.702   04 Jun 2027 08:50:55.348             0.646           323.000
       149   04 Jun 2027 08:52:09.894   04 Jun 2027 08:52:10.357             0.463           231.500
       150   04 Jun 2027 08:52:48.661   04 Jun 2027 08:52:54.732             6.071          3035.500
       151   04 Jun 2027 08:53:28.002   04 Jun 2027 08:53:30.597             2.595          1297.500
       152   05 Jun 2027 04:11:42.539   05 Jun 2027 04:11:44.400             1.861           930.500
       153   05 Jun 2027 04:11:57.146   05 Jun 2027 04:11:57.496             0.350           175.000
       154   05 Jun 2027 04:12:02.479   05 Jun 2027 04:12:12.187             9.708          4854.000
       155   05 Jun 2027 04:12:53.662   05 Jun 2027 04:12:59.984             6.322          3161.000
       156   05 Jun 2027 04:13:04.060   05 Jun 2027 04:13:12.850             8.790          4395.000
       157   05 Jun 2027 04:13:39.790   05 Jun 2027 04:13:40.232             0.442           221.000
       158   05 Jun 2027 04:13:48.656   05 Jun 2027 04:13:49.291             0.635           317.500
       159   05 Jun 2027 04:14:23.436   05 Jun 2027 04:14:35.844            12.408          6204.000
       160   05 Jun 2027 04:15:25.740   05 Jun 2027 04:15:32.134             6.394          3197.000
       161   05 Jun 2027 04:16:36.024   05 Jun 2027 04:16:38.416             2.392          1196.000
       162   05 Jun 2027 04:16:43.348   05 Jun 2027 04:16:45.071             1.723           861.500
       163   05 Jun 2027 04:16:51.155   05 Jun 2027 04:16:51.634             0.479           239.500
       164   05 Jun 2027 04:17:03.629   05 Jun 2027 04:17:06.512             2.883          1441.500
       165   05 Jun 2027 04:17:56.206   05 Jun 2027 04:17:56.856             0.650           325.000
       166   05 Jun 2027 04:18:16.762   05 Jun 2027 04:18:18.253             1.491           745.500
       167   05 Jun 2027 05:48:02.138   05 Jun 2027 05:48:29.433            27.295         13647.500
       168   05 Jun 2027 05:50:51.311   05 Jun 2027 05:51:01.454            10.143          5071.500
       169   05 Jun 2027 05:52:35.946   05 Jun 2027 05:52:58.487            22.541         11270.500
       170   05 Jun 2027 07:25:29.011   05 Jun 2027 07:25:36.761             7.750          3875.000
       171   05 Jun 2027 07:26:39.885   05 Jun 2027 07:26:42.925             3.040          1520.000
       172   05 Jun 2027 07:27:58.288   05 Jun 2027 07:28:01.125             2.837          1418.500
       173   05 Jun 2027 07:28:19.614   05 Jun 2027 07:28:38.149            18.535          9267.500
       174   05 Jun 2027 09:01:32.573   05 Jun 2027 09:01:45.188            12.615          6307.500
       175   05 Jun 2027 09:02:40.402   05 Jun 2027 09:02:45.890             5.488          2744.000
       176   05 Jun 2027 09:03:19.065   05 Jun 2027 09:03:20.468             1.403           701.500
       177   05 Jun 2027 09:03:32.281   05 Jun 2027 09:03:37.140             4.859          2429.500
       178   05 Jun 2027 09:04:05.010   05 Jun 2027 09:04:09.619             4.609          2304.500
       179   05 Jun 2027 09:04:38.696   05 Jun 2027 09:04:47.598             8.902          4451.000
       180   05 Jun 2027 09:05:12.372   05 Jun 2027 09:05:18.383             6.011          3005.500
       181   05 Jun 2027 09:06:09.132   05 Jun 2027 09:06:09.504             0.372           186.000
       182   06 Jun 2027 04:23:11.685   06 Jun 2027 04:23:40.008            28.323         14161.500
       183   06 Jun 2027 04:25:00.359   06 Jun 2027 04:25:09.748             9.389          4694.500
       184   06 Jun 2027 04:27:01.311   06 Jun 2027 04:27:06.751             5.440          2720.000
       185   06 Jun 2027 04:27:42.476   06 Jun 2027 04:28:01.763            19.287          9643.500
       186   06 Jun 2027 04:29:47.942   06 Jun 2027 04:29:50.413             2.471          1235.500
       187   06 Jun 2027 05:59:42.046   06 Jun 2027 05:59:44.559             2.513          1256.500
       188   06 Jun 2027 06:00:50.543   06 Jun 2027 06:01:10.161            19.618          9809.000
       189   06 Jun 2027 06:02:37.003   06 Jun 2027 06:02:47.274            10.271          5135.500
       190   06 Jun 2027 06:03:43.378   06 Jun 2027 06:03:47.144             3.766          1883.000
       191   06 Jun 2027 06:04:04.251   06 Jun 2027 06:04:07.043             2.792          1396.000
       192   06 Jun 2027 06:04:20.102   06 Jun 2027 06:04:28.579             8.477          4238.500
       193   06 Jun 2027 06:04:45.808   06 Jun 2027 06:04:53.876             8.068          4034.000
       194   06 Jun 2027 06:05:04.465   06 Jun 2027 06:05:07.915             3.450          1725.000
       195   06 Jun 2027 07:38:00.073   06 Jun 2027 07:38:01.566             1.493           746.500
       196   06 Jun 2027 07:38:17.868   06 Jun 2027 07:38:24.451             6.583          3291.500
       197   06 Jun 2027 07:39:51.160   06 Jun 2027 07:39:54.939             3.779          1889.500
       198   06 Jun 2027 07:40:20.681   06 Jun 2027 07:40:24.954             4.273          2136.500
       199   06 Jun 2027 07:40:40.123   06 Jun 2027 07:40:41.954             1.831           915.500
       200   06 Jun 2027 07:40:48.209   06 Jun 2027 07:41:06.974            18.765          9382.500
       201   06 Jun 2027 09:13:25.457   06 Jun 2027 09:13:39.717            14.260          7130.000
       202   06 Jun 2027 09:14:37.855   06 Jun 2027 09:14:39.289             1.434           717.000
       203   06 Jun 2027 09:15:04.304   06 Jun 2027 09:15:07.848             3.544          1772.000
       204   06 Jun 2027 09:16:08.519   06 Jun 2027 09:16:09.646             1.127           563.500
       205   06 Jun 2027 09:16:45.742   06 Jun 2027 09:16:48.234             2.492          1246.000
       206   06 Jun 2027 09:17:49.181   06 Jun 2027 09:17:50.918             1.737           868.500
       207   06 Jun 2027 09:17:58.742   06 Jun 2027 09:18:01.836             3.094          1547.000
       208   06 Jun 2027 09:18:15.881   06 Jun 2027 09:18:20.336             4.455          2227.500
       209   07 Jun 2027 03:00:04.086   07 Jun 2027 03:00:08.115             4.029          2014.500
       210   07 Jun 2027 03:00:46.906   07 Jun 2027 03:00:48.450             1.544           772.000
       211   07 Jun 2027 03:01:13.550   07 Jun 2027 03:01:25.739            12.189          6094.500
       212   07 Jun 2027 03:02:19.497   07 Jun 2027 03:02:24.672             5.175          2587.500
       213   07 Jun 2027 03:02:49.172   07 Jun 2027 03:02:55.188             6.016          3008.000
       214   07 Jun 2027 03:03:31.088   07 Jun 2027 03:03:42.639            11.551          5775.500
       215   07 Jun 2027 03:04:07.011   07 Jun 2027 03:04:19.252            12.241          6120.500
       216   07 Jun 2027 04:34:55.797   07 Jun 2027 04:35:16.038            20.241         10120.500
       217   07 Jun 2027 04:35:44.282   07 Jun 2027 04:35:50.338             6.056          3028.000
       218   07 Jun 2027 04:36:31.364   07 Jun 2027 04:36:48.776            17.412          8706.000
       219   07 Jun 2027 04:38:49.750   07 Jun 2027 04:38:51.558             1.808           904.000
       220   07 Jun 2027 04:39:11.072   07 Jun 2027 04:39:14.607             3.535          1767.500
       221   07 Jun 2027 04:40:20.809   07 Jun 2027 04:40:23.478             2.669          1334.500
       222   07 Jun 2027 04:41:01.227   07 Jun 2027 04:41:03.279             2.052          1026.000
       223   07 Jun 2027 04:41:19.167   07 Jun 2027 04:41:33.942            14.775          7387.500
       224   07 Jun 2027 06:12:01.862   07 Jun 2027 06:12:08.652             6.790          3395.000
       225   07 Jun 2027 06:13:00.824   07 Jun 2027 06:13:01.898             1.074           537.000
       226   07 Jun 2027 06:13:22.638   07 Jun 2027 06:13:30.504             7.866          3933.000
       227   07 Jun 2027 06:14:23.703   07 Jun 2027 06:14:30.625             6.922          3461.000
       228   07 Jun 2027 06:14:59.336   07 Jun 2027 06:15:04.364             5.028          2514.000
       229   07 Jun 2027 06:15:51.343   07 Jun 2027 06:15:53.172             1.829           914.500
       230   07 Jun 2027 06:16:24.020   07 Jun 2027 06:16:32.795             8.775          4387.500
       231   07 Jun 2027 06:17:17.417   07 Jun 2027 06:17:18.810             1.393           696.500
       232   07 Jun 2027 06:17:51.743   07 Jun 2027 06:18:05.670            13.927          6963.500
       233   07 Jun 2027 07:49:57.373   07 Jun 2027 07:50:03.903             6.530          3265.000
       234   07 Jun 2027 07:51:27.452   07 Jun 2027 07:51:31.512             4.060          2030.000
       235   07 Jun 2027 07:52:00.960   07 Jun 2027 07:52:10.418             9.458          4729.000
       236   07 Jun 2027 07:53:04.006   07 Jun 2027 07:53:04.137             0.131            65.500
       237   07 Jun 2027 07:53:10.467   07 Jun 2027 07:53:21.114            10.647          5323.500
       238   07 Jun 2027 09:23:02.987   07 Jun 2027 09:23:38.893            35.906         17953.000
       239   07 Jun 2027 09:26:12.116   07 Jun 2027 09:26:15.954             3.838          1919.000
       240   07 Jun 2027 09:26:37.306   07 Jun 2027 09:26:55.395            18.089          9044.500
       241   07 Jun 2027 09:28:09.439   07 Jun 2027 09:28:16.241             6.802          3401.000
       242   07 Jun 2027 09:28:55.961   07 Jun 2027 09:28:56.590             0.629           314.500
       243   07 Jun 2027 09:29:02.385   07 Jun 2027 09:29:06.433             4.048          2024.000
       244   07 Jun 2027 09:30:04.976   07 Jun 2027 09:30:07.589             2.613          1306.500
       245   07 Jun 2027 09:30:25.713   07 Jun 2027 09:30:42.790            17.077          8538.500
       246   08 Jun 2027 03:09:43.343   08 Jun 2027 03:09:46.174             2.831          1415.500
       247   08 Jun 2027 03:10:15.561   08 Jun 2027 03:10:15.823             0.262           131.000
       248   08 Jun 2027 03:10:39.697   08 Jun 2027 03:10:53.163            13.466          6733.000
       249   08 Jun 2027 03:11:16.300   08 Jun 2027 03:11:16.300             0.000             0.000
       250   08 Jun 2027 03:11:49.208   08 Jun 2027 03:12:01.242            12.034          6017.000
       251   08 Jun 2027 03:12:55.007   08 Jun 2027 03:13:04.083             9.076          4538.000
       252   08 Jun 2027 03:14:03.591   08 Jun 2027 03:14:04.399             0.808           404.000
       253   08 Jun 2027 03:14:15.125   08 Jun 2027 03:14:16.256             1.131           565.500
       254   08 Jun 2027 03:14:35.239   08 Jun 2027 03:14:39.408             4.169          2084.500
       255   08 Jun 2027 03:15:03.121   08 Jun 2027 03:15:08.016             4.895          2447.500
       256   08 Jun 2027 03:16:06.686   08 Jun 2027 03:16:07.390             0.704           352.000
       257   08 Jun 2027 03:16:22.008   08 Jun 2027 03:16:22.970             0.962           481.000
       258   08 Jun 2027 03:16:51.214   08 Jun 2027 03:16:58.844             7.630          3815.000
       259   08 Jun 2027 03:17:42.131   08 Jun 2027 03:17:42.454             0.323           161.500
       260   08 Jun 2027 03:17:55.042   08 Jun 2027 03:17:57.646             2.604          1302.000
       261   08 Jun 2027 04:47:13.181   08 Jun 2027 04:47:18.035             4.854          2427.000
       262   08 Jun 2027 04:47:39.441   08 Jun 2027 04:47:44.400             4.959          2479.500
       263   08 Jun 2027 04:48:18.183   08 Jun 2027 04:48:19.771             1.588           794.000
       264   08 Jun 2027 04:48:24.662   08 Jun 2027 04:48:24.662             0.000             0.000
       265   08 Jun 2027 04:48:39.551   08 Jun 2027 04:48:46.647             7.096          3548.000
       266   08 Jun 2027 04:49:21.104   08 Jun 2027 04:49:35.926            14.822          7411.000
       267   08 Jun 2027 04:51:11.719   08 Jun 2027 04:51:13.532             1.813           906.500
       268   08 Jun 2027 04:51:36.693   08 Jun 2027 04:51:55.109            18.416          9208.000
       269   08 Jun 2027 04:53:40.879   08 Jun 2027 04:53:42.651             1.772           886.000
       270   08 Jun 2027 04:53:54.539   08 Jun 2027 04:54:11.766            17.227          8613.500
       271   08 Jun 2027 06:23:57.903   08 Jun 2027 06:24:15.184            17.281          8640.500
       272   08 Jun 2027 06:25:56.764   08 Jun 2027 06:26:29.893            33.129         16564.500
       273   08 Jun 2027 06:29:11.527   08 Jun 2027 06:29:15.660             4.133          2066.500
       274   08 Jun 2027 06:29:17.244   08 Jun 2027 06:29:25.629             8.385          4192.500
       275   08 Jun 2027 06:30:05.768   08 Jun 2027 06:30:10.270             4.502          2251.000
       276   08 Jun 2027 06:30:14.087   08 Jun 2027 06:30:31.321            17.234          8617.000
       277   08 Jun 2027 08:01:56.650   08 Jun 2027 08:01:56.717             0.067            33.500
       278   08 Jun 2027 08:02:15.971   08 Jun 2027 08:02:19.482             3.511          1755.500
       279   08 Jun 2027 08:03:25.069   08 Jun 2027 08:03:27.165             2.096          1048.000
       280   08 Jun 2027 08:04:09.801   08 Jun 2027 08:04:19.228             9.427          4713.500
       281   08 Jun 2027 08:05:20.075   08 Jun 2027 08:05:27.754             7.679          3839.500
       282   08 Jun 2027 09:35:34.161   08 Jun 2027 09:35:36.208             2.047          1023.500
       283   08 Jun 2027 09:35:58.811   08 Jun 2027 09:36:06.545             7.734          3867.000
       284   08 Jun 2027 09:36:11.963   08 Jun 2027 09:36:11.963             0.000             0.000
       285   08 Jun 2027 09:37:05.821   08 Jun 2027 09:37:26.795            20.974         10487.000
       286   08 Jun 2027 09:39:24.489   08 Jun 2027 09:39:27.930             3.441          1720.500
       287   08 Jun 2027 09:40:09.554   08 Jun 2027 09:40:15.505             5.951          2975.500
       288   08 Jun 2027 09:40:40.784   08 Jun 2027 09:40:58.342            17.558          8779.000
       289   08 Jun 2027 09:42:16.184   08 Jun 2027 09:42:18.182             1.998           999.000
       290   09 Jun 2027 03:21:12.412   09 Jun 2027 03:21:14.773             2.361          1180.500
       291   09 Jun 2027 03:21:40.425   09 Jun 2027 03:21:43.286             2.861          1430.500
       292   09 Jun 2027 03:22:17.414   09 Jun 2027 03:22:40.053            22.639         11319.500
       293   09 Jun 2027 03:23:54.884   09 Jun 2027 03:23:57.041             2.157          1078.500
       294   09 Jun 2027 03:24:24.216   09 Jun 2027 03:24:37.788            13.572          6786.000
       295   09 Jun 2027 03:25:59.796   09 Jun 2027 03:26:04.544             4.748          2374.000
       296   09 Jun 2027 03:26:29.536   09 Jun 2027 03:26:37.544             8.008          4004.000
       297   09 Jun 2027 03:27:25.770   09 Jun 2027 03:27:28.386             2.616          1308.000
       298   09 Jun 2027 03:28:06.578   09 Jun 2027 03:28:07.343             0.765           382.500
       299   09 Jun 2027 03:28:24.726   09 Jun 2027 03:28:26.689             1.963           981.500
       300   09 Jun 2027 03:29:36.616   09 Jun 2027 03:29:37.248             0.632           316.000
       301   09 Jun 2027 03:29:49.410   09 Jun 2027 03:29:58.937             9.527          4763.500
       302   09 Jun 2027 04:59:07.076   09 Jun 2027 04:59:08.803             1.727           863.500
       303   09 Jun 2027 04:59:18.321   09 Jun 2027 04:59:28.088             9.767          4883.500
       304   09 Jun 2027 05:00:17.751   09 Jun 2027 05:00:22.704             4.953          2476.500
       305   09 Jun 2027 05:00:38.186   09 Jun 2027 05:00:38.186             0.000             0.000
       306   09 Jun 2027 05:01:06.986   09 Jun 2027 05:01:31.985            24.999         12499.500
       307   09 Jun 2027 05:04:10.683   09 Jun 2027 05:04:11.652             0.969           484.500
       308   09 Jun 2027 05:04:57.435   09 Jun 2027 05:05:04.569             7.134          3567.000
       309   09 Jun 2027 05:05:56.608   09 Jun 2027 05:06:01.153             4.545          2272.500
       310   09 Jun 2027 06:35:51.367   09 Jun 2027 06:35:54.336             2.969          1484.500
       311   09 Jun 2027 06:35:57.815   09 Jun 2027 06:36:09.146            11.331          5665.500
       312   09 Jun 2027 06:37:41.728   09 Jun 2027 06:37:45.616             3.888          1944.000
       313   09 Jun 2027 06:37:54.030   09 Jun 2027 06:37:55.750             1.720           860.000
       314   09 Jun 2027 06:38:29.452   09 Jun 2027 06:38:32.264             2.812          1406.000
       315   09 Jun 2027 06:39:03.988   09 Jun 2027 06:39:13.454             9.466          4733.000
       316   09 Jun 2027 06:40:03.924   09 Jun 2027 06:40:04.758             0.834           417.000
       317   09 Jun 2027 06:40:45.340   09 Jun 2027 06:40:46.936             1.596           798.000
       318   09 Jun 2027 06:41:38.409   09 Jun 2027 06:41:52.837            14.428          7214.000
       319   09 Jun 2027 08:13:44.746   09 Jun 2027 08:13:53.482             8.736          4368.000
       320   09 Jun 2027 08:14:30.405   09 Jun 2027 08:15:04.505            34.100         17050.000
       321   09 Jun 2027 08:17:25.220   09 Jun 2027 08:17:31.886             6.666          3333.000
       322   09 Jun 2027 09:49:42.653   09 Jun 2027 09:49:57.219            14.566          7283.000
       323   09 Jun 2027 09:51:44.959   09 Jun 2027 09:52:09.952            24.993         12496.500
       324   10 Jun 2027 03:34:05.454   10 Jun 2027 03:34:19.447            13.993          6996.500
       325   10 Jun 2027 03:35:21.048   10 Jun 2027 03:35:33.980            12.932          6466.000
       326   10 Jun 2027 03:37:11.421   10 Jun 2027 03:37:12.246             0.825           412.500
       327   10 Jun 2027 03:37:50.561   10 Jun 2027 03:37:56.440             5.879          2939.500
       328   10 Jun 2027 03:38:27.808   10 Jun 2027 03:38:32.831             5.023          2511.500
       329   10 Jun 2027 03:38:55.673   10 Jun 2027 03:39:10.270            14.597          7298.500
       330   10 Jun 2027 03:40:21.178   10 Jun 2027 03:40:27.366             6.188          3094.000
       331   10 Jun 2027 03:41:03.913   10 Jun 2027 03:41:06.384             2.471          1235.500
       332   10 Jun 2027 03:41:26.767   10 Jun 2027 03:41:28.634             1.867           933.500
       333   10 Jun 2027 03:41:43.674   10 Jun 2027 03:41:47.702             4.028          2014.000
       334   10 Jun 2027 03:42:08.028   10 Jun 2027 03:42:19.646            11.618          5809.000
       335   10 Jun 2027 03:42:35.649   10 Jun 2027 03:42:36.209             0.560           280.000
       336   10 Jun 2027 05:11:16.006   10 Jun 2027 05:11:19.315             3.309          1654.500
       337   10 Jun 2027 05:11:53.696   10 Jun 2027 05:12:02.870             9.174          4587.000
       338   10 Jun 2027 05:12:58.650   10 Jun 2027 05:13:10.963            12.313          6156.500
       339   10 Jun 2027 05:14:16.216   10 Jun 2027 05:14:21.100             4.884          2442.000
       340   10 Jun 2027 05:15:19.623   10 Jun 2027 05:15:39.170            19.547          9773.500
       341   10 Jun 2027 05:16:39.628   10 Jun 2027 05:16:42.614             2.986          1493.000
       342   10 Jun 2027 05:17:25.708   10 Jun 2027 05:17:45.423            19.715          9857.500
       343   10 Jun 2027 06:48:30.097   10 Jun 2027 06:48:32.442             2.345          1172.500
       344   10 Jun 2027 06:50:11.149   10 Jun 2027 06:50:16.648             5.499          2749.500
       345   10 Jun 2027 06:51:08.303   10 Jun 2027 06:51:22.044            13.741          6870.500
       346   10 Jun 2027 06:53:10.476   10 Jun 2027 06:53:20.001             9.525          4762.500
       347   10 Jun 2027 06:54:15.261   10 Jun 2027 06:54:21.169             5.908          2954.000
       348   10 Jun 2027 08:25:10.670   10 Jun 2027 08:25:12.163             1.493           746.500
       349   10 Jun 2027 08:25:16.233   10 Jun 2027 08:25:27.833            11.600          5800.000
       350   10 Jun 2027 08:26:18.857   10 Jun 2027 08:26:32.292            13.435          6717.500
       351   10 Jun 2027 08:27:36.625   10 Jun 2027 08:27:37.016             0.391           195.500
       352   10 Jun 2027 08:27:58.977   10 Jun 2027 08:28:08.839             9.862          4931.000
       353   10 Jun 2027 08:28:58.353   10 Jun 2027 08:29:08.468            10.115          5057.500
       354   10 Jun 2027 10:00:23.419   10 Jun 2027 10:00:34.615            11.196          5598.000
       355   10 Jun 2027 10:02:09.067   10 Jun 2027 10:02:13.451             4.384          2192.000
       356   10 Jun 2027 10:03:28.219   10 Jun 2027 10:03:30.494             2.275          1137.500
       357   10 Jun 2027 10:04:10.613   10 Jun 2027 10:04:33.054            22.441         11220.500
       358   10 Jun 2027 10:04:52.675   10 Jun 2027 10:05:04.914            12.239          6119.500
       359   11 Jun 2027 03:46:33.015   11 Jun 2027 03:46:34.280             1.265           632.500
       360   11 Jun 2027 03:47:05.368   11 Jun 2027 03:47:12.718             7.350          3675.000
       361   11 Jun 2027 03:47:53.817   11 Jun 2027 03:48:11.284            17.467          8733.500
       362   11 Jun 2027 03:49:36.667   11 Jun 2027 03:49:42.040             5.373          2686.500
       363   11 Jun 2027 03:50:09.266   11 Jun 2027 03:50:12.154             2.888          1444.000
       364   11 Jun 2027 03:50:41.490   11 Jun 2027 03:50:43.553             2.063          1031.500
       365   11 Jun 2027 03:51:13.112   11 Jun 2027 03:51:13.387             0.275           137.500
       366   11 Jun 2027 03:51:22.112   11 Jun 2027 03:51:23.481             1.369           684.500
       367   11 Jun 2027 03:52:47.162   11 Jun 2027 03:52:50.756             3.594          1797.000
       368   11 Jun 2027 03:53:09.102   11 Jun 2027 03:53:14.847             5.745          2872.500
       369   11 Jun 2027 03:53:50.520   11 Jun 2027 03:53:51.118             0.598           299.000
       370   11 Jun 2027 03:54:05.095   11 Jun 2027 03:54:06.064             0.969           484.500
       371   11 Jun 2027 03:54:18.449   11 Jun 2027 03:54:22.284             3.835          1917.500
       372   11 Jun 2027 03:54:33.325   11 Jun 2027 03:54:34.459             1.134           567.000
       373   11 Jun 2027 05:23:40.173   11 Jun 2027 05:23:43.801             3.628          1814.000
       374   11 Jun 2027 05:24:11.659   11 Jun 2027 05:24:19.239             7.580          3790.000
       375   11 Jun 2027 05:24:52.444   11 Jun 2027 05:25:30.457            38.013         19006.500
       376   11 Jun 2027 05:28:40.432   11 Jun 2027 05:28:46.624             6.192          3096.000
       377   11 Jun 2027 05:29:24.441   11 Jun 2027 05:29:25.319             0.878           439.000
       378   11 Jun 2027 05:29:59.779   11 Jun 2027 05:30:00.640             0.861           430.500
       379   11 Jun 2027 05:30:05.972   11 Jun 2027 05:30:08.414             2.442          1221.000
       380   11 Jun 2027 07:00:38.003   11 Jun 2027 07:00:38.209             0.206           103.000
       381   11 Jun 2027 07:00:58.241   11 Jun 2027 07:01:05.583             7.342          3671.000
       382   11 Jun 2027 07:01:39.145   11 Jun 2027 07:01:44.660             5.515          2757.500
       383   11 Jun 2027 07:02:33.204   11 Jun 2027 07:02:34.724             1.520           760.000
       384   11 Jun 2027 07:02:41.137   11 Jun 2027 07:02:43.662             2.525          1262.500
       385   11 Jun 2027 07:02:55.687   11 Jun 2027 07:03:08.302            12.615          6307.500
       386   11 Jun 2027 07:04:03.523   11 Jun 2027 07:04:04.018             0.495           247.500
       387   11 Jun 2027 07:04:21.914   11 Jun 2027 07:04:26.000             4.086          2043.000
       388   11 Jun 2027 07:05:10.194   11 Jun 2027 07:05:13.046             2.852          1426.000
       389   11 Jun 2027 08:37:25.373   11 Jun 2027 08:37:33.202             7.829          3914.500
       390   11 Jun 2027 08:39:04.057   11 Jun 2027 08:39:09.341             5.284          2642.000
       391   11 Jun 2027 08:40:24.182   11 Jun 2027 08:40:27.179             2.997          1498.500
       392   11 Jun 2027 08:40:36.778   11 Jun 2027 08:40:36.778             0.000             0.000
       393   11 Jun 2027 08:41:23.362   11 Jun 2027 08:41:38.819            15.457          7728.500
       394   11 Jun 2027 10:15:35.746   11 Jun 2027 10:15:39.867             4.121          2060.500
       395   11 Jun 2027 10:16:30.303   11 Jun 2027 10:16:36.333             6.030          3015.000
       396   12 Jun 2027 03:59:45.162   12 Jun 2027 03:59:49.733             4.571          2285.500
       397   12 Jun 2027 04:00:15.149   12 Jun 2027 04:00:16.264             1.115           557.500
       398   12 Jun 2027 04:00:39.783   12 Jun 2027 04:00:58.107            18.324          9162.000
       399   12 Jun 2027 04:02:12.453   12 Jun 2027 04:02:15.007             2.554          1277.000
       400   12 Jun 2027 04:02:36.689   12 Jun 2027 04:02:37.895             1.206           603.000
       401   12 Jun 2027 04:02:50.487   12 Jun 2027 04:02:52.557             2.070          1035.000
       402   12 Jun 2027 04:03:17.599   12 Jun 2027 04:03:24.868             7.269          3634.500
       403   12 Jun 2027 04:03:58.321   12 Jun 2027 04:04:12.058            13.737          6868.500
       404   12 Jun 2027 04:05:07.603   12 Jun 2027 04:05:14.403             6.800          3400.000
       405   12 Jun 2027 04:06:03.568   12 Jun 2027 04:06:08.919             5.351          2675.500
       406   12 Jun 2027 04:06:18.528   12 Jun 2027 04:06:23.507             4.979          2489.500
       407   12 Jun 2027 05:36:05.672   12 Jun 2027 05:36:14.734             9.062          4531.000
       408   12 Jun 2027 05:36:45.291   12 Jun 2027 05:36:59.049            13.758          6879.000
       409   12 Jun 2027 05:38:04.906   12 Jun 2027 05:38:06.349             1.443           721.500
       410   12 Jun 2027 05:38:38.638   12 Jun 2027 05:38:42.358             3.720          1860.000
       411   12 Jun 2027 05:39:07.272   12 Jun 2027 05:39:09.039             1.767           883.500
       412   12 Jun 2027 05:39:22.291   12 Jun 2027 05:39:22.973             0.682           341.000
       413   12 Jun 2027 05:39:51.320   12 Jun 2027 05:39:54.406             3.086          1543.000
       414   12 Jun 2027 05:40:10.809   12 Jun 2027 05:40:14.084             3.275          1637.500
       415   12 Jun 2027 05:40:19.555   12 Jun 2027 05:40:30.806            11.251          5625.500
       416   12 Jun 2027 05:41:05.592   12 Jun 2027 05:41:22.465            16.873          8436.500
       417   12 Jun 2027 07:13:39.732   12 Jun 2027 07:13:41.202             1.470           735.000
       418   12 Jun 2027 07:14:11.680   12 Jun 2027 07:14:28.386            16.706          8353.000
       419   12 Jun 2027 07:16:08.849   12 Jun 2027 07:16:09.862             1.013           506.500
       420   12 Jun 2027 07:17:06.829   12 Jun 2027 07:17:09.864             3.035          1517.500
       421   12 Jun 2027 07:17:25.994   12 Jun 2027 07:17:39.306            13.312          6656.000
       422   12 Jun 2027 08:49:43.081   12 Jun 2027 08:49:49.247             6.166          3083.000
       423   12 Jun 2027 08:51:04.704   12 Jun 2027 08:51:09.239             4.535          2267.500
       424   12 Jun 2027 08:51:51.669   12 Jun 2027 08:51:53.080             1.411           705.500
       425   12 Jun 2027 08:52:03.323   12 Jun 2027 08:52:24.610            21.287         10643.500
       426   13 Jun 2027 04:11:57.140   13 Jun 2027 04:11:59.192             2.052          1026.000
       427   13 Jun 2027 04:12:12.029   13 Jun 2027 04:12:20.339             8.310          4155.000
       428   13 Jun 2027 04:12:58.843   13 Jun 2027 04:13:04.182             5.339          2669.500
       429   13 Jun 2027 04:13:40.996   13 Jun 2027 04:13:45.086             4.090          2045.000
       430   13 Jun 2027 04:14:09.669   13 Jun 2027 04:14:09.948             0.279           139.500
       431   13 Jun 2027 04:14:17.906   13 Jun 2027 04:14:19.711             1.805           902.500
       432   13 Jun 2027 04:14:36.280   13 Jun 2027 04:14:38.667             2.387          1193.500
       433   13 Jun 2027 04:14:58.984   13 Jun 2027 04:15:06.849             7.865          3932.500
       434   13 Jun 2027 04:16:18.559   13 Jun 2027 04:16:34.592            16.033          8016.500
       435   13 Jun 2027 04:18:11.748   13 Jun 2027 04:18:32.889            21.141         10570.500
       436   13 Jun 2027 05:48:15.377   13 Jun 2027 05:48:37.275            21.898         10949.000
       437   13 Jun 2027 05:50:21.190   13 Jun 2027 05:50:24.269             3.079          1539.500
       438   13 Jun 2027 05:51:06.232   13 Jun 2027 05:51:16.191             9.959          4979.500
       439   13 Jun 2027 05:52:50.907   13 Jun 2027 05:52:55.558             4.651          2325.500
       440   13 Jun 2027 05:53:16.340   13 Jun 2027 05:53:18.324             1.984           992.000
       441   13 Jun 2027 05:53:57.682   13 Jun 2027 05:54:01.043             3.361          1680.500
       442   13 Jun 2027 07:25:43.857   13 Jun 2027 07:25:51.282             7.425          3712.500
       443   13 Jun 2027 07:26:21.885   13 Jun 2027 07:26:27.883             5.998          2999.000
       444   13 Jun 2027 07:27:19.646   13 Jun 2027 07:27:28.960             9.314          4657.000
       445   13 Jun 2027 07:28:16.065   13 Jun 2027 07:28:18.376             2.311          1155.500
       446   13 Jun 2027 07:28:34.400   13 Jun 2027 07:28:56.249            21.849         10924.500
       447   13 Jun 2027 09:01:47.230   13 Jun 2027 09:02:00.093            12.863          6431.500
       448   13 Jun 2027 09:02:57.613   13 Jun 2027 09:03:00.296             2.683          1341.500
       449   13 Jun 2027 09:03:34.146   13 Jun 2027 09:03:36.732             2.586          1293.000
       450   13 Jun 2027 09:03:47.936   13 Jun 2027 09:03:52.687             4.751          2375.500
       451   13 Jun 2027 09:04:22.062   13 Jun 2027 09:04:24.322             2.260          1130.000
       452   13 Jun 2027 09:04:55.559   13 Jun 2027 09:05:12.152            16.593          8296.500
       453   13 Jun 2027 09:06:24.168   13 Jun 2027 09:06:24.991             0.823           411.500
