uniorb/output/strategy_2/Camera/Camera_KinoSat_110104.txt

KinoSat_110104
-------------------------
    Access    *     Start Time (UTCG)     *     Stop Time (UTCG)  *   Duration (s) *   Data (Mbytes)
         1   01 Jun 2027 04:16:35.135   01 Jun 2027 04:16:36.407             1.272           636.000
         2   01 Jun 2027 04:16:43.470   01 Jun 2027 04:16:51.538             8.068          4034.000
         3   01 Jun 2027 04:17:26.964   01 Jun 2027 04:17:29.633             2.669          1334.500
         4   01 Jun 2027 04:17:58.971   01 Jun 2027 04:18:04.840             5.869          2934.500
         5   01 Jun 2027 04:18:43.249   01 Jun 2027 04:18:53.987            10.738          5369.000
         6   01 Jun 2027 04:19:46.389   01 Jun 2027 04:19:50.768             4.379          2189.500
         7   01 Jun 2027 04:20:21.658   01 Jun 2027 04:20:27.990             6.332          3166.000
         8   01 Jun 2027 04:21:08.546   01 Jun 2027 04:21:20.732            12.186          6093.000
         9   01 Jun 2027 04:21:32.252   01 Jun 2027 04:21:34.867             2.615          1307.500
        10   01 Jun 2027 04:22:42.073   01 Jun 2027 04:22:43.711             1.638           819.000
        11   01 Jun 2027 05:54:31.435   01 Jun 2027 05:54:39.370             7.935          3967.500
        12   01 Jun 2027 05:55:14.903   01 Jun 2027 05:55:31.632            16.729          8364.500
        13   01 Jun 2027 05:57:00.319   01 Jun 2027 05:57:11.795            11.476          5738.000
        14   01 Jun 2027 05:58:12.720   01 Jun 2027 05:58:14.394             1.674           837.000
        15   01 Jun 2027 07:27:53.014   01 Jun 2027 07:28:12.219            19.205          9602.500
        16   01 Jun 2027 07:29:54.026   01 Jun 2027 07:30:01.164             7.138          3569.000
        17   01 Jun 2027 07:30:30.049   01 Jun 2027 07:30:30.507             0.458           229.000
        18   01 Jun 2027 07:31:03.934   01 Jun 2027 07:31:06.625             2.691          1345.500
        19   01 Jun 2027 07:32:10.264   01 Jun 2027 07:32:11.264             1.000           500.000
        20   01 Jun 2027 07:32:33.763   01 Jun 2027 07:32:46.441            12.678          6339.000
        21   01 Jun 2027 07:34:14.224   01 Jun 2027 07:34:34.633            20.409         10204.500
        22   02 Jun 2027 04:28:25.945   02 Jun 2027 04:28:31.096             5.151          2575.500
        23   02 Jun 2027 04:30:10.643   02 Jun 2027 04:30:24.889            14.246          7123.000
        24   02 Jun 2027 04:31:47.667   02 Jun 2027 04:31:47.918             0.251           125.500
        25   02 Jun 2027 04:32:01.170   02 Jun 2027 04:32:15.367            14.197          7098.500
        26   02 Jun 2027 04:34:05.056   02 Jun 2027 04:34:22.378            17.322          8661.000
        27   02 Jun 2027 04:34:45.950   02 Jun 2027 04:34:47.585             1.635           817.500
        28   02 Jun 2027 06:06:28.534   02 Jun 2027 06:06:37.393             8.859          4429.500
        29   02 Jun 2027 06:07:14.898   02 Jun 2027 06:07:20.700             5.802          2901.000
        30   02 Jun 2027 06:07:41.001   02 Jun 2027 06:07:41.001             0.000             0.000
        31   02 Jun 2027 06:08:03.276   02 Jun 2027 06:08:09.241             5.965          2982.500
        32   02 Jun 2027 06:08:45.309   02 Jun 2027 06:08:45.392             0.083            41.500
        33   02 Jun 2027 06:09:10.475   02 Jun 2027 06:09:12.636             2.161          1080.500
        34   02 Jun 2027 06:10:26.260   02 Jun 2027 06:10:30.254             3.994          1997.000
        35   02 Jun 2027 07:40:19.324   02 Jun 2027 07:40:40.687            21.363         10681.500
        36   02 Jun 2027 07:42:21.849   02 Jun 2027 07:43:02.345            40.496         20248.000
        37   02 Jun 2027 07:46:07.770   02 Jun 2027 07:46:25.260            17.490          8745.000
        38   03 Jun 2027 03:03:41.155   03 Jun 2027 03:03:47.974             6.819          3409.500
        39   03 Jun 2027 03:04:27.743   03 Jun 2027 03:04:27.802             0.059            29.500
        40   03 Jun 2027 03:05:07.086   03 Jun 2027 03:05:22.851            15.765          7882.500
        41   03 Jun 2027 03:06:28.580   03 Jun 2027 03:06:31.326             2.746          1373.000
        42   03 Jun 2027 03:06:46.507   03 Jun 2027 03:06:49.283             2.776          1388.000
        43   03 Jun 2027 03:07:26.784   03 Jun 2027 03:07:30.785             4.001          2000.500
        44   03 Jun 2027 03:08:25.058   03 Jun 2027 03:08:27.922             2.864          1432.000
        45   03 Jun 2027 03:08:59.246   03 Jun 2027 03:08:59.746             0.500           250.000
        46   03 Jun 2027 03:09:24.199   03 Jun 2027 03:09:25.208             1.009           504.500
        47   03 Jun 2027 03:10:05.589   03 Jun 2027 03:10:16.165            10.576          5288.000
        48   03 Jun 2027 03:10:54.069   03 Jun 2027 03:11:05.185            11.116          5558.000
        49   03 Jun 2027 04:40:36.189   03 Jun 2027 04:40:43.328             7.139          3569.500
        50   03 Jun 2027 04:41:27.058   03 Jun 2027 04:41:42.532            15.474          7737.000
        51   03 Jun 2027 04:43:02.511   03 Jun 2027 04:43:04.428             1.917           958.500
        52   03 Jun 2027 04:43:32.931   03 Jun 2027 04:43:39.765             6.834          3417.000
        53   03 Jun 2027 04:45:07.091   03 Jun 2027 04:45:09.051             1.960           980.000
        54   03 Jun 2027 04:45:52.538   03 Jun 2027 04:45:55.019             2.481          1240.500
        55   03 Jun 2027 04:46:39.401   03 Jun 2027 04:46:42.843             3.442          1721.000
        56   03 Jun 2027 06:17:43.431   03 Jun 2027 06:17:43.680             0.249           124.500
        57   03 Jun 2027 06:18:19.004   03 Jun 2027 06:18:31.458            12.454          6227.000
        58   03 Jun 2027 06:19:43.094   03 Jun 2027 06:19:43.621             0.527           263.500
        59   03 Jun 2027 06:20:02.639   03 Jun 2027 06:20:09.859             7.220          3610.000
        60   03 Jun 2027 06:20:46.520   03 Jun 2027 06:20:52.416             5.896          2948.000
        61   03 Jun 2027 06:21:16.392   03 Jun 2027 06:21:19.843             3.451          1725.500
        62   03 Jun 2027 06:21:54.462   03 Jun 2027 06:21:55.291             0.829           414.500
        63   03 Jun 2027 06:22:23.359   03 Jun 2027 06:22:28.459             5.100          2550.000
        64   03 Jun 2027 07:52:37.726   03 Jun 2027 07:52:44.353             6.627          3313.500
        65   03 Jun 2027 07:53:13.578   03 Jun 2027 07:53:25.713            12.135          6067.500
        66   03 Jun 2027 07:55:12.978   03 Jun 2027 07:55:17.668             4.690          2345.000
        67   03 Jun 2027 07:56:13.275   03 Jun 2027 07:56:34.981            21.706         10853.000
        68   04 Jun 2027 03:16:08.202   04 Jun 2027 03:16:09.620             1.418           709.000
        69   04 Jun 2027 03:16:14.699   04 Jun 2027 03:16:15.646             0.947           473.500
        70   04 Jun 2027 03:16:50.318   04 Jun 2027 03:17:00.906            10.588          5294.000
        71   04 Jun 2027 03:18:21.360   04 Jun 2027 03:18:27.381             6.021          3010.500
        72   04 Jun 2027 03:19:08.080   04 Jun 2027 03:19:16.852             8.772          4386.000
        73   04 Jun 2027 03:19:57.986   04 Jun 2027 03:20:13.929            15.943          7971.500
        74   04 Jun 2027 03:20:59.773   04 Jun 2027 03:21:05.285             5.512          2756.000
        75   04 Jun 2027 03:22:16.278   04 Jun 2027 03:22:18.338             2.060          1030.000
        76   04 Jun 2027 03:22:50.810   04 Jun 2027 03:22:52.965             2.155          1077.500
        77   04 Jun 2027 04:53:02.773   04 Jun 2027 04:53:20.195            17.422          8711.000
        78   04 Jun 2027 04:53:26.527   04 Jun 2027 04:53:33.803             7.276          3638.000
        79   04 Jun 2027 04:55:10.622   04 Jun 2027 04:55:13.251             2.629          1314.500
        80   04 Jun 2027 04:55:26.733   04 Jun 2027 04:55:27.296             0.563           281.500
        81   04 Jun 2027 04:55:56.260   04 Jun 2027 04:56:08.922            12.662          6331.000
        82   04 Jun 2027 04:56:13.119   04 Jun 2027 04:56:21.826             8.707          4353.500
        83   04 Jun 2027 04:57:53.669   04 Jun 2027 04:57:58.485             4.816          2408.000
        84   04 Jun 2027 04:58:30.227   04 Jun 2027 04:58:32.796             2.569          1284.500
        85   04 Jun 2027 04:58:46.632   04 Jun 2027 04:58:47.082             0.450           225.000
        86   04 Jun 2027 06:29:56.218   04 Jun 2027 06:29:57.649             1.431           715.500
        87   04 Jun 2027 06:30:26.295   04 Jun 2027 06:30:28.501             2.206          1103.000
        88   04 Jun 2027 06:30:40.034   04 Jun 2027 06:30:48.091             8.057          4028.500
        89   04 Jun 2027 06:31:37.800   04 Jun 2027 06:31:38.470             0.670           335.000
        90   04 Jun 2027 06:31:45.102   04 Jun 2027 06:31:48.462             3.360          1680.000
        91   04 Jun 2027 06:32:10.811   04 Jun 2027 06:32:16.244             5.433          2716.500
        92   04 Jun 2027 06:32:40.127   04 Jun 2027 06:32:57.504            17.377          8688.500
        93   04 Jun 2027 06:34:14.288   04 Jun 2027 06:34:15.656             1.368           684.000
        94   04 Jun 2027 08:07:06.537   04 Jun 2027 08:07:24.055            17.518          8759.000
        95   04 Jun 2027 08:09:14.123   04 Jun 2027 08:09:33.203            19.080          9540.000
        96   05 Jun 2027 03:28:12.748   05 Jun 2027 03:28:16.159             3.411          1705.500
        97   05 Jun 2027 03:28:59.816   05 Jun 2027 03:29:10.935            11.119          5559.500
        98   05 Jun 2027 03:30:33.269   05 Jun 2027 03:30:37.070             3.801          1900.500
        99   05 Jun 2027 03:31:14.298   05 Jun 2027 03:31:16.441             2.143          1071.500
       100   05 Jun 2027 03:31:27.958   05 Jun 2027 03:31:28.715             0.757           378.500
       101   05 Jun 2027 03:31:46.542   05 Jun 2027 03:31:54.461             7.919          3959.500
       102   05 Jun 2027 03:32:51.668   05 Jun 2027 03:32:54.576             2.908          1454.000
       103   05 Jun 2027 03:33:24.739   05 Jun 2027 03:33:28.970             4.231          2115.500
       104   05 Jun 2027 03:34:06.609   05 Jun 2027 03:34:11.872             5.263          2631.500
       105   05 Jun 2027 03:34:53.433   05 Jun 2027 03:34:54.572             1.139           569.500
       106   05 Jun 2027 05:05:44.830   05 Jun 2027 05:05:48.441             3.611          1805.500
       107   05 Jun 2027 05:06:14.293   05 Jun 2027 05:06:15.289             0.996           498.000
       108   05 Jun 2027 05:06:24.426   05 Jun 2027 05:06:24.877             0.451           225.500
       109   05 Jun 2027 05:06:30.592   05 Jun 2027 05:06:31.884             1.292           646.000
       110   05 Jun 2027 05:06:39.400   05 Jun 2027 05:06:45.706             6.306          3153.000
       111   05 Jun 2027 05:07:53.936   05 Jun 2027 05:07:55.176             1.240           620.000
       112   05 Jun 2027 05:08:09.722   05 Jun 2027 05:08:22.576            12.854          6427.000
       113   05 Jun 2027 05:09:21.798   05 Jun 2027 05:09:27.067             5.269          2634.500
       114   05 Jun 2027 05:09:50.718   05 Jun 2027 05:09:52.553             1.835           917.500
       115   05 Jun 2027 06:42:02.702   05 Jun 2027 06:42:10.213             7.511          3755.500
       116   05 Jun 2027 06:42:57.804   05 Jun 2027 06:43:08.592            10.788          5394.000
       117   05 Jun 2027 06:43:53.969   05 Jun 2027 06:43:56.873             2.904          1452.000
       118   05 Jun 2027 06:44:26.966   05 Jun 2027 06:44:27.991             1.025           512.500
       119   05 Jun 2027 06:44:49.791   05 Jun 2027 06:44:53.856             4.065          2032.500
       120   05 Jun 2027 06:45:18.227   05 Jun 2027 06:45:23.158             4.931          2465.500
       121   05 Jun 2027 06:45:53.178   05 Jun 2027 06:46:02.770             9.592          4796.000
       122   05 Jun 2027 08:20:16.406   05 Jun 2027 08:20:38.467            22.061         11030.500
       123   06 Jun 2027 03:40:47.384   06 Jun 2027 03:40:50.005             2.621          1310.500
       124   06 Jun 2027 03:41:00.505   06 Jun 2027 03:41:10.105             9.600          4800.000
       125   06 Jun 2027 03:41:41.926   06 Jun 2027 03:42:00.053            18.127          9063.500
       126   06 Jun 2027 03:43:00.196   06 Jun 2027 03:43:03.562             3.366          1683.000
       127   06 Jun 2027 03:44:05.246   06 Jun 2027 03:44:05.489             0.243           121.500
       128   06 Jun 2027 03:44:43.227   06 Jun 2027 03:44:53.745            10.518          5259.000
       129   06 Jun 2027 03:45:28.077   06 Jun 2027 03:45:36.609             8.532          4266.000
       130   06 Jun 2027 03:46:30.707   06 Jun 2027 03:46:39.243             8.536          4268.000
       131   06 Jun 2027 05:18:09.782   06 Jun 2027 05:18:13.209             3.427          1713.500
       132   06 Jun 2027 05:18:48.018   06 Jun 2027 05:18:51.842             3.824          1912.000
       133   06 Jun 2027 05:18:55.485   06 Jun 2027 05:18:57.652             2.167          1083.500
       134   06 Jun 2027 05:19:23.441   06 Jun 2027 05:19:24.590             1.149           574.500
       135   06 Jun 2027 05:19:49.956   06 Jun 2027 05:19:56.487             6.531          3265.500
       136   06 Jun 2027 05:20:54.370   06 Jun 2027 05:21:02.460             8.090          4045.000
       137   06 Jun 2027 05:21:23.630   06 Jun 2027 05:21:31.425             7.795          3897.500
       138   06 Jun 2027 06:54:19.588   06 Jun 2027 06:54:21.049             1.461           730.500
       139   06 Jun 2027 06:55:23.231   06 Jun 2027 06:55:28.124             4.893          2446.500
       140   06 Jun 2027 06:56:26.523   06 Jun 2027 06:56:31.044             4.521          2260.500
       141   06 Jun 2027 06:56:54.856   06 Jun 2027 06:57:10.774            15.918          7959.000
       142   07 Jun 2027 03:52:24.026   07 Jun 2027 03:52:50.289            26.263         13131.500
       143   07 Jun 2027 03:56:02.444   07 Jun 2027 03:56:02.641             0.197            98.500
       144   07 Jun 2027 03:56:47.108   07 Jun 2027 03:56:54.439             7.331          3665.500
       145   07 Jun 2027 03:57:28.446   07 Jun 2027 03:57:31.210             2.764          1382.000
       146   07 Jun 2027 03:57:56.434   07 Jun 2027 03:58:08.938            12.504          6252.000
       147   07 Jun 2027 05:30:22.974   07 Jun 2027 05:30:26.208             3.234          1617.000
       148   07 Jun 2027 05:31:51.750   07 Jun 2027 05:31:52.113             0.363           181.500
       149   07 Jun 2027 05:32:06.438   07 Jun 2027 05:32:06.862             0.424           212.000
       150   07 Jun 2027 05:32:16.450   07 Jun 2027 05:32:18.461             2.011          1005.500
       151   07 Jun 2027 05:32:45.428   07 Jun 2027 05:32:53.414             7.986          3993.000
       152   07 Jun 2027 05:33:29.397   07 Jun 2027 05:33:33.175             3.778          1889.000
       153   07 Jun 2027 05:33:51.344   07 Jun 2027 05:34:12.714            21.370         10685.000
       154   07 Jun 2027 07:06:13.782   07 Jun 2027 07:06:19.198             5.416          2708.000
       155   07 Jun 2027 07:07:04.644   07 Jun 2027 07:07:08.657             4.013          2006.500
       156   07 Jun 2027 07:07:50.333   07 Jun 2027 07:07:53.996             3.663          1831.500
       157   07 Jun 2027 07:08:52.104   07 Jun 2027 07:09:08.315            16.211          8105.500
       158   07 Jun 2027 07:10:43.987   07 Jun 2027 07:10:44.595             0.608           304.000
       159   07 Jun 2027 07:11:07.916   07 Jun 2027 07:11:12.792             4.876          2438.000
       160   08 Jun 2027 04:04:34.976   08 Jun 2027 04:04:48.499            13.523          6761.500
       161   08 Jun 2027 04:05:43.885   08 Jun 2027 04:06:03.955            20.070         10035.000
       162   08 Jun 2027 04:07:12.168   08 Jun 2027 04:07:12.642             0.474           237.000
       163   08 Jun 2027 04:07:13.869   08 Jun 2027 04:07:18.474             4.605          2302.500
       164   08 Jun 2027 04:08:01.283   08 Jun 2027 04:08:05.528             4.245          2122.500
       165   08 Jun 2027 04:08:31.158   08 Jun 2027 04:08:41.134             9.976          4988.000
       166   08 Jun 2027 04:09:28.463   08 Jun 2027 04:09:40.420            11.957          5978.500
       167   08 Jun 2027 04:10:31.763   08 Jun 2027 04:10:33.274             1.511           755.500
       168   08 Jun 2027 04:10:52.024   08 Jun 2027 04:10:53.621             1.597           798.500
       169   08 Jun 2027 05:42:45.108   08 Jun 2027 05:42:45.134             0.026            13.000
       170   08 Jun 2027 05:43:01.782   08 Jun 2027 05:43:13.569            11.787          5893.500
       171   08 Jun 2027 05:44:36.059   08 Jun 2027 05:44:41.704             5.645          2822.500
       172   08 Jun 2027 05:44:58.488   08 Jun 2027 05:45:09.386            10.898          5449.000
       173   08 Jun 2027 05:46:24.394   08 Jun 2027 05:46:33.205             8.811          4405.500
       174   08 Jun 2027 07:16:02.082   08 Jun 2027 07:16:21.088            19.006          9503.000
       175   08 Jun 2027 07:17:38.884   08 Jun 2027 07:17:45.935             7.051          3525.500
       176   08 Jun 2027 07:18:54.576   08 Jun 2027 07:18:58.809             4.233          2116.500
       177   08 Jun 2027 07:19:57.948   08 Jun 2027 07:20:05.437             7.489          3744.500
       178   08 Jun 2027 07:20:50.931   08 Jun 2027 07:21:01.370            10.439          5219.500
       179   08 Jun 2027 07:21:52.340   08 Jun 2027 07:21:52.366             0.026            13.000
       180   08 Jun 2027 07:23:07.210   08 Jun 2027 07:23:17.491            10.281          5140.500
       181   08 Jun 2027 07:23:46.848   08 Jun 2027 07:23:48.183             1.335           667.500
       182   09 Jun 2027 04:16:50.073   09 Jun 2027 04:16:53.729             3.656          1828.000
       183   09 Jun 2027 04:17:24.291   09 Jun 2027 04:17:43.475            19.184          9592.000
       184   09 Jun 2027 04:19:02.614   09 Jun 2027 04:19:10.399             7.785          3892.500
       185   09 Jun 2027 04:19:16.366   09 Jun 2027 04:19:24.462             8.096          4048.000
       186   09 Jun 2027 04:20:33.245   09 Jun 2027 04:20:35.818             2.573          1286.500
       187   09 Jun 2027 04:21:11.026   09 Jun 2027 04:21:14.810             3.784          1892.000
       188   09 Jun 2027 04:21:54.685   09 Jun 2027 04:21:58.290             3.605          1802.500
       189   09 Jun 2027 04:22:22.029   09 Jun 2027 04:22:22.842             0.813           406.500
       190   09 Jun 2027 04:22:51.936   09 Jun 2027 04:22:56.553             4.617          2308.500
       191   09 Jun 2027 05:54:46.068   09 Jun 2027 05:54:55.226             9.158          4579.000
       192   09 Jun 2027 05:55:47.694   09 Jun 2027 05:55:49.027             1.333           666.500
       193   09 Jun 2027 05:56:19.522   09 Jun 2027 05:56:20.174             0.652           326.000
       194   09 Jun 2027 05:56:23.483   09 Jun 2027 05:56:25.194             1.711           855.500
       195   09 Jun 2027 05:56:48.185   09 Jun 2027 05:56:50.623             2.438          1219.000
       196   09 Jun 2027 05:57:04.357   09 Jun 2027 05:57:13.234             8.877          4438.500
       197   09 Jun 2027 05:57:52.222   09 Jun 2027 05:57:56.048             3.826          1913.000
       198   09 Jun 2027 05:58:33.649   09 Jun 2027 05:58:45.212            11.563          5781.500
       199   09 Jun 2027 07:28:08.242   09 Jun 2027 07:28:08.670             0.428           214.000
       200   09 Jun 2027 07:28:09.752   09 Jun 2027 07:28:27.006            17.254          8627.000
       201   09 Jun 2027 07:29:45.897   09 Jun 2027 07:29:53.533             7.636          3818.000
       202   09 Jun 2027 07:30:45.202   09 Jun 2027 07:30:53.558             8.356          4178.000
       203   09 Jun 2027 07:31:41.052   09 Jun 2027 07:31:46.226             5.174          2587.000
       204   09 Jun 2027 07:32:40.418   09 Jun 2027 07:32:49.197             8.779          4389.500
       205   09 Jun 2027 07:33:24.447   09 Jun 2027 07:33:24.659             0.212           106.000
       206   09 Jun 2027 07:33:38.115   09 Jun 2027 07:33:40.916             2.801          1400.500
       207   09 Jun 2027 07:33:54.489   09 Jun 2027 07:34:13.048            18.559          9279.500
       208   09 Jun 2027 07:35:14.111   09 Jun 2027 07:35:25.505            11.394          5697.000
       209   10 Jun 2027 04:28:41.173   10 Jun 2027 04:28:45.870             4.697          2348.500
       210   10 Jun 2027 04:29:11.471   10 Jun 2027 04:29:44.628            33.157         16578.500
       211   10 Jun 2027 04:31:38.068   10 Jun 2027 04:31:39.718             1.650           825.000
       212   10 Jun 2027 04:32:47.139   10 Jun 2027 04:32:53.973             6.834          3417.000
       213   10 Jun 2027 04:33:44.444   10 Jun 2027 04:33:48.788             4.344          2172.000
       214   10 Jun 2027 04:34:11.530   10 Jun 2027 04:34:21.176             9.646          4823.000
       215   10 Jun 2027 06:06:43.336   10 Jun 2027 06:06:53.393            10.057          5028.500
       216   10 Jun 2027 06:07:35.789   10 Jun 2027 06:07:38.969             3.180          1590.000
       217   10 Jun 2027 06:08:14.822   10 Jun 2027 06:08:17.901             3.079          1539.500
       218   10 Jun 2027 06:08:44.408   10 Jun 2027 06:08:53.594             9.186          4593.000
       219   10 Jun 2027 06:09:32.308   10 Jun 2027 06:09:41.238             8.930          4465.000
       220   10 Jun 2027 06:10:19.333   10 Jun 2027 06:10:22.179             2.846          1423.000
       221   10 Jun 2027 06:10:46.066   10 Jun 2027 06:10:47.930             1.864           932.000
       222   10 Jun 2027 07:40:34.631   10 Jun 2027 07:40:47.630            12.999          6499.500
       223   10 Jun 2027 07:41:41.109   10 Jun 2027 07:41:45.245             4.136          2068.000
       224   10 Jun 2027 07:42:36.556   10 Jun 2027 07:43:19.833            43.277         21638.500
       225   10 Jun 2027 07:46:22.410   10 Jun 2027 07:46:39.786            17.376          8688.000
       226   11 Jun 2027 03:03:56.416   11 Jun 2027 03:03:56.572             0.156            78.000
       227   11 Jun 2027 03:04:19.855   11 Jun 2027 03:04:28.198             8.343          4171.500
       228   11 Jun 2027 03:05:03.255   11 Jun 2027 03:05:06.566             3.311          1655.500
       229   11 Jun 2027 03:05:37.483   11 Jun 2027 03:05:46.245             8.762          4381.000
       230   11 Jun 2027 03:06:23.105   11 Jun 2027 03:06:26.437             3.332          1666.000
       231   11 Jun 2027 03:06:44.874   11 Jun 2027 03:06:49.116             4.242          2121.000
       232   11 Jun 2027 03:07:32.913   11 Jun 2027 03:07:33.459             0.546           273.000
       233   11 Jun 2027 03:07:42.153   11 Jun 2027 03:07:47.962             5.809          2904.500
       234   11 Jun 2027 03:08:41.030   11 Jun 2027 03:08:42.614             1.584           792.000
       235   11 Jun 2027 03:09:13.840   11 Jun 2027 03:09:14.317             0.477           238.500
       236   11 Jun 2027 03:09:41.862   11 Jun 2027 03:09:42.469             0.607           303.500
       237   11 Jun 2027 03:10:32.384   11 Jun 2027 03:10:42.777            10.393          5196.500
       238   11 Jun 2027 04:40:51.659   11 Jun 2027 04:41:00.566             8.907          4453.500
       239   11 Jun 2027 04:41:44.456   11 Jun 2027 04:42:00.696            16.240          8120.000
       240   11 Jun 2027 04:43:16.822   11 Jun 2027 04:43:18.518             1.696           848.000
       241   11 Jun 2027 04:43:50.075   11 Jun 2027 04:43:58.057             7.982          3991.000
       242   11 Jun 2027 04:44:29.482   11 Jun 2027 04:44:29.850             0.368           184.000
       243   11 Jun 2027 04:45:08.401   11 Jun 2027 04:45:14.813             6.412          3206.000
       244   11 Jun 2027 04:46:16.714   11 Jun 2027 04:46:21.774             5.060          2530.000
       245   11 Jun 2027 04:46:58.994   11 Jun 2027 04:47:02.619             3.625          1812.500
       246   11 Jun 2027 06:17:58.354   11 Jun 2027 06:17:59.804             1.450           725.000
       247   11 Jun 2027 06:18:37.726   11 Jun 2027 06:18:47.398             9.672          4836.000
       248   11 Jun 2027 06:19:30.477   11 Jun 2027 06:19:32.451             1.974           987.000
       249   11 Jun 2027 06:19:48.898   11 Jun 2027 06:19:50.031             1.133           566.500
       250   11 Jun 2027 06:20:07.747   11 Jun 2027 06:20:16.600             8.853          4426.500
       251   11 Jun 2027 06:20:58.944   11 Jun 2027 06:21:00.600             1.656           828.000
       252   11 Jun 2027 06:21:07.463   11 Jun 2027 06:21:07.835             0.372           186.000
       253   11 Jun 2027 06:21:22.412   11 Jun 2027 06:21:29.965             7.553          3776.500
       254   11 Jun 2027 06:22:10.802   11 Jun 2027 06:22:10.878             0.076            38.000
       255   11 Jun 2027 06:22:38.026   11 Jun 2027 06:22:43.341             5.315          2657.500
       256   11 Jun 2027 07:52:54.426   11 Jun 2027 07:52:59.428             5.002          2501.000
       257   11 Jun 2027 07:53:28.647   11 Jun 2027 07:53:39.919            11.272          5636.000
       258   11 Jun 2027 07:54:40.899   11 Jun 2027 07:54:53.797            12.898          6449.000
       259   11 Jun 2027 07:55:54.391   11 Jun 2027 07:56:08.537            14.146          7073.000
       260   11 Jun 2027 07:57:20.595   11 Jun 2027 07:57:31.175            10.580          5290.000
       261   12 Jun 2027 03:16:23.237   12 Jun 2027 03:16:23.603             0.366           183.000
       262   12 Jun 2027 03:16:31.233   12 Jun 2027 03:16:31.788             0.555           277.500
       263   12 Jun 2027 03:17:08.976   12 Jun 2027 03:17:16.779             7.803          3901.500
       264   12 Jun 2027 03:17:56.559   12 Jun 2027 03:17:59.220             2.661          1330.500
       265   12 Jun 2027 03:18:17.689   12 Jun 2027 03:18:27.544             9.855          4927.500
       266   12 Jun 2027 03:19:12.875   12 Jun 2027 03:19:22.446             9.571          4785.500
       267   12 Jun 2027 03:20:41.063   12 Jun 2027 03:20:42.448             1.385           692.500
       268   12 Jun 2027 03:21:05.828   12 Jun 2027 03:21:09.842             4.014          2007.000
       269   12 Jun 2027 03:21:44.971   12 Jun 2027 03:21:47.643             2.672          1336.000
       270   12 Jun 2027 03:22:33.165   12 Jun 2027 03:22:34.875             1.710           855.000
       271   12 Jun 2027 03:23:05.384   12 Jun 2027 03:23:05.608             0.224           112.000
       272   12 Jun 2027 04:53:17.893   12 Jun 2027 04:53:36.357            18.464          9232.000
       273   12 Jun 2027 04:53:43.889   12 Jun 2027 04:53:47.948             4.059          2029.500
       274   12 Jun 2027 04:55:26.439   12 Jun 2027 04:55:27.739             1.300           650.000
       275   12 Jun 2027 04:55:46.292   12 Jun 2027 04:55:48.445             2.153          1076.500
       276   12 Jun 2027 04:55:53.514   12 Jun 2027 04:56:00.974             7.460          3730.000
       277   12 Jun 2027 04:56:42.409   12 Jun 2027 04:56:44.347             1.938           969.000
       278   12 Jun 2027 04:57:09.234   12 Jun 2027 04:57:12.872             3.638          1819.000
       279   12 Jun 2027 04:57:20.108   12 Jun 2027 04:57:21.149             1.041           520.500
       280   12 Jun 2027 04:57:35.523   12 Jun 2027 04:57:46.661            11.138          5569.000
       281   12 Jun 2027 04:58:53.167   12 Jun 2027 04:59:02.581             9.414          4707.000
       282   12 Jun 2027 06:30:10.418   12 Jun 2027 06:30:13.883             3.465          1732.500
       283   12 Jun 2027 06:30:44.724   12 Jun 2027 06:30:47.351             2.627          1313.500
       284   12 Jun 2027 06:31:12.194   12 Jun 2027 06:31:16.542             4.348          2174.000
       285   12 Jun 2027 06:31:47.331   12 Jun 2027 06:31:53.112             5.781          2890.500
       286   12 Jun 2027 06:32:25.139   12 Jun 2027 06:32:25.705             0.566           283.000
       287   12 Jun 2027 06:32:32.327   12 Jun 2027 06:32:32.868             0.541           270.500
       288   12 Jun 2027 06:32:54.752   12 Jun 2027 06:32:57.016             2.264          1132.000
       289   12 Jun 2027 06:33:14.177   12 Jun 2027 06:33:14.605             0.428           214.000
       290   12 Jun 2027 06:33:27.762   12 Jun 2027 06:33:38.008            10.246          5123.000
       291   12 Jun 2027 06:33:44.189   12 Jun 2027 06:33:50.194             6.005          3002.500
       292   12 Jun 2027 08:07:41.419   12 Jun 2027 08:07:54.674            13.255          6627.500
       293   12 Jun 2027 08:08:54.332   12 Jun 2027 08:09:17.837            23.505         11752.500
       294   13 Jun 2027 03:28:28.164   13 Jun 2027 03:28:32.328             4.164          2082.000
       295   13 Jun 2027 03:29:18.424   13 Jun 2027 03:29:28.812            10.388          5194.000
       296   13 Jun 2027 03:30:48.277   13 Jun 2027 03:30:53.558             5.281          2640.500
       297   13 Jun 2027 03:31:29.814   13 Jun 2027 03:31:32.972             3.158          1579.000
       298   13 Jun 2027 03:31:46.837   13 Jun 2027 03:31:58.365            11.528          5764.000
       299   13 Jun 2027 03:33:08.549   13 Jun 2027 03:33:09.083             0.534           267.000
       300   13 Jun 2027 03:33:39.548   13 Jun 2027 03:33:44.203             4.655          2327.500
       301   13 Jun 2027 03:34:23.883   13 Jun 2027 03:34:42.158            18.275          9137.500
       302   13 Jun 2027 05:06:01.633   13 Jun 2027 05:06:13.230            11.597          5798.500
       303   13 Jun 2027 05:06:36.774   13 Jun 2027 05:06:41.987             5.213          2606.500
       304   13 Jun 2027 05:08:08.751   13 Jun 2027 05:08:10.373             1.622           811.000
       305   13 Jun 2027 05:08:24.990   13 Jun 2027 05:08:37.791            12.801          6400.500
       306   13 Jun 2027 05:09:36.429   13 Jun 2027 05:09:41.982             5.553          2776.500
       307   13 Jun 2027 05:10:05.266   13 Jun 2027 05:10:07.448             2.182          1091.000
       308   13 Jun 2027 06:42:18.575   13 Jun 2027 06:42:24.656             6.081          3040.500
       309   13 Jun 2027 06:43:11.954   13 Jun 2027 06:43:26.540            14.586          7293.000
       310   13 Jun 2027 06:44:42.817   13 Jun 2027 06:44:54.011            11.194          5597.000
       311   13 Jun 2027 06:45:47.610   13 Jun 2027 06:45:48.705             1.095           547.500
       312   13 Jun 2027 06:46:21.043   13 Jun 2027 06:46:25.541             4.498          2249.000
       313   13 Jun 2027 06:46:54.687   13 Jun 2027 06:46:55.153             0.466           233.000
       314   13 Jun 2027 08:20:54.191   13 Jun 2027 08:21:01.702             7.511          3755.500
