uniorb/output/strategy_2/Camera/Camera_KinoSat_111907.txt

KinoSat_111907
-------------------------
    Access    *     Start Time (UTCG)     *     Stop Time (UTCG)  *   Duration (s) *   Data (Mbytes)
         1   01 Jun 2027 04:19:10.645   01 Jun 2027 04:19:34.828            24.183         12091.500
         2   01 Jun 2027 04:19:37.778   01 Jun 2027 04:20:54.608            76.830         38415.000
         3   01 Jun 2027 04:20:58.772   01 Jun 2027 04:22:42.073           103.301         51650.500
         4   01 Jun 2027 04:23:09.819   01 Jun 2027 04:23:38.704            28.885         14442.500
         5   01 Jun 2027 05:57:33.640   01 Jun 2027 05:59:07.032            93.392         46696.000
         6   01 Jun 2027 05:59:57.335   01 Jun 2027 05:59:57.933             0.598           299.000
         7   01 Jun 2027 06:00:40.278   01 Jun 2027 06:01:00.087            19.809          9904.500
         8   01 Jun 2027 06:01:05.156   01 Jun 2027 06:01:06.706             1.550           775.000
         9   01 Jun 2027 06:01:48.560   01 Jun 2027 06:02:15.418            26.858         13429.000
        10   01 Jun 2027 06:02:48.702   01 Jun 2027 06:03:14.478            25.776         12888.000
        11   01 Jun 2027 06:03:24.584   01 Jun 2027 06:03:30.368             5.784          2892.000
        12   01 Jun 2027 07:21:37.122   01 Jun 2027 07:23:04.474            87.352         43676.000
        13   01 Jun 2027 07:23:17.047   01 Jun 2027 07:23:24.192             7.145          3572.500
        14   01 Jun 2027 08:55:23.499   01 Jun 2027 08:57:37.037           133.538         66769.000
        15   01 Jun 2027 08:59:17.875   01 Jun 2027 08:59:17.875             0.000             0.000
        16   01 Jun 2027 09:00:32.452   01 Jun 2027 09:00:52.042            19.590          9795.000
        17   01 Jun 2027 10:31:23.852   01 Jun 2027 10:33:14.024           110.172         55086.000
        18   01 Jun 2027 10:39:17.619   01 Jun 2027 10:39:53.567            35.948         17974.000
        19   02 Jun 2027 03:01:06.103   02 Jun 2027 03:01:12.717             6.614          3307.000
        20   02 Jun 2027 04:31:45.289   02 Jun 2027 04:32:33.750            48.461         24230.500
        21   02 Jun 2027 04:32:43.334   02 Jun 2027 04:33:26.385            43.051         21525.500
        22   02 Jun 2027 04:33:27.194   02 Jun 2027 04:35:11.169           103.975         51987.500
        23   02 Jun 2027 04:36:35.587   02 Jun 2027 04:36:36.373             0.786           393.000
        24   02 Jun 2027 06:10:07.676   02 Jun 2027 06:12:37.486           149.810         74905.000
        25   02 Jun 2027 06:13:00.780   02 Jun 2027 06:13:24.359            23.579         11789.500
        26   02 Jun 2027 06:13:42.866   02 Jun 2027 06:13:56.798            13.932          6966.000
        27   02 Jun 2027 06:14:46.155   02 Jun 2027 06:14:48.009             1.854           927.000
        28   02 Jun 2027 07:33:32.201   02 Jun 2027 07:35:02.514            90.313         45156.500
        29   02 Jun 2027 09:09:51.049   02 Jun 2027 09:10:32.269            41.220         20610.000
        30   02 Jun 2027 09:10:43.627   02 Jun 2027 09:11:54.872            71.245         35622.500
        31   02 Jun 2027 10:43:21.102   02 Jun 2027 10:44:05.873            44.771         21344.907
        32   02 Jun 2027 10:46:46.389   02 Jun 2027 10:46:57.684            11.295          4467.813
        33   02 Jun 2027 10:47:23.618   02 Jun 2027 10:47:27.673             4.055           345.750
        34   02 Jun 2027 10:47:47.254   02 Jun 2027 10:47:49.399             2.145           553.125
        35   02 Jun 2027 10:50:14.528   02 Jun 2027 10:50:21.237             6.709          3354.500
        36   02 Jun 2027 10:51:52.616   02 Jun 2027 10:51:53.679             1.063           531.500
        37   03 Jun 2027 03:05:40.606   03 Jun 2027 03:06:28.580            47.974         23987.000
        38   03 Jun 2027 03:06:34.487   03 Jun 2027 03:06:34.487             0.000             0.000
        39   03 Jun 2027 03:07:19.616   03 Jun 2027 03:07:26.784             7.168          3584.000
        40   03 Jun 2027 03:07:38.975   03 Jun 2027 03:08:44.203            65.228         32614.000
        41   03 Jun 2027 03:09:15.257   03 Jun 2027 03:09:24.199             8.942          4471.000
        42   03 Jun 2027 03:09:39.149   03 Jun 2027 03:09:59.725            20.576         10288.000
        43   03 Jun 2027 03:10:27.613   03 Jun 2027 03:10:32.151             4.538          2269.000
        44   03 Jun 2027 03:10:50.655   03 Jun 2027 03:11:34.504            43.849         21924.500
        45   03 Jun 2027 04:43:42.456   03 Jun 2027 04:43:48.604             6.148          3074.000
        46   03 Jun 2027 04:43:59.380   03 Jun 2027 04:44:17.097            17.717          8858.500
        47   03 Jun 2027 04:45:18.936   03 Jun 2027 04:47:04.883           105.947         52973.500
        48   03 Jun 2027 04:48:09.257   03 Jun 2027 04:48:09.257             0.000             0.000
        49   03 Jun 2027 04:49:39.166   03 Jun 2027 04:49:49.321            10.155          5077.500
        50   03 Jun 2027 06:22:08.406   03 Jun 2027 06:22:44.926            36.520         18127.125
        51   03 Jun 2027 06:23:10.754   03 Jun 2027 06:23:14.795             4.041           785.531
        52   03 Jun 2027 06:24:17.441   03 Jun 2027 06:24:22.381             4.940          1887.594
        53   03 Jun 2027 06:25:26.580   03 Jun 2027 06:25:32.610             6.030          1912.812
        54   03 Jun 2027 07:45:24.124   03 Jun 2027 07:45:40.463            16.339          7836.594
        55   03 Jun 2027 07:46:52.290   03 Jun 2027 07:46:58.895             6.605          1926.938
        56   03 Jun 2027 07:47:19.541   03 Jun 2027 07:47:21.112             1.571           260.969
        57   03 Jun 2027 07:47:52.990   03 Jun 2027 07:47:56.505             3.515           482.469
        58   03 Jun 2027 09:21:52.795   03 Jun 2027 09:22:10.789            17.994          7326.750
        59   03 Jun 2027 10:56:01.074   03 Jun 2027 10:56:21.475            20.401          9520.719
        60   03 Jun 2027 10:57:28.047   03 Jun 2027 10:57:31.415             3.368           718.031
        61   03 Jun 2027 10:58:42.897   03 Jun 2027 10:58:55.454            12.557          2233.813
        62   03 Jun 2027 11:00:21.128   03 Jun 2027 11:00:24.914             3.786          1348.562
        63   03 Jun 2027 11:01:56.185   03 Jun 2027 11:02:01.948             5.763          2735.844
        64   03 Jun 2027 11:02:33.297   03 Jun 2027 11:02:37.095             3.798           965.281
        65   03 Jun 2027 11:03:02.418   03 Jun 2027 11:03:08.887             6.469           742.156
        66   03 Jun 2027 11:03:40.184   03 Jun 2027 11:03:42.345             2.161           825.594
        67   04 Jun 2027 03:17:42.328   04 Jun 2027 03:20:50.229           187.901         93950.500
        68   04 Jun 2027 03:21:05.285   04 Jun 2027 03:21:27.264            21.979         10989.500
        69   04 Jun 2027 03:21:36.353   04 Jun 2027 03:21:57.757            21.404         10702.000
        70   04 Jun 2027 04:55:51.242   04 Jun 2027 04:56:50.997            59.755         29877.500
        71   04 Jun 2027 04:57:00.442   04 Jun 2027 04:57:45.920            45.478         21623.125
        72   04 Jun 2027 04:58:47.082   04 Jun 2027 04:58:51.512             4.430          1669.156
        73   04 Jun 2027 04:59:34.950   04 Jun 2027 04:59:38.910             3.960          1315.375
        74   04 Jun 2027 05:01:04.100   04 Jun 2027 05:01:08.242             4.142          1968.906
        75   04 Jun 2027 05:01:52.095   04 Jun 2027 05:01:55.202             3.107          1365.594
        76   04 Jun 2027 06:34:09.800   04 Jun 2027 06:34:21.925            12.125          4382.687
        77   04 Jun 2027 06:34:58.652   04 Jun 2027 06:35:00.592             1.940           935.062
        78   04 Jun 2027 06:36:45.555   04 Jun 2027 06:36:55.373             9.818          3280.094
        79   04 Jun 2027 06:37:31.567   04 Jun 2027 06:37:33.560             1.993           806.219
        80   04 Jun 2027 07:57:33.016   04 Jun 2027 07:57:47.731            14.715          5995.906
        81   04 Jun 2027 07:58:04.970   04 Jun 2027 07:58:08.870             3.900           538.719
        82   04 Jun 2027 07:59:05.596   04 Jun 2027 07:59:10.188             4.592          1273.219
        83   04 Jun 2027 09:34:03.467   04 Jun 2027 09:34:16.182            12.715          5974.656
        84   04 Jun 2027 09:36:32.632   04 Jun 2027 09:36:44.322            11.690          4029.375
        85   04 Jun 2027 11:09:39.851   04 Jun 2027 11:09:39.851             0.000             0.000
        86   04 Jun 2027 11:10:15.930   04 Jun 2027 11:10:43.104            27.174         12235.906
        87   04 Jun 2027 11:15:42.401   04 Jun 2027 11:15:50.635             8.234          4117.000
        88   05 Jun 2027 03:29:40.347   05 Jun 2027 03:32:54.613           194.266         97133.000
        89   05 Jun 2027 03:33:24.739   05 Jun 2027 03:33:24.739             0.000             0.000
        90   05 Jun 2027 03:33:28.970   05 Jun 2027 03:34:02.018            33.048         16524.000
        91   05 Jun 2027 03:34:31.926   05 Jun 2027 03:34:42.608            10.682          5341.000
        92   05 Jun 2027 03:36:18.704   05 Jun 2027 03:36:21.829             3.125          1562.500
        93   05 Jun 2027 05:07:56.571   05 Jun 2027 05:08:05.710             9.139          4569.500
        94   05 Jun 2027 05:08:58.098   05 Jun 2027 05:10:06.324            68.226         33635.063
        95   05 Jun 2027 05:10:45.238   05 Jun 2027 05:10:46.570             1.332           652.500
        96   05 Jun 2027 05:12:51.201   05 Jun 2027 05:12:54.086             2.885          1442.500
        97   05 Jun 2027 05:13:07.666   05 Jun 2027 05:13:14.593             6.927          2511.281
        98   05 Jun 2027 05:13:59.150   05 Jun 2027 05:14:03.191             4.041          1088.969
        99   05 Jun 2027 05:16:02.034   05 Jun 2027 05:16:07.939             5.905          1628.750
       100   05 Jun 2027 06:46:06.732   05 Jun 2027 06:46:18.037            11.305          5485.187
       101   05 Jun 2027 06:46:31.726   05 Jun 2027 06:46:34.827             3.101           403.969
       102   05 Jun 2027 06:47:11.270   05 Jun 2027 06:47:14.078             2.808          1003.219
       103   05 Jun 2027 06:47:22.710   05 Jun 2027 06:47:31.112             8.402           269.750
       104   05 Jun 2027 06:47:44.362   05 Jun 2027 06:47:50.486             6.124           384.813
       105   05 Jun 2027 06:48:00.363   05 Jun 2027 06:48:05.882             5.519           179.750
       106   05 Jun 2027 06:48:52.768   05 Jun 2027 06:48:52.768             0.000             0.000
       107   05 Jun 2027 06:49:24.308   05 Jun 2027 06:49:24.308             0.000             0.000
       108   05 Jun 2027 08:10:13.238   05 Jun 2027 08:10:33.890            20.652          9240.438
       109   05 Jun 2027 08:11:06.456   05 Jun 2027 08:11:08.369             1.913           948.062
       110   05 Jun 2027 09:47:26.203   05 Jun 2027 09:47:48.576            22.373         10819.344
       111   05 Jun 2027 09:49:11.263   05 Jun 2027 09:49:19.562             8.299          2053.594
       112   05 Jun 2027 11:20:55.907   05 Jun 2027 11:21:09.233            13.326          5538.781
       113   05 Jun 2027 11:24:00.091   05 Jun 2027 11:24:03.137             3.046          1523.000
       114   05 Jun 2027 11:27:21.415   05 Jun 2027 11:27:35.836            14.421          7210.500
       115   05 Jun 2027 11:27:54.125   05 Jun 2027 11:27:56.660             2.535          1267.500
       116   06 Jun 2027 03:42:09.654   06 Jun 2027 03:46:00.402           230.748        115374.000
       117   06 Jun 2027 03:46:48.546   06 Jun 2027 03:47:04.704            16.158          8079.000
       118   06 Jun 2027 03:47:17.302   06 Jun 2027 03:47:20.730             3.428          1714.000
       119   06 Jun 2027 05:21:01.917   06 Jun 2027 05:22:19.377            77.460         37014.813
       120   06 Jun 2027 05:22:42.489   06 Jun 2027 05:22:42.919             0.430           129.281
       121   06 Jun 2027 05:24:17.039   06 Jun 2027 05:24:22.366             5.327          2231.156
       122   06 Jun 2027 05:24:51.302   06 Jun 2027 05:24:53.404             2.102           553.000
       123   06 Jun 2027 05:27:11.774   06 Jun 2027 05:27:16.417             4.643          2321.500
       124   06 Jun 2027 05:27:34.396   06 Jun 2027 05:27:41.999             7.603          2111.156
       125   06 Jun 2027 06:47:01.089   06 Jun 2027 06:47:14.074            12.985          4857.937
       126   06 Jun 2027 06:58:03.334   06 Jun 2027 06:58:08.256             4.922          2461.000
       127   06 Jun 2027 06:58:12.729   06 Jun 2027 06:58:16.031             3.302           731.531
       128   06 Jun 2027 06:59:15.483   06 Jun 2027 06:59:16.249             0.766           281.500
       129   06 Jun 2027 06:59:43.070   06 Jun 2027 06:59:44.698             1.628           577.438
       130   06 Jun 2027 07:00:09.395   06 Jun 2027 07:00:12.108             2.713           242.000
       131   06 Jun 2027 08:21:02.333   06 Jun 2027 08:21:15.238            12.905          6156.719
       132   06 Jun 2027 08:21:55.245   06 Jun 2027 08:21:58.440             3.195           924.312
       133   06 Jun 2027 08:22:16.583   06 Jun 2027 08:22:18.772             2.189           536.000
       134   06 Jun 2027 08:23:07.720   06 Jun 2027 08:23:10.793             3.073           910.125
       135   06 Jun 2027 08:24:46.923   06 Jun 2027 08:24:46.923             0.000             0.000
       136   06 Jun 2027 09:56:34.423   06 Jun 2027 09:56:44.271             9.848          4924.000
       137   06 Jun 2027 09:59:24.333   06 Jun 2027 09:59:35.733            11.400          5233.125
       138   06 Jun 2027 10:00:53.834   06 Jun 2027 10:00:58.862             5.028          1814.500
       139   06 Jun 2027 11:36:37.600   06 Jun 2027 11:37:14.631            37.031         17222.094
       140   06 Jun 2027 11:38:09.902   06 Jun 2027 11:38:15.177             5.275          1727.219
       141   06 Jun 2027 11:38:46.401   06 Jun 2027 11:38:47.104             0.703            10.937
       142   06 Jun 2027 11:38:58.316   06 Jun 2027 11:38:58.643             0.327           163.500
       143   06 Jun 2027 11:39:19.391   06 Jun 2027 11:39:21.145             1.754           797.594
       144   06 Jun 2027 11:39:35.577   06 Jun 2027 11:39:35.577             0.000             0.000
       145   06 Jun 2027 11:39:53.119   06 Jun 2027 11:39:59.503             6.384           999.188
       146   07 Jun 2027 03:54:25.206   07 Jun 2027 03:56:47.108           141.902         70951.000
       147   07 Jun 2027 03:56:54.439   07 Jun 2027 03:58:17.485            83.046         41523.000
       148   07 Jun 2027 05:33:31.836   07 Jun 2027 05:35:06.046            94.210         46734.844
       149   07 Jun 2027 05:36:25.422   07 Jun 2027 05:36:25.496             0.074            37.000
       150   07 Jun 2027 05:37:21.167   07 Jun 2027 05:37:21.167             0.000             0.000
       151   07 Jun 2027 05:38:16.692   07 Jun 2027 05:38:16.692             0.000             0.000
       152   07 Jun 2027 05:38:55.800   07 Jun 2027 05:38:55.800             0.000             0.000
       153   07 Jun 2027 05:39:27.965   07 Jun 2027 05:39:45.731            17.766          7185.344
       154   07 Jun 2027 05:40:16.406   07 Jun 2027 05:40:19.010             2.604           480.125
       155   07 Jun 2027 06:58:23.578   07 Jun 2027 06:58:35.712            12.134          6067.000
       156   07 Jun 2027 06:59:05.761   07 Jun 2027 06:59:05.761             0.000             0.000
       157   07 Jun 2027 06:59:34.987   07 Jun 2027 06:59:41.467             6.480          2101.000
       158   07 Jun 2027 07:10:06.667   07 Jun 2027 07:10:13.531             6.864          2970.969
       159   07 Jun 2027 07:11:12.792   07 Jun 2027 07:11:16.643             3.851          1451.531
       160   07 Jun 2027 08:32:18.731   07 Jun 2027 08:32:37.003            18.272          9136.000
       161   07 Jun 2027 08:32:51.622   07 Jun 2027 08:32:56.485             4.863          2028.375
       162   07 Jun 2027 08:33:20.585   07 Jun 2027 08:33:25.090             4.505           753.125
       163   07 Jun 2027 08:34:54.166   07 Jun 2027 08:35:01.960             7.794          2174.656
       164   07 Jun 2027 08:36:25.958   07 Jun 2027 08:36:32.959             7.001          2326.656
       165   07 Jun 2027 10:08:11.537   07 Jun 2027 10:08:33.316            21.779          7945.312
       166   07 Jun 2027 11:47:48.240   07 Jun 2027 11:47:48.437             0.197            98.500
       167   07 Jun 2027 11:51:08.122   07 Jun 2027 11:52:01.239            53.117         25256.500
       168   08 Jun 2027 04:06:44.233   08 Jun 2027 04:08:12.398            88.165         44082.500
       169   08 Jun 2027 04:08:13.107   08 Jun 2027 04:08:20.794             7.687          3843.500
       170   08 Jun 2027 04:10:22.564   08 Jun 2027 04:11:11.520            48.956         24478.000
       171   08 Jun 2027 04:11:26.373   08 Jun 2027 04:12:01.035            34.662         17331.000
       172   08 Jun 2027 04:12:42.444   08 Jun 2027 04:12:43.893             1.449           724.500
       173   08 Jun 2027 05:45:32.184   08 Jun 2027 05:47:48.096           135.912         67956.000
       174   08 Jun 2027 05:48:04.889   08 Jun 2027 05:48:11.467             6.578          1798.000
       175   08 Jun 2027 05:49:32.171   08 Jun 2027 05:49:37.354             5.183          2508.625
       176   08 Jun 2027 05:50:58.781   08 Jun 2027 05:51:01.794             3.013          1506.500
       177   08 Jun 2027 05:52:29.798   08 Jun 2027 05:52:38.983             9.185          3773.906
       178   08 Jun 2027 07:09:51.061   08 Jun 2027 07:10:06.875            15.814          6339.000
       179   08 Jun 2027 07:11:05.448   08 Jun 2027 07:11:09.721             4.273          1687.719
       180   08 Jun 2027 07:11:51.794   08 Jun 2027 07:11:52.131             0.337           168.500
       181   08 Jun 2027 07:22:07.546   08 Jun 2027 07:22:17.300             9.754          3897.219
       182   08 Jun 2027 08:44:04.442   08 Jun 2027 08:44:31.765            27.323         12176.500
       183   08 Jun 2027 08:45:12.334   08 Jun 2027 08:45:17.595             5.261          1267.781
       184   08 Jun 2027 08:46:53.396   08 Jun 2027 08:46:53.396             0.000             0.000
       185   08 Jun 2027 08:46:57.595   08 Jun 2027 08:47:02.574             4.979          2312.063
       186   08 Jun 2027 08:48:16.764   08 Jun 2027 08:48:20.678             3.914          1839.312
       187   08 Jun 2027 08:48:47.716   08 Jun 2027 08:48:49.536             1.820           844.938
       188   08 Jun 2027 10:19:47.829   08 Jun 2027 10:20:08.395            20.566          5772.219
       189   08 Jun 2027 10:21:00.554   08 Jun 2027 10:21:04.307             3.753          1270.312
       190   08 Jun 2027 10:22:46.165   08 Jun 2027 10:22:51.616             5.451          2532.625
       191   08 Jun 2027 10:23:16.576   08 Jun 2027 10:23:17.519             0.943           440.938
       192   08 Jun 2027 10:23:41.141   08 Jun 2027 10:23:43.093             1.952           449.562
       193   08 Jun 2027 10:24:10.261   08 Jun 2027 10:24:14.213             3.952           480.781
       194   09 Jun 2027 04:19:28.934   09 Jun 2027 04:19:51.968            23.034         11517.000
       195   09 Jun 2027 04:19:55.487   09 Jun 2027 04:21:09.696            74.209         37104.500
       196   09 Jun 2027 04:21:30.085   09 Jun 2027 04:22:13.079            42.994         21497.000
       197   09 Jun 2027 04:22:56.553   09 Jun 2027 04:23:28.164            31.611         15805.500
       198   09 Jun 2027 04:24:14.323   09 Jun 2027 04:24:30.790            16.467          8233.500
       199   09 Jun 2027 04:24:49.421   09 Jun 2027 04:24:59.412             9.991          4995.500
       200   09 Jun 2027 04:25:00.810   09 Jun 2027 04:25:01.777             0.967           483.500
       201   09 Jun 2027 05:57:51.616   09 Jun 2027 05:59:51.485           119.869         59435.594
       202   09 Jun 2027 06:00:56.730   09 Jun 2027 06:00:56.730             0.000             0.000
       203   09 Jun 2027 06:01:17.247   09 Jun 2027 06:01:23.012             5.765          2393.344
       204   09 Jun 2027 07:21:54.535   09 Jun 2027 07:22:11.330            16.795          6846.531
       205   09 Jun 2027 07:22:46.507   09 Jun 2027 07:22:48.193             1.686           819.969
       206   09 Jun 2027 08:57:51.674   09 Jun 2027 08:58:17.325            25.651         12477.187
       207   09 Jun 2027 08:59:33.117   09 Jun 2027 08:59:33.117             0.000             0.000
       208   09 Jun 2027 09:00:50.414   09 Jun 2027 09:01:02.934            12.520          4752.531
       209   09 Jun 2027 10:31:41.484   09 Jun 2027 10:31:57.802            16.318          7618.750
       210   09 Jun 2027 10:34:03.427   09 Jun 2027 10:34:07.871             4.444          2073.719
       211   09 Jun 2027 10:34:18.889   09 Jun 2027 10:34:19.666             0.777           344.312
       212   09 Jun 2027 10:36:25.721   09 Jun 2027 10:36:25.721             0.000             0.000
       213   09 Jun 2027 10:37:46.541   09 Jun 2027 10:38:00.868            14.327          6464.844
       214   09 Jun 2027 10:39:10.512   09 Jun 2027 10:39:16.511             5.999          1495.500
       215   09 Jun 2027 10:39:28.621   09 Jun 2027 10:39:29.749             1.128           368.281
       216   09 Jun 2027 10:39:35.328   09 Jun 2027 10:39:37.434             2.106            52.094
       217   10 Jun 2027 03:00:00.000   10 Jun 2027 03:00:36.750            36.750         18375.000
       218   10 Jun 2027 03:01:30.120   10 Jun 2027 03:01:30.742             0.622           311.000
       219   10 Jun 2027 04:32:06.545   10 Jun 2027 04:33:42.763            96.218         48109.000
       220   10 Jun 2027 04:33:44.598   10 Jun 2027 04:34:50.994            66.396         33198.000
       221   10 Jun 2027 04:35:00.827   10 Jun 2027 04:35:30.464            29.637         14818.500
       222   10 Jun 2027 04:36:36.124   10 Jun 2027 04:36:51.390            15.266          7633.000
       223   10 Jun 2027 06:10:26.470   10 Jun 2027 06:12:04.332            97.862         48231.407
       224   10 Jun 2027 06:12:24.906   10 Jun 2027 06:12:27.142             2.236           615.844
       225   10 Jun 2027 06:13:41.346   10 Jun 2027 06:13:41.346             0.000             0.000
       226   10 Jun 2027 06:13:57.438   10 Jun 2027 06:14:04.482             7.044          2676.344
       227   10 Jun 2027 06:15:03.600   10 Jun 2027 06:15:04.370             0.770           385.000
       228   10 Jun 2027 07:33:48.926   10 Jun 2027 07:34:07.953            19.027          9113.156
       229   10 Jun 2027 07:35:08.548   10 Jun 2027 07:35:12.230             3.682          1693.844
       230   10 Jun 2027 07:35:33.696   10 Jun 2027 07:35:35.502             1.806           475.656
       231   10 Jun 2027 07:35:51.951   10 Jun 2027 07:35:56.634             4.683           224.094
       232   10 Jun 2027 09:10:10.383   10 Jun 2027 09:10:27.487            17.104          8552.000
       233   10 Jun 2027 09:10:36.198   10 Jun 2027 09:10:39.120             2.922          1280.437
       234   10 Jun 2027 09:10:51.754   10 Jun 2027 09:10:51.754             0.000             0.000
       235   10 Jun 2027 09:11:38.986   10 Jun 2027 09:11:47.946             8.960          1732.937
       236   10 Jun 2027 09:12:22.990   10 Jun 2027 09:12:22.990             0.000             0.000
       237   10 Jun 2027 09:12:34.380   10 Jun 2027 09:12:37.152             2.772           724.656
       238   10 Jun 2027 10:43:43.332   10 Jun 2027 10:43:55.087            11.755          5859.688
       239   10 Jun 2027 10:46:08.020   10 Jun 2027 10:46:09.885             1.865           726.563
       240   10 Jun 2027 10:47:03.864   10 Jun 2027 10:47:11.544             7.680          1554.781
       241   10 Jun 2027 10:47:39.739   10 Jun 2027 10:47:42.748             3.009           630.219
       242   10 Jun 2027 10:48:02.027   10 Jun 2027 10:48:04.562             2.535           493.531
       243   10 Jun 2027 10:48:09.913   10 Jun 2027 10:48:13.174             3.261           167.219
       244   10 Jun 2027 10:48:36.267   10 Jun 2027 10:48:38.522             2.255           664.125
       245   10 Jun 2027 10:51:06.647   10 Jun 2027 10:51:17.263            10.616          4300.094
       246   10 Jun 2027 10:52:07.863   10 Jun 2027 10:52:11.297             3.434          1581.250
       247   11 Jun 2027 03:05:59.098   11 Jun 2027 03:06:28.547            29.449         14724.500
       248   11 Jun 2027 03:06:49.116   11 Jun 2027 03:07:32.913            43.797         21898.500
       249   11 Jun 2027 03:07:34.569   11 Jun 2027 03:07:42.153             7.584          3792.000
       250   11 Jun 2027 03:07:49.844   11 Jun 2027 03:08:41.030            51.186         25593.000
       251   11 Jun 2027 03:09:14.317   11 Jun 2027 03:09:29.784            15.467          7733.500
       252   11 Jun 2027 03:10:21.546   11 Jun 2027 03:10:48.284            26.738         13369.000
       253   11 Jun 2027 03:11:08.333   11 Jun 2027 03:11:08.333             0.000             0.000
       254   11 Jun 2027 03:11:12.561   11 Jun 2027 03:11:23.785            11.224          5612.000
       255   11 Jun 2027 04:44:00.109   11 Jun 2027 04:44:05.325             5.216          2608.000
       256   11 Jun 2027 04:44:30.040   11 Jun 2027 04:46:51.622           141.582         69921.656
       257   11 Jun 2027 04:47:29.399   11 Jun 2027 04:47:31.919             2.520          1098.781
       258   11 Jun 2027 04:48:34.165   11 Jun 2027 04:48:39.419             5.254          1848.188
       259   11 Jun 2027 06:22:41.305   11 Jun 2027 06:23:08.966            27.661         13088.063
       260   11 Jun 2027 06:23:37.509   11 Jun 2027 06:23:39.283             1.774           818.125
       261   11 Jun 2027 06:24:44.365   11 Jun 2027 06:24:44.365             0.000             0.000
       262   11 Jun 2027 06:24:49.710   11 Jun 2027 06:24:56.516             6.806          1894.375
       263   11 Jun 2027 06:25:36.551   11 Jun 2027 06:25:38.994             2.443          1066.969
       264   11 Jun 2027 07:45:40.173   11 Jun 2027 07:45:53.445            13.272          6516.219
       265   11 Jun 2027 07:46:58.853   11 Jun 2027 07:47:04.316             5.463          1143.156
       266   11 Jun 2027 07:48:11.207   11 Jun 2027 07:48:13.954             2.747          1373.500
       267   11 Jun 2027 09:22:12.496   11 Jun 2027 09:22:25.856            13.360          5717.719
       268   11 Jun 2027 10:58:22.131   11 Jun 2027 10:58:57.035            34.904         16450.375
       269   11 Jun 2027 10:59:48.640   11 Jun 2027 10:59:50.463             1.823           527.469
       270   11 Jun 2027 11:01:12.494   11 Jun 2027 11:01:18.712             6.218          2444.781
       271   11 Jun 2027 11:03:10.259   11 Jun 2027 11:03:10.259             0.000             0.000
       272   11 Jun 2027 11:03:35.735   11 Jun 2027 11:03:44.808             9.073          4281.969
       273   11 Jun 2027 11:03:59.158   11 Jun 2027 11:04:00.485             1.327           113.281
       274   12 Jun 2027 03:18:00.906   12 Jun 2027 03:21:04.800           183.894         91947.000
       275   12 Jun 2027 03:21:09.842   12 Jun 2027 03:21:17.220             7.378          3689.000
       276   12 Jun 2027 03:23:12.219   12 Jun 2027 03:23:15.958             3.739          1869.500
       277   12 Jun 2027 03:23:57.906   12 Jun 2027 03:24:01.550             3.644          1822.000
       278   12 Jun 2027 03:24:57.467   12 Jun 2027 03:25:09.420            11.953          5976.500
       279   12 Jun 2027 04:56:08.994   12 Jun 2027 04:57:11.111            62.117         31058.500
       280   12 Jun 2027 04:57:17.976   12 Jun 2027 04:58:13.366            55.390         27695.000
       281   12 Jun 2027 04:58:47.729   12 Jun 2027 04:58:53.167             5.438          1340.094
       282   12 Jun 2027 04:59:02.581   12 Jun 2027 04:59:03.252             0.671           294.188
       283   12 Jun 2027 04:59:24.293   12 Jun 2027 04:59:27.370             3.077           657.531
       284   12 Jun 2027 06:34:27.671   12 Jun 2027 06:34:39.589            11.918          5959.000
       285   12 Jun 2027 06:35:18.324   12 Jun 2027 06:35:24.137             5.813          2318.469
       286   12 Jun 2027 06:36:44.342   12 Jun 2027 06:36:49.887             5.545          2506.406
       287   12 Jun 2027 06:37:13.565   12 Jun 2027 06:37:15.692             2.127           578.500
       288   12 Jun 2027 06:37:46.647   12 Jun 2027 06:37:48.149             1.502           751.000
       289   12 Jun 2027 06:37:51.611   12 Jun 2027 06:37:53.493             1.882           198.313
       290   12 Jun 2027 06:38:12.795   12 Jun 2027 06:38:14.687             1.892           515.563
       291   12 Jun 2027 07:57:50.644   12 Jun 2027 07:58:08.047            17.403          8121.937
       292   12 Jun 2027 07:58:41.183   12 Jun 2027 07:58:43.285             2.102           635.344
       293   12 Jun 2027 07:59:20.325   12 Jun 2027 07:59:22.822             2.497           912.844
       294   12 Jun 2027 08:00:34.500   12 Jun 2027 08:00:39.755             5.255          2183.437
       295   12 Jun 2027 09:34:22.145   12 Jun 2027 09:34:36.683            14.538          5162.125
       296   12 Jun 2027 09:36:50.420   12 Jun 2027 09:36:50.420             0.000             0.000
       297   12 Jun 2027 11:09:31.381   12 Jun 2027 11:09:54.122            22.741         11105.594
       298   12 Jun 2027 11:11:05.509   12 Jun 2027 11:11:11.015             5.506          2163.312
       299   12 Jun 2027 11:11:55.209   12 Jun 2027 11:12:01.755             6.546          1359.219
       300   12 Jun 2027 11:13:14.487   12 Jun 2027 11:13:22.711             8.224          2272.875
       301   12 Jun 2027 11:13:53.512   12 Jun 2027 11:13:55.116             1.604           713.812
       302   12 Jun 2027 11:14:22.408   12 Jun 2027 11:14:30.565             8.157           717.094
       303   12 Jun 2027 11:15:05.453   12 Jun 2027 11:15:10.462             5.009           594.875
       304   12 Jun 2027 11:15:21.987   12 Jun 2027 11:15:24.501             2.514           360.156
       305   12 Jun 2027 11:15:33.307   12 Jun 2027 11:15:35.287             1.980           275.187
       306   12 Jun 2027 11:15:35.651   12 Jun 2027 11:15:35.849             0.198            11.375
       307   12 Jun 2027 11:15:44.182   12 Jun 2027 11:15:44.919             0.737           211.313
       308   12 Jun 2027 11:15:59.441   12 Jun 2027 11:16:04.365             4.924           453.812
       309   13 Jun 2027 03:29:58.592   13 Jun 2027 03:33:39.548           220.956        110478.000
       310   13 Jun 2027 03:33:44.203   13 Jun 2027 03:33:44.203             0.000             0.000
       311   13 Jun 2027 03:33:51.565   13 Jun 2027 03:34:04.570            13.005          6502.500
       312   13 Jun 2027 03:34:47.202   13 Jun 2027 03:34:51.944             4.742          2371.000
       313   13 Jun 2027 05:09:15.829   13 Jun 2027 05:10:05.266            49.437         24718.500
       314   13 Jun 2027 05:10:19.163   13 Jun 2027 05:10:53.716            34.553         17062.781
       315   13 Jun 2027 05:11:18.405   13 Jun 2027 05:11:22.995             4.590           706.313
       316   13 Jun 2027 05:11:58.470   13 Jun 2027 05:12:00.993             2.523          1100.469
       317   13 Jun 2027 05:13:44.082   13 Jun 2027 05:13:49.484             5.402          2701.000
       318   13 Jun 2027 06:46:24.653   13 Jun 2027 06:46:36.067            11.414          4772.156
       319   13 Jun 2027 06:46:47.118   13 Jun 2027 06:46:48.169             1.051           345.344
       320   13 Jun 2027 06:47:25.995   13 Jun 2027 06:47:28.937             2.942           943.844
       321   13 Jun 2027 06:47:37.373   13 Jun 2027 06:47:42.565             5.192           263.625
       322   13 Jun 2027 06:47:58.462   13 Jun 2027 06:48:04.517             6.055           365.094
       323   13 Jun 2027 06:48:15.021   13 Jun 2027 06:48:15.416             0.395           155.437
       324   13 Jun 2027 06:49:08.020   13 Jun 2027 06:49:08.020             0.000             0.000
       325   13 Jun 2027 06:49:23.086   13 Jun 2027 06:49:27.552             4.466          1414.219
       326   13 Jun 2027 06:49:30.129   13 Jun 2027 06:49:35.512             5.383            34.719
       327   13 Jun 2027 08:10:28.633   13 Jun 2027 08:10:45.735            17.102          8328.625
       328   13 Jun 2027 08:11:00.599   13 Jun 2027 08:11:02.903             2.304           213.375
       329   13 Jun 2027 09:47:46.745   13 Jun 2027 09:48:12.056            25.311         12193.781
       330   13 Jun 2027 09:49:16.256   13 Jun 2027 09:49:19.938             3.682          1769.031
       331   13 Jun 2027 11:21:12.862   13 Jun 2027 11:21:24.997            12.135          4315.906
       332   13 Jun 2027 11:27:51.141   13 Jun 2027 11:28:14.988            23.847         11530.031
