uniorb/output/strategy_2/Camera/Camera_KinoSat_110603.txt

KinoSat_110603
-------------------------
    Access    *     Start Time (UTCG)     *     Stop Time (UTCG)  *   Duration (s) *   Data (Mbytes)
         1   01 Jun 2027 04:03:05.662   01 Jun 2027 04:03:52.976            47.314         23657.000
         2   01 Jun 2027 04:04:24.971   01 Jun 2027 04:04:47.319            22.348         11174.000
         3   01 Jun 2027 04:05:15.332   01 Jun 2027 04:05:15.332             0.000             0.000
         4   01 Jun 2027 04:06:45.248   01 Jun 2027 04:06:54.515             9.267          4633.500
         5   01 Jun 2027 05:37:48.812   01 Jun 2027 05:40:53.399           184.587         92293.500
         6   01 Jun 2027 05:42:18.721   01 Jun 2027 05:42:30.911            12.190          6095.000
         7   01 Jun 2027 05:43:20.757   01 Jun 2027 05:43:26.759             6.002          3001.000
         8   01 Jun 2027 05:43:49.607   01 Jun 2027 05:44:15.401            25.794         12897.000
         9   01 Jun 2027 05:44:42.113   01 Jun 2027 05:44:42.122             0.009             4.500
        10   01 Jun 2027 05:45:15.502   01 Jun 2027 05:45:20.135             4.633          2316.500
        11   01 Jun 2027 07:14:34.634   01 Jun 2027 07:16:54.302           139.668         69834.000
        12   01 Jun 2027 07:17:01.543   01 Jun 2027 07:18:12.662            71.119         35559.500
        13   01 Jun 2027 07:19:29.806   01 Jun 2027 07:19:38.456             8.650          4325.000
        14   01 Jun 2027 08:52:50.559   01 Jun 2027 08:55:46.572           176.013         88006.500
        15   01 Jun 2027 08:56:06.465   01 Jun 2027 08:56:33.877            27.412         13706.000
        16   01 Jun 2027 10:26:09.451   01 Jun 2027 10:27:38.714            89.263         44631.500
        17   01 Jun 2027 10:28:06.911   01 Jun 2027 10:29:17.389            70.478         35239.000
        18   01 Jun 2027 10:32:44.948   01 Jun 2027 10:32:45.566             0.618           309.000
        19   01 Jun 2027 10:33:11.057   01 Jun 2027 10:33:27.426            16.369          8184.500
        20   02 Jun 2027 04:13:06.437   02 Jun 2027 04:14:19.653            73.216         36608.000
        21   02 Jun 2027 04:15:07.579   02 Jun 2027 04:15:21.825            14.246          7123.000
        22   02 Jun 2027 04:17:21.966   02 Jun 2027 04:17:47.212            25.246         12623.000
        23   02 Jun 2027 04:18:05.064   02 Jun 2027 04:18:32.273            27.209         13604.500
        24   02 Jun 2027 04:19:21.258   02 Jun 2027 04:19:24.581             3.323          1661.500
        25   02 Jun 2027 05:49:53.942   02 Jun 2027 05:52:12.744           138.802         69401.000
        26   02 Jun 2027 05:54:25.114   02 Jun 2027 05:55:09.836            44.722         22361.000
        27   02 Jun 2027 05:56:27.955   02 Jun 2027 05:56:50.151            22.196         11098.000
        28   02 Jun 2027 07:26:54.985   02 Jun 2027 07:29:01.037           126.052         63026.000
        29   02 Jun 2027 07:30:17.069   02 Jun 2027 07:31:38.476            81.407         40703.500
        30   02 Jun 2027 09:04:48.425   02 Jun 2027 09:06:57.972           129.547         64773.500
        31   02 Jun 2027 09:07:13.197   02 Jun 2027 09:07:18.570             5.373          1294.688
        32   02 Jun 2027 09:08:34.486   02 Jun 2027 09:08:38.920             4.434          1948.031
        33   02 Jun 2027 10:38:05.131   02 Jun 2027 10:38:22.396            17.265          7672.750
        34   02 Jun 2027 10:39:01.782   02 Jun 2027 10:39:02.542             0.760           179.156
        35   02 Jun 2027 10:39:40.050   02 Jun 2027 10:39:42.545             2.495           830.875
        36   02 Jun 2027 10:39:56.804   02 Jun 2027 10:39:58.850             2.046           443.875
        37   02 Jun 2027 10:40:16.020   02 Jun 2027 10:40:18.601             2.581            96.156
        38   02 Jun 2027 10:41:21.160   02 Jun 2027 10:41:26.123             4.963          1795.562
        39   02 Jun 2027 10:42:17.553   02 Jun 2027 10:42:20.835             3.282          1561.375
        40   02 Jun 2027 10:43:12.719   02 Jun 2027 10:43:17.556             4.837          1552.781
        41   02 Jun 2027 10:43:27.940   02 Jun 2027 10:43:27.940             0.000             0.000
        42   02 Jun 2027 10:43:40.592   02 Jun 2027 10:43:42.429             1.837           433.500
        43   02 Jun 2027 10:44:05.873   02 Jun 2027 10:44:07.945             2.072           116.313
        44   02 Jun 2027 10:44:44.749   02 Jun 2027 10:44:48.979             4.230          1150.125
        45   03 Jun 2027 04:24:26.449   03 Jun 2027 04:26:34.767           128.318         64159.000
        46   03 Jun 2027 04:26:36.959   03 Jun 2027 04:27:26.938            49.979         24989.500
        47   03 Jun 2027 04:27:30.600   03 Jun 2027 04:27:34.125             3.525          1762.500
        48   03 Jun 2027 04:27:41.244   03 Jun 2027 04:27:47.494             6.250          3125.000
        49   03 Jun 2027 04:29:19.470   03 Jun 2027 04:29:26.286             6.816          3408.000
        50   03 Jun 2027 04:30:04.516   03 Jun 2027 04:30:14.498             9.982          4991.000
        51   03 Jun 2027 04:31:19.577   03 Jun 2027 04:31:25.017             5.440          2720.000
        52   03 Jun 2027 04:32:36.010   03 Jun 2027 04:32:46.981            10.971          5485.500
        53   03 Jun 2027 06:02:01.094   03 Jun 2027 06:04:14.296           133.202         66255.281
        54   03 Jun 2027 06:04:37.854   03 Jun 2027 06:04:39.744             1.890           320.094
        55   03 Jun 2027 06:05:00.413   03 Jun 2027 06:05:04.334             3.921           634.625
        56   03 Jun 2027 06:07:46.283   03 Jun 2027 06:07:46.283             0.000             0.000
        57   03 Jun 2027 06:08:08.162   03 Jun 2027 06:08:11.398             3.236          1618.000
        58   03 Jun 2027 06:09:01.897   03 Jun 2027 06:09:18.519            16.622          5405.657
        59   03 Jun 2027 07:38:44.216   03 Jun 2027 07:39:34.414            50.198         24953.750
        60   03 Jun 2027 07:39:54.121   03 Jun 2027 07:40:01.740             7.619           579.375
        61   03 Jun 2027 07:41:47.405   03 Jun 2027 07:41:53.646             6.241          2001.719
        62   03 Jun 2027 07:42:59.233   03 Jun 2027 07:43:03.940             4.707          1956.094
        63   03 Jun 2027 07:43:26.813   03 Jun 2027 07:43:28.621             1.808           714.781
        64   03 Jun 2027 07:43:38.497   03 Jun 2027 07:43:44.864             6.367           222.344
        65   03 Jun 2027 07:44:14.800   03 Jun 2027 07:44:17.365             2.565           909.812
        66   03 Jun 2027 07:44:47.936   03 Jun 2027 07:44:54.466             6.530           151.531
        67   03 Jun 2027 09:16:47.897   03 Jun 2027 09:17:04.302            16.405          8202.500
        68   03 Jun 2027 09:17:19.879   03 Jun 2027 09:17:21.966             2.087          1043.500
        69   03 Jun 2027 09:17:47.515   03 Jun 2027 09:17:51.174             3.659          1756.625
        70   03 Jun 2027 09:18:16.625   03 Jun 2027 09:18:20.574             3.949           795.344
        71   03 Jun 2027 09:18:57.973   03 Jun 2027 09:19:04.792             6.819           989.313
        72   03 Jun 2027 09:19:36.937   03 Jun 2027 09:19:36.937             0.000             0.000
        73   03 Jun 2027 09:19:48.833   03 Jun 2027 09:19:52.763             3.930          1376.281
        74   03 Jun 2027 09:20:18.123   03 Jun 2027 09:20:20.159             2.036           382.000
        75   03 Jun 2027 09:20:36.330   03 Jun 2027 09:20:38.855             2.525           460.313
        76   03 Jun 2027 09:20:49.285   03 Jun 2027 09:20:50.790             1.505           234.312
        77   03 Jun 2027 10:50:31.350   03 Jun 2027 10:50:34.280             2.930          1454.563
        78   03 Jun 2027 10:51:25.600   03 Jun 2027 10:51:28.690             3.090           868.750
        79   03 Jun 2027 10:52:06.288   03 Jun 2027 10:52:12.232             5.944          1164.031
        80   03 Jun 2027 10:52:41.769   03 Jun 2027 10:52:41.769             0.000             0.000
        81   03 Jun 2027 10:53:18.701   03 Jun 2027 10:53:23.784             5.083          1886.094
        82   03 Jun 2027 10:53:41.385   03 Jun 2027 10:53:43.214             1.829           420.062
        83   03 Jun 2027 10:54:19.421   03 Jun 2027 10:54:21.873             2.452           961.375
        84   03 Jun 2027 10:54:47.987   03 Jun 2027 10:54:47.987             0.000             0.000
        85   03 Jun 2027 10:55:27.127   03 Jun 2027 10:55:31.165             4.038          1763.625
        86   03 Jun 2027 10:56:16.929   03 Jun 2027 10:56:21.475             4.546          1311.781
        87   03 Jun 2027 10:57:05.614   03 Jun 2027 10:57:06.811             1.197           598.500
        88   03 Jun 2027 10:57:10.624   03 Jun 2027 10:57:14.475             3.851           731.156
        89   04 Jun 2027 03:01:01.830   04 Jun 2027 03:01:10.239             8.409          4204.500
        90   04 Jun 2027 03:01:59.394   04 Jun 2027 03:02:08.172             8.778          4389.000
        91   04 Jun 2027 03:03:53.080   04 Jun 2027 03:03:56.654             3.574          1787.000
        92   04 Jun 2027 03:04:37.102   04 Jun 2027 03:04:56.195            19.093          9546.500
        93   04 Jun 2027 03:05:04.087   04 Jun 2027 03:05:04.087             0.000             0.000
        94   04 Jun 2027 04:35:56.279   04 Jun 2027 04:38:51.655           175.376         87688.000
        95   04 Jun 2027 04:38:55.045   04 Jun 2027 04:38:59.094             4.049          2024.500
        96   04 Jun 2027 04:39:09.696   04 Jun 2027 04:39:12.863             3.167          1583.500
        97   04 Jun 2027 04:39:13.781   04 Jun 2027 04:39:34.541            20.760         10380.000
        98   04 Jun 2027 04:39:54.195   04 Jun 2027 04:40:01.772             7.577          3788.500
        99   04 Jun 2027 04:41:35.976   04 Jun 2027 04:41:40.205             4.229          2114.500
       100   04 Jun 2027 04:44:51.868   04 Jun 2027 04:45:05.163            13.295          6647.500
       101   04 Jun 2027 06:13:56.345   04 Jun 2027 06:15:39.061           102.716         51179.250
       102   04 Jun 2027 06:16:42.248   04 Jun 2027 06:16:44.061             1.813           906.500
       103   04 Jun 2027 06:16:48.881   04 Jun 2027 06:16:57.128             8.247          1150.438
       104   04 Jun 2027 06:17:22.634   04 Jun 2027 06:17:25.589             2.955           756.094
       105   04 Jun 2027 06:18:27.033   04 Jun 2027 06:18:28.500             1.467           733.500
       106   04 Jun 2027 06:18:58.774   04 Jun 2027 06:19:01.712             2.938          1469.000
       107   04 Jun 2027 06:19:38.246   04 Jun 2027 06:19:43.742             5.496          1744.437
       108   04 Jun 2027 06:20:55.729   04 Jun 2027 06:21:00.905             5.176          2249.594
       109   04 Jun 2027 07:50:51.489   04 Jun 2027 07:51:19.251            27.762         13881.000
       110   04 Jun 2027 07:51:22.088   04 Jun 2027 07:51:34.157            12.069          5894.656
       111   04 Jun 2027 07:52:58.844   04 Jun 2027 07:53:03.949             5.105          2232.531
       112   04 Jun 2027 07:53:37.328   04 Jun 2027 07:53:37.328             0.000             0.000
       113   04 Jun 2027 07:53:55.735   04 Jun 2027 07:53:59.198             3.463          1597.656
       114   04 Jun 2027 07:54:35.194   04 Jun 2027 07:54:38.888             3.694           838.750
       115   04 Jun 2027 07:55:14.254   04 Jun 2027 07:55:17.366             3.112           979.500
       116   04 Jun 2027 07:55:21.266   04 Jun 2027 07:55:21.775             0.509            67.531
       117   04 Jun 2027 07:56:37.918   04 Jun 2027 07:56:43.466             5.548          1914.094
       118   04 Jun 2027 09:28:25.371   04 Jun 2027 09:28:46.886            21.515         10599.562
       119   04 Jun 2027 09:29:22.498   04 Jun 2027 09:29:24.133             1.635           817.500
       120   04 Jun 2027 09:29:34.893   04 Jun 2027 09:29:36.316             1.423           631.625
       121   04 Jun 2027 09:30:24.081   04 Jun 2027 09:30:27.576             3.495          1426.187
       122   04 Jun 2027 09:31:07.396   04 Jun 2027 09:31:10.579             3.183          1244.375
       123   04 Jun 2027 09:31:33.499   04 Jun 2027 09:31:35.197             1.698           716.250
       124   04 Jun 2027 09:32:02.849   04 Jun 2027 09:32:02.849             0.000             0.000
       125   04 Jun 2027 09:32:22.636   04 Jun 2027 09:32:25.444             2.808          1130.875
       126   04 Jun 2027 11:02:48.880   04 Jun 2027 11:02:51.423             2.543          1271.500
       127   04 Jun 2027 11:04:37.325   04 Jun 2027 11:04:43.402             6.077          2129.625
       128   04 Jun 2027 11:05:10.072   04 Jun 2027 11:05:10.072             0.000             0.000
       129   04 Jun 2027 11:05:27.836   04 Jun 2027 11:05:30.215             2.379           828.250
       130   04 Jun 2027 11:06:20.470   04 Jun 2027 11:06:21.537             1.067           533.500
       131   04 Jun 2027 11:06:39.225   04 Jun 2027 11:06:42.848             3.623          1191.969
       132   05 Jun 2027 03:15:19.573   05 Jun 2027 03:15:49.011            29.438         14719.000
       133   05 Jun 2027 03:16:41.353   05 Jun 2027 03:16:57.349            15.996          7998.000
       134   05 Jun 2027 03:17:38.150   05 Jun 2027 03:17:43.234             5.084          2542.000
       135   05 Jun 2027 04:48:52.268   05 Jun 2027 04:52:28.763           216.495        108247.500
       136   05 Jun 2027 04:54:25.668   05 Jun 2027 04:54:25.668             0.000             0.000
       137   05 Jun 2027 04:54:55.847   05 Jun 2027 04:54:55.921             0.074            37.000
       138   05 Jun 2027 04:55:18.004   05 Jun 2027 04:55:22.041             4.037          2018.500
       139   05 Jun 2027 04:56:28.556   05 Jun 2027 04:56:31.427             2.871          1435.500
       140   05 Jun 2027 04:57:25.368   05 Jun 2027 04:57:26.408             1.040           520.000
       141   05 Jun 2027 06:26:18.290   05 Jun 2027 06:27:09.020            50.730         25365.000
       142   05 Jun 2027 06:28:14.801   05 Jun 2027 06:29:03.908            49.107         23461.281
       143   05 Jun 2027 06:29:07.070   05 Jun 2027 06:29:08.262             1.192            43.687
       144   05 Jun 2027 06:30:24.021   05 Jun 2027 06:30:24.110             0.089            44.500
       145   05 Jun 2027 06:32:08.844   05 Jun 2027 06:32:20.181            11.337          5391.469
       146   05 Jun 2027 08:03:20.671   05 Jun 2027 08:04:02.744            42.073         19342.312
       147   05 Jun 2027 08:04:16.044   05 Jun 2027 08:04:16.306             0.262            57.688
       148   05 Jun 2027 08:05:37.849   05 Jun 2027 08:05:38.557             0.708           354.000
       149   05 Jun 2027 08:05:55.222   05 Jun 2027 08:06:00.843             5.621          1590.844
       150   05 Jun 2027 08:06:40.537   05 Jun 2027 08:06:45.624             5.087           861.219
       151   05 Jun 2027 08:07:10.979   05 Jun 2027 08:07:12.648             1.669           792.344
       152   05 Jun 2027 08:08:30.909   05 Jun 2027 08:08:35.655             4.746          2373.000
       153   05 Jun 2027 08:08:57.101   05 Jun 2027 08:08:58.858             1.757           717.406
       154   05 Jun 2027 09:40:08.805   05 Jun 2027 09:40:28.772            19.967          8568.625
       155   05 Jun 2027 09:41:13.203   05 Jun 2027 09:41:17.015             3.812          1388.469
       156   05 Jun 2027 09:41:36.522   05 Jun 2027 09:41:36.592             0.070            35.000
       157   05 Jun 2027 09:42:20.697   05 Jun 2027 09:42:27.753             7.056          1841.031
       158   05 Jun 2027 09:43:18.045   05 Jun 2027 09:43:21.913             3.868          1571.625
       159   05 Jun 2027 09:43:51.226   05 Jun 2027 09:43:53.563             2.337           620.219
       160   05 Jun 2027 09:44:34.258   05 Jun 2027 09:44:37.759             3.501          1271.719
       161   05 Jun 2027 11:15:24.090   05 Jun 2027 11:15:27.041             2.951          1475.500
       162   05 Jun 2027 11:17:10.997   05 Jun 2027 11:17:15.336             4.339           840.750
       163   05 Jun 2027 11:17:27.130   05 Jun 2027 11:17:30.051             2.921           368.562
       164   05 Jun 2027 11:18:13.310   05 Jun 2027 11:18:16.542             3.232          1005.969
       165   05 Jun 2027 11:19:27.751   05 Jun 2027 11:19:35.356             7.605          2052.750
       166   06 Jun 2027 03:27:25.778   06 Jun 2027 03:27:43.514            17.736          8868.000
       167   06 Jun 2027 03:28:11.833   06 Jun 2027 03:28:29.204            17.371          8685.500
       168   06 Jun 2027 03:28:39.916   06 Jun 2027 03:28:43.610             3.694          1847.000
       169   06 Jun 2027 03:28:58.650   06 Jun 2027 03:29:03.747             5.097          2548.500
       170   06 Jun 2027 03:29:30.922   06 Jun 2027 03:29:43.105            12.183          6091.500
       171   06 Jun 2027 04:59:35.306   06 Jun 2027 04:59:44.950             9.644          4822.000
       172   06 Jun 2027 05:01:30.947   06 Jun 2027 05:04:59.026           208.079        104039.500
       173   06 Jun 2027 05:07:26.964   06 Jun 2027 05:07:35.534             8.570          4285.000
       174   06 Jun 2027 05:07:44.234   06 Jun 2027 05:07:45.910             1.676           838.000
       175   06 Jun 2027 05:08:24.919   06 Jun 2027 05:08:51.692            26.773         12363.500
       176   06 Jun 2027 05:09:20.946   06 Jun 2027 05:09:21.120             0.174            87.000
       177   06 Jun 2027 06:38:29.293   06 Jun 2027 06:39:21.045            51.752         25831.156
       178   06 Jun 2027 06:40:12.532   06 Jun 2027 06:40:13.580             1.048           263.031
       179   06 Jun 2027 06:40:48.076   06 Jun 2027 06:40:49.125             1.049           249.500
       180   06 Jun 2027 06:41:19.027   06 Jun 2027 06:41:21.232             2.205           887.906
       181   06 Jun 2027 06:43:53.814   06 Jun 2027 06:43:59.004             5.190          2595.000
       182   06 Jun 2027 06:44:32.607   06 Jun 2027 06:44:40.219             7.612          3213.031
       183   06 Jun 2027 06:45:07.710   06 Jun 2027 06:45:10.663             2.953           859.094
       184   06 Jun 2027 08:15:34.506   06 Jun 2027 08:16:02.585            28.079         14039.500
       185   06 Jun 2027 08:16:51.737   06 Jun 2027 08:17:03.354            11.617          1673.563
       186   06 Jun 2027 08:17:39.030   06 Jun 2027 08:17:39.928             0.898           203.469
       187   06 Jun 2027 08:17:55.060   06 Jun 2027 08:17:57.655             2.595           472.875
       188   06 Jun 2027 08:18:43.728   06 Jun 2027 08:18:49.031             5.303          1310.250
       189   06 Jun 2027 08:19:01.950   06 Jun 2027 08:19:03.074             1.124           235.219
       190   06 Jun 2027 08:19:23.700   06 Jun 2027 08:19:24.699             0.999           317.000
       191   06 Jun 2027 08:20:01.655   06 Jun 2027 08:20:06.479             4.824          1122.875
       192   06 Jun 2027 09:52:12.171   06 Jun 2027 09:52:31.515            19.344          8887.094
       193   06 Jun 2027 09:53:02.904   06 Jun 2027 09:53:05.266             2.362           564.719
       194   06 Jun 2027 09:53:38.059   06 Jun 2027 09:53:40.838             2.779           865.094
       195   06 Jun 2027 09:54:15.949   06 Jun 2027 09:54:20.525             4.576          1097.219
       196   06 Jun 2027 09:54:28.297   06 Jun 2027 09:54:30.322             2.025           160.094
       197   06 Jun 2027 09:54:51.155   06 Jun 2027 09:54:52.622             1.467           604.875
       198   06 Jun 2027 09:55:39.147   06 Jun 2027 09:55:40.718             1.571           371.219
       199   06 Jun 2027 09:55:57.848   06 Jun 2027 09:55:59.284             1.436           458.531
       200   06 Jun 2027 09:56:36.218   06 Jun 2027 09:56:44.271             8.053          1154.187
       201   06 Jun 2027 11:30:31.534   06 Jun 2027 11:30:35.587             4.053          1895.781
       202   06 Jun 2027 11:30:51.989   06 Jun 2027 11:30:59.932             7.943           247.875
       203   07 Jun 2027 03:39:33.301   07 Jun 2027 03:40:22.266            48.965         24482.500
       204   07 Jun 2027 03:40:25.929   07 Jun 2027 03:40:41.670            15.741          7870.500
       205   07 Jun 2027 03:43:03.779   07 Jun 2027 03:43:12.083             8.304          4152.000
       206   07 Jun 2027 05:14:41.075   07 Jun 2027 05:17:37.597           176.522         88261.000
       207   07 Jun 2027 05:18:55.789   07 Jun 2027 05:19:22.043            26.254         13127.000
       208   07 Jun 2027 05:20:23.484   07 Jun 2027 05:20:27.132             3.648          1824.000
       209   07 Jun 2027 05:21:15.004   07 Jun 2027 05:21:24.486             9.482          4741.000
       210   07 Jun 2027 06:51:02.719   07 Jun 2027 06:52:11.211            68.492         33865.938
       211   07 Jun 2027 06:52:11.253   07 Jun 2027 06:52:11.681             0.428             1.313
       212   07 Jun 2027 06:53:12.086   07 Jun 2027 06:53:14.656             2.570           801.750
       213   07 Jun 2027 06:53:24.805   07 Jun 2027 06:53:32.845             8.040           102.156
       214   07 Jun 2027 06:53:59.711   07 Jun 2027 06:54:01.755             2.044           684.000
       215   07 Jun 2027 06:54:20.458   07 Jun 2027 06:54:23.032             2.574           577.156
       216   07 Jun 2027 06:54:23.274   07 Jun 2027 06:54:23.274             0.000             0.000
       217   07 Jun 2027 06:55:36.727   07 Jun 2027 06:55:41.594             4.867          2300.219
       218   07 Jun 2027 06:56:11.013   07 Jun 2027 06:56:14.050             3.037           919.344
       219   07 Jun 2027 06:56:37.874   07 Jun 2027 06:56:39.514             1.640           744.500
       220   07 Jun 2027 08:28:28.154   07 Jun 2027 08:28:55.084            26.930         12941.312
       221   07 Jun 2027 08:30:59.557   07 Jun 2027 08:31:06.319             6.762          3112.031
       222   07 Jun 2027 08:31:32.745   07 Jun 2027 08:31:32.745             0.000             0.000
       223   07 Jun 2027 08:32:16.950   07 Jun 2027 08:32:19.109             2.159          1079.500
       224   07 Jun 2027 10:04:39.066   07 Jun 2027 10:04:59.969            20.903          8415.750
       225   07 Jun 2027 10:05:47.438   07 Jun 2027 10:05:49.445             2.007           248.906
       226   07 Jun 2027 10:06:28.911   07 Jun 2027 10:06:33.437             4.526          1233.312
       227   07 Jun 2027 10:07:26.726   07 Jun 2027 10:07:29.536             2.810           614.344
       228   07 Jun 2027 10:07:42.215   07 Jun 2027 10:07:42.215             0.000             0.000
       229   07 Jun 2027 10:07:45.997   07 Jun 2027 10:07:47.513             1.516           240.688
       230   08 Jun 2027 03:51:36.055   08 Jun 2027 03:53:01.551            85.496         42748.000
       231   08 Jun 2027 03:53:31.292   08 Jun 2027 03:53:31.292             0.000             0.000
       232   08 Jun 2027 03:54:29.913   08 Jun 2027 03:54:37.114             7.201          3600.500
       233   08 Jun 2027 03:54:59.726   08 Jun 2027 03:54:59.726             0.000             0.000
       234   08 Jun 2027 05:26:47.958   08 Jun 2027 05:29:08.686           140.728         70364.000
       235   08 Jun 2027 05:29:38.633   08 Jun 2027 05:30:39.047            60.414         30207.000
       236   08 Jun 2027 05:32:09.201   08 Jun 2027 05:32:09.201             0.000             0.000
       237   08 Jun 2027 05:33:04.909   08 Jun 2027 05:33:26.765            21.856         10928.000
       238   08 Jun 2027 07:02:43.630   08 Jun 2027 07:03:47.089            63.459         30380.250
       239   08 Jun 2027 07:04:07.507   08 Jun 2027 07:04:08.405             0.898            82.031
       240   08 Jun 2027 07:05:15.937   08 Jun 2027 07:05:16.206             0.269            56.219
       241   08 Jun 2027 07:05:46.957   08 Jun 2027 07:05:49.287             2.330           860.344
       242   08 Jun 2027 07:05:53.142   08 Jun 2027 07:05:55.128             1.986           104.594
       243   08 Jun 2027 07:06:05.664   08 Jun 2027 07:06:06.590             0.926           109.937
       244   08 Jun 2027 07:07:29.918   08 Jun 2027 07:07:35.562             5.644          2485.375
       245   08 Jun 2027 07:07:36.401   08 Jun 2027 07:07:38.145             1.744            26.219
       246   08 Jun 2027 07:08:27.550   08 Jun 2027 07:08:30.571             3.021          1510.500
       247   08 Jun 2027 07:08:32.761   08 Jun 2027 07:08:39.340             6.579            33.406
       248   08 Jun 2027 07:08:50.635   08 Jun 2027 07:08:51.842             1.207           352.969
       249   08 Jun 2027 08:40:35.740   08 Jun 2027 08:41:06.435            30.695         12961.500
       250   08 Jun 2027 08:41:23.173   08 Jun 2027 08:41:26.099             2.926            44.344
       251   08 Jun 2027 08:41:43.014   08 Jun 2027 08:41:50.325             7.311           511.937
       252   08 Jun 2027 08:42:42.368   08 Jun 2027 08:42:49.300             6.932          1508.531
       253   08 Jun 2027 08:43:58.482   08 Jun 2027 08:44:02.908             4.426          2099.844
       254   08 Jun 2027 08:44:06.330   08 Jun 2027 08:44:08.967             2.637            19.469
       255   08 Jun 2027 08:44:14.273   08 Jun 2027 08:44:14.273             0.000             0.000
       256   08 Jun 2027 08:44:59.575   08 Jun 2027 08:45:05.725             6.150          1581.500
       257   08 Jun 2027 10:16:33.494   08 Jun 2027 10:16:51.300            17.806          7608.875
       258   08 Jun 2027 10:17:17.233   08 Jun 2027 10:17:22.976             5.743           810.406
       259   08 Jun 2027 10:17:43.165   08 Jun 2027 10:17:43.165             0.000             0.000
       260   08 Jun 2027 10:17:51.086   08 Jun 2027 10:17:54.348             3.262           324.344
       261   08 Jun 2027 10:18:02.847   08 Jun 2027 10:18:05.122             2.275           221.813
       262   08 Jun 2027 10:18:22.127   08 Jun 2027 10:18:24.970             2.843           262.781
       263   08 Jun 2027 10:18:54.574   08 Jun 2027 10:18:57.499             2.925           773.219
       264   08 Jun 2027 10:19:51.197   08 Jun 2027 10:19:55.846             4.649          1159.875
       265   08 Jun 2027 10:20:40.294   08 Jun 2027 10:20:45.477             5.183           996.844
       266   08 Jun 2027 10:20:53.744   08 Jun 2027 10:20:54.436             0.692           144.000
       267   08 Jun 2027 10:21:31.852   08 Jun 2027 10:21:35.648             3.796           581.406
       268   09 Jun 2027 04:03:19.941   09 Jun 2027 04:04:33.250            73.309         36654.500
       269   09 Jun 2027 04:04:54.594   09 Jun 2027 04:05:02.399             7.805          3902.500
       270   09 Jun 2027 04:05:32.956   09 Jun 2027 04:05:34.366             1.410           705.000
       271   09 Jun 2027 04:07:01.242   09 Jun 2027 04:07:06.120             4.878          2439.000
       272   09 Jun 2027 04:07:09.514   09 Jun 2027 04:07:28.716            19.202          9601.000
       273   09 Jun 2027 04:07:33.618   09 Jun 2027 04:07:35.539             1.921           960.500
       274   09 Jun 2027 05:38:03.183   09 Jun 2027 05:40:25.048           141.865         70932.500
       275   09 Jun 2027 05:41:13.789   09 Jun 2027 05:41:55.759            41.970         20985.000
       276   09 Jun 2027 05:43:27.147   09 Jun 2027 05:43:36.294             9.147          4573.500
       277   09 Jun 2027 05:44:56.589   09 Jun 2027 05:44:56.761             0.172            86.000
       278   09 Jun 2027 05:45:30.205   09 Jun 2027 05:45:34.848             4.643          2321.500
       279   09 Jun 2027 07:14:49.382   09 Jun 2027 07:16:18.033            88.651         41642.000
       280   09 Jun 2027 07:17:08.510   09 Jun 2027 07:17:14.087             5.577          1488.938
       281   09 Jun 2027 07:18:02.595   09 Jun 2027 07:18:10.609             8.014          1330.250
       282   09 Jun 2027 07:18:13.217   09 Jun 2027 07:18:14.372             1.155            81.500
       283   09 Jun 2027 07:18:27.081   09 Jun 2027 07:18:27.081             0.000             0.000
       284   09 Jun 2027 07:19:23.842   09 Jun 2027 07:19:29.613             5.771          2170.937
       285   09 Jun 2027 07:19:55.808   09 Jun 2027 07:19:55.808             0.000             0.000
       286   09 Jun 2027 07:20:10.293   09 Jun 2027 07:20:13.135             2.842          1151.531
       287   09 Jun 2027 08:53:05.040   09 Jun 2027 08:53:29.760            24.720         11641.125
       288   09 Jun 2027 08:54:11.223   09 Jun 2027 08:54:13.860             2.637          1185.594
       289   09 Jun 2027 08:54:55.039   09 Jun 2027 08:54:58.568             3.529          1232.281
       290   09 Jun 2027 08:55:06.079   09 Jun 2027 08:55:07.003             0.924            61.375
       291   09 Jun 2027 08:55:28.910   09 Jun 2027 08:55:35.065             6.155           151.563
       292   09 Jun 2027 08:55:56.304   09 Jun 2027 08:56:01.642             5.338           520.594
       293   09 Jun 2027 08:56:21.335   09 Jun 2027 08:56:23.292             1.957           615.406
       294   09 Jun 2027 08:56:44.875   09 Jun 2027 08:56:47.044             2.169           674.469
       295   09 Jun 2027 10:26:24.018   09 Jun 2027 10:26:38.830            14.812          6912.594
       296   09 Jun 2027 10:27:52.368   09 Jun 2027 10:27:53.715             1.347           673.500
       297   09 Jun 2027 10:28:20.673   09 Jun 2027 10:28:25.139             4.466           961.500
       298   09 Jun 2027 10:28:50.369   09 Jun 2027 10:28:54.997             4.628           386.531
       299   09 Jun 2027 10:29:40.338   09 Jun 2027 10:29:45.032             4.694          1369.187
       300   09 Jun 2027 10:30:11.178   09 Jun 2027 10:30:12.864             1.686           793.688
       301   09 Jun 2027 10:30:42.303   09 Jun 2027 10:30:43.478             1.175           587.500
       302   09 Jun 2027 10:31:26.662   09 Jun 2027 10:31:30.083             3.421          1356.219
       303   09 Jun 2027 10:32:02.004   09 Jun 2027 10:32:03.832             1.828           642.375
       304   09 Jun 2027 10:32:36.108   09 Jun 2027 10:32:38.628             2.520           939.688
       305   09 Jun 2027 10:33:00.367   09 Jun 2027 10:33:08.995             8.628           466.844
       306   10 Jun 2027 04:13:20.988   10 Jun 2027 04:14:35.137            74.149         37074.500
       307   10 Jun 2027 04:15:03.452   10 Jun 2027 04:15:23.682            20.230         10115.000
       308   10 Jun 2027 04:15:55.337   10 Jun 2027 04:16:02.247             6.910          3455.000
       309   10 Jun 2027 04:18:48.351   10 Jun 2027 04:19:07.533            19.182          9591.000
       310   10 Jun 2027 04:19:34.980   10 Jun 2027 04:19:39.424             4.444          2222.000
       311   10 Jun 2027 05:50:08.820   10 Jun 2027 05:52:39.017           150.197         75098.500
       312   10 Jun 2027 05:52:42.443   10 Jun 2027 05:53:02.304            19.861          9930.500
       313   10 Jun 2027 05:54:40.618   10 Jun 2027 05:54:45.304             4.686          2343.000
       314   10 Jun 2027 05:55:25.332   10 Jun 2027 05:55:53.890            28.558         14279.000
       315   10 Jun 2027 05:56:06.124   10 Jun 2027 05:56:14.715             8.591          4295.500
       316   10 Jun 2027 05:57:00.329   10 Jun 2027 05:57:18.101            17.772          8562.000
       317   10 Jun 2027 05:57:26.200   10 Jun 2027 05:57:26.359             0.159            79.500
       318   10 Jun 2027 07:27:09.759   10 Jun 2027 07:28:21.155            71.396         35339.812
       319   10 Jun 2027 07:28:33.407   10 Jun 2027 07:28:35.151             1.744           382.875
       320   10 Jun 2027 07:29:15.752   10 Jun 2027 07:29:18.452             2.700          1255.063
       321   10 Jun 2027 07:31:01.541   10 Jun 2027 07:31:09.255             7.714          2405.250
       322   10 Jun 2027 07:31:58.930   10 Jun 2027 07:32:03.911             4.981          1263.656
       323   10 Jun 2027 07:32:11.398   10 Jun 2027 07:32:12.461             1.063           197.062
       324   10 Jun 2027 07:32:29.349   10 Jun 2027 07:32:33.517             4.168           505.906
       325   10 Jun 2027 07:33:07.778   10 Jun 2027 07:33:11.412             3.634           799.156
       326   10 Jun 2027 09:05:03.172   10 Jun 2027 09:05:29.360            26.188         11301.969
       327   10 Jun 2027 09:05:57.246   10 Jun 2027 09:05:57.246             0.000             0.000
       328   10 Jun 2027 09:06:09.718   10 Jun 2027 09:06:11.602             1.884           942.000
       329   10 Jun 2027 09:06:22.503   10 Jun 2027 09:06:30.738             8.235           659.844
       330   10 Jun 2027 09:07:56.172   10 Jun 2027 09:08:00.342             4.170          2085.000
       331   10 Jun 2027 09:08:49.504   10 Jun 2027 09:08:55.031             5.527          1996.000
       332   10 Jun 2027 10:38:20.490   10 Jun 2027 10:38:35.097            14.607          6389.375
       333   10 Jun 2027 10:39:30.213   10 Jun 2027 10:39:30.213             0.000             0.000
       334   10 Jun 2027 10:39:33.729   10 Jun 2027 10:39:37.376             3.647           719.500
       335   10 Jun 2027 10:39:56.401   10 Jun 2027 10:39:57.535             1.134           479.094
       336   10 Jun 2027 10:40:11.483   10 Jun 2027 10:40:12.582             1.099           435.875
       337   10 Jun 2027 10:40:31.255   10 Jun 2027 10:40:35.382             4.127            74.344
       338   10 Jun 2027 10:41:36.527   10 Jun 2027 10:41:38.516             1.989           994.500
       339   10 Jun 2027 10:42:09.986   10 Jun 2027 10:42:15.770             5.784          1804.375
       340   10 Jun 2027 10:42:59.044   10 Jun 2027 10:43:01.183             2.139           989.125
       341   10 Jun 2027 10:43:41.567   10 Jun 2027 10:43:43.332             1.765           870.312
       342   10 Jun 2027 10:43:54.016   10 Jun 2027 10:43:55.087             1.071           131.438
       343   10 Jun 2027 10:44:33.200   10 Jun 2027 10:44:38.811             5.611          1151.375
       344   10 Jun 2027 10:45:18.510   10 Jun 2027 10:45:21.211             2.701           912.906
       345   10 Jun 2027 10:46:05.183   10 Jun 2027 10:46:08.020             2.837          1349.281
       346   11 Jun 2027 04:24:40.770   11 Jun 2027 04:26:49.591           128.821         64410.500
       347   11 Jun 2027 04:26:51.391   11 Jun 2027 04:26:54.254             2.863          1431.500
       348   11 Jun 2027 04:27:54.865   11 Jun 2027 04:28:39.076            44.211         22105.500
       349   11 Jun 2027 04:30:09.853   11 Jun 2027 04:30:18.995             9.142          4571.000
       350   11 Jun 2027 04:30:33.060   11 Jun 2027 04:30:36.211             3.151          1575.500
       351   11 Jun 2027 04:30:39.573   11 Jun 2027 04:30:39.573             0.000             0.000
       352   11 Jun 2027 04:30:55.037   11 Jun 2027 04:30:55.037             0.000             0.000
       353   11 Jun 2027 04:31:19.023   11 Jun 2027 04:31:37.176            18.153          9076.500
       354   11 Jun 2027 04:32:56.005   11 Jun 2027 04:33:14.815            18.810          9405.000
       355   11 Jun 2027 06:02:15.575   11 Jun 2027 06:03:41.639            86.064         43032.000
       356   11 Jun 2027 06:04:07.833   11 Jun 2027 06:04:54.445            46.612         21867.094
       357   11 Jun 2027 06:06:43.385   11 Jun 2027 06:06:45.740             2.355          1177.500
       358   11 Jun 2027 06:08:01.381   11 Jun 2027 06:08:10.427             9.046          4523.000
       359   11 Jun 2027 06:08:58.397   11 Jun 2027 06:09:02.185             3.788          1559.375
       360   11 Jun 2027 06:09:06.754   11 Jun 2027 06:09:10.206             3.452           142.781
       361   11 Jun 2027 07:38:58.840   11 Jun 2027 07:39:48.864            50.024         24791.313
       362   11 Jun 2027 07:40:01.362   11 Jun 2027 07:40:02.659             1.297           307.844
       363   11 Jun 2027 07:42:11.263   11 Jun 2027 07:42:14.949             3.686          1235.344
       364   11 Jun 2027 07:42:35.794   11 Jun 2027 07:42:40.515             4.721           498.750
       365   11 Jun 2027 07:43:47.723   11 Jun 2027 07:43:53.108             5.385          1968.250
       366   11 Jun 2027 07:44:09.601   11 Jun 2027 07:44:10.762             1.161           247.125
       367   11 Jun 2027 07:45:00.387   11 Jun 2027 07:45:03.758             3.371          1550.781
       368   11 Jun 2027 09:17:02.408   11 Jun 2027 09:17:26.528            24.120         10139.000
       369   11 Jun 2027 09:17:43.015   11 Jun 2027 09:17:45.054             2.039           281.000
       370   11 Jun 2027 09:17:51.297   11 Jun 2027 09:17:51.297             0.000             0.000
       371   11 Jun 2027 09:17:58.351   11 Jun 2027 09:18:02.009             3.658           321.281
       372   11 Jun 2027 09:18:06.778   11 Jun 2027 09:18:10.137             3.359           137.437
       373   11 Jun 2027 09:18:26.846   11 Jun 2027 09:18:29.374             2.528           406.906
       374   11 Jun 2027 09:18:45.421   11 Jun 2027 09:18:48.085             2.664           501.469
       375   11 Jun 2027 09:19:25.194   11 Jun 2027 09:19:28.614             3.420           538.375
       376   11 Jun 2027 09:19:31.961   11 Jun 2027 09:19:32.658             0.697           104.594
       377   11 Jun 2027 09:20:03.635   11 Jun 2027 09:20:03.635             0.000             0.000
       378   11 Jun 2027 09:20:27.617   11 Jun 2027 09:20:30.657             3.040          1128.625
       379   11 Jun 2027 09:20:51.400   11 Jun 2027 09:20:51.400             0.000             0.000
       380   11 Jun 2027 09:21:07.152   11 Jun 2027 09:21:10.195             3.043          1140.469
       381   11 Jun 2027 10:50:46.232   11 Jun 2027 10:50:54.454             8.222          2970.969
       382   11 Jun 2027 10:51:05.719   11 Jun 2027 10:51:06.429             0.710            34.719
       383   11 Jun 2027 10:51:40.602   11 Jun 2027 10:51:43.000             2.398           578.937
       384   11 Jun 2027 10:53:08.766   11 Jun 2027 10:53:12.750             3.984          1583.469
       385   11 Jun 2027 10:53:47.257   11 Jun 2027 10:53:51.640             4.383          1064.938
       386   11 Jun 2027 10:54:16.184   11 Jun 2027 10:54:18.646             2.462           629.344
       387   11 Jun 2027 10:54:29.863   11 Jun 2027 10:54:33.621             3.758            95.656
       388   11 Jun 2027 10:54:45.632   11 Jun 2027 10:54:45.632             0.000             0.000
       389   11 Jun 2027 10:55:04.276   11 Jun 2027 10:55:07.250             2.974           957.969
       390   11 Jun 2027 10:55:57.968   11 Jun 2027 10:56:01.199             3.231           957.344
       391   11 Jun 2027 10:56:37.771   11 Jun 2027 10:56:40.207             2.436          1142.781
       392   11 Jun 2027 10:57:17.757   11 Jun 2027 10:57:20.797             3.040          1121.656
       393   12 Jun 2027 03:01:16.179   12 Jun 2027 03:01:26.259            10.080          5040.000
       394   12 Jun 2027 03:01:48.377   12 Jun 2027 03:02:14.951            26.574         13287.000
       395   12 Jun 2027 03:04:51.679   12 Jun 2027 03:04:56.563             4.884          2442.000
       396   12 Jun 2027 03:05:36.288   12 Jun 2027 03:05:36.288             0.000             0.000
       397   12 Jun 2027 03:05:50.137   12 Jun 2027 03:06:00.364            10.227          5113.500
       398   12 Jun 2027 03:06:29.584   12 Jun 2027 03:07:14.150            44.566         22283.000
       399   12 Jun 2027 04:36:10.863   12 Jun 2027 04:38:35.176           144.313         72156.500
       400   12 Jun 2027 04:38:45.440   12 Jun 2027 04:38:47.325             1.885           942.500
       401   12 Jun 2027 04:39:14.294   12 Jun 2027 04:39:15.205             0.911           455.500
       402   12 Jun 2027 04:39:28.687   12 Jun 2027 04:39:34.074             5.387          2693.500
       403   12 Jun 2027 04:40:18.585   12 Jun 2027 04:40:41.970            23.385         11692.500
       404   12 Jun 2027 04:41:57.273   12 Jun 2027 04:41:57.273             0.000             0.000
       405   12 Jun 2027 04:44:41.249   12 Jun 2027 04:44:57.041            15.792          7896.000
       406   12 Jun 2027 04:45:06.252   12 Jun 2027 04:45:20.652            14.400          7200.000
       407   12 Jun 2027 04:45:25.343   12 Jun 2027 04:45:25.343             0.000             0.000
       408   12 Jun 2027 06:14:11.104   12 Jun 2027 06:15:33.569            82.465         41232.500
       409   12 Jun 2027 06:15:35.760   12 Jun 2027 06:15:41.911             6.151          1733.375
       410   12 Jun 2027 06:16:34.256   12 Jun 2027 06:16:39.501             5.245          1418.156
       411   12 Jun 2027 06:16:57.456   12 Jun 2027 06:16:58.528             1.072           403.781
       412   12 Jun 2027 06:17:21.944   12 Jun 2027 06:17:28.256             6.312           731.750
       413   12 Jun 2027 06:17:55.700   12 Jun 2027 06:17:57.046             1.346           573.312
       414   12 Jun 2027 06:18:05.461   12 Jun 2027 06:18:05.961             0.500           226.250
       415   12 Jun 2027 06:18:44.902   12 Jun 2027 06:18:46.018             1.116           558.000
       416   12 Jun 2027 06:19:17.559   12 Jun 2027 06:19:17.873             0.314           157.000
       417   12 Jun 2027 06:19:21.666   12 Jun 2027 06:19:25.244             3.578          1551.969
       418   12 Jun 2027 06:19:52.377   12 Jun 2027 06:19:54.191             1.814           603.125
       419   12 Jun 2027 06:21:01.612   12 Jun 2027 06:21:06.647             5.035          1893.750
       420   12 Jun 2027 07:51:05.809   12 Jun 2027 07:51:33.855            28.046         14023.000
       421   12 Jun 2027 07:51:36.989   12 Jun 2027 07:51:50.560            13.571          6557.094
       422   12 Jun 2027 07:52:57.183   12 Jun 2027 07:52:59.824             2.641          1050.187
       423   12 Jun 2027 07:53:23.997   12 Jun 2027 07:53:31.522             7.525           327.281
       424   12 Jun 2027 07:55:10.969   12 Jun 2027 07:55:12.536             1.567           783.500
       425   12 Jun 2027 07:55:25.869   12 Jun 2027 07:55:28.980             3.111          1555.500
       426   12 Jun 2027 07:55:58.635   12 Jun 2027 07:56:06.748             8.113          1678.250
       427   12 Jun 2027 07:56:41.998   12 Jun 2027 07:56:44.350             2.352           766.031
       428   12 Jun 2027 07:57:18.345   12 Jun 2027 07:57:21.253             2.908           803.250
       429   12 Jun 2027 09:28:39.863   12 Jun 2027 09:28:55.741            15.878          7939.000
       430   12 Jun 2027 09:29:26.587   12 Jun 2027 09:29:33.186             6.599          1443.375
       431   12 Jun 2027 09:30:04.307   12 Jun 2027 09:30:12.121             7.814           806.000
       432   12 Jun 2027 09:30:19.711   12 Jun 2027 09:30:23.205             3.494           237.188
       433   12 Jun 2027 09:30:40.543   12 Jun 2027 09:30:42.222             1.679            81.188
       434   12 Jun 2027 09:31:25.381   12 Jun 2027 09:31:29.475             4.094          1348.719
       435   12 Jun 2027 09:32:08.055   12 Jun 2027 09:32:15.734             7.679          1121.156
       436   12 Jun 2027 09:32:46.369   12 Jun 2027 09:32:46.369             0.000             0.000
       437   12 Jun 2027 09:32:57.086   12 Jun 2027 09:33:04.244             7.158          1172.906
       438   12 Jun 2027 09:33:05.470   12 Jun 2027 09:33:10.480             5.010            23.281
       439   12 Jun 2027 11:03:02.624   12 Jun 2027 11:03:06.080             3.456          1728.000
       440   12 Jun 2027 11:04:06.345   12 Jun 2027 11:04:14.753             8.408          2531.438
       441   12 Jun 2027 11:05:25.393   12 Jun 2027 11:05:31.069             5.676          2153.687
       442   12 Jun 2027 11:05:53.173   12 Jun 2027 11:05:55.744             2.571           656.312
       443   12 Jun 2027 11:06:23.707   12 Jun 2027 11:06:25.793             2.086           815.812
       444   12 Jun 2027 11:06:55.563   12 Jun 2027 11:06:59.733             4.170           638.500
       445   12 Jun 2027 11:07:38.234   12 Jun 2027 11:07:42.646             4.412          1149.687
       446   12 Jun 2027 11:07:58.433   12 Jun 2027 11:07:59.507             1.074           493.344
       447   13 Jun 2027 03:15:34.027   13 Jun 2027 03:16:03.657            29.630         14815.000
       448   13 Jun 2027 03:17:40.353   13 Jun 2027 03:17:41.286             0.933           466.500
       449   13 Jun 2027 03:18:40.330   13 Jun 2027 03:19:03.474            23.144         11572.000
       450   13 Jun 2027 04:49:07.134   13 Jun 2027 04:52:10.280           183.146         91573.000
       451   13 Jun 2027 04:52:22.741   13 Jun 2027 04:52:28.657             5.916          2958.000
       452   13 Jun 2027 04:52:44.859   13 Jun 2027 04:53:08.858            23.999         11999.500
       453   13 Jun 2027 04:55:35.693   13 Jun 2027 04:55:35.693             0.000             0.000
       454   13 Jun 2027 04:56:42.784   13 Jun 2027 04:56:54.108            11.324          5662.000
       455   13 Jun 2027 04:57:20.525   13 Jun 2027 04:57:20.525             0.000             0.000
       456   13 Jun 2027 04:57:39.954   13 Jun 2027 04:57:41.005             1.051           525.500
       457   13 Jun 2027 06:26:33.103   13 Jun 2027 06:27:52.996            79.893         39548.563
       458   13 Jun 2027 06:28:22.052   13 Jun 2027 06:28:24.051             1.999           908.000
       459   13 Jun 2027 06:28:57.284   13 Jun 2027 06:29:00.021             2.737           963.594
       460   13 Jun 2027 06:29:30.562   13 Jun 2027 06:29:30.562             0.000             0.000
       461   13 Jun 2027 06:30:31.825   13 Jun 2027 06:30:38.214             6.389          2814.188
       462   13 Jun 2027 06:32:23.386   13 Jun 2027 06:32:30.737             7.351          3286.625
       463   13 Jun 2027 08:03:35.122   13 Jun 2027 08:04:11.531            36.409         18204.500
       464   13 Jun 2027 08:04:21.218   13 Jun 2027 08:04:22.918             1.700           654.031
       465   13 Jun 2027 08:04:30.836   13 Jun 2027 08:04:31.300             0.464           178.062
       466   13 Jun 2027 08:04:44.632   13 Jun 2027 08:04:45.807             1.175           416.625
       467   13 Jun 2027 08:05:01.751   13 Jun 2027 08:05:02.431             0.680           340.000
       468   13 Jun 2027 08:06:03.267   13 Jun 2027 08:06:07.369             4.102          2045.375
       469   13 Jun 2027 08:07:03.567   13 Jun 2027 08:07:03.567             0.000             0.000
       470   13 Jun 2027 08:07:06.446   13 Jun 2027 08:07:07.746             1.300           650.000
       471   13 Jun 2027 08:07:15.407   13 Jun 2027 08:07:22.149             6.742          1357.813
       472   13 Jun 2027 08:08:45.645   13 Jun 2027 08:08:50.147             4.502          2251.000
       473   13 Jun 2027 09:40:23.955   13 Jun 2027 09:40:45.725            21.770         10259.812
       474   13 Jun 2027 09:40:51.797   13 Jun 2027 09:40:53.889             2.092           189.750
       475   13 Jun 2027 09:41:39.324   13 Jun 2027 09:41:42.276             2.952          1220.500
       476   13 Jun 2027 09:42:26.336   13 Jun 2027 09:42:31.365             5.029          1305.344
       477   13 Jun 2027 09:42:47.067   13 Jun 2027 09:42:50.503             3.436           366.313
       478   13 Jun 2027 09:43:02.467   13 Jun 2027 09:43:03.375             0.908           369.000
       479   13 Jun 2027 09:43:45.977   13 Jun 2027 09:43:45.977             0.000             0.000
       480   13 Jun 2027 09:44:07.883   13 Jun 2027 09:44:08.380             0.497           248.500
       481   13 Jun 2027 09:44:48.904   13 Jun 2027 09:44:53.742             4.838          2419.000
       482   13 Jun 2027 11:15:40.262   13 Jun 2027 11:15:40.994             0.732           366.000
       483   13 Jun 2027 11:17:26.300   13 Jun 2027 11:17:30.265             3.965          1273.625
       484   13 Jun 2027 11:17:41.950   13 Jun 2027 11:17:45.284             3.334           350.125
       485   13 Jun 2027 11:17:59.053   13 Jun 2027 11:17:59.053             0.000             0.000
       486   13 Jun 2027 11:18:11.740   13 Jun 2027 11:18:13.441             1.701           476.625
       487   13 Jun 2027 11:18:47.616   13 Jun 2027 11:18:50.810             3.194           603.625
       488   13 Jun 2027 11:19:21.147   13 Jun 2027 11:19:24.865             3.718           948.031
       489   13 Jun 2027 11:19:54.838   13 Jun 2027 11:19:58.303             3.465           936.656
