uniorb/output/strategy_2/Camera/Camera_KinoSat_110505.txt

KinoSat_110505
-------------------------
    Access    *     Start Time (UTCG)     *     Stop Time (UTCG)  *   Duration (s) *   Data (Mbytes)
         1   01 Jun 2027 03:45:47.450   01 Jun 2027 03:45:56.590             9.140          4570.000
         2   01 Jun 2027 03:47:02.080   01 Jun 2027 03:47:11.439             9.359          4679.500
         3   01 Jun 2027 03:47:58.178   01 Jun 2027 03:47:58.744             0.566           283.000
         4   01 Jun 2027 03:48:11.890   01 Jun 2027 03:48:20.640             8.750          4375.000
         5   01 Jun 2027 03:49:20.654   01 Jun 2027 03:49:26.767             6.113          3056.500
         6   01 Jun 2027 03:50:05.662   01 Jun 2027 03:50:15.389             9.727          4863.500
         7   01 Jun 2027 03:50:24.071   01 Jun 2027 03:50:24.552             0.481           240.500
         8   01 Jun 2027 03:51:08.349   01 Jun 2027 03:51:12.890             4.541          2270.500
         9   01 Jun 2027 03:51:46.865   01 Jun 2027 03:51:54.597             7.732          3866.000
        10   01 Jun 2027 03:53:44.295   01 Jun 2027 03:53:45.065             0.770           385.000
        11   01 Jun 2027 05:23:15.721   01 Jun 2027 05:23:21.694             5.973          2986.500
        12   01 Jun 2027 05:24:01.811   01 Jun 2027 05:24:22.942            21.131         10565.500
        13   01 Jun 2027 05:24:34.025   01 Jun 2027 05:24:39.625             5.600          2800.000
        14   01 Jun 2027 05:26:28.945   01 Jun 2027 05:26:42.645            13.700          6850.000
        15   01 Jun 2027 05:28:00.708   01 Jun 2027 05:28:20.883            20.175         10087.500
        16   01 Jun 2027 05:28:37.598   01 Jun 2027 05:28:38.190             0.592           296.000
        17   01 Jun 2027 05:29:44.935   01 Jun 2027 05:30:01.428            16.493          8246.500
        18   01 Jun 2027 05:30:33.435   01 Jun 2027 05:30:33.813             0.378           189.000
        19   01 Jun 2027 07:00:00.664   01 Jun 2027 07:00:02.646             1.982           991.000
        20   01 Jun 2027 07:00:14.166   01 Jun 2027 07:00:19.030             4.864          2432.000
        21   01 Jun 2027 07:00:28.398   01 Jun 2027 07:00:32.055             3.657          1828.500
        22   01 Jun 2027 07:02:05.393   01 Jun 2027 07:02:20.829            15.436          7718.000
        23   01 Jun 2027 07:03:34.982   01 Jun 2027 07:03:41.125             6.143          3071.500
        24   01 Jun 2027 07:04:22.722   01 Jun 2027 07:04:26.979             4.257          2128.500
        25   01 Jun 2027 07:04:54.269   01 Jun 2027 07:04:54.976             0.707           353.500
        26   01 Jun 2027 07:05:03.809   01 Jun 2027 07:05:07.933             4.124          2062.000
        27   01 Jun 2027 07:06:11.455   01 Jun 2027 07:06:12.544             1.089           544.500
        28   01 Jun 2027 07:06:17.479   01 Jun 2027 07:06:17.813             0.334           167.000
        29   01 Jun 2027 07:06:27.467   01 Jun 2027 07:06:32.834             5.367          2683.500
        30   01 Jun 2027 08:37:58.910   01 Jun 2027 08:38:01.772             2.862          1431.000
        31   01 Jun 2027 08:38:20.688   01 Jun 2027 08:38:23.901             3.213          1606.500
        32   01 Jun 2027 08:38:48.674   01 Jun 2027 08:38:57.938             9.264          4632.000
        33   01 Jun 2027 08:40:01.922   01 Jun 2027 08:40:08.273             6.351          3175.500
        34   01 Jun 2027 08:40:34.748   01 Jun 2027 08:40:36.702             1.954           977.000
        35   01 Jun 2027 08:40:48.788   01 Jun 2027 08:40:52.730             3.942          1971.000
        36   01 Jun 2027 08:41:26.598   01 Jun 2027 08:41:32.458             5.860          2930.000
        37   01 Jun 2027 08:42:03.155   01 Jun 2027 08:42:03.518             0.363           181.500
        38   01 Jun 2027 10:11:36.726   01 Jun 2027 10:11:57.783            21.057         10528.500
        39   01 Jun 2027 10:13:37.556   01 Jun 2027 10:14:03.299            25.743         12871.500
        40   01 Jun 2027 10:16:16.943   01 Jun 2027 10:16:24.959             8.016          4008.000
        41   01 Jun 2027 10:17:21.665   01 Jun 2027 10:17:22.047             0.382           191.000
        42   01 Jun 2027 10:17:49.319   01 Jun 2027 10:17:53.442             4.123          2061.500
        43   01 Jun 2027 10:18:26.804   01 Jun 2027 10:18:31.680             4.876          2438.000
        44   01 Jun 2027 10:18:57.645   01 Jun 2027 10:18:58.464             0.819           409.500
        45   02 Jun 2027 03:57:15.330   02 Jun 2027 03:57:16.726             1.396           698.000
        46   02 Jun 2027 03:58:02.146   02 Jun 2027 03:58:07.986             5.840          2920.000
        47   02 Jun 2027 03:59:39.140   02 Jun 2027 03:59:40.253             1.113           556.500
        48   02 Jun 2027 03:59:45.181   02 Jun 2027 03:59:53.015             7.834          3917.000
        49   02 Jun 2027 04:01:28.230   02 Jun 2027 04:01:35.043             6.813          3406.500
        50   02 Jun 2027 04:02:35.918   02 Jun 2027 04:02:37.059             1.141           570.500
        51   02 Jun 2027 04:02:52.525   02 Jun 2027 04:02:53.859             1.334           667.000
        52   02 Jun 2027 04:03:03.830   02 Jun 2027 04:03:16.731            12.901          6450.500
        53   02 Jun 2027 04:05:01.765   02 Jun 2027 04:05:18.174            16.409          8204.500
        54   02 Jun 2027 05:35:08.717   02 Jun 2027 05:35:09.574             0.857           428.500
        55   02 Jun 2027 05:35:17.677   02 Jun 2027 05:35:18.337             0.660           330.000
        56   02 Jun 2027 05:35:40.389   02 Jun 2027 05:35:42.820             2.431          1215.500
        57   02 Jun 2027 05:36:36.150   02 Jun 2027 05:36:37.124             0.974           487.000
        58   02 Jun 2027 05:37:03.722   02 Jun 2027 05:37:05.473             1.751           875.500
        59   02 Jun 2027 05:37:39.659   02 Jun 2027 05:37:42.251             2.592          1296.000
        60   02 Jun 2027 05:37:56.794   02 Jun 2027 05:38:03.529             6.735          3367.500
        61   02 Jun 2027 05:38:33.463   02 Jun 2027 05:38:50.070            16.607          8303.500
        62   02 Jun 2027 05:40:27.008   02 Jun 2027 05:40:28.057             1.049           524.500
        63   02 Jun 2027 05:40:54.326   02 Jun 2027 05:40:59.360             5.034          2517.000
        64   02 Jun 2027 05:41:00.520   02 Jun 2027 05:41:07.845             7.325          3662.500
        65   02 Jun 2027 05:41:22.413   02 Jun 2027 05:41:28.244             5.831          2915.500
        66   02 Jun 2027 05:42:25.605   02 Jun 2027 05:42:26.240             0.635           317.500
        67   02 Jun 2027 07:11:52.603   02 Jun 2027 07:11:56.554             3.951          1975.500
        68   02 Jun 2027 07:12:17.205   02 Jun 2027 07:12:17.621             0.416           208.000
        69   02 Jun 2027 07:12:46.289   02 Jun 2027 07:13:03.206            16.917          8458.500
        70   02 Jun 2027 07:14:12.253   02 Jun 2027 07:14:19.810             7.557          3778.500
        71   02 Jun 2027 07:15:14.763   02 Jun 2027 07:15:17.158             2.395          1197.500
        72   02 Jun 2027 07:15:38.309   02 Jun 2027 07:15:39.257             0.948           474.000
        73   02 Jun 2027 07:16:07.582   02 Jun 2027 07:16:07.664             0.082            41.000
        74   02 Jun 2027 07:16:31.275   02 Jun 2027 07:16:32.010             0.735           367.500
        75   02 Jun 2027 07:16:39.380   02 Jun 2027 07:16:40.335             0.955           477.500
        76   02 Jun 2027 07:17:42.549   02 Jun 2027 07:17:43.746             1.197           598.500
        77   02 Jun 2027 07:17:59.918   02 Jun 2027 07:18:03.910             3.992          1996.000
        78   02 Jun 2027 07:18:25.843   02 Jun 2027 07:18:29.352             3.509          1754.500
        79   02 Jun 2027 08:49:59.165   02 Jun 2027 08:49:59.684             0.519           259.500
        80   02 Jun 2027 08:50:11.816   02 Jun 2027 08:50:29.502            17.686          8843.000
        81   02 Jun 2027 08:52:03.495   02 Jun 2027 08:52:06.919             3.424          1712.000
        82   02 Jun 2027 08:52:20.716   02 Jun 2027 08:52:24.926             4.210          2105.000
        83   02 Jun 2027 08:52:32.269   02 Jun 2027 08:52:32.896             0.627           313.500
        84   02 Jun 2027 08:52:46.032   02 Jun 2027 08:52:50.901             4.869          2434.500
        85   02 Jun 2027 08:53:19.168   02 Jun 2027 08:53:28.940             9.772          4886.000
        86   02 Jun 2027 10:25:42.940   02 Jun 2027 10:25:45.235             2.295          1147.500
        87   02 Jun 2027 10:26:02.730   02 Jun 2027 10:26:05.393             2.663          1331.500
        88   02 Jun 2027 10:26:47.257   02 Jun 2027 10:26:56.257             9.000          4500.000
        89   02 Jun 2027 10:28:11.809   02 Jun 2027 10:28:25.440            13.631          6815.500
        90   02 Jun 2027 10:29:21.182   02 Jun 2027 10:29:25.547             4.365          2182.500
        91   02 Jun 2027 10:30:01.457   02 Jun 2027 10:30:02.474             1.017           508.500
        92   03 Jun 2027 04:10:07.341   03 Jun 2027 04:10:08.935             1.594           797.000
        93   03 Jun 2027 04:11:19.843   03 Jun 2027 04:11:27.644             7.801          3900.500
        94   03 Jun 2027 04:11:58.531   03 Jun 2027 04:11:58.531             0.000             0.000
        95   03 Jun 2027 04:12:15.822   03 Jun 2027 04:12:23.845             8.023          4011.500
        96   03 Jun 2027 04:13:29.631   03 Jun 2027 04:13:35.388             5.757          2878.500
        97   03 Jun 2027 04:13:40.102   03 Jun 2027 04:13:42.539             2.437          1218.500
        98   03 Jun 2027 04:14:23.647   03 Jun 2027 04:14:24.353             0.706           353.000
        99   03 Jun 2027 04:14:38.665   03 Jun 2027 04:14:43.968             5.303          2651.500
       100   03 Jun 2027 04:15:22.504   03 Jun 2027 04:15:27.059             4.555          2277.500
       101   03 Jun 2027 04:15:45.968   03 Jun 2027 04:15:53.883             7.915          3957.500
       102   03 Jun 2027 04:17:23.409   03 Jun 2027 04:17:25.291             1.882           941.000
       103   03 Jun 2027 04:17:46.361   03 Jun 2027 04:17:47.450             1.089           544.500
       104   03 Jun 2027 04:17:56.366   03 Jun 2027 04:17:57.270             0.904           452.000
       105   03 Jun 2027 04:18:25.966   03 Jun 2027 04:18:29.819             3.853          1926.500
       106   03 Jun 2027 05:47:16.121   03 Jun 2027 05:47:22.322             6.201          3100.500
       107   03 Jun 2027 05:47:53.888   03 Jun 2027 05:48:04.166            10.278          5139.000
       108   03 Jun 2027 05:49:24.277   03 Jun 2027 05:49:25.385             1.108           554.000
       109   03 Jun 2027 05:49:48.021   03 Jun 2027 05:50:00.594            12.573          6286.500
       110   03 Jun 2027 05:50:43.926   03 Jun 2027 05:50:46.807             2.881          1440.500
       111   03 Jun 2027 05:51:10.239   03 Jun 2027 05:51:16.957             6.718          3359.000
       112   03 Jun 2027 05:51:52.772   03 Jun 2027 05:51:55.573             2.801          1400.500
       113   03 Jun 2027 05:52:28.662   03 Jun 2027 05:52:38.020             9.358          4679.000
       114   03 Jun 2027 05:52:59.605   03 Jun 2027 05:53:06.621             7.016          3508.000
       115   03 Jun 2027 05:54:04.774   03 Jun 2027 05:54:05.216             0.442           221.000
       116   03 Jun 2027 05:54:14.599   03 Jun 2027 05:54:31.637            17.038          8519.000
       117   03 Jun 2027 07:24:30.490   03 Jun 2027 07:24:35.811             5.321          2660.500
       118   03 Jun 2027 07:25:06.844   03 Jun 2027 07:25:15.911             9.067          4533.500
       119   03 Jun 2027 07:25:57.650   03 Jun 2027 07:26:02.024             4.374          2187.000
       120   03 Jun 2027 07:26:28.282   03 Jun 2027 07:26:49.093            20.811         10405.500
       121   03 Jun 2027 07:28:43.634   03 Jun 2027 07:28:47.460             3.826          1913.000
       122   03 Jun 2027 07:29:33.402   03 Jun 2027 07:29:39.626             6.224          3112.000
       123   03 Jun 2027 07:30:15.328   03 Jun 2027 07:30:22.479             7.151          3575.500
       124   03 Jun 2027 09:01:12.967   03 Jun 2027 09:01:19.204             6.237          3118.500
       125   03 Jun 2027 09:02:33.122   03 Jun 2027 09:02:33.360             0.238           119.000
       126   03 Jun 2027 09:02:46.690   03 Jun 2027 09:02:48.179             1.489           744.500
       127   03 Jun 2027 09:04:05.197   03 Jun 2027 09:04:06.015             0.818           409.000
       128   03 Jun 2027 09:04:09.990   03 Jun 2027 09:04:10.392             0.402           201.000
       129   03 Jun 2027 09:04:23.944   03 Jun 2027 09:04:24.655             0.711           355.500
       130   03 Jun 2027 09:04:35.725   03 Jun 2027 09:04:42.901             7.176          3588.000
       131   03 Jun 2027 09:05:18.691   03 Jun 2027 09:05:29.185            10.494          5247.000
       132   03 Jun 2027 10:36:24.387   03 Jun 2027 10:36:35.059            10.672          5336.000
       133   03 Jun 2027 10:37:58.932   03 Jun 2027 10:38:00.236             1.304           652.000
       134   03 Jun 2027 10:39:00.719   03 Jun 2027 10:39:04.035             3.316          1658.000
       135   03 Jun 2027 10:39:28.205   03 Jun 2027 10:39:32.772             4.567          2283.500
       136   03 Jun 2027 10:40:07.368   03 Jun 2027 10:40:11.608             4.240          2120.000
       137   03 Jun 2027 10:40:28.622   03 Jun 2027 10:40:31.790             3.168          1584.000
       138   04 Jun 2027 04:22:30.706   04 Jun 2027 04:22:43.622            12.916          6458.000
       139   04 Jun 2027 04:23:29.799   04 Jun 2027 04:23:29.799             0.000             0.000
       140   04 Jun 2027 04:23:45.159   04 Jun 2027 04:23:45.254             0.095            47.500
       141   04 Jun 2027 04:24:15.852   04 Jun 2027 04:24:28.050            12.198          6099.000
       142   04 Jun 2027 04:25:27.200   04 Jun 2027 04:25:36.530             9.330          4665.000
       143   04 Jun 2027 04:26:22.661   04 Jun 2027 04:26:23.146             0.485           242.500
       144   04 Jun 2027 04:26:38.610   04 Jun 2027 04:26:54.742            16.132          8066.000
       145   04 Jun 2027 04:28:34.653   04 Jun 2027 04:28:35.493             0.840           420.000
       146   04 Jun 2027 04:28:53.232   04 Jun 2027 04:28:58.389             5.157          2578.500
       147   04 Jun 2027 04:29:21.351   04 Jun 2027 04:29:24.183             2.832          1416.000
       148   04 Jun 2027 04:30:00.912   04 Jun 2027 04:30:01.190             0.278           139.000
       149   04 Jun 2027 04:30:13.135   04 Jun 2027 04:30:18.005             4.870          2435.000
       150   04 Jun 2027 04:30:21.533   04 Jun 2027 04:30:25.160             3.627          1813.500
       151   04 Jun 2027 05:59:41.531   04 Jun 2027 05:59:44.336             2.805          1402.500
       152   04 Jun 2027 05:59:54.466   04 Jun 2027 06:00:08.209            13.743          6871.500
       153   04 Jun 2027 06:01:10.521   04 Jun 2027 06:01:21.504            10.983          5491.500
       154   04 Jun 2027 06:02:26.871   04 Jun 2027 06:02:33.121             6.250          3125.000
       155   04 Jun 2027 06:03:00.527   04 Jun 2027 06:03:09.530             9.003          4501.500
       156   04 Jun 2027 06:03:49.158   04 Jun 2027 06:03:50.704             1.546           773.000
       157   04 Jun 2027 06:04:08.323   04 Jun 2027 06:04:09.654             1.331           665.500
       158   04 Jun 2027 06:04:43.773   04 Jun 2027 06:04:44.134             0.361           180.500
       159   04 Jun 2027 06:04:58.073   04 Jun 2027 06:04:59.436             1.363           681.500
       160   04 Jun 2027 06:05:27.334   04 Jun 2027 06:05:43.517            16.183          8091.500
       161   04 Jun 2027 06:06:02.722   04 Jun 2027 06:06:07.105             4.383          2191.500
       162   04 Jun 2027 07:36:41.732   04 Jun 2027 07:37:01.927            20.195         10097.500
       163   04 Jun 2027 07:38:48.050   04 Jun 2027 07:38:53.206             5.156          2578.000
       164   04 Jun 2027 07:39:17.511   04 Jun 2027 07:39:18.106             0.595           297.500
       165   04 Jun 2027 07:40:40.059   04 Jun 2027 07:40:43.382             3.323          1661.500
       166   04 Jun 2027 07:41:26.654   04 Jun 2027 07:41:31.788             5.134          2567.000
       167   04 Jun 2027 09:13:27.817   04 Jun 2027 09:13:29.500             1.683           841.500
       168   04 Jun 2027 09:14:14.153   04 Jun 2027 09:14:14.784             0.631           315.500
       169   04 Jun 2027 09:14:40.235   04 Jun 2027 09:14:45.663             5.428          2714.000
       170   04 Jun 2027 09:16:05.517   04 Jun 2027 09:16:07.000             1.483           741.500
       171   04 Jun 2027 09:16:40.972   04 Jun 2027 09:16:42.109             1.137           568.500
       172   04 Jun 2027 09:17:00.054   04 Jun 2027 09:17:02.474             2.420          1210.000
       173   04 Jun 2027 09:17:18.502   04 Jun 2027 09:17:29.118            10.616          5308.000
       174   04 Jun 2027 10:51:37.729   04 Jun 2027 10:51:55.046            17.317          8658.500
       175   05 Jun 2027 03:00:38.474   05 Jun 2027 03:00:45.608             7.134          3567.000
       176   05 Jun 2027 03:01:21.186   05 Jun 2027 03:01:22.525             1.339           669.500
       177   05 Jun 2027 03:01:31.538   05 Jun 2027 03:01:36.507             4.969          2484.500
       178   05 Jun 2027 03:02:09.910   05 Jun 2027 03:02:12.802             2.892          1446.000
       179   05 Jun 2027 03:02:47.321   05 Jun 2027 03:02:49.026             1.705           852.500
       180   05 Jun 2027 03:02:58.319   05 Jun 2027 03:03:03.400             5.081          2540.500
       181   05 Jun 2027 03:03:57.745   05 Jun 2027 03:03:59.101             1.356           678.000
       182   05 Jun 2027 04:35:47.319   05 Jun 2027 04:36:02.419            15.100          7550.000
       183   05 Jun 2027 04:37:09.492   05 Jun 2027 04:37:13.936             4.444          2222.000
       184   05 Jun 2027 04:37:53.407   05 Jun 2027 04:38:05.315            11.908          5954.000
       185   05 Jun 2027 04:39:01.228   05 Jun 2027 04:39:05.578             4.350          2175.000
       186   05 Jun 2027 04:39:36.817   05 Jun 2027 04:39:38.468             1.651           825.500
       187   05 Jun 2027 04:40:48.069   05 Jun 2027 04:40:52.230             4.161          2080.500
       188   05 Jun 2027 04:41:36.691   05 Jun 2027 04:41:37.320             0.629           314.500
       189   05 Jun 2027 04:41:52.496   05 Jun 2027 04:41:58.716             6.220          3110.000
       190   05 Jun 2027 04:42:28.571   05 Jun 2027 04:42:31.365             2.794          1397.000
       191   05 Jun 2027 06:12:07.309   05 Jun 2027 06:12:10.573             3.264          1632.000
       192   05 Jun 2027 06:12:15.916   05 Jun 2027 06:12:44.789            28.873         14436.500
       193   05 Jun 2027 06:15:00.120   05 Jun 2027 06:15:02.780             2.660          1330.000
       194   05 Jun 2027 06:15:16.950   05 Jun 2027 06:15:25.255             8.305          4152.500
       195   05 Jun 2027 06:15:38.488   05 Jun 2027 06:15:44.175             5.687          2843.500
       196   05 Jun 2027 06:16:42.189   05 Jun 2027 06:16:46.336             4.147          2073.500
       197   05 Jun 2027 06:17:15.451   05 Jun 2027 06:17:28.543            13.092          6546.000
       198   05 Jun 2027 07:49:41.840   05 Jun 2027 07:49:43.168             1.328           664.000
       199   05 Jun 2027 07:50:21.183   05 Jun 2027 07:50:32.736            11.553          5776.500
       200   05 Jun 2027 07:51:39.453   05 Jun 2027 07:51:40.229             0.776           388.000
       201   05 Jun 2027 07:52:03.000   05 Jun 2027 07:52:10.407             7.407          3703.500
       202   05 Jun 2027 07:52:43.749   05 Jun 2027 07:52:44.891             1.142           571.000
       203   05 Jun 2027 07:53:12.647   05 Jun 2027 07:53:20.639             7.992          3996.000
       204   05 Jun 2027 07:53:53.585   05 Jun 2027 07:53:55.500             1.915           957.500
       205   05 Jun 2027 09:25:44.643   05 Jun 2027 09:25:44.921             0.278           139.000
       206   05 Jun 2027 09:27:25.625   05 Jun 2027 09:27:28.544             2.919          1459.500
       207   05 Jun 2027 09:28:21.516   05 Jun 2027 09:28:32.606            11.090          5545.000
       208   05 Jun 2027 09:29:53.156   05 Jun 2027 09:29:55.447             2.291          1145.500
       209   06 Jun 2027 03:12:48.852   06 Jun 2027 03:12:54.914             6.062          3031.000
       210   06 Jun 2027 03:13:24.336   06 Jun 2027 03:13:27.643             3.307          1653.500
       211   06 Jun 2027 03:13:43.830   06 Jun 2027 03:13:47.994             4.164          2082.000
       212   06 Jun 2027 03:14:43.343   06 Jun 2027 03:14:45.191             1.848           924.000
       213   06 Jun 2027 03:14:50.548   06 Jun 2027 03:14:59.564             9.016          4508.000
       214   06 Jun 2027 03:15:38.476   06 Jun 2027 03:15:48.552            10.076          5038.000
       215   06 Jun 2027 04:47:58.971   06 Jun 2027 04:48:05.627             6.656          3328.000
       216   06 Jun 2027 04:48:40.425   06 Jun 2027 04:49:12.112            31.687         15843.500
       217   06 Jun 2027 04:51:37.575   06 Jun 2027 04:51:43.808             6.233          3116.500
       218   06 Jun 2027 04:51:56.729   06 Jun 2027 04:52:18.595            21.866         10933.000
       219   06 Jun 2027 04:54:28.290   06 Jun 2027 04:54:34.529             6.239          3119.500
       220   06 Jun 2027 06:24:19.835   06 Jun 2027 06:24:39.514            19.679          9839.500
       221   06 Jun 2027 06:25:18.165   06 Jun 2027 06:25:26.207             8.042          4021.000
       222   06 Jun 2027 06:26:46.056   06 Jun 2027 06:26:50.201             4.145          2072.500
       223   06 Jun 2027 06:27:10.845   06 Jun 2027 06:27:22.666            11.821          5910.500
       224   06 Jun 2027 06:27:35.944   06 Jun 2027 06:27:36.844             0.900           450.000
       225   06 Jun 2027 06:28:14.712   06 Jun 2027 06:28:15.614             0.902           451.000
       226   06 Jun 2027 06:28:42.976   06 Jun 2027 06:28:43.223             0.247           123.500
       227   06 Jun 2027 06:28:48.596   06 Jun 2027 06:28:51.648             3.052          1526.000
       228   06 Jun 2027 06:29:13.380   06 Jun 2027 06:29:22.344             8.964          4482.000
       229   06 Jun 2027 08:01:36.625   06 Jun 2027 08:01:38.720             2.095          1047.500
       230   06 Jun 2027 08:02:03.290   06 Jun 2027 08:02:06.974             3.684          1842.000
       231   06 Jun 2027 08:03:19.378   06 Jun 2027 08:03:27.675             8.297          4148.500
       232   06 Jun 2027 08:04:48.926   06 Jun 2027 08:04:48.942             0.016             8.000
       233   06 Jun 2027 08:04:49.503   06 Jun 2027 08:04:51.610             2.107          1053.500
       234   06 Jun 2027 08:05:42.590   06 Jun 2027 08:05:46.886             4.296          2148.000
       235   06 Jun 2027 08:06:17.412   06 Jun 2027 08:06:17.704             0.292           146.000
       236   06 Jun 2027 09:37:49.037   06 Jun 2027 09:37:55.731             6.694          3347.000
       237   06 Jun 2027 09:38:29.509   06 Jun 2027 09:38:29.609             0.100            50.000
       238   06 Jun 2027 09:38:40.476   06 Jun 2027 09:38:53.571            13.095          6547.500
       239   06 Jun 2027 09:40:05.617   06 Jun 2027 09:40:06.880             1.263           631.500
       240   06 Jun 2027 09:40:21.546   06 Jun 2027 09:40:31.661            10.115          5057.500
       241   06 Jun 2027 09:41:24.622   06 Jun 2027 09:41:40.547            15.925          7962.500
       242   07 Jun 2027 03:24:36.521   07 Jun 2027 03:24:42.133             5.612          2806.000
       243   07 Jun 2027 03:24:59.516   07 Jun 2027 03:24:59.516             0.000             0.000
       244   07 Jun 2027 03:25:08.167   07 Jun 2027 03:25:10.905             2.738          1369.000
       245   07 Jun 2027 03:25:22.029   07 Jun 2027 03:25:31.738             9.709          4854.500
       246   07 Jun 2027 03:26:13.028   07 Jun 2027 03:26:14.113             1.085           542.500
       247   07 Jun 2027 03:26:36.911   07 Jun 2027 03:26:44.453             7.542          3771.000
       248   07 Jun 2027 03:27:22.532   07 Jun 2027 03:27:27.285             4.753          2376.500
       249   07 Jun 2027 03:27:52.839   07 Jun 2027 03:27:56.254             3.415          1707.500
       250   07 Jun 2027 03:28:29.220   07 Jun 2027 03:28:32.697             3.477          1738.500
       251   07 Jun 2027 04:59:29.957   07 Jun 2027 04:59:30.077             0.120            60.000
       252   07 Jun 2027 04:59:34.435   07 Jun 2027 04:59:34.893             0.458           229.000
       253   07 Jun 2027 05:00:17.925   07 Jun 2027 05:00:24.590             6.665          3332.500
       254   07 Jun 2027 05:01:09.756   07 Jun 2027 05:01:14.605             4.849          2424.500
       255   07 Jun 2027 05:01:55.141   07 Jun 2027 05:01:59.071             3.930          1965.000
       256   07 Jun 2027 05:03:07.710   07 Jun 2027 05:03:14.251             6.541          3270.500
       257   07 Jun 2027 05:03:45.301   07 Jun 2027 05:03:49.866             4.565          2282.500
       258   07 Jun 2027 05:03:54.422   07 Jun 2027 05:04:08.256            13.834          6917.000
       259   07 Jun 2027 05:05:44.648   07 Jun 2027 05:05:51.751             7.103          3551.500
       260   07 Jun 2027 05:06:11.466   07 Jun 2027 05:06:21.512            10.046          5023.000
       261   07 Jun 2027 05:06:39.921   07 Jun 2027 05:06:41.917             1.996           998.000
       262   07 Jun 2027 06:35:58.125   07 Jun 2027 06:36:00.628             2.503          1251.500
       263   07 Jun 2027 06:36:38.433   07 Jun 2027 06:36:53.377            14.944          7472.000
       264   07 Jun 2027 06:38:01.046   07 Jun 2027 06:38:03.408             2.362          1181.000
       265   07 Jun 2027 06:38:05.373   07 Jun 2027 06:38:15.077             9.704          4852.000
       266   07 Jun 2027 06:39:29.972   07 Jun 2027 06:39:39.066             9.094          4547.000
       267   07 Jun 2027 06:40:36.916   07 Jun 2027 06:40:40.753             3.837          1918.500
       268   07 Jun 2027 06:41:24.917   07 Jun 2027 06:41:55.777            30.860         15430.000
       269   07 Jun 2027 08:14:16.102   07 Jun 2027 08:14:27.239            11.137          5568.500
       270   07 Jun 2027 08:15:18.594   07 Jun 2027 08:15:21.081             2.487          1243.500
       271   07 Jun 2027 08:15:34.971   07 Jun 2027 08:15:47.148            12.177          6088.500
       272   07 Jun 2027 08:16:48.610   07 Jun 2027 08:16:51.226             2.616          1308.000
       273   07 Jun 2027 08:17:27.191   07 Jun 2027 08:17:36.324             9.133          4566.500
       274   07 Jun 2027 09:49:42.989   07 Jun 2027 09:49:47.558             4.569          2284.500
       275   07 Jun 2027 09:50:25.185   07 Jun 2027 09:50:25.448             0.263           131.500
       276   07 Jun 2027 09:50:51.430   07 Jun 2027 09:50:55.142             3.712          1856.000
       277   07 Jun 2027 09:51:32.633   07 Jun 2027 09:51:37.485             4.852          2426.000
       278   07 Jun 2027 09:52:12.480   07 Jun 2027 09:52:12.766             0.286           143.000
       279   07 Jun 2027 09:52:31.409   07 Jun 2027 09:52:35.181             3.772          1886.000
       280   07 Jun 2027 09:53:15.815   07 Jun 2027 09:53:16.442             0.627           313.500
       281   07 Jun 2027 09:54:05.184   07 Jun 2027 09:54:12.241             7.057          3528.500
       282   07 Jun 2027 09:54:41.575   07 Jun 2027 09:54:42.409             0.834           417.000
       283   07 Jun 2027 09:54:57.458   07 Jun 2027 09:55:04.358             6.900          3450.000
       284   08 Jun 2027 03:34:52.778   08 Jun 2027 03:35:03.994            11.216          5608.000
       285   08 Jun 2027 03:36:21.521   08 Jun 2027 03:36:22.984             1.463           731.500
       286   08 Jun 2027 03:36:43.429   08 Jun 2027 03:36:43.618             0.189            94.500
       287   08 Jun 2027 03:36:46.851   08 Jun 2027 03:36:58.673            11.822          5911.000
       288   08 Jun 2027 03:37:50.352   08 Jun 2027 03:37:50.518             0.166            83.000
       289   08 Jun 2027 03:37:55.605   08 Jun 2027 03:37:59.479             3.874          1937.000
       290   08 Jun 2027 03:38:16.024   08 Jun 2027 03:38:24.558             8.534          4267.000
       291   08 Jun 2027 03:38:32.959   08 Jun 2027 03:38:37.897             4.938          2469.000
       292   08 Jun 2027 03:39:03.520   08 Jun 2027 03:39:03.520             0.000             0.000
       293   08 Jun 2027 03:39:29.789   08 Jun 2027 03:39:36.806             7.017          3508.500
       294   08 Jun 2027 03:40:13.230   08 Jun 2027 03:40:17.967             4.737          2368.500
       295   08 Jun 2027 05:11:11.571   08 Jun 2027 05:11:21.222             9.651          4825.500
       296   08 Jun 2027 05:12:41.418   08 Jun 2027 05:12:41.951             0.533           266.500
       297   08 Jun 2027 05:12:58.567   08 Jun 2027 05:12:59.449             0.882           441.000
       298   08 Jun 2027 05:13:15.603   08 Jun 2027 05:13:16.691             1.088           544.000
       299   08 Jun 2027 05:13:19.517   08 Jun 2027 05:13:21.819             2.302          1151.000
       300   08 Jun 2027 05:13:40.289   08 Jun 2027 05:13:45.101             4.812          2406.000
       301   08 Jun 2027 05:14:06.399   08 Jun 2027 05:14:09.684             3.285          1642.500
       302   08 Jun 2027 05:15:10.098   08 Jun 2027 05:15:15.427             5.329          2664.500
       303   08 Jun 2027 05:15:54.037   08 Jun 2027 05:15:58.417             4.380          2190.000
       304   08 Jun 2027 05:16:20.705   08 Jun 2027 05:16:24.329             3.624          1812.000
       305   08 Jun 2027 05:17:09.935   08 Jun 2027 05:17:12.613             2.678          1339.000
       306   08 Jun 2027 05:17:37.014   08 Jun 2027 05:17:43.657             6.643          3321.500
       307   08 Jun 2027 05:17:58.576   08 Jun 2027 05:18:00.502             1.926           963.000
       308   08 Jun 2027 05:18:30.395   08 Jun 2027 05:18:39.934             9.539          4769.500
       309   08 Jun 2027 06:48:17.932   08 Jun 2027 06:48:36.070            18.138          9069.000
       310   08 Jun 2027 06:49:42.359   08 Jun 2027 06:49:51.611             9.252          4626.000
       311   08 Jun 2027 06:50:42.015   08 Jun 2027 06:50:46.519             4.504          2252.000
       312   08 Jun 2027 06:51:00.833   08 Jun 2027 06:51:05.342             4.509          2254.500
       313   08 Jun 2027 06:51:27.684   08 Jun 2027 06:51:35.764             8.080          4040.000
       314   08 Jun 2027 06:52:22.142   08 Jun 2027 06:52:23.647             1.505           752.500
       315   08 Jun 2027 06:52:58.008   08 Jun 2027 06:53:01.961             3.953          1976.500
       316   08 Jun 2027 06:53:17.593   08 Jun 2027 06:53:18.159             0.566           283.000
       317   08 Jun 2027 06:54:06.219   08 Jun 2027 06:54:12.731             6.512          3256.000
       318   08 Jun 2027 08:26:14.094   08 Jun 2027 08:26:24.067             9.973          4986.500
       319   08 Jun 2027 08:27:20.101   08 Jun 2027 08:27:22.000             1.899           949.500
       320   08 Jun 2027 08:27:54.295   08 Jun 2027 08:28:05.512            11.217          5608.500
       321   08 Jun 2027 08:28:19.726   08 Jun 2027 08:28:26.289             6.563          3281.500
       322   08 Jun 2027 08:29:02.280   08 Jun 2027 08:29:06.798             4.518          2259.000
       323   08 Jun 2027 08:29:52.658   08 Jun 2027 08:29:59.731             7.073          3536.500
       324   08 Jun 2027 09:59:19.025   08 Jun 2027 09:59:42.918            23.893         11946.500
       325   08 Jun 2027 09:59:51.190   08 Jun 2027 10:00:04.489            13.299          6649.500
       326   08 Jun 2027 10:02:38.282   08 Jun 2027 10:02:46.731             8.449          4224.500
       327   08 Jun 2027 10:03:39.852   08 Jun 2027 10:03:41.490             1.638           819.000
       328   08 Jun 2027 10:03:51.764   08 Jun 2027 10:03:59.053             7.289          3644.500
       329   08 Jun 2027 10:04:38.284   08 Jun 2027 10:04:39.472             1.188           594.000
       330   08 Jun 2027 10:04:59.726   08 Jun 2027 10:05:16.668            16.942          8471.000
       331   08 Jun 2027 10:05:28.975   08 Jun 2027 10:05:31.565             2.590          1295.000
       332   08 Jun 2027 10:06:39.895   08 Jun 2027 10:06:49.002             9.107          4553.500
       333   09 Jun 2027 03:46:01.667   09 Jun 2027 03:46:11.694            10.027          5013.500
       334   09 Jun 2027 03:47:18.521   09 Jun 2027 03:47:26.173             7.652          3826.000
       335   09 Jun 2027 03:48:05.460   09 Jun 2027 03:48:13.142             7.682          3841.000
       336   09 Jun 2027 03:48:51.831   09 Jun 2027 03:49:00.302             8.471          4235.500
       337   09 Jun 2027 03:49:38.386   09 Jun 2027 03:49:42.256             3.870          1935.000
       338   09 Jun 2027 03:50:05.810   09 Jun 2027 03:50:21.023            15.213          7606.500
       339   09 Jun 2027 03:51:24.194   09 Jun 2027 03:51:28.826             4.632          2316.000
       340   09 Jun 2027 03:52:01.699   09 Jun 2027 03:52:10.213             8.514          4257.000
       341   09 Jun 2027 03:53:58.828   09 Jun 2027 03:54:08.061             9.233          4616.500
       342   09 Jun 2027 05:23:30.228   09 Jun 2027 05:23:36.704             6.476          3238.000
       343   09 Jun 2027 05:24:16.622   09 Jun 2027 05:24:40.204            23.582         11791.000
       344   09 Jun 2027 05:24:48.599   09 Jun 2027 05:24:54.730             6.131          3065.500
       345   09 Jun 2027 05:27:12.937   09 Jun 2027 05:27:18.414             5.477          2738.500
       346   09 Jun 2027 05:27:49.585   09 Jun 2027 05:28:02.806            13.221          6610.500
       347   09 Jun 2027 05:29:12.635   09 Jun 2027 05:29:12.808             0.173            86.500
       348   09 Jun 2027 05:29:14.047   09 Jun 2027 05:29:34.444            20.397         10198.500
       349   09 Jun 2027 05:29:56.222   09 Jun 2027 05:29:56.957             0.735           367.500
       350   09 Jun 2027 07:00:14.919   09 Jun 2027 07:00:17.716             2.797          1398.500
       351   09 Jun 2027 07:00:46.409   09 Jun 2027 07:00:56.351             9.942          4971.000
       352   09 Jun 2027 07:02:35.538   09 Jun 2027 07:02:42.385             6.847          3423.500
       353   09 Jun 2027 07:03:49.542   09 Jun 2027 07:03:49.671             0.129            64.500
       354   09 Jun 2027 07:03:55.512   09 Jun 2027 07:03:57.351             1.839           919.500
       355   09 Jun 2027 07:04:26.884   09 Jun 2027 07:04:30.392             3.508          1754.000
       356   09 Jun 2027 07:05:43.784   09 Jun 2027 07:05:47.400             3.616          1808.000
       357   09 Jun 2027 07:06:27.210   09 Jun 2027 07:06:27.943             0.733           366.500
       358   09 Jun 2027 08:38:13.302   09 Jun 2027 08:38:13.976             0.674           337.000
       359   09 Jun 2027 08:38:21.986   09 Jun 2027 08:38:28.088             6.102          3051.000
       360   09 Jun 2027 08:39:04.065   09 Jun 2027 08:39:14.754            10.689          5344.500
       361   09 Jun 2027 08:40:16.956   09 Jun 2027 08:40:24.484             7.528          3764.000
       362   09 Jun 2027 08:41:07.678   09 Jun 2027 08:41:10.179             2.501          1250.500
       363   09 Jun 2027 08:41:20.842   09 Jun 2027 08:41:39.925            19.083          9541.500
       364   09 Jun 2027 10:11:51.221   09 Jun 2027 10:12:15.231            24.010         12005.000
       365   09 Jun 2027 10:13:52.762   09 Jun 2027 10:14:18.443            25.681         12840.500
       366   09 Jun 2027 10:16:32.453   09 Jun 2027 10:16:39.681             7.228          3614.000
       367   09 Jun 2027 10:17:36.671   09 Jun 2027 10:17:56.329            19.658          9829.000
       368   10 Jun 2027 03:57:29.701   10 Jun 2027 03:57:35.508             5.807          2903.500
       369   10 Jun 2027 03:58:17.607   10 Jun 2027 03:58:22.801             5.194          2597.000
       370   10 Jun 2027 03:59:53.519   10 Jun 2027 03:59:56.608             3.089          1544.500
       371   10 Jun 2027 04:00:09.029   10 Jun 2027 04:00:29.313            20.284         10142.000
       372   10 Jun 2027 04:01:53.446   10 Jun 2027 04:01:53.900             0.454           227.000
       373   10 Jun 2027 04:02:05.995   10 Jun 2027 04:02:19.672            13.677          6838.500
       374   10 Jun 2027 04:03:15.273   10 Jun 2027 04:03:18.115             2.842          1421.000
       375   10 Jun 2027 04:03:38.880   10 Jun 2027 04:03:41.588             2.708          1354.000
       376   10 Jun 2027 04:04:01.485   10 Jun 2027 04:04:08.998             7.513          3756.500
       377   10 Jun 2027 04:05:53.057   10 Jun 2027 04:05:57.953             4.896          2448.000
       378   10 Jun 2027 04:06:37.514   10 Jun 2027 04:06:39.025             1.511           755.500
       379   10 Jun 2027 05:35:23.311   10 Jun 2027 05:35:27.260             3.949          1974.500
       380   10 Jun 2027 05:35:44.094   10 Jun 2027 05:35:49.717             5.623          2811.500
       381   10 Jun 2027 05:36:50.157   10 Jun 2027 05:36:50.913             0.756           378.000
       382   10 Jun 2027 05:37:11.110   10 Jun 2027 05:37:17.843             6.733          3366.500
       383   10 Jun 2027 05:39:08.702   10 Jun 2027 05:39:10.980             2.278          1139.000
       384   10 Jun 2027 05:39:23.387   10 Jun 2027 05:39:24.144             0.757           378.500
       385   10 Jun 2027 05:39:35.508   10 Jun 2027 05:39:39.065             3.557          1778.500
       386   10 Jun 2027 05:40:41.365   10 Jun 2027 05:40:43.075             1.710           855.000
       387   10 Jun 2027 05:41:12.343   10 Jun 2027 05:41:25.028            12.685          6342.500
       388   10 Jun 2027 05:41:37.470   10 Jun 2027 05:41:46.706             9.236          4618.000
       389   10 Jun 2027 07:12:07.244   10 Jun 2027 07:12:12.446             5.202          2601.000
       390   10 Jun 2027 07:12:32.803   10 Jun 2027 07:12:45.047            12.244          6122.000
       391   10 Jun 2027 07:13:38.356   10 Jun 2027 07:13:38.949             0.593           296.500
       392   10 Jun 2027 07:13:45.849   10 Jun 2027 07:13:48.384             2.535          1267.500
       393   10 Jun 2027 07:14:03.708   10 Jun 2027 07:14:10.443             6.735          3367.500
       394   10 Jun 2027 07:14:38.855   10 Jun 2027 07:14:38.884             0.029            14.500
       395   10 Jun 2027 07:15:08.454   10 Jun 2027 07:15:11.230             2.776          1388.000
       396   10 Jun 2027 07:15:19.365   10 Jun 2027 07:15:26.739             7.374          3687.000
       397   10 Jun 2027 07:16:01.924   10 Jun 2027 07:16:14.250            12.326          6163.000
       398   10 Jun 2027 07:17:14.309   10 Jun 2027 07:17:14.559             0.250           125.000
       399   10 Jun 2027 07:17:50.896   10 Jun 2027 07:17:55.514             4.618          2309.000
       400   10 Jun 2027 07:18:20.407   10 Jun 2027 07:18:23.831             3.424          1712.000
       401   10 Jun 2027 08:50:13.479   10 Jun 2027 08:50:15.732             2.253          1126.500
       402   10 Jun 2027 08:50:27.283   10 Jun 2027 08:50:44.855            17.572          8786.000
       403   10 Jun 2027 08:52:18.530   10 Jun 2027 08:52:23.152             4.622          2311.000
       404   10 Jun 2027 08:53:05.765   10 Jun 2027 08:53:06.562             0.797           398.500
       405   10 Jun 2027 08:53:10.477   10 Jun 2027 08:53:14.657             4.180          2090.000
       406   10 Jun 2027 08:53:36.260   10 Jun 2027 08:53:44.258             7.998          3999.000
       407   10 Jun 2027 10:25:57.918   10 Jun 2027 10:26:00.415             2.497          1248.500
       408   10 Jun 2027 10:26:19.642   10 Jun 2027 10:26:19.955             0.313           156.500
       409   10 Jun 2027 10:27:03.240   10 Jun 2027 10:27:11.861             8.621          4310.500
       410   10 Jun 2027 10:28:27.346   10 Jun 2027 10:28:40.169            12.823          6411.500
       411   10 Jun 2027 10:30:05.926   10 Jun 2027 10:30:07.225             1.299           649.500
       412   11 Jun 2027 04:10:22.092   11 Jun 2027 04:10:23.804             1.712           856.000
       413   11 Jun 2027 04:11:34.261   11 Jun 2027 04:11:42.698             8.437          4218.500
       414   11 Jun 2027 04:12:13.983   11 Jun 2027 04:12:27.333            13.350          6675.000
       415   11 Jun 2027 04:13:01.486   11 Jun 2027 04:13:13.769            12.283          6141.500
       416   11 Jun 2027 04:14:38.277   11 Jun 2027 04:14:39.242             0.965           482.500
       417   11 Jun 2027 04:14:53.514   11 Jun 2027 04:14:53.947             0.433           216.500
       418   11 Jun 2027 04:15:03.067   11 Jun 2027 04:15:05.085             2.018          1009.000
       419   11 Jun 2027 04:15:24.222   11 Jun 2027 04:15:39.664            15.442          7721.000
       420   11 Jun 2027 04:16:45.044   11 Jun 2027 04:16:53.786             8.742          4371.000
       421   11 Jun 2027 04:17:27.881   11 Jun 2027 04:17:38.627            10.746          5373.000
       422   11 Jun 2027 04:18:02.709   11 Jun 2027 04:18:02.862             0.153            76.500
       423   11 Jun 2027 04:18:29.074   11 Jun 2027 04:18:37.295             8.221          4110.500
       424   11 Jun 2027 05:47:30.896   11 Jun 2027 05:47:36.819             5.923          2961.500
       425   11 Jun 2027 05:48:08.017   11 Jun 2027 05:48:08.855             0.838           419.000
       426   11 Jun 2027 05:48:30.633   11 Jun 2027 05:48:32.932             2.299          1149.500
       427   11 Jun 2027 05:48:52.910   11 Jun 2027 05:49:08.603            15.693          7846.500
       428   11 Jun 2027 05:50:15.222   11 Jun 2027 05:50:22.931             7.709          3854.500
       429   11 Jun 2027 05:51:01.830   11 Jun 2027 05:51:08.997             7.167          3583.500
       430   11 Jun 2027 05:51:53.338   11 Jun 2027 05:52:00.923             7.585          3792.500
       431   11 Jun 2027 05:53:32.439   11 Jun 2027 05:53:46.204            13.765          6882.500
       432   11 Jun 2027 05:54:29.500   11 Jun 2027 05:54:29.500             0.000             0.000
       433   11 Jun 2027 07:24:45.479   11 Jun 2027 07:24:52.438             6.959          3479.500
       434   11 Jun 2027 07:25:21.724   11 Jun 2027 07:25:32.121            10.397          5198.500
       435   11 Jun 2027 07:26:35.900   11 Jun 2027 07:26:39.128             3.228          1614.000
       436   11 Jun 2027 07:27:09.703   11 Jun 2027 07:27:10.337             0.634           317.000
       437   11 Jun 2027 07:27:13.742   11 Jun 2027 07:27:28.213            14.471          7235.500
       438   11 Jun 2027 07:28:33.923   11 Jun 2027 07:28:36.983             3.060          1530.000
       439   11 Jun 2027 07:28:49.267   11 Jun 2027 07:28:49.799             0.532           266.000
       440   11 Jun 2027 07:29:04.428   11 Jun 2027 07:29:07.887             3.459          1729.500
       441   11 Jun 2027 07:29:55.100   11 Jun 2027 07:30:02.579             7.479          3739.500
       442   11 Jun 2027 07:30:18.766   11 Jun 2027 07:30:20.641             1.875           937.500
       443   11 Jun 2027 09:01:27.405   11 Jun 2027 09:01:34.190             6.785          3392.500
       444   11 Jun 2027 09:01:55.844   11 Jun 2027 09:01:57.097             1.253           626.500
       445   11 Jun 2027 09:02:11.127   11 Jun 2027 09:02:13.226             2.099          1049.500
       446   11 Jun 2027 09:02:42.948   11 Jun 2027 09:02:50.623             7.675          3837.500
       447   11 Jun 2027 09:03:25.806   11 Jun 2027 09:03:29.191             3.385          1692.500
       448   11 Jun 2027 09:03:53.515   11 Jun 2027 09:03:56.064             2.549          1274.500
       449   11 Jun 2027 09:04:09.281   11 Jun 2027 09:04:20.232            10.951          5475.500
       450   11 Jun 2027 09:05:23.258   11 Jun 2027 09:05:23.894             0.636           318.000
       451   11 Jun 2027 09:05:29.568   11 Jun 2027 09:05:34.033             4.465          2232.500
       452   11 Jun 2027 10:36:39.179   11 Jun 2027 10:36:50.803            11.624          5812.000
       453   11 Jun 2027 10:38:13.978   11 Jun 2027 10:38:13.983             0.005             2.500
       454   11 Jun 2027 10:38:28.199   11 Jun 2027 10:39:03.748            35.549         17774.500
       455   12 Jun 2027 04:22:45.844   12 Jun 2027 04:22:58.404            12.560          6280.000
       456   12 Jun 2027 04:23:46.130   12 Jun 2027 04:23:46.130             0.000             0.000
       457   12 Jun 2027 04:24:00.003   12 Jun 2027 04:24:02.214             2.211          1105.500
       458   12 Jun 2027 04:24:30.711   12 Jun 2027 04:24:38.125             7.414          3707.000
       459   12 Jun 2027 04:25:42.026   12 Jun 2027 04:25:45.396             3.370          1685.000
       460   12 Jun 2027 04:26:28.361   12 Jun 2027 04:26:28.699             0.338           169.000
       461   12 Jun 2027 04:26:37.283   12 Jun 2027 04:26:37.723             0.440           220.000
       462   12 Jun 2027 04:26:54.721   12 Jun 2027 04:26:54.908             0.187            93.500
       463   12 Jun 2027 04:27:18.291   12 Jun 2027 04:27:19.075             0.784           392.000
       464   12 Jun 2027 04:28:05.385   12 Jun 2027 04:28:12.217             6.832          3416.000
       465   12 Jun 2027 04:29:27.884   12 Jun 2027 04:29:30.051             2.167          1083.500
       466   12 Jun 2027 04:30:06.600   12 Jun 2027 04:30:08.831             2.231          1115.500
       467   12 Jun 2027 04:30:22.022   12 Jun 2027 04:30:27.384             5.362          2681.000
       468   12 Jun 2027 04:30:32.748   12 Jun 2027 04:30:40.009             7.261          3630.500
       469   12 Jun 2027 05:59:56.227   12 Jun 2027 05:59:59.948             3.721          1860.500
       470   12 Jun 2027 06:00:09.867   12 Jun 2027 06:00:22.814            12.947          6473.500
       471   12 Jun 2027 06:00:31.677   12 Jun 2027 06:00:38.564             6.887          3443.500
       472   12 Jun 2027 06:02:07.843   12 Jun 2027 06:02:26.848            19.005          9502.500
       473   12 Jun 2027 06:03:49.571   12 Jun 2027 06:04:04.224            14.653          7326.500
       474   12 Jun 2027 06:04:49.877   12 Jun 2027 06:04:57.793             7.916          3958.000
       475   12 Jun 2027 06:06:08.495   12 Jun 2027 06:06:17.370             8.875          4437.500
       476   12 Jun 2027 07:36:55.612   12 Jun 2027 07:37:16.830            21.218         10609.000
       477   12 Jun 2027 07:39:03.708   12 Jun 2027 07:39:05.214             1.506           753.000
       478   12 Jun 2027 07:39:23.661   12 Jun 2027 07:39:27.300             3.639          1819.500
       479   12 Jun 2027 07:39:57.155   12 Jun 2027 07:39:58.163             1.008           504.000
       480   12 Jun 2027 07:40:54.218   12 Jun 2027 07:40:55.021             0.803           401.500
       481   12 Jun 2027 07:41:10.118   12 Jun 2027 07:41:10.530             0.412           206.000
       482   12 Jun 2027 07:41:45.761   12 Jun 2027 07:41:53.752             7.991          3995.500
       483   12 Jun 2027 07:42:08.600   12 Jun 2027 07:42:16.184             7.584          3792.000
       484   12 Jun 2027 09:13:42.168   12 Jun 2027 09:13:44.418             2.250          1125.000
       485   12 Jun 2027 09:14:29.747   12 Jun 2027 09:14:36.435             6.688          3344.000
       486   12 Jun 2027 09:15:04.785   12 Jun 2027 09:15:27.326            22.541         11270.500
       487   12 Jun 2027 09:17:01.738   12 Jun 2027 09:17:15.054            13.316          6658.000
       488   12 Jun 2027 10:51:52.459   12 Jun 2027 10:52:09.612            17.153          8576.500
       489   13 Jun 2027 03:00:53.149   13 Jun 2027 03:01:02.769             9.620          4810.000
       490   13 Jun 2027 03:01:51.991   13 Jun 2027 03:01:53.560             1.569           784.500
       491   13 Jun 2027 03:02:05.807   13 Jun 2027 03:02:06.264             0.457           228.500
       492   13 Jun 2027 03:02:48.642   13 Jun 2027 03:02:50.356             1.714           857.000
       493   13 Jun 2027 03:02:58.621   13 Jun 2027 03:03:01.948             3.327          1663.500
       494   13 Jun 2027 03:03:51.973   13 Jun 2027 03:03:53.645             1.672           836.000
       495   13 Jun 2027 03:04:14.683   13 Jun 2027 03:04:25.969            11.286          5643.000
       496   13 Jun 2027 04:36:01.976   13 Jun 2027 04:36:17.304            15.328          7664.000
       497   13 Jun 2027 04:37:10.672   13 Jun 2027 04:37:10.672             0.000             0.000
       498   13 Jun 2027 04:37:25.024   13 Jun 2027 04:37:31.015             5.991          2995.500
       499   13 Jun 2027 04:38:08.423   13 Jun 2027 04:38:20.319            11.896          5948.000
       500   13 Jun 2027 04:39:17.369   13 Jun 2027 04:39:20.360             2.991          1495.500
       501   13 Jun 2027 04:39:34.648   13 Jun 2027 04:39:45.030            10.382          5191.000
       502   13 Jun 2027 04:40:43.754   13 Jun 2027 04:40:49.886             6.132          3066.000
       503   13 Jun 2027 04:41:17.717   13 Jun 2027 04:41:17.827             0.110            55.000
       504   13 Jun 2027 04:41:22.024   13 Jun 2027 04:41:31.251             9.227          4613.500
       505   13 Jun 2027 04:42:19.041   13 Jun 2027 04:42:34.737            15.696          7848.000
       506   13 Jun 2027 04:42:43.270   13 Jun 2027 04:42:49.083             5.813          2906.500
       507   13 Jun 2027 06:12:22.137   13 Jun 2027 06:12:27.635             5.498          2749.000
       508   13 Jun 2027 06:12:59.906   13 Jun 2027 06:13:44.293            44.387         22193.500
       509   13 Jun 2027 06:16:53.643   13 Jun 2027 06:16:58.812             5.169          2584.500
       510   13 Jun 2027 06:17:31.050   13 Jun 2027 06:17:32.235             1.185           592.500
       511   13 Jun 2027 06:17:57.359   13 Jun 2027 06:17:57.508             0.149            74.500
       512   13 Jun 2027 07:49:56.407   13 Jun 2027 07:49:58.223             1.816           908.000
       513   13 Jun 2027 07:50:12.480   13 Jun 2027 07:50:14.227             1.747           873.500
       514   13 Jun 2027 07:50:22.719   13 Jun 2027 07:50:31.584             8.865          4432.500
       515   13 Jun 2027 07:50:52.337   13 Jun 2027 07:50:53.000             0.663           331.500
       516   13 Jun 2027 07:51:15.863   13 Jun 2027 07:51:20.845             4.982          2491.000
       517   13 Jun 2027 07:51:59.964   13 Jun 2027 07:52:08.392             8.428          4214.000
       518   13 Jun 2027 07:52:57.880   13 Jun 2027 07:52:58.538             0.658           329.000
       519   13 Jun 2027 07:53:22.108   13 Jun 2027 07:53:27.376             5.268          2634.000
       520   13 Jun 2027 07:53:50.169   13 Jun 2027 07:53:50.820             0.651           325.500
       521   13 Jun 2027 07:54:10.524   13 Jun 2027 07:54:10.912             0.388           194.000
       522   13 Jun 2027 09:25:59.399   13 Jun 2027 09:26:00.023             0.624           312.000
       523   13 Jun 2027 09:27:40.013   13 Jun 2027 09:27:41.454             1.441           720.500
       524   13 Jun 2027 09:27:51.958   13 Jun 2027 09:27:54.510             2.552          1276.000
       525   13 Jun 2027 09:28:11.577   13 Jun 2027 09:28:17.332             5.755          2877.500
       526   13 Jun 2027 09:29:01.182   13 Jun 2027 09:29:10.769             9.587          4793.500
       527   13 Jun 2027 09:29:58.393   13 Jun 2027 09:29:58.572             0.179            89.500
