uniorb/output/strategy_2/Camera/Camera_KinoSat_111710.txt

KinoSat_111710
-------------------------
    Access    *     Start Time (UTCG)     *     Stop Time (UTCG)  *   Duration (s) *   Data (Mbytes)
         1   01 Jun 2027 03:58:44.183   01 Jun 2027 03:59:45.480            61.297         30648.500
         2   01 Jun 2027 03:59:51.106   01 Jun 2027 04:00:48.752            57.646         28823.000
         3   01 Jun 2027 04:00:54.410   01 Jun 2027 04:01:02.858             8.448          4224.000
         4   01 Jun 2027 04:01:18.655   01 Jun 2027 04:01:34.439            15.784          7892.000
         5   01 Jun 2027 04:01:44.472   01 Jun 2027 04:02:29.136            44.664         22332.000
         6   01 Jun 2027 04:02:51.269   01 Jun 2027 04:03:54.408            63.139         31569.500
         7   01 Jun 2027 04:04:22.881   01 Jun 2027 04:04:24.982             2.101          1050.500
         8   01 Jun 2027 05:37:46.109   01 Jun 2027 05:40:05.835           139.726         69863.000
         9   01 Jun 2027 05:40:38.946   01 Jun 2027 05:40:44.563             5.617          2808.500
        10   01 Jun 2027 05:41:10.038   01 Jun 2027 05:41:15.764             5.726          2863.000
        11   01 Jun 2027 07:00:18.465   01 Jun 2027 07:01:50.051            91.586         45793.000
        12   01 Jun 2027 08:36:43.871   01 Jun 2027 08:39:28.050           164.179         82089.500
        13   01 Jun 2027 10:11:52.169   01 Jun 2027 10:12:29.390            37.221         18610.500
        14   01 Jun 2027 10:13:00.084   01 Jun 2027 10:13:51.714            51.630         25815.000
        15   01 Jun 2027 10:16:59.064   01 Jun 2027 10:17:37.254            38.190         19095.000
        16   01 Jun 2027 10:18:33.810   01 Jun 2027 10:18:39.757             5.947          2973.500
        17   01 Jun 2027 11:48:13.408   01 Jun 2027 11:49:40.557            87.149         43574.500
        18   01 Jun 2027 11:50:01.306   01 Jun 2027 11:50:57.428            56.122         28061.000
        19   01 Jun 2027 11:53:36.975   01 Jun 2027 11:53:38.545             1.570           785.000
        20   01 Jun 2027 11:53:43.722   01 Jun 2027 11:53:52.707             8.985          4492.500
        21   01 Jun 2027 11:54:22.085   01 Jun 2027 11:54:27.727             5.642          2821.000
        22   02 Jun 2027 04:10:41.753   02 Jun 2027 04:11:30.234            48.481         24240.500
        23   02 Jun 2027 04:11:48.311   02 Jun 2027 04:13:01.303            72.992         36496.000
        24   02 Jun 2027 04:14:14.428   02 Jun 2027 04:15:30.729            76.301         38150.500
        25   02 Jun 2027 04:16:00.089   02 Jun 2027 04:16:28.567            28.478         14239.000
        26   02 Jun 2027 05:48:55.758   02 Jun 2027 05:49:57.548            61.790         30895.000
        27   02 Jun 2027 05:50:03.563   02 Jun 2027 05:51:37.698            94.135         47067.500
        28   02 Jun 2027 05:52:40.047   02 Jun 2027 05:52:40.047             0.000             0.000
        29   02 Jun 2027 07:12:16.879   02 Jun 2027 07:14:11.278           114.399         57199.500
        30   02 Jun 2027 08:48:53.917   02 Jun 2027 08:50:12.411            78.494         39247.000
        31   02 Jun 2027 08:50:19.077   02 Jun 2027 08:50:19.077             0.000             0.000
        32   02 Jun 2027 08:51:27.051   02 Jun 2027 08:51:54.959            27.908         13954.000
        33   02 Jun 2027 08:52:02.580   02 Jun 2027 08:52:13.046            10.466          4368.344
        34   02 Jun 2027 10:24:18.029   02 Jun 2027 10:24:41.178            23.149          8952.062
        35   02 Jun 2027 10:25:45.480   02 Jun 2027 10:25:45.480             0.000             0.000
        36   02 Jun 2027 10:30:26.785   02 Jun 2027 10:30:39.971            13.186          6593.000
        37   03 Jun 2027 04:23:47.237   03 Jun 2027 04:27:17.128           209.891        104945.500
        38   03 Jun 2027 04:27:29.131   03 Jun 2027 04:27:34.696             5.565          2782.500
        39   03 Jun 2027 04:28:01.534   03 Jun 2027 04:28:01.534             0.000             0.000
        40   03 Jun 2027 04:30:40.602   03 Jun 2027 04:30:45.745             5.143          2571.500
        41   03 Jun 2027 05:50:08.865   03 Jun 2027 05:50:15.681             6.816          3408.000
        42   03 Jun 2027 06:00:53.190   03 Jun 2027 06:01:35.282            42.092         21046.000
        43   03 Jun 2027 06:01:40.899   03 Jun 2027 06:02:32.789            51.890         25193.313
        44   03 Jun 2027 06:02:59.414   03 Jun 2027 06:03:03.995             4.581           785.656
        45   03 Jun 2027 06:03:44.164   03 Jun 2027 06:03:48.918             4.754          1108.281
        46   03 Jun 2027 07:24:53.208   03 Jun 2027 07:25:11.902            18.694          7844.063
        47   03 Jun 2027 07:25:46.587   03 Jun 2027 07:25:46.587             0.000             0.000
        48   03 Jun 2027 07:26:58.304   03 Jun 2027 07:27:13.250            14.946          3059.469
        49   03 Jun 2027 09:00:37.962   03 Jun 2027 09:00:48.567            10.605          4750.500
        50   03 Jun 2027 09:02:57.518   03 Jun 2027 09:03:01.794             4.276          2138.000
        51   03 Jun 2027 09:03:18.927   03 Jun 2027 09:03:25.248             6.321          2200.719
        52   03 Jun 2027 10:35:29.988   03 Jun 2027 10:35:47.534            17.546          6713.094
        53   03 Jun 2027 10:38:24.882   03 Jun 2027 10:38:36.582            11.700          4453.937
        54   03 Jun 2027 10:42:17.276   03 Jun 2027 10:42:33.682            16.406          6792.187
        55   03 Jun 2027 10:42:46.497   03 Jun 2027 10:42:48.011             1.514           292.281
        56   04 Jun 2027 03:00:00.000   04 Jun 2027 03:00:16.947            16.947          8473.500
        57   04 Jun 2027 03:00:18.674   04 Jun 2027 03:00:44.340            25.666         12833.000
        58   04 Jun 2027 03:00:53.601   04 Jun 2027 03:01:07.505            13.904          6952.000
        59   04 Jun 2027 03:01:34.046   04 Jun 2027 03:02:07.685            33.639         16819.500
        60   04 Jun 2027 03:02:37.232   04 Jun 2027 03:02:38.315             1.083           541.500
        61   04 Jun 2027 04:36:07.860   04 Jun 2027 04:38:38.880           151.020         75510.000
        62   04 Jun 2027 04:40:23.143   04 Jun 2027 04:41:01.680            38.537         19268.500
        63   04 Jun 2027 04:43:25.762   04 Jun 2027 04:43:32.212             6.450          3225.000
        64   04 Jun 2027 06:01:26.103   04 Jun 2027 06:02:15.907            49.804         24902.000
        65   04 Jun 2027 06:12:51.681   04 Jun 2027 06:13:06.244            14.563          6782.125
        66   04 Jun 2027 06:13:51.949   04 Jun 2027 06:13:51.949             0.000             0.000
        67   04 Jun 2027 06:14:16.337   04 Jun 2027 06:14:17.235             0.898           449.000
        68   04 Jun 2027 07:35:31.107   04 Jun 2027 07:35:46.166            15.059          6634.344
        69   04 Jun 2027 07:37:06.609   04 Jun 2027 07:37:09.724             3.115          1545.375
        70   04 Jun 2027 07:37:48.505   04 Jun 2027 07:37:52.378             3.873           806.844
        71   04 Jun 2027 07:38:46.913   04 Jun 2027 07:38:50.477             3.564          1114.000
        72   04 Jun 2027 07:39:20.340   04 Jun 2027 07:39:22.063             1.723           697.594
        73   04 Jun 2027 09:10:52.228   04 Jun 2027 09:11:04.872            12.644          4719.438
        74   04 Jun 2027 09:11:34.760   04 Jun 2027 09:11:40.620             5.860           166.125
        75   04 Jun 2027 09:13:10.606   04 Jun 2027 09:13:15.936             5.330          2381.125
        76   04 Jun 2027 09:15:20.040   04 Jun 2027 09:15:24.945             4.905          2452.500
        77   04 Jun 2027 09:15:58.125   04 Jun 2027 09:15:58.950             0.825           412.500
        78   04 Jun 2027 10:47:20.039   04 Jun 2027 10:47:31.960            11.921          5837.719
        79   04 Jun 2027 10:47:55.847   04 Jun 2027 10:48:00.392             4.545           568.781
        80   04 Jun 2027 10:48:26.216   04 Jun 2027 10:48:29.678             3.462           144.469
        81   04 Jun 2027 10:49:04.062   04 Jun 2027 10:49:05.282             1.220           563.875
        82   04 Jun 2027 10:52:58.363   04 Jun 2027 10:53:09.511            11.148          4609.875
        83   04 Jun 2027 10:53:30.256   04 Jun 2027 10:53:30.750             0.494           238.969
        84   04 Jun 2027 10:54:07.540   04 Jun 2027 10:54:10.034             2.494           984.062
        85   04 Jun 2027 10:54:26.204   04 Jun 2027 10:54:29.368             3.164           505.313
        86   05 Jun 2027 03:09:17.990   05 Jun 2027 03:10:52.552            94.562         47281.000
        87   05 Jun 2027 03:10:53.308   05 Jun 2027 03:12:01.478            68.170         34085.000
        88   05 Jun 2027 03:12:18.725   05 Jun 2027 03:12:50.560            31.835         15917.500
        89   05 Jun 2027 03:14:02.270   05 Jun 2027 03:14:02.270             0.000             0.000
        90   05 Jun 2027 03:14:17.746   05 Jun 2027 03:14:23.813             6.067          3033.500
        91   05 Jun 2027 03:15:16.047   05 Jun 2027 03:15:24.086             8.039          4019.500
        92   05 Jun 2027 04:48:22.661   05 Jun 2027 04:50:08.551           105.890         51224.407
        93   05 Jun 2027 04:50:26.393   05 Jun 2027 04:50:27.400             1.007           417.562
        94   05 Jun 2027 04:50:44.785   05 Jun 2027 04:50:48.604             3.819           399.000
        95   05 Jun 2027 04:51:24.151   05 Jun 2027 04:51:26.162             2.011           962.781
        96   05 Jun 2027 04:51:50.914   05 Jun 2027 04:51:51.314             0.400           200.000
        97   05 Jun 2027 04:52:10.298   05 Jun 2027 04:52:15.851             5.553           797.094
        98   05 Jun 2027 04:52:25.168   05 Jun 2027 04:52:25.751             0.583           129.375
        99   05 Jun 2027 04:54:01.655   05 Jun 2027 04:54:01.655             0.000             0.000
       100   05 Jun 2027 04:54:02.697   05 Jun 2027 04:54:06.839             4.142          2049.625
       101   05 Jun 2027 04:55:11.277   05 Jun 2027 04:55:15.554             4.277          2004.969
       102   05 Jun 2027 06:12:39.722   05 Jun 2027 06:12:48.687             8.965          4482.500
       103   05 Jun 2027 06:13:09.468   05 Jun 2027 06:13:13.110             3.642          1058.156
       104   05 Jun 2027 06:13:27.273   05 Jun 2027 06:13:27.273             0.000             0.000
       105   05 Jun 2027 06:13:47.425   05 Jun 2027 06:13:50.759             3.334          1072.344
       106   05 Jun 2027 06:14:40.146   05 Jun 2027 06:14:42.437             2.291          1073.062
       107   05 Jun 2027 06:24:51.015   05 Jun 2027 06:25:00.894             9.879          3501.344
       108   05 Jun 2027 06:25:16.399   05 Jun 2027 06:25:22.167             5.768           483.125
       109   05 Jun 2027 07:47:07.601   05 Jun 2027 07:47:22.520            14.919          6544.656
       110   05 Jun 2027 07:47:57.199   05 Jun 2027 07:47:58.838             1.639           531.969
       111   05 Jun 2027 07:50:14.162   05 Jun 2027 07:50:21.842             7.680          3555.031
       112   05 Jun 2027 07:51:44.239   05 Jun 2027 07:51:53.873             9.634          2081.125
       113   05 Jun 2027 07:52:05.444   05 Jun 2027 07:52:10.407             4.963           143.188
       114   05 Jun 2027 09:22:33.758   05 Jun 2027 09:22:47.186            13.428          6166.375
       115   05 Jun 2027 09:23:31.169   05 Jun 2027 09:23:34.863             3.694           944.031
       116   05 Jun 2027 09:25:34.066   05 Jun 2027 09:25:41.779             7.713          3587.437
       117   05 Jun 2027 09:25:52.691   05 Jun 2027 09:25:52.691             0.000             0.000
       118   05 Jun 2027 09:27:20.698   05 Jun 2027 09:27:27.297             6.599          3091.219
       119   05 Jun 2027 09:30:05.305   05 Jun 2027 09:30:13.808             8.503          3504.688
       120   05 Jun 2027 10:59:34.795   05 Jun 2027 10:59:46.989            12.194          6055.531
       121   05 Jun 2027 11:00:16.268   05 Jun 2027 11:00:18.330             2.062           708.125
       122   05 Jun 2027 11:00:30.394   05 Jun 2027 11:00:31.911             1.517           356.750
       123   05 Jun 2027 11:00:37.395   05 Jun 2027 11:00:38.165             0.770            98.125
       124   05 Jun 2027 11:01:01.101   05 Jun 2027 11:01:04.722             3.621           686.094
       125   05 Jun 2027 11:01:36.224   05 Jun 2027 11:01:40.727             4.503           916.844
       126   05 Jun 2027 11:02:19.772   05 Jun 2027 11:02:23.596             3.824           710.000
       127   05 Jun 2027 11:02:35.934   05 Jun 2027 11:02:37.540             1.606           124.594
       128   05 Jun 2027 11:02:54.019   05 Jun 2027 11:02:58.302             4.283           514.969
       129   05 Jun 2027 11:03:49.682   05 Jun 2027 11:03:54.394             4.712          1581.281
       130   05 Jun 2027 11:04:22.231   05 Jun 2027 11:04:24.381             2.150           843.969
       131   05 Jun 2027 11:05:48.907   05 Jun 2027 11:05:59.117            10.210          2403.000
       132   05 Jun 2027 11:06:45.575   05 Jun 2027 11:06:47.695             2.120          1060.000
       133   06 Jun 2027 03:21:45.119   06 Jun 2027 03:22:02.545            17.426          8713.000
       134   06 Jun 2027 03:22:10.791   06 Jun 2027 03:22:40.246            29.455         14727.500
       135   06 Jun 2027 03:22:45.057   06 Jun 2027 03:23:39.082            54.025         27012.500
       136   06 Jun 2027 03:23:41.293   06 Jun 2027 03:24:44.372            63.079         31539.500
       137   06 Jun 2027 03:25:02.793   06 Jun 2027 03:25:51.992            49.199         24599.500
       138   06 Jun 2027 03:26:19.206   06 Jun 2027 03:26:39.048            19.842          9921.000
       139   06 Jun 2027 03:27:32.618   06 Jun 2027 03:27:40.225             7.607          3803.500
       140   06 Jun 2027 05:00:27.888   06 Jun 2027 05:01:51.148            83.260         41630.000
       141   06 Jun 2027 05:01:59.372   06 Jun 2027 05:02:01.120             1.748           621.843
       142   06 Jun 2027 05:02:23.845   06 Jun 2027 05:02:25.556             1.711           579.938
       143   06 Jun 2027 05:03:06.755   06 Jun 2027 05:03:09.167             2.412          1206.000
       144   06 Jun 2027 05:04:15.524   06 Jun 2027 05:04:24.016             8.492          2100.938
       145   06 Jun 2027 05:05:59.934   06 Jun 2027 05:05:59.934             0.000             0.000
       146   06 Jun 2027 05:07:14.359   06 Jun 2027 05:07:20.092             5.733          2866.500
       147   06 Jun 2027 06:24:44.731   06 Jun 2027 06:25:03.628            18.897          8547.625
       148   06 Jun 2027 06:25:49.026   06 Jun 2027 06:25:49.026             0.000             0.000
       149   06 Jun 2027 06:26:35.186   06 Jun 2027 06:26:38.666             3.480          1740.000
       150   06 Jun 2027 06:37:07.119   06 Jun 2027 06:37:14.016             6.897          3448.500
       151   06 Jun 2027 07:58:37.191   06 Jun 2027 07:58:51.257            14.066          5538.719
       152   06 Jun 2027 07:59:31.743   06 Jun 2027 07:59:35.609             3.866           478.719
       153   06 Jun 2027 08:00:48.407   06 Jun 2027 08:00:50.735             2.328           840.344
       154   06 Jun 2027 08:02:19.095   06 Jun 2027 08:02:24.486             5.391          2223.062
       155   06 Jun 2027 08:03:45.142   06 Jun 2027 08:03:49.553             4.411          2205.500
       156   06 Jun 2027 08:03:58.291   06 Jun 2027 08:04:12.046            13.755           588.062
       157   06 Jun 2027 08:04:31.468   06 Jun 2027 08:04:34.339             2.871           570.562
       158   06 Jun 2027 09:33:32.098   06 Jun 2027 09:33:40.794             8.696          3358.937
       159   06 Jun 2027 09:35:32.522   06 Jun 2027 09:35:35.150             2.628          1314.000
       160   06 Jun 2027 09:35:38.634   06 Jun 2027 09:35:44.740             6.106           981.938
       161   06 Jun 2027 09:36:28.420   06 Jun 2027 09:36:28.420             0.000             0.000
       162   06 Jun 2027 09:37:05.097   06 Jun 2027 09:37:13.272             8.175          2482.812
       163   06 Jun 2027 09:39:12.496   06 Jun 2027 09:39:12.496             0.000             0.000
       164   06 Jun 2027 09:41:17.981   06 Jun 2027 09:41:23.817             5.836          2918.000
       165   06 Jun 2027 09:42:30.173   06 Jun 2027 09:42:45.603            15.430          6791.438
       166   06 Jun 2027 11:11:29.009   06 Jun 2027 11:11:40.424            11.415          5707.500
       167   06 Jun 2027 11:15:18.034   06 Jun 2027 11:15:31.781            13.747          6873.500
       168   06 Jun 2027 11:15:55.320   06 Jun 2027 11:15:55.741             0.421           210.500
       169   06 Jun 2027 11:17:18.741   06 Jun 2027 11:17:24.130             5.389          2694.500
       170   06 Jun 2027 11:17:32.619   06 Jun 2027 11:17:35.029             2.410           916.594
       171   06 Jun 2027 11:17:47.868   06 Jun 2027 11:17:50.884             3.016           319.688
       172   06 Jun 2027 11:18:05.685   06 Jun 2027 11:18:08.263             2.578           462.531
       173   07 Jun 2027 03:34:21.323   07 Jun 2027 03:34:33.248            11.925          5962.500
       174   07 Jun 2027 03:34:44.275   07 Jun 2027 03:35:45.078            60.803         30401.500
       175   07 Jun 2027 03:35:52.276   07 Jun 2027 03:36:27.858            35.582         17791.000
       176   07 Jun 2027 03:36:29.966   07 Jun 2027 03:38:12.671           102.705         51352.500
       177   07 Jun 2027 03:38:26.889   07 Jun 2027 03:38:55.270            28.381         14190.500
       178   07 Jun 2027 03:39:36.594   07 Jun 2027 03:39:36.594             0.000             0.000
       179   07 Jun 2027 05:12:51.774   07 Jun 2027 05:14:19.380            87.606         40510.562
       180   07 Jun 2027 05:14:30.842   07 Jun 2027 05:14:31.726             0.884           235.656
       181   07 Jun 2027 05:15:14.542   07 Jun 2027 05:15:18.464             3.922          1037.438
       182   07 Jun 2027 05:15:27.747   07 Jun 2027 05:15:30.017             2.270           182.469
       183   07 Jun 2027 05:15:59.786   07 Jun 2027 05:16:05.269             5.483           759.906
       184   07 Jun 2027 05:17:09.870   07 Jun 2027 05:17:15.354             5.484          1547.375
       185   07 Jun 2027 05:17:40.530   07 Jun 2027 05:17:46.776             6.246           135.531
       186   07 Jun 2027 06:36:41.240   07 Jun 2027 06:37:00.634            19.394          8311.625
       187   07 Jun 2027 06:37:50.497   07 Jun 2027 06:37:52.421             1.924           962.000
       188   07 Jun 2027 06:38:47.852   07 Jun 2027 06:38:52.336             4.484          2213.844
       189   07 Jun 2027 08:12:40.376   07 Jun 2027 08:12:55.157            14.781          7247.531
       190   07 Jun 2027 08:13:15.124   07 Jun 2027 08:13:16.699             1.575           322.344
       191   07 Jun 2027 08:13:33.667   07 Jun 2027 08:13:33.667             0.000             0.000
       192   07 Jun 2027 08:14:04.778   07 Jun 2027 08:14:08.142             3.364          1247.969
       193   07 Jun 2027 08:14:52.707   07 Jun 2027 08:14:54.574             1.867           933.500
       194   07 Jun 2027 08:15:26.769   07 Jun 2027 08:15:31.168             4.399          1411.281
       195   07 Jun 2027 09:46:26.270   07 Jun 2027 09:46:36.549            10.279          4691.969
       196   07 Jun 2027 09:48:49.712   07 Jun 2027 09:48:55.452             5.740          2304.406
       197   07 Jun 2027 09:52:29.745   07 Jun 2027 09:52:44.295            14.550          6666.469
       198   07 Jun 2027 09:53:34.053   07 Jun 2027 09:53:37.261             3.208          1352.250
       199   07 Jun 2027 09:54:35.001   07 Jun 2027 09:54:38.529             3.528          1683.063
       200   07 Jun 2027 09:54:42.409   07 Jun 2027 09:54:45.044             2.635            78.656
       201   07 Jun 2027 11:23:49.394   07 Jun 2027 11:24:06.586            17.192          7802.844
       202   07 Jun 2027 11:25:54.794   07 Jun 2027 11:26:02.016             7.222          3321.312
       203   07 Jun 2027 11:28:29.302   07 Jun 2027 11:28:40.206            10.904          4341.187
       204   07 Jun 2027 11:28:49.712   07 Jun 2027 11:28:50.758             1.046           297.063
       205   07 Jun 2027 11:29:23.907   07 Jun 2027 11:29:32.036             8.129           759.875
       206   07 Jun 2027 11:30:16.414   07 Jun 2027 11:30:21.791             5.377          1362.250
       207   08 Jun 2027 03:46:53.790   08 Jun 2027 03:47:20.011            26.221         13110.500
       208   08 Jun 2027 03:47:27.656   08 Jun 2027 03:50:50.109           202.453        101226.500
       209   08 Jun 2027 03:51:16.992   08 Jun 2027 03:51:32.159            15.167          7583.500
       210   08 Jun 2027 03:51:34.184   08 Jun 2027 03:51:37.013             2.829          1414.500
       211   08 Jun 2027 03:52:14.567   08 Jun 2027 03:52:18.917             4.350          2175.000
       212   08 Jun 2027 05:25:10.517   08 Jun 2027 05:25:55.820            45.303         22651.500
       213   08 Jun 2027 05:26:06.800   08 Jun 2027 05:26:27.488            20.688         10344.000
       214   08 Jun 2027 05:27:16.996   08 Jun 2027 05:27:25.364             8.368          2025.688
       215   08 Jun 2027 05:27:35.092   08 Jun 2027 05:27:37.105             2.013            90.781
       216   08 Jun 2027 05:29:06.808   08 Jun 2027 05:29:12.285             5.477          2383.406
       217   08 Jun 2027 05:29:27.901   08 Jun 2027 05:29:29.835             1.934           360.219
       218   08 Jun 2027 06:48:32.771   08 Jun 2027 06:48:44.105            11.334          5488.969
       219   08 Jun 2027 06:49:51.797   08 Jun 2027 06:50:00.435             8.638          1705.344
       220   08 Jun 2027 06:50:11.485   08 Jun 2027 06:50:14.755             3.270           345.313
       221   08 Jun 2027 06:50:34.445   08 Jun 2027 06:50:36.003             1.558           615.313
       222   08 Jun 2027 08:24:54.968   08 Jun 2027 08:25:14.588            19.620          9600.875
       223   08 Jun 2027 08:26:35.349   08 Jun 2027 08:26:40.248             4.899          2277.125
       224   08 Jun 2027 08:26:48.916   08 Jun 2027 08:26:50.325             1.409           225.844
       225   08 Jun 2027 08:27:31.042   08 Jun 2027 08:27:34.589             3.547          1272.406
       226   08 Jun 2027 09:58:58.995   08 Jun 2027 09:59:07.089             8.094          3945.812
       227   08 Jun 2027 10:00:54.123   08 Jun 2027 10:01:00.511             6.388          2507.531
       228   08 Jun 2027 10:02:02.120   08 Jun 2027 10:02:06.627             4.507          1900.969
       229   08 Jun 2027 10:05:31.840   08 Jun 2027 10:05:42.876            11.036          5518.000
       230   08 Jun 2027 10:06:20.136   08 Jun 2027 10:06:24.799             4.663          1774.375
       231   08 Jun 2027 10:06:34.002   08 Jun 2027 10:06:38.505             4.503           120.344
       232   08 Jun 2027 10:06:43.500   08 Jun 2027 10:06:49.002             5.502           156.094
       233   08 Jun 2027 10:06:55.775   08 Jun 2027 10:06:58.222             2.447            80.031
       234   08 Jun 2027 11:36:03.564   08 Jun 2027 11:36:18.496            14.932          6535.469
       235   08 Jun 2027 11:38:11.882   08 Jun 2027 11:38:17.348             5.466          1976.312
       236   08 Jun 2027 11:38:35.552   08 Jun 2027 11:38:37.431             1.879            20.656
       237   08 Jun 2027 11:38:39.315   08 Jun 2027 11:38:39.480             0.165            36.594
       238   08 Jun 2027 11:40:03.173   08 Jun 2027 11:40:09.206             6.033          2364.969
       239   08 Jun 2027 11:40:21.294   08 Jun 2027 11:40:22.195             0.901           330.313
       240   08 Jun 2027 11:40:56.705   08 Jun 2027 11:40:57.866             1.161           580.500
       241   08 Jun 2027 11:41:17.420   08 Jun 2027 11:41:22.238             4.818          1109.000
       242   08 Jun 2027 11:41:50.309   08 Jun 2027 11:41:52.574             2.265            94.937
       243   08 Jun 2027 11:42:30.915   08 Jun 2027 11:42:35.321             4.406          1198.156
       244   09 Jun 2027 03:58:59.903   09 Jun 2027 04:00:01.489            61.586         30793.000
       245   09 Jun 2027 04:00:07.862   09 Jun 2027 04:01:35.567            87.705         43852.500
       246   09 Jun 2027 04:01:44.324   09 Jun 2027 04:01:49.875             5.551          2775.500
       247   09 Jun 2027 04:02:30.583   09 Jun 2027 04:02:55.363            24.780         12390.000
       248   09 Jun 2027 04:03:34.782   09 Jun 2027 04:04:31.722            56.940         28470.000
       249   09 Jun 2027 05:38:48.561   09 Jun 2027 05:40:17.929            89.368         42607.938
       250   09 Jun 2027 05:40:33.626   09 Jun 2027 05:40:34.659             1.033           490.531
       251   09 Jun 2027 05:41:00.965   09 Jun 2027 05:41:02.920             1.955           221.750
       252   09 Jun 2027 07:00:36.589   09 Jun 2027 07:00:47.423            10.834          5417.000
       253   09 Jun 2027 07:01:52.867   09 Jun 2027 07:01:58.369             5.502          2736.500
       254   09 Jun 2027 07:02:16.344   09 Jun 2027 07:02:17.093             0.749           311.250
       255   09 Jun 2027 07:03:13.322   09 Jun 2027 07:03:15.143             1.821           910.500
       256   09 Jun 2027 08:37:05.799   09 Jun 2027 08:37:13.870             8.071          3969.000
       257   09 Jun 2027 08:37:58.365   09 Jun 2027 08:37:58.365             0.000             0.000
       258   09 Jun 2027 08:38:06.713   09 Jun 2027 08:38:11.280             4.567          1537.406
       259   09 Jun 2027 08:38:38.334   09 Jun 2027 08:38:39.350             1.016           230.750
       260   09 Jun 2027 08:39:33.163   09 Jun 2027 08:39:42.733             9.570          1545.625
       261   09 Jun 2027 10:12:10.772   09 Jun 2027 10:12:18.845             8.073          3595.375
       262   09 Jun 2027 10:13:19.832   09 Jun 2027 10:13:19.832             0.000             0.000
       263   09 Jun 2027 10:15:16.898   09 Jun 2027 10:15:27.797            10.899          4729.187
       264   09 Jun 2027 10:15:42.017   09 Jun 2027 10:15:44.368             2.351           397.219
       265   09 Jun 2027 10:16:14.492   09 Jun 2027 10:16:16.560             2.068           858.094
       266   09 Jun 2027 10:16:31.314   09 Jun 2027 10:16:32.453             1.139           458.656
       267   09 Jun 2027 10:17:56.329   09 Jun 2027 10:18:04.942             8.613          2199.250
       268   09 Jun 2027 10:18:16.345   09 Jun 2027 10:18:17.867             1.522           356.344
       269   09 Jun 2027 10:18:43.091   09 Jun 2027 10:18:45.858             2.767           776.969
       270   09 Jun 2027 11:48:32.780   09 Jun 2027 11:48:46.236            13.456          5437.875
       271   09 Jun 2027 11:50:05.256   09 Jun 2027 11:50:07.354             2.098          1049.000
       272   09 Jun 2027 11:50:43.061   09 Jun 2027 11:50:46.593             3.532          1766.000
       273   09 Jun 2027 11:51:13.892   09 Jun 2027 11:51:16.500             2.608          1051.532
       274   10 Jun 2027 04:10:59.657   10 Jun 2027 04:11:44.025            44.368         22184.000
       275   10 Jun 2027 04:12:05.462   10 Jun 2027 04:13:17.965            72.503         36251.500
       276   10 Jun 2027 04:14:29.302   10 Jun 2027 04:15:46.925            77.623         38811.500
       277   10 Jun 2027 04:16:15.847   10 Jun 2027 04:16:54.355            38.508         19254.000
       278   10 Jun 2027 05:49:12.511   10 Jun 2027 05:49:24.376            11.865          5932.500
       279   10 Jun 2027 05:49:55.638   10 Jun 2027 05:51:12.289            76.651         37715.812
       280   10 Jun 2027 05:51:19.823   10 Jun 2027 05:51:21.432             1.609           235.437
       281   10 Jun 2027 05:51:50.452   10 Jun 2027 05:51:52.751             2.299           891.688
       282   10 Jun 2027 05:52:35.676   10 Jun 2027 05:52:39.017             3.341          1245.000
       283   10 Jun 2027 07:12:33.036   10 Jun 2027 07:12:50.640            17.604          6788.219
       284   10 Jun 2027 07:13:34.969   10 Jun 2027 07:13:38.356             3.387           885.563
       285   10 Jun 2027 07:15:14.145   10 Jun 2027 07:15:16.484             2.339          1169.500
       286   10 Jun 2027 07:15:40.866   10 Jun 2027 07:15:40.866             0.000             0.000
       287   10 Jun 2027 08:49:10.839   10 Jun 2027 08:49:17.532             6.693          3054.688
       288   10 Jun 2027 08:50:32.056   10 Jun 2027 08:50:36.677             4.621          2239.406
       289   10 Jun 2027 08:50:57.341   10 Jun 2027 08:50:59.491             2.150           645.750
       290   10 Jun 2027 08:51:44.348   10 Jun 2027 08:51:44.348             0.000             0.000
       291   10 Jun 2027 08:52:35.346   10 Jun 2027 08:52:37.528             2.182          1091.000
       292   10 Jun 2027 10:24:21.199   10 Jun 2027 10:24:32.493            11.294          4899.688
       293   10 Jun 2027 10:25:47.930   10 Jun 2027 10:25:47.930             0.000             0.000
       294   10 Jun 2027 10:27:13.652   10 Jun 2027 10:27:24.918            11.266          4990.406
       295   10 Jun 2027 10:29:17.375   10 Jun 2027 10:29:24.633             7.258          3514.281
       296   10 Jun 2027 10:29:51.425   10 Jun 2027 10:29:52.859             1.434           654.688
       297   10 Jun 2027 10:30:18.373   10 Jun 2027 10:30:20.741             2.368           626.813
       298   11 Jun 2027 04:24:04.780   11 Jun 2027 04:27:50.819           226.039        113019.500
       299   11 Jun 2027 04:30:19.406   11 Jun 2027 04:30:19.836             0.430           215.000
       300   11 Jun 2027 04:30:54.723   11 Jun 2027 04:31:02.011             7.288          3644.000
       301   11 Jun 2027 04:31:37.049   11 Jun 2027 04:31:54.280            17.231          8615.500
       302   11 Jun 2027 05:50:23.134   11 Jun 2027 05:50:36.223            13.089          6544.500
       303   11 Jun 2027 06:01:10.341   11 Jun 2027 06:01:52.107            41.766         20883.000
       304   11 Jun 2027 06:01:57.197   11 Jun 2027 06:02:21.522            24.325         12122.688
       305   11 Jun 2027 06:02:36.011   11 Jun 2027 06:02:38.212             2.201           128.687
       306   11 Jun 2027 06:03:26.880   11 Jun 2027 06:03:39.447            12.567          1520.875
       307   11 Jun 2027 06:03:54.337   11 Jun 2027 06:03:58.097             3.760           286.781
       308   11 Jun 2027 07:25:09.226   11 Jun 2027 07:25:20.871            11.645          5729.125
       309   11 Jun 2027 07:26:03.209   11 Jun 2027 07:26:05.273             2.064           805.094
       310   11 Jun 2027 07:27:09.265   11 Jun 2027 07:27:13.742             4.477          1282.156
       311   11 Jun 2027 07:27:34.974   11 Jun 2027 07:27:36.345             1.371           646.812
       312   11 Jun 2027 09:03:00.656   11 Jun 2027 09:03:15.742            15.086          7543.000
       313   11 Jun 2027 09:03:36.468   11 Jun 2027 09:03:36.468             0.000             0.000
       314   11 Jun 2027 09:04:23.064   11 Jun 2027 09:04:32.604             9.540          3448.375
       315   11 Jun 2027 10:36:17.905   11 Jun 2027 10:36:29.524            11.619          5395.344
       316   11 Jun 2027 10:37:24.694   11 Jun 2027 10:37:27.895             3.201          1385.406
       317   11 Jun 2027 10:38:53.977   11 Jun 2027 10:38:58.930             4.953          2066.094
       318   11 Jun 2027 10:39:09.045   11 Jun 2027 10:39:09.045             0.000             0.000
       319   11 Jun 2027 10:42:33.563   11 Jun 2027 10:42:49.688            16.125          6643.719
       320   11 Jun 2027 10:43:01.740   11 Jun 2027 10:43:02.742             1.002           270.469
       321   12 Jun 2027 03:00:00.000   12 Jun 2027 03:00:16.522            16.522          8261.000
       322   12 Jun 2027 03:00:59.189   12 Jun 2027 03:01:46.184            46.995         23497.500
       323   12 Jun 2027 03:03:44.215   12 Jun 2027 03:03:53.993             9.778          4889.000
       324   12 Jun 2027 04:36:25.544   12 Jun 2027 04:39:09.240           163.696         81848.000
       325   12 Jun 2027 04:39:26.050   12 Jun 2027 04:39:28.896             2.846          1423.000
       326   12 Jun 2027 04:39:44.924   12 Jun 2027 04:39:53.155             8.231          4115.500
       327   12 Jun 2027 04:40:17.651   12 Jun 2027 04:40:18.550             0.899           449.500
       328   12 Jun 2027 04:41:19.700   12 Jun 2027 04:41:19.700             0.000             0.000
       329   12 Jun 2027 04:41:47.401   12 Jun 2027 04:41:49.306             1.905           952.500
       330   12 Jun 2027 04:42:09.398   12 Jun 2027 04:42:12.158             2.760          1380.000
       331   12 Jun 2027 04:42:46.791   12 Jun 2027 04:42:48.322             1.531           765.500
       332   12 Jun 2027 04:43:15.240   12 Jun 2027 04:43:41.629            26.389         13194.500
       333   12 Jun 2027 06:01:39.460   12 Jun 2027 06:02:30.131            50.671         25335.500
       334   12 Jun 2027 06:13:09.299   12 Jun 2027 06:13:29.840            20.541          9200.343
       335   12 Jun 2027 06:14:13.458   12 Jun 2027 06:14:19.490             6.032          1219.313
       336   12 Jun 2027 07:35:48.118   12 Jun 2027 07:36:03.414            15.296          7254.250
       337   12 Jun 2027 07:37:23.683   12 Jun 2027 07:37:28.420             4.737          1560.969
       338   12 Jun 2027 07:38:05.278   12 Jun 2027 07:38:07.049             1.771           799.125
       339   12 Jun 2027 07:39:02.487   12 Jun 2027 07:39:05.214             2.727          1035.219
       340   12 Jun 2027 07:40:22.489   12 Jun 2027 07:40:26.820             4.331          2141.625
       341   12 Jun 2027 09:11:05.129   12 Jun 2027 09:11:14.039             8.910          4455.000
       342   12 Jun 2027 09:12:39.506   12 Jun 2027 09:12:44.141             4.635          1872.469
       343   12 Jun 2027 09:14:23.441   12 Jun 2027 09:14:23.441             0.000             0.000
       344   12 Jun 2027 09:15:32.836   12 Jun 2027 09:15:46.195            13.359          4776.000
       345   12 Jun 2027 09:16:03.525   12 Jun 2027 09:16:06.655             3.130           541.562
       346   12 Jun 2027 10:47:39.553   12 Jun 2027 10:47:50.513            10.960          5466.625
       347   12 Jun 2027 10:50:51.277   12 Jun 2027 10:51:02.719            11.442          5521.188
       348   12 Jun 2027 10:52:11.483   12 Jun 2027 10:52:14.302             2.819          1409.500
       349   12 Jun 2027 10:52:40.083   12 Jun 2027 10:52:44.587             4.504          1545.031
       350   12 Jun 2027 10:53:44.565   12 Jun 2027 10:53:52.225             7.660          1763.812
       351   12 Jun 2027 10:55:07.813   12 Jun 2027 10:55:07.971             0.158            79.000
       352   13 Jun 2027 03:09:35.972   13 Jun 2027 03:11:08.658            92.686         46343.000
       353   13 Jun 2027 03:11:10.736   13 Jun 2027 03:11:46.712            35.976         17988.000
       354   13 Jun 2027 03:12:16.462   13 Jun 2027 03:12:34.800            18.338          9169.000
       355   13 Jun 2027 03:12:59.904   13 Jun 2027 03:13:50.712            50.808         25404.000
       356   13 Jun 2027 04:48:41.371   13 Jun 2027 04:50:44.400           123.029         61421.219
       357   13 Jun 2027 04:50:46.659   13 Jun 2027 04:50:47.806             1.147            70.594
       358   13 Jun 2027 04:51:51.867   13 Jun 2027 04:51:53.972             2.105          1052.500
       359   13 Jun 2027 04:52:19.627   13 Jun 2027 04:52:19.627             0.000             0.000
       360   13 Jun 2027 04:52:42.503   13 Jun 2027 04:52:44.859             2.356          1178.000
       361   13 Jun 2027 04:53:44.190   13 Jun 2027 04:53:51.319             7.129          2658.406
       362   13 Jun 2027 06:12:55.820   13 Jun 2027 06:13:11.785            15.965          6922.062
       363   13 Jun 2027 06:14:04.410   13 Jun 2027 06:14:04.410             0.000             0.000
       364   13 Jun 2027 06:14:41.979   13 Jun 2027 06:14:47.457             5.478          2459.250
       365   13 Jun 2027 06:25:08.450   13 Jun 2027 06:25:15.924             7.474          2422.750
       366   13 Jun 2027 06:25:17.217   13 Jun 2027 06:25:17.704             0.487            40.406
       367   13 Jun 2027 06:26:01.619   13 Jun 2027 06:26:03.325             1.706           711.656
       368   13 Jun 2027 07:47:24.085   13 Jun 2027 07:47:38.382            14.297          7034.562
       369   13 Jun 2027 07:48:15.662   13 Jun 2027 07:48:30.014            14.352           909.531
       370   13 Jun 2027 07:50:03.746   13 Jun 2027 07:50:09.883             6.137          2419.875
       371   13 Jun 2027 07:51:12.982   13 Jun 2027 07:51:18.435             5.453          1971.844
       372   13 Jun 2027 07:51:42.789   13 Jun 2027 07:51:45.513             2.724            57.094
       373   13 Jun 2027 09:22:16.684   13 Jun 2027 09:22:25.466             8.782          4257.781
       374   13 Jun 2027 09:23:31.652   13 Jun 2027 09:23:33.196             1.544           381.562
       375   13 Jun 2027 09:24:34.873   13 Jun 2027 09:24:37.968             3.095          1433.906
       376   13 Jun 2027 09:27:35.318   13 Jun 2027 09:27:35.318             0.000             0.000
       377   13 Jun 2027 09:28:09.052   13 Jun 2027 09:28:16.830             7.778          3889.000
       378   13 Jun 2027 09:28:52.526   13 Jun 2027 09:28:56.763             4.237          2118.500
       379   13 Jun 2027 09:30:21.593   13 Jun 2027 09:30:31.930            10.337          2995.500
       380   13 Jun 2027 10:59:51.260   13 Jun 2027 11:00:05.242            13.982          6951.312
       381   13 Jun 2027 11:01:23.923   13 Jun 2027 11:01:27.889             3.966          1649.906
       382   13 Jun 2027 11:02:47.702   13 Jun 2027 11:02:53.635             5.933          1704.594
       383   13 Jun 2027 11:05:49.165   13 Jun 2027 11:06:00.642            11.477          5469.688
       384   13 Jun 2027 11:06:21.226   13 Jun 2027 11:06:22.671             1.445           526.031
       385   13 Jun 2027 11:07:00.644   13 Jun 2027 11:07:02.241             1.597           798.500
