uniorb/output/strategy_2/Camera/Camera_KinoSat_110406.txt

KinoSat_110406
-------------------------
    Access    *     Start Time (UTCG)     *     Stop Time (UTCG)  *   Duration (s) *   Data (Mbytes)
         1   01 Jun 2027 03:40:58.918   01 Jun 2027 03:41:13.471            14.553          7276.500
         2   01 Jun 2027 03:42:16.178   01 Jun 2027 03:42:18.414             2.236          1118.000
         3   01 Jun 2027 03:42:48.276   01 Jun 2027 03:43:17.507            29.231         14615.500
         4   01 Jun 2027 03:45:35.443   01 Jun 2027 03:45:36.041             0.598           299.000
         5   01 Jun 2027 03:46:06.013   01 Jun 2027 03:46:06.668             0.655           327.500
         6   01 Jun 2027 03:46:54.921   01 Jun 2027 03:47:02.080             7.159          3579.500
         7   01 Jun 2027 03:47:40.051   01 Jun 2027 03:47:44.407             4.356          2178.000
         8   01 Jun 2027 03:48:11.890   01 Jun 2027 03:48:19.209             7.319          3659.500
         9   01 Jun 2027 03:48:52.760   01 Jun 2027 03:48:57.009             4.249          2124.500
        10   01 Jun 2027 03:49:27.846   01 Jun 2027 03:49:29.823             1.977           988.500
        11   01 Jun 2027 05:18:29.731   01 Jun 2027 05:18:52.484            22.753         11376.500
        12   01 Jun 2027 05:19:46.241   01 Jun 2027 05:20:15.897            29.656         14828.000
        13   01 Jun 2027 05:23:14.194   01 Jun 2027 05:23:18.417             4.223          2111.500
        14   01 Jun 2027 05:23:29.884   01 Jun 2027 05:23:33.957             4.073          2036.500
        15   01 Jun 2027 05:24:47.053   01 Jun 2027 05:24:51.436             4.383          2191.500
        16   01 Jun 2027 06:55:26.057   01 Jun 2027 06:55:33.150             7.093          3546.500
        17   01 Jun 2027 06:56:55.564   01 Jun 2027 06:57:01.579             6.015          3007.500
        18   01 Jun 2027 06:57:42.069   01 Jun 2027 06:57:46.877             4.808          2404.000
        19   01 Jun 2027 06:58:09.054   01 Jun 2027 06:58:09.929             0.875           437.500
        20   01 Jun 2027 06:58:16.106   01 Jun 2027 06:58:17.544             1.438           719.000
        21   01 Jun 2027 06:58:24.838   01 Jun 2027 06:58:25.354             0.516           258.000
        22   01 Jun 2027 06:58:32.446   01 Jun 2027 06:58:38.138             5.692          2846.000
        23   01 Jun 2027 06:59:13.249   01 Jun 2027 06:59:29.179            15.930          7965.000
        24   01 Jun 2027 07:00:19.030   01 Jun 2027 07:00:28.398             9.368          4684.000
        25   01 Jun 2027 08:32:16.512   01 Jun 2027 08:32:16.988             0.476           238.000
        26   01 Jun 2027 08:32:33.879   01 Jun 2027 08:32:43.264             9.385          4692.500
        27   01 Jun 2027 08:33:38.910   01 Jun 2027 08:33:40.190             1.280           640.000
        28   01 Jun 2027 08:33:59.727   01 Jun 2027 08:34:03.808             4.081          2040.500
        29   01 Jun 2027 08:34:31.637   01 Jun 2027 08:34:31.806             0.169            84.500
        30   01 Jun 2027 08:34:58.334   01 Jun 2027 08:35:11.306            12.972          6486.000
        31   01 Jun 2027 08:36:12.703   01 Jun 2027 08:36:32.135            19.432          9716.000
        32   01 Jun 2027 10:09:53.525   01 Jun 2027 10:10:09.799            16.274          8137.000
        33   01 Jun 2027 10:11:25.931   01 Jun 2027 10:11:36.161            10.230          5115.000
        34   02 Jun 2027 03:53:48.459   02 Jun 2027 03:53:50.552             2.093          1046.500
        35   02 Jun 2027 03:54:02.469   02 Jun 2027 03:54:28.917            26.448         13224.000
        36   02 Jun 2027 03:56:17.036   02 Jun 2027 03:56:18.073             1.037           518.500
        37   02 Jun 2027 03:56:47.380   02 Jun 2027 03:56:49.259             1.879           939.500
        38   02 Jun 2027 03:57:06.853   02 Jun 2027 03:57:07.690             0.837           418.500
        39   02 Jun 2027 03:57:26.286   02 Jun 2027 03:57:28.658             2.372          1186.000
        40   02 Jun 2027 03:57:44.023   02 Jun 2027 03:57:49.420             5.397          2698.500
        41   02 Jun 2027 03:58:16.906   02 Jun 2027 03:58:17.475             0.569           284.500
        42   02 Jun 2027 03:58:30.685   02 Jun 2027 03:58:35.717             5.032          2516.000
        43   02 Jun 2027 03:58:56.720   02 Jun 2027 03:59:00.393             3.673          1836.500
        44   02 Jun 2027 03:59:59.701   02 Jun 2027 04:00:11.734            12.033          6016.500
        45   02 Jun 2027 04:00:43.337   02 Jun 2027 04:00:54.429            11.092          5546.000
        46   02 Jun 2027 05:30:36.220   02 Jun 2027 05:30:44.924             8.704          4352.000
        47   02 Jun 2027 05:31:39.566   02 Jun 2027 05:31:56.891            17.325          8662.500
        48   02 Jun 2027 05:33:24.504   02 Jun 2027 05:33:29.711             5.207          2603.500
        49   02 Jun 2027 05:33:52.982   02 Jun 2027 05:33:56.910             3.928          1964.000
        50   02 Jun 2027 05:34:14.367   02 Jun 2027 05:34:15.246             0.879           439.500
        51   02 Jun 2027 05:34:47.225   02 Jun 2027 05:34:49.885             2.660          1330.000
        52   02 Jun 2027 05:35:35.980   02 Jun 2027 05:35:36.438             0.458           229.000
        53   02 Jun 2027 05:36:03.343   02 Jun 2027 05:36:19.776            16.433          8216.500
        54   02 Jun 2027 07:08:17.204   02 Jun 2027 07:08:33.913            16.709          8354.500
        55   02 Jun 2027 07:09:06.938   02 Jun 2027 07:09:26.263            19.325          9662.500
        56   02 Jun 2027 07:11:27.749   02 Jun 2027 07:11:28.887             1.138           569.000
        57   02 Jun 2027 07:11:51.039   02 Jun 2027 07:11:54.601             3.562          1781.000
        58   02 Jun 2027 07:12:10.943   02 Jun 2027 07:12:15.115             4.172          2086.000
        59   02 Jun 2027 07:12:38.483   02 Jun 2027 07:12:44.986             6.503          3251.500
        60   02 Jun 2027 08:44:19.034   02 Jun 2027 08:44:23.041             4.007          2003.500
        61   02 Jun 2027 08:45:39.632   02 Jun 2027 08:45:46.869             7.237          3618.500
        62   02 Jun 2027 08:47:18.857   02 Jun 2027 08:47:20.738             1.881           940.500
        63   02 Jun 2027 08:48:24.254   02 Jun 2027 08:48:25.321             1.067           533.500
        64   02 Jun 2027 08:48:29.667   02 Jun 2027 08:48:34.024             4.357          2178.500
        65   03 Jun 2027 04:06:49.762   03 Jun 2027 04:06:51.582             1.820           910.000
        66   03 Jun 2027 04:06:59.314   03 Jun 2027 04:07:08.788             9.474          4737.000
        67   03 Jun 2027 04:08:07.519   03 Jun 2027 04:08:11.170             3.651          1825.500
        68   03 Jun 2027 04:08:27.224   03 Jun 2027 04:08:31.003             3.779          1889.500
        69   03 Jun 2027 04:08:58.473   03 Jun 2027 04:09:05.568             7.095          3547.500
        70   03 Jun 2027 04:10:02.069   03 Jun 2027 04:10:08.186             6.117          3058.500
        71   03 Jun 2027 04:10:34.854   03 Jun 2027 04:10:45.512            10.658          5329.000
        72   03 Jun 2027 04:11:46.789   03 Jun 2027 04:11:50.882             4.093          2046.500
        73   03 Jun 2027 04:12:09.864   03 Jun 2027 04:12:11.836             1.972           986.000
        74   03 Jun 2027 04:12:56.258   03 Jun 2027 04:12:58.691             2.433          1216.500
        75   03 Jun 2027 04:13:10.611   03 Jun 2027 04:13:10.777             0.166            83.000
        76   03 Jun 2027 05:43:12.166   03 Jun 2027 05:43:31.033            18.867          9433.500
        77   03 Jun 2027 05:43:56.800   03 Jun 2027 05:43:59.271             2.471          1235.500
        78   03 Jun 2027 05:45:02.357   03 Jun 2027 05:45:10.800             8.443          4221.500
        79   03 Jun 2027 05:46:01.580   03 Jun 2027 05:46:07.776             6.196          3098.000
        80   03 Jun 2027 05:47:22.322   03 Jun 2027 05:47:28.314             5.992          2996.000
        81   03 Jun 2027 05:48:12.603   03 Jun 2027 05:48:17.465             4.862          2431.000
        82   03 Jun 2027 05:48:38.284   03 Jun 2027 05:48:44.936             6.652          3326.000
        83   03 Jun 2027 05:49:19.282   03 Jun 2027 05:49:24.277             4.995          2497.500
        84   03 Jun 2027 07:20:27.841   03 Jun 2027 07:20:29.169             1.328           664.000
        85   03 Jun 2027 07:21:03.470   03 Jun 2027 07:21:09.940             6.470          3235.000
        86   03 Jun 2027 07:22:09.487   03 Jun 2027 07:22:18.315             8.828          4414.000
        87   03 Jun 2027 07:23:01.499   03 Jun 2027 07:23:05.542             4.043          2021.500
        88   03 Jun 2027 07:23:33.188   03 Jun 2027 07:23:45.395            12.207          6103.500
        89   03 Jun 2027 07:23:50.449   03 Jun 2027 07:23:57.951             7.502          3751.000
        90   03 Jun 2027 08:56:42.141   03 Jun 2027 08:56:50.571             8.430          4215.000
        91   03 Jun 2027 08:57:32.029   03 Jun 2027 08:57:51.878            19.849          9924.500
        92   03 Jun 2027 08:59:15.695   03 Jun 2027 08:59:18.881             3.186          1593.000
        93   03 Jun 2027 08:59:43.083   03 Jun 2027 08:59:54.754            11.671          5835.500
        94   03 Jun 2027 09:00:12.171   03 Jun 2027 09:00:14.571             2.400          1200.000
        95   03 Jun 2027 09:01:04.710   03 Jun 2027 09:01:09.459             4.749          2374.500
        96   04 Jun 2027 04:18:31.561   04 Jun 2027 04:18:53.028            21.467         10733.500
        97   04 Jun 2027 04:20:10.698   04 Jun 2027 04:20:17.929             7.231          3615.500
        98   04 Jun 2027 04:21:02.206   04 Jun 2027 04:21:02.474             0.268           134.000
        99   04 Jun 2027 04:21:12.659   04 Jun 2027 04:21:23.885            11.226          5613.000
       100   04 Jun 2027 04:22:13.141   04 Jun 2027 04:22:26.501            13.360          6680.000
       101   04 Jun 2027 04:23:41.817   04 Jun 2027 04:23:44.011             2.194          1097.000
       102   04 Jun 2027 04:24:06.767   04 Jun 2027 04:24:12.665             5.898          2949.000
       103   04 Jun 2027 04:24:28.050   04 Jun 2027 04:24:41.740            13.690          6845.000
       104   04 Jun 2027 05:54:44.163   04 Jun 2027 05:54:53.847             9.684          4842.000
       105   04 Jun 2027 05:55:50.519   04 Jun 2027 05:56:02.145            11.626          5813.000
       106   04 Jun 2027 05:56:57.397   04 Jun 2027 05:57:03.146             5.749          2874.500
       107   04 Jun 2027 05:57:58.072   04 Jun 2027 05:58:09.956            11.884          5942.000
       108   04 Jun 2027 05:59:04.841   04 Jun 2027 05:59:12.425             7.584          3792.000
       109   04 Jun 2027 05:59:16.525   04 Jun 2027 05:59:17.525             1.000           500.000
       110   04 Jun 2027 05:59:44.336   04 Jun 2027 05:59:50.476             6.140          3070.000
       111   04 Jun 2027 06:00:08.662   04 Jun 2027 06:00:20.400            11.738          5869.000
       112   04 Jun 2027 07:32:56.381   04 Jun 2027 07:32:56.775             0.394           197.000
       113   04 Jun 2027 07:33:05.747   04 Jun 2027 07:33:14.593             8.846          4423.000
       114   04 Jun 2027 07:34:07.471   04 Jun 2027 07:34:09.517             2.046          1023.000
       115   04 Jun 2027 07:34:24.266   04 Jun 2027 07:34:24.773             0.507           253.500
       116   04 Jun 2027 07:35:17.432   04 Jun 2027 07:35:17.672             0.240           120.000
       117   04 Jun 2027 07:35:31.928   04 Jun 2027 07:35:34.615             2.687          1343.500
       118   04 Jun 2027 07:35:52.875   04 Jun 2027 07:35:59.554             6.679          3339.500
       119   04 Jun 2027 07:36:29.696   04 Jun 2027 07:36:45.733            16.037          8018.500
       120   04 Jun 2027 09:08:24.889   04 Jun 2027 09:08:32.029             7.140          3570.000
       121   04 Jun 2027 09:09:44.276   04 Jun 2027 09:09:45.037             0.761           380.500
       122   04 Jun 2027 09:09:58.913   04 Jun 2027 09:10:09.311            10.398          5199.000
       123   04 Jun 2027 09:10:56.435   04 Jun 2027 09:11:07.330            10.895          5447.500
       124   04 Jun 2027 09:12:07.872   04 Jun 2027 09:12:19.330            11.458          5729.000
       125   04 Jun 2027 09:13:13.473   04 Jun 2027 09:13:14.043             0.570           285.000
       126   04 Jun 2027 09:13:32.132   04 Jun 2027 09:13:34.246             2.114          1057.000
       127   04 Jun 2027 09:13:49.093   04 Jun 2027 09:13:52.728             3.635          1817.500
       128   05 Jun 2027 04:30:05.055   05 Jun 2027 04:30:19.771            14.716          7358.000
       129   05 Jun 2027 04:31:21.613   05 Jun 2027 04:31:24.578             2.965          1482.500
       130   05 Jun 2027 04:31:41.241   05 Jun 2027 04:31:46.155             4.914          2457.000
       131   05 Jun 2027 04:32:14.562   05 Jun 2027 04:32:16.509             1.947           973.500
       132   05 Jun 2027 04:32:26.977   05 Jun 2027 04:32:34.320             7.343          3671.500
       133   05 Jun 2027 04:33:49.235   05 Jun 2027 04:33:49.777             0.542           271.000
       134   05 Jun 2027 04:34:02.234   05 Jun 2027 04:34:10.449             8.215          4107.500
       135   05 Jun 2027 04:35:05.549   05 Jun 2027 04:35:12.195             6.646          3323.000
       136   05 Jun 2027 04:36:02.419   05 Jun 2027 04:36:12.671            10.252          5126.000
       137   05 Jun 2027 04:37:00.230   05 Jun 2027 04:37:18.091            17.861          8930.500
       138   05 Jun 2027 06:07:06.080   05 Jun 2027 06:07:14.430             8.350          4175.000
       139   05 Jun 2027 06:07:50.675   05 Jun 2027 06:08:11.043            20.368         10184.000
       140   05 Jun 2027 06:09:53.163   05 Jun 2027 06:09:57.041             3.878          1939.000
       141   05 Jun 2027 06:10:20.707   05 Jun 2027 06:10:29.488             8.781          4390.500
       142   05 Jun 2027 06:11:19.001   05 Jun 2027 06:11:20.900             1.899           949.500
       143   05 Jun 2027 06:12:01.190   05 Jun 2027 06:12:01.269             0.079            39.500
       144   05 Jun 2027 06:12:10.573   05 Jun 2027 06:12:15.916             5.343          2671.500
       145   05 Jun 2027 06:12:44.789   05 Jun 2027 06:12:48.283             3.494          1747.000
       146   05 Jun 2027 06:13:10.235   05 Jun 2027 06:13:13.742             3.507          1753.500
       147   05 Jun 2027 07:45:06.385   05 Jun 2027 07:45:15.266             8.881          4440.500
       148   05 Jun 2027 07:45:35.000   05 Jun 2027 07:45:38.454             3.454          1727.000
       149   05 Jun 2027 07:46:28.590   05 Jun 2027 07:46:30.480             1.890           945.000
       150   05 Jun 2027 07:46:47.150   05 Jun 2027 07:46:48.029             0.879           439.500
       151   05 Jun 2027 07:46:56.236   05 Jun 2027 07:47:12.073            15.837          7918.500
       152   05 Jun 2027 07:48:28.700   05 Jun 2027 07:48:31.017             2.317          1158.500
       153   05 Jun 2027 09:18:20.154   05 Jun 2027 09:18:48.708            28.554         14277.000
       154   05 Jun 2027 09:21:30.521   05 Jun 2027 09:21:35.612             5.091          2545.500
       155   05 Jun 2027 09:22:06.896   05 Jun 2027 09:22:09.225             2.329          1164.500
       156   05 Jun 2027 09:22:22.098   05 Jun 2027 09:22:24.861             2.763          1381.500
       157   05 Jun 2027 09:22:47.186   05 Jun 2027 09:22:59.721            12.535          6267.500
       158   05 Jun 2027 09:23:57.863   05 Jun 2027 09:23:58.724             0.861           430.500
       159   05 Jun 2027 09:24:08.443   05 Jun 2027 09:24:23.312            14.869          7434.500
       160   05 Jun 2027 09:24:41.343   05 Jun 2027 09:25:00.031            18.688          9344.000
       161   06 Jun 2027 03:05:01.503   06 Jun 2027 03:05:08.048             6.545          3272.500
       162   06 Jun 2027 03:05:37.594   06 Jun 2027 03:05:47.686            10.092          5046.000
       163   06 Jun 2027 03:07:03.105   06 Jun 2027 03:07:05.619             2.514          1257.000
       164   06 Jun 2027 03:07:41.916   06 Jun 2027 03:07:55.201            13.285          6642.500
       165   06 Jun 2027 03:08:59.822   06 Jun 2027 03:09:00.831             1.009           504.500
       166   06 Jun 2027 03:09:18.661   06 Jun 2027 03:09:23.990             5.329          2664.500
       167   06 Jun 2027 03:09:46.283   06 Jun 2027 03:09:47.787             1.504           752.000
       168   06 Jun 2027 03:10:04.195   06 Jun 2027 03:10:16.202            12.007          6003.500
       169   06 Jun 2027 03:11:11.673   06 Jun 2027 03:11:15.410             3.737          1868.500
       170   06 Jun 2027 03:11:48.589   06 Jun 2027 03:11:53.453             4.864          2432.000
       171   06 Jun 2027 03:12:57.329   06 Jun 2027 03:13:00.793             3.464          1732.000
       172   06 Jun 2027 04:42:14.088   06 Jun 2027 04:42:31.343            17.255          8627.500
       173   06 Jun 2027 04:43:48.437   06 Jun 2027 04:43:59.241            10.804          5402.000
       174   06 Jun 2027 04:44:52.452   06 Jun 2027 04:44:57.222             4.770          2385.000
       175   06 Jun 2027 04:45:22.761   06 Jun 2027 04:45:28.956             6.195          3097.500
       176   06 Jun 2027 04:46:10.161   06 Jun 2027 04:46:14.085             3.924          1962.000
       177   06 Jun 2027 04:46:41.805   06 Jun 2027 04:46:47.215             5.410          2705.000
       178   06 Jun 2027 04:47:17.798   06 Jun 2027 04:47:25.107             7.309          3654.500
       179   06 Jun 2027 04:47:57.171   06 Jun 2027 04:47:58.195             1.024           512.000
       180   06 Jun 2027 04:49:03.470   06 Jun 2027 04:49:12.499             9.029          4514.500
       181   06 Jun 2027 04:49:39.417   06 Jun 2027 04:49:39.857             0.440           220.000
       182   06 Jun 2027 06:19:11.055   06 Jun 2027 06:19:39.263            28.208         14104.000
       183   06 Jun 2027 06:21:40.083   06 Jun 2027 06:21:44.133             4.050          2025.000
       184   06 Jun 2027 06:22:06.588   06 Jun 2027 06:22:13.918             7.330          3665.000
       185   06 Jun 2027 06:22:47.361   06 Jun 2027 06:22:49.961             2.600          1300.000
       186   06 Jun 2027 06:23:09.295   06 Jun 2027 06:23:13.922             4.627          2313.500
       187   06 Jun 2027 06:23:42.902   06 Jun 2027 06:23:45.678             2.776          1388.000
       188   06 Jun 2027 06:24:22.772   06 Jun 2027 06:24:32.387             9.615          4807.500
       189   06 Jun 2027 06:25:03.628   06 Jun 2027 06:25:10.245             6.617          3308.500
       190   06 Jun 2027 07:57:04.280   06 Jun 2027 07:57:06.358             2.078          1039.000
       191   06 Jun 2027 07:57:47.745   06 Jun 2027 07:57:48.802             1.057           528.500
       192   06 Jun 2027 07:57:53.478   06 Jun 2027 07:58:04.975            11.497          5748.500
       193   06 Jun 2027 07:58:33.121   06 Jun 2027 07:58:33.413             0.292           146.000
       194   06 Jun 2027 07:59:02.203   06 Jun 2027 07:59:05.718             3.515          1757.500
       195   06 Jun 2027 07:59:18.960   06 Jun 2027 07:59:18.960             0.000             0.000
       196   06 Jun 2027 07:59:43.848   06 Jun 2027 07:59:44.719             0.871           435.500
       197   06 Jun 2027 08:00:03.854   06 Jun 2027 08:00:05.230             1.376           688.000
       198   06 Jun 2027 08:00:12.008   06 Jun 2027 08:00:14.827             2.819          1409.500
       199   06 Jun 2027 08:00:34.140   06 Jun 2027 08:00:43.718             9.578          4789.000
       200   06 Jun 2027 09:30:38.612   06 Jun 2027 09:30:46.463             7.851          3925.500
       201   06 Jun 2027 09:31:33.062   06 Jun 2027 09:31:39.389             6.327          3163.500
       202   06 Jun 2027 09:32:17.333   06 Jun 2027 09:32:29.687            12.354          6177.000
       203   06 Jun 2027 09:33:20.271   06 Jun 2027 09:33:26.230             5.959          2979.500
       204   06 Jun 2027 09:33:56.496   06 Jun 2027 09:34:10.834            14.338          7169.000
       205   06 Jun 2027 09:35:18.538   06 Jun 2027 09:35:44.740            26.202         13101.000
       206   06 Jun 2027 09:38:03.175   06 Jun 2027 09:38:10.681             7.506          3753.000
       207   07 Jun 2027 03:16:31.057   07 Jun 2027 03:16:36.166             5.109          2554.500
       208   07 Jun 2027 03:17:01.338   07 Jun 2027 03:17:04.512             3.174          1587.000
       209   07 Jun 2027 03:17:34.457   07 Jun 2027 03:17:48.471            14.014          7007.000
       210   07 Jun 2027 03:19:09.167   07 Jun 2027 03:19:12.811             3.644          1822.000
       211   07 Jun 2027 03:19:53.420   07 Jun 2027 03:19:58.162             4.742          2371.000
       212   07 Jun 2027 03:20:41.362   07 Jun 2027 03:20:52.297            10.935          5467.500
       213   07 Jun 2027 03:22:03.888   07 Jun 2027 03:22:05.423             1.535           767.500
       214   07 Jun 2027 03:22:11.623   07 Jun 2027 03:22:11.975             0.352           176.000
       215   07 Jun 2027 03:22:15.600   07 Jun 2027 03:22:16.815             1.215           607.500
       216   07 Jun 2027 03:23:02.731   07 Jun 2027 03:23:12.084             9.353          4676.500
       217   07 Jun 2027 03:24:16.369   07 Jun 2027 03:24:22.067             5.698          2849.000
       218   07 Jun 2027 03:24:53.484   07 Jun 2027 03:24:59.516             6.032          3016.000
       219   07 Jun 2027 03:25:33.122   07 Jun 2027 03:25:37.185             4.063          2031.500
       220   07 Jun 2027 04:54:15.934   07 Jun 2027 04:54:20.048             4.114          2057.000
       221   07 Jun 2027 04:54:42.024   07 Jun 2027 04:54:50.560             8.536          4268.000
       222   07 Jun 2027 04:55:41.704   07 Jun 2027 04:55:44.427             2.723          1361.500
       223   07 Jun 2027 04:55:48.151   07 Jun 2027 04:55:49.655             1.504           752.000
       224   07 Jun 2027 04:56:15.091   07 Jun 2027 04:56:44.806            29.715         14857.500
       225   07 Jun 2027 04:59:18.172   07 Jun 2027 04:59:25.214             7.042          3521.000
       226   07 Jun 2027 05:00:07.907   07 Jun 2027 05:00:08.089             0.182            91.000
       227   07 Jun 2027 05:00:26.406   07 Jun 2027 05:00:46.973            20.567         10283.500
       228   07 Jun 2027 06:31:03.683   07 Jun 2027 06:31:06.319             2.636          1318.000
       229   07 Jun 2027 06:31:19.698   07 Jun 2027 06:31:28.017             8.319          4159.500
       230   07 Jun 2027 06:32:25.586   07 Jun 2027 06:32:54.095            28.509         14254.500
       231   07 Jun 2027 06:34:44.282   07 Jun 2027 06:34:47.173             2.891          1445.500
       232   07 Jun 2027 06:35:11.646   07 Jun 2027 06:35:16.207             4.561          2280.500
       233   07 Jun 2027 06:36:16.173   07 Jun 2027 06:36:17.577             1.404           702.000
       234   07 Jun 2027 06:36:35.761   07 Jun 2027 06:36:36.681             0.920           460.000
       235   07 Jun 2027 06:37:32.958   07 Jun 2027 06:37:36.189             3.231          1615.500
       236   07 Jun 2027 06:37:42.958   07 Jun 2027 06:37:43.897             0.939           469.500
       237   07 Jun 2027 08:09:07.423   07 Jun 2027 08:09:17.327             9.904          4952.000
       238   07 Jun 2027 08:10:31.184   07 Jun 2027 08:10:32.704             1.520           760.000
       239   07 Jun 2027 08:10:43.447   07 Jun 2027 08:10:43.492             0.045            22.500
       240   07 Jun 2027 08:11:29.670   07 Jun 2027 08:11:34.583             4.913          2456.500
       241   07 Jun 2027 08:12:06.449   07 Jun 2027 08:12:10.143             3.694          1847.000
       242   07 Jun 2027 08:12:41.983   07 Jun 2027 08:12:54.120            12.137          6068.500
       243   07 Jun 2027 09:42:57.865   07 Jun 2027 09:43:08.920            11.055          5527.500
       244   07 Jun 2027 09:44:17.745   07 Jun 2027 09:44:19.532             1.787           893.500
       245   07 Jun 2027 09:44:41.407   07 Jun 2027 09:44:47.959             6.552          3276.000
       246   07 Jun 2027 09:45:09.427   07 Jun 2027 09:45:15.975             6.548          3274.000
       247   07 Jun 2027 09:46:00.154   07 Jun 2027 09:46:07.350             7.196          3598.000
       248   07 Jun 2027 09:46:37.879   07 Jun 2027 09:46:42.864             4.985          2492.500
       249   07 Jun 2027 09:47:18.829   07 Jun 2027 09:47:20.017             1.188           594.000
       250   07 Jun 2027 09:48:12.078   07 Jun 2027 09:48:12.487             0.409           204.500
       251   07 Jun 2027 09:48:21.834   07 Jun 2027 09:48:24.500             2.666          1333.000
       252   07 Jun 2027 09:48:43.883   07 Jun 2027 09:48:46.883             3.000          1500.000
       253   07 Jun 2027 09:49:25.626   07 Jun 2027 09:49:34.020             8.394          4197.000
       254   08 Jun 2027 03:29:15.694   08 Jun 2027 03:29:21.016             5.322          2661.000
       255   08 Jun 2027 03:29:48.130   08 Jun 2027 03:30:03.529            15.399          7699.500
       256   08 Jun 2027 03:31:32.367   08 Jun 2027 03:31:33.391             1.024           512.000
       257   08 Jun 2027 03:31:46.043   08 Jun 2027 03:31:59.587            13.544          6772.000
       258   08 Jun 2027 03:33:08.091   08 Jun 2027 03:33:14.407             6.316          3158.000
       259   08 Jun 2027 03:33:59.973   08 Jun 2027 03:34:08.110             8.137          4068.500
       260   08 Jun 2027 03:34:17.680   08 Jun 2027 03:34:20.203             2.523          1261.500
       261   08 Jun 2027 03:35:16.337   08 Jun 2027 03:35:16.817             0.480           240.000
       262   08 Jun 2027 03:35:20.401   08 Jun 2027 03:35:34.792            14.391          7195.500
       263   08 Jun 2027 03:36:13.778   08 Jun 2027 03:36:14.652             0.874           437.000
       264   08 Jun 2027 03:36:45.584   08 Jun 2027 03:36:46.851             1.267           633.500
       265   08 Jun 2027 03:37:03.581   08 Jun 2027 03:37:08.297             4.716          2358.000
       266   08 Jun 2027 03:37:43.808   08 Jun 2027 03:37:43.951             0.143            71.500
       267   08 Jun 2027 05:06:18.840   08 Jun 2027 05:06:20.294             1.454           727.000
       268   08 Jun 2027 05:07:09.326   08 Jun 2027 05:07:15.411             6.085          3042.500
       269   08 Jun 2027 05:08:09.364   08 Jun 2027 05:08:18.052             8.688          4344.000
       270   08 Jun 2027 05:09:23.999   08 Jun 2027 05:09:25.935             1.936           968.000
       271   08 Jun 2027 05:10:29.421   08 Jun 2027 05:10:55.711            26.290         13145.000
       272   08 Jun 2027 05:12:46.920   08 Jun 2027 05:12:58.567            11.647          5823.500
       273   08 Jun 2027 06:43:13.252   08 Jun 2027 06:43:17.033             3.781          1890.500
       274   08 Jun 2027 06:43:48.989   08 Jun 2027 06:43:53.975             4.986          2493.000
       275   08 Jun 2027 06:44:21.279   08 Jun 2027 06:44:30.896             9.617          4808.500
       276   08 Jun 2027 06:45:03.696   08 Jun 2027 06:45:04.203             0.507           253.500
       277   08 Jun 2027 06:45:41.991   08 Jun 2027 06:45:48.977             6.986          3493.000
       278   08 Jun 2027 06:46:30.181   08 Jun 2027 06:46:34.864             4.683          2341.500
       279   08 Jun 2027 06:46:53.013   08 Jun 2027 06:46:54.388             1.375           687.500
       280   08 Jun 2027 06:47:01.751   08 Jun 2027 06:47:03.584             1.833           916.500
       281   08 Jun 2027 06:47:23.209   08 Jun 2027 06:47:30.832             7.623          3811.500
       282   08 Jun 2027 06:48:41.908   08 Jun 2027 06:48:59.827            17.919          8959.500
       283   08 Jun 2027 08:20:19.606   08 Jun 2027 08:20:20.682             1.076           538.000
       284   08 Jun 2027 08:20:45.433   08 Jun 2027 08:20:46.940             1.507           753.500
       285   08 Jun 2027 08:20:57.000   08 Jun 2027 08:21:00.918             3.918          1959.000
       286   08 Jun 2027 08:22:01.075   08 Jun 2027 08:22:11.891            10.816          5408.000
       287   08 Jun 2027 08:22:25.559   08 Jun 2027 08:22:25.559             0.000             0.000
       288   08 Jun 2027 08:23:07.276   08 Jun 2027 08:23:14.158             6.882          3441.000
       289   08 Jun 2027 08:24:38.830   08 Jun 2027 08:24:39.706             0.876           438.000
       290   08 Jun 2027 09:55:21.098   08 Jun 2027 09:55:32.257            11.159          5579.500
       291   08 Jun 2027 09:57:00.777   08 Jun 2027 09:57:02.894             2.117          1058.500
       292   08 Jun 2027 09:57:16.357   08 Jun 2027 09:57:31.015            14.658          7329.000
       293   08 Jun 2027 09:58:39.416   08 Jun 2027 09:58:41.387             1.971           985.500
       294   08 Jun 2027 09:59:19.392   08 Jun 2027 09:59:51.190            31.798         15899.000
       295   08 Jun 2027 10:00:04.489   08 Jun 2027 10:00:05.494             1.005           502.500
       296   09 Jun 2027 03:41:13.645   09 Jun 2027 03:41:29.607            15.962          7981.000
       297   09 Jun 2027 03:42:38.017   09 Jun 2027 03:43:02.982            24.965         12482.500
       298   09 Jun 2027 03:44:43.136   09 Jun 2027 03:44:43.658             0.522           261.000
       299   09 Jun 2027 03:44:53.767   09 Jun 2027 03:44:57.163             3.396          1698.000
       300   09 Jun 2027 03:45:13.844   09 Jun 2027 03:45:19.217             5.373          2686.500
       301   09 Jun 2027 03:45:52.276   09 Jun 2027 03:45:57.887             5.611          2805.500
       302   09 Jun 2027 03:46:17.803   09 Jun 2027 03:46:21.485             3.682          1841.000
       303   09 Jun 2027 03:47:55.453   09 Jun 2027 03:47:59.424             3.971          1985.500
       304   09 Jun 2027 03:48:27.885   09 Jun 2027 03:48:33.768             5.883          2941.500
       305   09 Jun 2027 03:49:09.767   09 Jun 2027 03:49:11.641             1.874           937.000
       306   09 Jun 2027 03:49:27.372   09 Jun 2027 03:49:43.472            16.100          8050.000
       307   09 Jun 2027 05:18:44.561   09 Jun 2027 05:18:45.825             1.264           632.000
       308   09 Jun 2027 05:19:07.025   09 Jun 2027 05:19:07.292             0.267           133.500
       309   09 Jun 2027 05:19:18.312   09 Jun 2027 05:19:24.246             5.934          2967.000
       310   09 Jun 2027 05:19:51.823   09 Jun 2027 05:20:03.579            11.756          5878.000
       311   09 Jun 2027 05:20:52.226   09 Jun 2027 05:20:56.726             4.500          2250.000
       312   09 Jun 2027 05:21:11.641   09 Jun 2027 05:21:12.561             0.920           460.000
       313   09 Jun 2027 05:21:47.373   09 Jun 2027 05:21:47.614             0.241           120.500
       314   09 Jun 2027 05:22:18.944   09 Jun 2027 05:22:18.987             0.043            21.500
       315   09 Jun 2027 05:22:26.089   09 Jun 2027 05:22:28.557             2.468          1234.000
       316   09 Jun 2027 05:23:29.458   09 Jun 2027 05:23:35.371             5.913          2956.500
       317   09 Jun 2027 05:23:44.774   09 Jun 2027 05:23:48.796             4.022          2011.000
       318   09 Jun 2027 05:25:01.484   09 Jun 2027 05:25:08.453             6.969          3484.500
       319   09 Jun 2027 06:55:40.662   09 Jun 2027 06:55:48.039             7.377          3688.500
       320   09 Jun 2027 06:56:49.187   09 Jun 2027 06:56:53.060             3.873          1936.500
       321   09 Jun 2027 06:57:34.681   09 Jun 2027 06:57:39.586             4.905          2452.500
       322   09 Jun 2027 06:58:11.751   09 Jun 2027 06:58:25.169            13.418          6709.000
       323   09 Jun 2027 07:00:10.905   09 Jun 2027 07:00:15.226             4.321          2160.500
       324   09 Jun 2027 07:00:56.351   09 Jun 2027 07:01:00.054             3.703          1851.500
       325   09 Jun 2027 07:01:05.136   09 Jun 2027 07:01:13.715             8.579          4289.500
       326   09 Jun 2027 08:32:31.069   09 Jun 2027 08:32:36.720             5.651          2825.500
       327   09 Jun 2027 08:32:59.446   09 Jun 2027 08:33:00.874             1.428           714.000
       328   09 Jun 2027 08:33:15.508   09 Jun 2027 08:33:23.597             8.089          4044.500
       329   09 Jun 2027 08:34:06.360   09 Jun 2027 08:34:09.693             3.333          1666.500
       330   09 Jun 2027 08:34:25.490   09 Jun 2027 08:34:29.984             4.494          2247.000
       331   09 Jun 2027 08:35:13.787   09 Jun 2027 08:35:23.333             9.546          4773.000
       332   09 Jun 2027 08:36:10.885   09 Jun 2027 08:36:18.017             7.132          3566.000
       333   09 Jun 2027 08:36:48.572   09 Jun 2027 08:36:55.322             6.750          3375.000
       334   09 Jun 2027 10:10:08.190   09 Jun 2027 10:10:24.318            16.128          8064.000
       335   09 Jun 2027 10:11:40.608   09 Jun 2027 10:11:51.169            10.561          5280.500
       336   10 Jun 2027 03:54:03.393   10 Jun 2027 03:54:05.270             1.877           938.500
       337   10 Jun 2027 03:54:11.316   10 Jun 2027 03:54:19.127             7.811          3905.500
       338   10 Jun 2027 03:54:53.662   10 Jun 2027 03:55:03.438             9.776          4888.000
       339   10 Jun 2027 03:55:46.383   10 Jun 2027 03:55:53.359             6.976          3488.000
       340   10 Jun 2027 03:56:32.566   10 Jun 2027 03:56:33.158             0.592           296.000
       341   10 Jun 2027 03:56:36.661   10 Jun 2027 03:56:37.563             0.902           451.000
       342   10 Jun 2027 03:57:02.217   10 Jun 2027 03:57:05.405             3.188          1594.000
       343   10 Jun 2027 03:57:22.289   10 Jun 2027 03:57:22.692             0.403           201.500
       344   10 Jun 2027 03:57:26.217   10 Jun 2027 03:57:33.664             7.447          3723.500
       345   10 Jun 2027 03:58:25.295   10 Jun 2027 03:58:26.908             1.613           806.500
       346   10 Jun 2027 03:58:46.418   10 Jun 2027 03:58:50.981             4.563          2281.500
       347   10 Jun 2027 03:59:11.817   10 Jun 2027 03:59:14.664             2.847          1423.500
       348   10 Jun 2027 04:00:17.375   10 Jun 2027 04:00:26.579             9.204          4602.000
       349   10 Jun 2027 04:01:11.444   10 Jun 2027 04:01:16.667             5.223          2611.500
       350   10 Jun 2027 04:01:26.976   10 Jun 2027 04:01:26.976             0.000             0.000
       351   10 Jun 2027 04:01:37.534   10 Jun 2027 04:01:37.577             0.043            21.500
       352   10 Jun 2027 05:30:51.434   10 Jun 2027 05:30:59.475             8.041          4020.500
       353   10 Jun 2027 05:31:25.479   10 Jun 2027 05:31:28.620             3.141          1570.500
       354   10 Jun 2027 05:32:36.297   10 Jun 2027 05:32:44.136             7.839          3919.500
       355   10 Jun 2027 05:33:25.491   10 Jun 2027 05:33:35.721            10.230          5115.000
       356   10 Jun 2027 05:34:18.863   10 Jun 2027 05:34:21.920             3.057          1528.500
       357   10 Jun 2027 05:34:42.760   10 Jun 2027 05:34:49.810             7.050          3525.000
       358   10 Jun 2027 05:35:18.378   10 Jun 2027 05:35:26.464             8.086          4043.000
       359   10 Jun 2027 05:36:18.341   10 Jun 2027 05:36:21.914             3.573          1786.500
       360   10 Jun 2027 05:36:46.078   10 Jun 2027 05:36:50.157             4.079          2039.500
       361   10 Jun 2027 07:08:32.446   10 Jun 2027 07:08:46.561            14.115          7057.500
       362   10 Jun 2027 07:09:07.975   10 Jun 2027 07:09:16.014             8.039          4019.500
       363   10 Jun 2027 07:10:53.262   10 Jun 2027 07:10:56.808             3.546          1773.000
       364   10 Jun 2027 07:11:27.506   10 Jun 2027 07:11:34.984             7.478          3739.000
       365   10 Jun 2027 07:12:13.252   10 Jun 2027 07:12:15.282             2.030          1015.000
       366   10 Jun 2027 07:12:30.908   10 Jun 2027 07:12:32.803             1.895           947.500
       367   10 Jun 2027 08:44:33.563   10 Jun 2027 08:44:37.962             4.399          2199.500
       368   10 Jun 2027 08:45:54.439   10 Jun 2027 08:46:01.486             7.047          3523.500
       369   10 Jun 2027 08:47:33.578   10 Jun 2027 08:47:35.369             1.791           895.500
       370   10 Jun 2027 08:48:39.494   10 Jun 2027 08:48:40.207             0.713           356.500
       371   10 Jun 2027 08:48:46.131   10 Jun 2027 08:48:48.784             2.653          1326.500
       372   10 Jun 2027 08:49:02.488   10 Jun 2027 08:49:03.480             0.992           496.000
       373   11 Jun 2027 04:07:04.418   11 Jun 2027 04:07:06.361             1.943           971.500
       374   11 Jun 2027 04:07:12.543   11 Jun 2027 04:07:13.937             1.394           697.000
       375   11 Jun 2027 04:07:36.804   11 Jun 2027 04:07:40.619             3.815          1907.500
       376   11 Jun 2027 04:07:57.728   11 Jun 2027 04:08:21.134            23.406         11703.000
       377   11 Jun 2027 04:10:04.022   11 Jun 2027 04:10:17.576            13.554          6777.000
       378   11 Jun 2027 04:11:23.115   11 Jun 2027 04:11:24.358             1.243           621.500
       379   11 Jun 2027 04:12:13.322   11 Jun 2027 04:12:13.983             0.661           330.500
       380   11 Jun 2027 04:12:30.638   11 Jun 2027 04:13:01.486            30.848         15424.000
       381   11 Jun 2027 05:43:27.026   11 Jun 2027 05:43:46.380            19.354          9677.000
       382   11 Jun 2027 05:45:29.394   11 Jun 2027 05:45:32.741             3.347          1673.500
       383   11 Jun 2027 05:45:53.769   11 Jun 2027 05:46:08.867            15.098          7549.000
       384   11 Jun 2027 05:46:58.671   11 Jun 2027 05:47:01.824             3.153          1576.500
       385   11 Jun 2027 05:47:43.706   11 Jun 2027 05:47:45.035             1.329           664.500
       386   11 Jun 2027 05:47:50.438   11 Jun 2027 05:47:52.728             2.290          1145.000
       387   11 Jun 2027 05:48:27.346   11 Jun 2027 05:48:30.633             3.287          1643.500
       388   11 Jun 2027 05:49:08.603   11 Jun 2027 05:49:12.223             3.620          1810.000
       389   11 Jun 2027 05:49:33.792   11 Jun 2027 05:49:39.949             6.157          3078.500
       390   11 Jun 2027 07:20:42.058   11 Jun 2027 07:20:43.673             1.615           807.500
       391   11 Jun 2027 07:21:20.676   11 Jun 2027 07:21:24.327             3.651          1825.500
       392   11 Jun 2027 07:22:27.389   11 Jun 2027 07:22:33.095             5.706          2853.000
       393   11 Jun 2027 07:23:04.524   11 Jun 2027 07:23:19.338            14.814          7407.000
       394   11 Jun 2027 07:24:22.574   11 Jun 2027 07:24:31.146             8.572          4286.000
       395   11 Jun 2027 08:56:56.998   11 Jun 2027 08:57:05.551             8.553          4276.500
       396   11 Jun 2027 08:57:46.893   11 Jun 2027 08:57:53.541             6.648          3324.000
       397   11 Jun 2027 08:58:28.958   11 Jun 2027 08:58:36.316             7.358          3679.000
       398   11 Jun 2027 08:58:47.609   11 Jun 2027 08:58:47.609             0.000             0.000
       399   11 Jun 2027 08:59:07.030   11 Jun 2027 08:59:30.875            23.845         11922.500
       400   11 Jun 2027 09:01:38.374   11 Jun 2027 09:01:40.492             2.118          1059.000
       401   12 Jun 2027 04:18:46.199   12 Jun 2027 04:19:08.991            22.792         11396.000
       402   12 Jun 2027 04:20:18.723   12 Jun 2027 04:20:23.402             4.679          2339.500
       403   12 Jun 2027 04:21:10.795   12 Jun 2027 04:21:16.962             6.167          3083.500
       404   12 Jun 2027 04:21:45.918   12 Jun 2027 04:21:48.090             2.172          1086.000
       405   12 Jun 2027 04:22:11.571   12 Jun 2027 04:22:19.257             7.686          3843.000
       406   12 Jun 2027 04:22:50.289   12 Jun 2027 04:22:58.404             8.115          4057.500
       407   12 Jun 2027 04:23:44.847   12 Jun 2027 04:23:46.130             1.283           641.500
       408   12 Jun 2027 04:24:00.003   12 Jun 2027 04:24:02.214             2.211          1105.500
       409   12 Jun 2027 04:24:30.711   12 Jun 2027 04:24:32.666             1.955           977.500
       410   12 Jun 2027 04:25:10.708   12 Jun 2027 04:25:13.358             2.650          1325.000
       411   12 Jun 2027 04:25:37.720   12 Jun 2027 04:25:39.320             1.600           800.000
       412   12 Jun 2027 05:54:58.820   12 Jun 2027 05:55:08.541             9.721          4860.500
       413   12 Jun 2027 05:56:05.948   12 Jun 2027 05:56:18.472            12.524          6262.000
       414   12 Jun 2027 05:57:03.457   12 Jun 2027 05:57:12.054             8.597          4298.500
       415   12 Jun 2027 05:57:53.799   12 Jun 2027 05:57:58.503             4.704          2352.000
       416   12 Jun 2027 05:58:18.204   12 Jun 2027 05:58:24.433             6.229          3114.500
       417   12 Jun 2027 05:58:59.550   12 Jun 2027 05:59:05.390             5.840          2920.000
       418   12 Jun 2027 05:59:35.034   12 Jun 2027 05:59:42.334             7.300          3650.000
       419   12 Jun 2027 06:00:05.019   12 Jun 2027 06:00:09.867             4.848          2424.000
       420   12 Jun 2027 06:00:22.814   12 Jun 2027 06:00:31.677             8.863          4431.500
       421   12 Jun 2027 06:01:03.946   12 Jun 2027 06:01:13.932             9.986          4993.000
       422   12 Jun 2027 07:33:11.734   12 Jun 2027 07:33:21.174             9.440          4720.000
       423   12 Jun 2027 07:34:22.263   12 Jun 2027 07:34:38.282            16.019          8009.500
       424   12 Jun 2027 07:35:32.437   12 Jun 2027 07:35:35.712             3.275          1637.500
       425   12 Jun 2027 07:36:29.018   12 Jun 2027 07:36:31.264             2.246          1123.000
       426   12 Jun 2027 07:36:42.454   12 Jun 2027 07:36:45.364             2.910          1455.000
       427   12 Jun 2027 07:37:02.463   12 Jun 2027 07:37:02.555             0.092            46.000
       428   12 Jun 2027 09:08:39.408   12 Jun 2027 09:08:46.562             7.154          3577.000
       429   12 Jun 2027 09:10:01.432   12 Jun 2027 09:10:05.615             4.183          2091.500
       430   12 Jun 2027 09:10:30.306   12 Jun 2027 09:10:38.020             7.714          3857.000
       431   12 Jun 2027 09:11:22.532   12 Jun 2027 09:11:27.790             5.258          2629.000
       432   12 Jun 2027 09:12:22.035   12 Jun 2027 09:12:34.269            12.234          6117.000
       433   12 Jun 2027 09:13:28.983   12 Jun 2027 09:13:29.187             0.204           102.000
       434   12 Jun 2027 09:13:33.200   12 Jun 2027 09:13:45.393            12.193          6096.500
       435   12 Jun 2027 09:13:47.845   12 Jun 2027 09:13:49.368             1.523           761.500
       436   13 Jun 2027 03:00:00.000   13 Jun 2027 03:00:03.392             3.392          1696.000
       437   13 Jun 2027 04:30:19.509   13 Jun 2027 04:30:35.206            15.697          7848.500
       438   13 Jun 2027 04:32:40.532   13 Jun 2027 04:32:41.807             1.275           637.500
       439   13 Jun 2027 04:33:12.752   13 Jun 2027 04:33:31.401            18.649          9324.500
       440   13 Jun 2027 04:34:55.573   13 Jun 2027 04:35:05.025             9.452          4726.000
       441   13 Jun 2027 04:37:12.638   13 Jun 2027 04:37:15.912             3.274          1637.000
       442   13 Jun 2027 06:07:20.808   13 Jun 2027 06:07:31.467            10.659          5329.500
       443   13 Jun 2027 06:08:07.000   13 Jun 2027 06:08:29.665            22.665         11332.500
       444   13 Jun 2027 06:10:08.039   13 Jun 2027 06:10:11.518             3.479          1739.500
       445   13 Jun 2027 06:10:37.091   13 Jun 2027 06:10:44.159             7.068          3534.000
       446   13 Jun 2027 06:11:33.265   13 Jun 2027 06:11:36.456             3.191          1595.500
       447   13 Jun 2027 06:12:15.753   13 Jun 2027 06:12:15.887             0.134            67.000
       448   13 Jun 2027 06:12:27.635   13 Jun 2027 06:12:34.824             7.189          3594.500
       449   13 Jun 2027 06:13:11.785   13 Jun 2027 06:13:12.843             1.058           529.000
       450   13 Jun 2027 07:45:20.894   13 Jun 2027 07:45:30.299             9.405          4702.500
       451   13 Jun 2027 07:45:49.663   13 Jun 2027 07:45:52.913             3.250          1625.000
       452   13 Jun 2027 07:46:46.914   13 Jun 2027 07:46:47.565             0.651           325.500
       453   13 Jun 2027 07:47:26.587   13 Jun 2027 07:47:28.046             1.459           729.500
       454   13 Jun 2027 07:47:42.021   13 Jun 2027 07:47:43.003             0.982           491.000
       455   13 Jun 2027 07:47:50.548   13 Jun 2027 07:47:51.721             1.173           586.500
       456   13 Jun 2027 07:48:05.054   13 Jun 2027 07:48:08.780             3.726          1863.000
       457   13 Jun 2027 07:48:30.014   13 Jun 2027 07:48:31.052             1.038           519.000
       458   13 Jun 2027 07:48:51.009   13 Jun 2027 07:49:01.744            10.735          5367.500
       459   13 Jun 2027 09:18:34.355   13 Jun 2027 09:19:03.508            29.153         14576.500
       460   13 Jun 2027 09:21:44.978   13 Jun 2027 09:21:50.242             5.264          2632.000
       461   13 Jun 2027 09:22:22.495   13 Jun 2027 09:22:25.466             2.971          1485.500
       462   13 Jun 2027 09:22:37.791   13 Jun 2027 09:22:39.718             1.927           963.500
       463   13 Jun 2027 09:22:49.770   13 Jun 2027 09:22:50.491             0.721           360.500
       464   13 Jun 2027 09:23:25.404   13 Jun 2027 09:23:31.160             5.756          2878.000
       465   13 Jun 2027 09:23:58.648   13 Jun 2027 09:23:59.200             0.552           276.000
       466   13 Jun 2027 09:24:18.173   13 Jun 2027 09:24:18.766             0.593           296.500
       467   13 Jun 2027 09:24:37.968   13 Jun 2027 09:24:40.895             2.927          1463.500
       468   13 Jun 2027 09:24:53.581   13 Jun 2027 09:25:15.208            21.627         10813.500
