uniorb/output/strategy_2/Camera/Camera_KinoSat_110310.txt

KinoSat_110310
-------------------------
    Access    *     Start Time (UTCG)     *     Stop Time (UTCG)  *   Duration (s) *   Data (Mbytes)
         1   01 Jun 2027 03:06:01.276   01 Jun 2027 03:06:10.503             9.227          4613.500
         2   01 Jun 2027 03:07:42.252   01 Jun 2027 03:07:58.223            15.971          7985.500
         3   01 Jun 2027 03:08:56.296   01 Jun 2027 03:09:05.916             9.620          4810.000
         4   01 Jun 2027 03:09:15.695   01 Jun 2027 03:09:22.146             6.451          3225.500
         5   01 Jun 2027 03:10:25.362   01 Jun 2027 03:10:25.407             0.045            22.500
         6   01 Jun 2027 03:10:42.698   01 Jun 2027 03:10:44.954             2.256          1128.000
         7   01 Jun 2027 03:11:07.687   01 Jun 2027 03:11:13.181             5.494          2747.000
         8   01 Jun 2027 03:11:50.304   01 Jun 2027 03:11:59.943             9.639          4819.500
         9   01 Jun 2027 03:12:48.451   01 Jun 2027 03:13:02.893            14.442          7221.000
        10   01 Jun 2027 03:14:19.730   01 Jun 2027 03:14:24.697             4.967          2483.500
        11   01 Jun 2027 03:14:46.626   01 Jun 2027 03:14:53.540             6.914          3457.000
        12   01 Jun 2027 03:15:36.266   01 Jun 2027 03:15:39.806             3.540          1770.000
        13   01 Jun 2027 04:44:50.254   01 Jun 2027 04:44:52.226             1.972           986.000
        14   01 Jun 2027 04:44:56.536   01 Jun 2027 04:45:00.458             3.922          1961.000
        15   01 Jun 2027 04:45:24.001   01 Jun 2027 04:45:26.882             2.881          1440.500
        16   01 Jun 2027 04:46:27.377   01 Jun 2027 04:46:41.439            14.062          7031.000
        17   01 Jun 2027 04:47:35.908   01 Jun 2027 04:48:04.355            28.447         14223.500
        18   01 Jun 2027 04:49:51.333   01 Jun 2027 04:49:51.921             0.588           294.000
        19   01 Jun 2027 04:50:20.620   01 Jun 2027 04:50:24.695             4.075          2037.500
        20   01 Jun 2027 04:50:58.151   01 Jun 2027 04:51:15.365            17.214          8607.000
        21   01 Jun 2027 06:21:48.170   01 Jun 2027 06:21:56.813             8.643          4321.500
        22   01 Jun 2027 06:22:08.206   01 Jun 2027 06:22:38.684            30.478         15239.000
        23   01 Jun 2027 06:25:17.280   01 Jun 2027 06:25:22.228             4.948          2474.000
        24   01 Jun 2027 06:26:05.418   01 Jun 2027 06:26:08.875             3.457          1728.500
        25   01 Jun 2027 06:26:34.990   01 Jun 2027 06:26:37.166             2.176          1088.000
        26   01 Jun 2027 06:26:51.813   01 Jun 2027 06:26:58.424             6.611          3305.500
        27   01 Jun 2027 07:58:35.393   01 Jun 2027 07:58:46.242            10.849          5424.500
        28   01 Jun 2027 07:59:30.137   01 Jun 2027 07:59:37.498             7.361          3680.500
        29   01 Jun 2027 08:00:07.084   01 Jun 2027 08:00:12.703             5.619          2809.500
        30   01 Jun 2027 08:01:00.266   01 Jun 2027 08:01:13.545            13.279          6639.500
        31   01 Jun 2027 08:02:14.019   01 Jun 2027 08:02:18.180             4.161          2080.500
        32   01 Jun 2027 08:02:50.798   01 Jun 2027 08:02:56.981             6.183          3091.500
        33   01 Jun 2027 09:36:45.851   01 Jun 2027 09:37:07.766            21.915         10957.500
        34   02 Jun 2027 03:20:55.270   02 Jun 2027 03:20:59.045             3.775          1887.500
        35   02 Jun 2027 03:21:22.396   02 Jun 2027 03:21:29.641             7.245          3622.500
        36   02 Jun 2027 03:22:32.584   02 Jun 2027 03:22:32.776             0.192            96.000
        37   02 Jun 2027 03:23:05.895   02 Jun 2027 03:23:14.993             9.098          4549.000
        38   02 Jun 2027 03:23:40.997   02 Jun 2027 03:23:47.794             6.797          3398.500
        39   02 Jun 2027 03:24:27.275   02 Jun 2027 03:24:36.375             9.100          4550.000
        40   02 Jun 2027 03:25:46.513   02 Jun 2027 03:25:49.363             2.850          1425.000
        41   02 Jun 2027 03:26:09.682   02 Jun 2027 03:26:11.173             1.491           745.500
        42   02 Jun 2027 03:26:28.320   02 Jun 2027 03:26:32.537             4.217          2108.500
        43   02 Jun 2027 03:26:54.477   02 Jun 2027 03:26:54.756             0.279           139.500
        44   02 Jun 2027 03:27:06.213   02 Jun 2027 03:27:22.111            15.898          7949.000
        45   02 Jun 2027 04:57:15.785   02 Jun 2027 04:57:17.891             2.106          1053.000
        46   02 Jun 2027 04:57:59.003   02 Jun 2027 04:58:00.824             1.821           910.500
        47   02 Jun 2027 04:58:33.513   02 Jun 2027 04:58:38.489             4.976          2488.000
        48   02 Jun 2027 04:59:02.325   02 Jun 2027 04:59:10.856             8.531          4265.500
        49   02 Jun 2027 05:00:05.260   02 Jun 2027 05:00:22.473            17.213          8606.500
        50   02 Jun 2027 05:01:13.212   02 Jun 2027 05:01:14.051             0.839           419.500
        51   02 Jun 2027 05:01:37.092   02 Jun 2027 05:01:38.094             1.002           501.000
        52   02 Jun 2027 05:01:57.990   02 Jun 2027 05:02:00.433             2.443          1221.500
        53   02 Jun 2027 05:02:12.769   02 Jun 2027 05:02:15.495             2.726          1363.000
        54   02 Jun 2027 05:02:57.379   02 Jun 2027 05:03:09.885            12.506          6253.000
        55   02 Jun 2027 05:03:37.738   02 Jun 2027 05:03:38.213             0.475           237.500
        56   02 Jun 2027 06:34:49.826   02 Jun 2027 06:34:51.353             1.527           763.500
        57   02 Jun 2027 06:35:04.553   02 Jun 2027 06:35:09.734             5.181          2590.500
        58   02 Jun 2027 06:35:31.609   02 Jun 2027 06:35:32.288             0.679           339.500
        59   02 Jun 2027 06:35:41.056   02 Jun 2027 06:35:46.313             5.257          2628.500
        60   02 Jun 2027 06:36:41.785   02 Jun 2027 06:36:51.693             9.908          4954.000
        61   02 Jun 2027 06:37:45.724   02 Jun 2027 06:37:48.100             2.376          1188.000
        62   02 Jun 2027 06:38:03.668   02 Jun 2027 06:38:05.390             1.722           861.000
        63   02 Jun 2027 06:38:15.530   02 Jun 2027 06:38:21.929             6.399          3199.500
        64   02 Jun 2027 06:38:52.927   02 Jun 2027 06:38:54.045             1.118           559.000
        65   02 Jun 2027 08:10:53.198   02 Jun 2027 08:10:56.254             3.056          1528.000
        66   02 Jun 2027 08:12:09.309   02 Jun 2027 08:12:13.673             4.364          2182.000
        67   02 Jun 2027 08:12:44.120   02 Jun 2027 08:12:48.086             3.966          1983.000
        68   02 Jun 2027 08:13:03.963   02 Jun 2027 08:13:14.290            10.327          5163.500
        69   02 Jun 2027 08:14:17.622   02 Jun 2027 08:14:20.272             2.650          1325.000
        70   02 Jun 2027 08:14:51.125   02 Jun 2027 08:15:01.519            10.394          5197.000
        71   03 Jun 2027 03:33:07.237   03 Jun 2027 03:33:11.812             4.575          2287.500
        72   03 Jun 2027 03:33:54.690   03 Jun 2027 03:33:55.984             1.294           647.000
        73   03 Jun 2027 03:34:13.250   03 Jun 2027 03:34:13.514             0.264           132.000
        74   03 Jun 2027 03:34:37.067   03 Jun 2027 03:34:41.050             3.983          1991.500
        75   03 Jun 2027 03:34:52.557   03 Jun 2027 03:34:55.766             3.209          1604.500
        76   03 Jun 2027 03:35:13.846   03 Jun 2027 03:35:16.004             2.158          1079.000
        77   03 Jun 2027 03:36:04.940   03 Jun 2027 03:36:10.026             5.086          2543.000
        78   03 Jun 2027 03:36:50.951   03 Jun 2027 03:36:54.048             3.097          1548.500
        79   03 Jun 2027 03:37:09.885   03 Jun 2027 03:37:16.361             6.476          3238.000
        80   03 Jun 2027 03:37:41.506   03 Jun 2027 03:37:46.316             4.810          2405.000
        81   03 Jun 2027 03:38:34.365   03 Jun 2027 03:38:35.345             0.980           490.000
        82   03 Jun 2027 03:39:28.892   03 Jun 2027 03:39:29.310             0.418           209.000
        83   03 Jun 2027 03:39:36.389   03 Jun 2027 03:39:42.968             6.579          3289.500
        84   03 Jun 2027 05:09:25.966   03 Jun 2027 05:09:56.303            30.337         15168.500
        85   03 Jun 2027 05:11:48.086   03 Jun 2027 05:12:05.863            17.777          8888.500
        86   03 Jun 2027 05:13:27.133   03 Jun 2027 05:13:31.042             3.909          1954.500
        87   03 Jun 2027 05:13:57.905   03 Jun 2027 05:14:00.428             2.523          1261.500
        88   03 Jun 2027 05:14:17.371   03 Jun 2027 05:14:19.529             2.158          1079.000
        89   03 Jun 2027 05:15:18.848   03 Jun 2027 05:15:20.503             1.655           827.500
        90   03 Jun 2027 05:15:27.535   03 Jun 2027 05:15:30.345             2.810          1405.000
        91   03 Jun 2027 06:46:53.802   03 Jun 2027 06:46:56.126             2.324          1162.000
        92   03 Jun 2027 06:47:23.161   03 Jun 2027 06:47:26.449             3.288          1644.000
        93   03 Jun 2027 06:48:10.244   03 Jun 2027 06:48:10.720             0.476           238.000
        94   03 Jun 2027 06:48:19.028   03 Jun 2027 06:48:27.638             8.610          4305.000
        95   03 Jun 2027 06:49:12.242   03 Jun 2027 06:49:13.152             0.910           455.000
        96   03 Jun 2027 06:49:55.202   03 Jun 2027 06:49:56.474             1.272           636.000
        97   03 Jun 2027 06:50:21.579   03 Jun 2027 06:50:24.437             2.858          1429.000
        98   03 Jun 2027 06:50:45.449   03 Jun 2027 06:50:46.760             1.311           655.500
        99   03 Jun 2027 08:22:57.293   03 Jun 2027 08:23:07.111             9.818          4909.000
       100   03 Jun 2027 08:24:06.745   03 Jun 2027 08:24:08.952             2.207          1103.500
       101   03 Jun 2027 08:24:19.845   03 Jun 2027 08:24:21.028             1.183           591.500
       102   03 Jun 2027 08:24:45.295   03 Jun 2027 08:24:47.199             1.904           952.000
       103   03 Jun 2027 08:25:42.238   03 Jun 2027 08:25:53.002            10.764          5382.000
       104   03 Jun 2027 08:26:28.431   03 Jun 2027 08:26:32.489             4.058          2029.000
       105   03 Jun 2027 08:26:58.215   03 Jun 2027 08:27:02.041             3.826          1913.000
       106   03 Jun 2027 08:27:21.148   03 Jun 2027 08:27:21.680             0.532           266.000
       107   03 Jun 2027 08:27:35.728   03 Jun 2027 08:27:39.347             3.619          1809.500
       108   04 Jun 2027 03:44:36.281   04 Jun 2027 03:44:36.874             0.593           296.500
       109   04 Jun 2027 03:45:26.304   04 Jun 2027 03:45:28.590             2.286          1143.000
       110   04 Jun 2027 03:45:53.799   04 Jun 2027 03:46:05.918            12.119          6059.500
       111   04 Jun 2027 03:47:10.494   04 Jun 2027 03:47:18.606             8.112          4056.000
       112   04 Jun 2027 03:47:42.512   04 Jun 2027 03:47:49.147             6.635          3317.500
       113   04 Jun 2027 03:48:32.512   04 Jun 2027 03:48:33.635             1.123           561.500
       114   04 Jun 2027 03:48:43.860   04 Jun 2027 03:48:46.250             2.390          1195.000
       115   04 Jun 2027 03:49:12.970   04 Jun 2027 03:49:13.567             0.597           298.500
       116   04 Jun 2027 03:50:11.978   04 Jun 2027 03:50:19.342             7.364          3682.000
       117   04 Jun 2027 03:50:37.892   04 Jun 2027 03:50:38.130             0.238           119.000
       118   04 Jun 2027 03:51:01.135   04 Jun 2027 03:51:09.723             8.588          4294.000
       119   04 Jun 2027 05:21:06.721   04 Jun 2027 05:21:26.526            19.805          9902.500
       120   04 Jun 2027 05:22:32.224   04 Jun 2027 05:22:40.322             8.098          4049.000
       121   04 Jun 2027 05:23:38.721   04 Jun 2027 05:23:41.323             2.602          1301.000
       122   04 Jun 2027 05:24:06.127   04 Jun 2027 05:24:15.677             9.550          4775.000
       123   04 Jun 2027 05:25:24.038   04 Jun 2027 05:25:44.132            20.094         10047.000
       124   04 Jun 2027 05:26:59.536   04 Jun 2027 05:27:09.749            10.213          5106.500
       125   04 Jun 2027 06:59:24.848   04 Jun 2027 06:59:34.427             9.579          4789.500
       126   04 Jun 2027 07:00:28.601   04 Jun 2027 07:00:29.631             1.030           515.000
       127   04 Jun 2027 07:01:29.380   04 Jun 2027 07:01:29.734             0.354           177.000
       128   04 Jun 2027 07:01:54.636   04 Jun 2027 07:01:56.849             2.213          1106.500
       129   04 Jun 2027 07:02:08.479   04 Jun 2027 07:02:09.624             1.145           572.500
       130   04 Jun 2027 07:02:20.032   04 Jun 2027 07:02:28.343             8.311          4155.500
       131   04 Jun 2027 08:34:50.105   04 Jun 2027 08:35:00.079             9.974          4987.000
       132   04 Jun 2027 08:35:40.759   04 Jun 2027 08:35:41.326             0.567           283.500
       133   04 Jun 2027 08:35:57.556   04 Jun 2027 08:36:02.389             4.833          2416.500
       134   04 Jun 2027 08:36:24.813   04 Jun 2027 08:36:25.888             1.075           537.500
       135   04 Jun 2027 08:36:41.688   04 Jun 2027 08:36:45.543             3.855          1927.500
       136   04 Jun 2027 08:37:21.011   04 Jun 2027 08:37:35.477            14.466          7233.000
       137   04 Jun 2027 08:38:38.303   04 Jun 2027 08:38:44.048             5.745          2872.500
       138   04 Jun 2027 08:39:13.938   04 Jun 2027 08:39:17.558             3.620          1810.000
       139   04 Jun 2027 08:39:21.532   04 Jun 2027 08:39:24.189             2.657          1328.500
       140   04 Jun 2027 08:39:59.820   04 Jun 2027 08:40:00.093             0.273           136.500
       141   04 Jun 2027 08:40:06.593   04 Jun 2027 08:40:10.996             4.403          2201.500
       142   05 Jun 2027 03:56:20.560   05 Jun 2027 03:56:41.031            20.471         10235.500
       143   05 Jun 2027 03:57:54.998   05 Jun 2027 03:58:00.751             5.753          2876.500
       144   05 Jun 2027 03:58:14.908   05 Jun 2027 03:58:14.908             0.000             0.000
       145   05 Jun 2027 03:58:42.768   05 Jun 2027 03:58:51.101             8.333          4166.500
       146   05 Jun 2027 03:59:58.301   05 Jun 2027 04:00:00.835             2.534          1267.000
       147   05 Jun 2027 04:00:27.109   05 Jun 2027 04:00:27.259             0.150            75.000
       148   05 Jun 2027 04:00:32.869   05 Jun 2027 04:00:34.436             1.567           783.500
       149   05 Jun 2027 04:00:50.955   05 Jun 2027 04:00:56.367             5.412          2706.000
       150   05 Jun 2027 04:01:01.689   05 Jun 2027 04:01:05.429             3.740          1870.000
       151   05 Jun 2027 04:01:53.545   05 Jun 2027 04:01:57.689             4.144          2072.000
       152   05 Jun 2027 04:02:22.228   05 Jun 2027 04:02:23.927             1.699           849.500
       153   05 Jun 2027 04:02:47.727   05 Jun 2027 04:02:58.538            10.811          5405.500
       154   05 Jun 2027 05:33:26.595   05 Jun 2027 05:33:42.886            16.291          8145.500
       155   05 Jun 2027 05:34:53.417   05 Jun 2027 05:35:08.882            15.465          7732.500
       156   05 Jun 2027 05:35:41.677   05 Jun 2027 05:35:44.381             2.704          1352.000
       157   05 Jun 2027 05:36:38.231   05 Jun 2027 05:36:39.465             1.234           617.000
       158   05 Jun 2027 05:36:46.837   05 Jun 2027 05:36:50.504             3.667          1833.500
       159   05 Jun 2027 05:37:08.889   05 Jun 2027 05:37:10.065             1.176           588.000
       160   05 Jun 2027 05:37:34.943   05 Jun 2027 05:37:39.200             4.257          2128.500
       161   05 Jun 2027 05:37:56.302   05 Jun 2027 05:37:56.390             0.088            44.000
       162   05 Jun 2027 05:38:20.793   05 Jun 2027 05:38:24.474             3.681          1840.500
       163   05 Jun 2027 05:38:52.277   05 Jun 2027 05:38:59.641             7.364          3682.000
       164   05 Jun 2027 07:11:22.129   05 Jun 2027 07:11:30.166             8.037          4018.500
       165   05 Jun 2027 07:12:06.162   05 Jun 2027 07:12:29.569            23.407         11703.500
       166   05 Jun 2027 07:14:32.516   05 Jun 2027 07:14:34.482             1.966           983.000
       167   05 Jun 2027 08:44:27.882   05 Jun 2027 08:44:55.036            27.154         13577.000
       168   05 Jun 2027 08:46:52.048   05 Jun 2027 08:47:08.484            16.436          8218.000
       169   05 Jun 2027 08:48:22.152   05 Jun 2027 08:48:34.041            11.889          5944.500
       170   05 Jun 2027 08:49:45.442   05 Jun 2027 08:49:49.645             4.203          2101.500
       171   05 Jun 2027 08:50:29.461   05 Jun 2027 08:50:34.424             4.963          2481.500
       172   05 Jun 2027 08:51:29.721   05 Jun 2027 08:51:32.713             2.992          1496.000
       173   05 Jun 2027 08:52:25.578   05 Jun 2027 08:52:29.231             3.653          1826.500
       174   06 Jun 2027 04:08:37.850   06 Jun 2027 04:08:48.490            10.640          5320.000
       175   06 Jun 2027 04:09:39.880   06 Jun 2027 04:09:42.999             3.119          1559.500
       176   06 Jun 2027 04:09:46.052   06 Jun 2027 04:09:46.052             0.000             0.000
       177   06 Jun 2027 04:09:58.026   06 Jun 2027 04:10:26.895            28.869         14434.500
       178   06 Jun 2027 04:12:44.650   06 Jun 2027 04:12:47.064             2.414          1207.000
       179   06 Jun 2027 04:13:09.637   06 Jun 2027 04:13:15.853             6.216          3108.000
       180   06 Jun 2027 04:13:56.353   06 Jun 2027 04:14:10.967            14.614          7307.000
       181   06 Jun 2027 04:14:48.018   06 Jun 2027 04:15:02.608            14.590          7295.000
       182   06 Jun 2027 04:15:48.183   06 Jun 2027 04:15:51.248             3.065          1532.500
       183   06 Jun 2027 04:15:56.480   06 Jun 2027 04:15:56.579             0.099            49.500
       184   06 Jun 2027 05:45:22.612   06 Jun 2027 05:45:37.361            14.749          7374.500
       185   06 Jun 2027 05:46:36.565   06 Jun 2027 05:47:05.639            29.074         14537.000
       186   06 Jun 2027 05:49:16.778   06 Jun 2027 05:49:17.831             1.053           526.500
       187   06 Jun 2027 05:49:29.381   06 Jun 2027 05:49:34.049             4.668          2334.000
       188   06 Jun 2027 05:49:53.727   06 Jun 2027 05:49:59.227             5.500          2750.000
       189   06 Jun 2027 05:50:24.850   06 Jun 2027 05:50:27.740             2.890          1445.000
       190   06 Jun 2027 05:51:05.174   06 Jun 2027 05:51:10.597             5.423          2711.500
       191   06 Jun 2027 05:51:50.877   06 Jun 2027 05:51:51.339             0.462           231.000
       192   06 Jun 2027 07:23:21.389   06 Jun 2027 07:23:25.249             3.860          1930.000
       193   06 Jun 2027 07:24:03.083   06 Jun 2027 07:24:04.381             1.298           649.000
       194   06 Jun 2027 07:24:53.988   06 Jun 2027 07:24:56.879             2.891          1445.500
       195   06 Jun 2027 07:25:15.689   06 Jun 2027 07:25:22.495             6.806          3403.000
       196   06 Jun 2027 07:26:15.247   06 Jun 2027 07:26:23.301             8.054          4027.000
       197   06 Jun 2027 08:56:58.902   06 Jun 2027 08:57:12.374            13.472          6736.000
       198   06 Jun 2027 08:58:55.645   06 Jun 2027 08:58:59.358             3.713          1856.500
       199   06 Jun 2027 08:59:17.043   06 Jun 2027 08:59:25.056             8.013          4006.500
       200   06 Jun 2027 09:00:05.746   06 Jun 2027 09:00:09.506             3.760          1880.000
       201   06 Jun 2027 09:00:16.639   06 Jun 2027 09:00:16.639             0.000             0.000
       202   06 Jun 2027 09:00:30.088   06 Jun 2027 09:00:44.655            14.567          7283.500
       203   06 Jun 2027 09:01:57.186   06 Jun 2027 09:02:06.696             9.510          4755.000
       204   06 Jun 2027 09:03:00.161   06 Jun 2027 09:03:02.824             2.663          1331.500
       205   06 Jun 2027 09:03:51.807   06 Jun 2027 09:03:54.536             2.729          1364.500
       206   06 Jun 2027 09:04:09.657   06 Jun 2027 09:04:23.485            13.828          6914.000
       207   07 Jun 2027 04:20:31.841   07 Jun 2027 04:20:33.953             2.112          1056.000
       208   07 Jun 2027 04:20:51.380   07 Jun 2027 04:20:55.217             3.837          1918.500
       209   07 Jun 2027 04:21:32.231   07 Jun 2027 04:21:33.751             1.520           760.000
       210   07 Jun 2027 04:22:02.464   07 Jun 2027 04:22:04.862             2.398          1199.000
       211   07 Jun 2027 04:22:25.367   07 Jun 2027 04:22:34.870             9.503          4751.500
       212   07 Jun 2027 04:23:31.559   07 Jun 2027 04:23:33.289             1.730           865.000
       213   07 Jun 2027 04:24:06.727   07 Jun 2027 04:24:15.312             8.585          4292.500
       214   07 Jun 2027 04:25:02.302   07 Jun 2027 04:25:17.364            15.062          7531.000
       215   07 Jun 2027 04:26:17.994   07 Jun 2027 04:26:18.374             0.380           190.000
       216   07 Jun 2027 04:26:26.223   07 Jun 2027 04:26:35.114             8.891          4445.500
       217   07 Jun 2027 04:27:42.759   07 Jun 2027 04:27:47.417             4.658          2329.000
       218   07 Jun 2027 05:57:16.263   07 Jun 2027 05:57:17.250             0.987           493.500
       219   07 Jun 2027 05:57:30.500   07 Jun 2027 05:57:32.582             2.082          1041.000
       220   07 Jun 2027 05:57:51.549   07 Jun 2027 05:57:58.137             6.588          3294.000
       221   07 Jun 2027 05:58:31.768   07 Jun 2027 05:58:32.660             0.892           446.000
       222   07 Jun 2027 05:59:14.009   07 Jun 2027 05:59:16.606             2.597          1298.500
       223   07 Jun 2027 06:00:21.176   07 Jun 2027 06:00:25.909             4.733          2366.500
       224   07 Jun 2027 06:01:08.521   07 Jun 2027 06:01:09.165             0.644           322.000
       225   07 Jun 2027 06:01:30.201   07 Jun 2027 06:01:46.100            15.899          7949.500
       226   07 Jun 2027 06:02:35.287   07 Jun 2027 06:02:40.809             5.522          2761.000
       227   07 Jun 2027 06:03:34.330   07 Jun 2027 06:03:34.990             0.660           330.000
       228   07 Jun 2027 06:03:50.598   07 Jun 2027 06:03:52.981             2.383          1191.500
       229   07 Jun 2027 07:35:09.430   07 Jun 2027 07:35:12.462             3.032          1516.000
       230   07 Jun 2027 07:35:30.921   07 Jun 2027 07:36:00.553            29.632         14816.000
       231   07 Jun 2027 07:37:55.897   07 Jun 2027 07:37:56.003             0.106            53.000
       232   07 Jun 2027 07:38:09.652   07 Jun 2027 07:38:14.787             5.135          2567.500
       233   07 Jun 2027 07:39:22.145   07 Jun 2027 07:39:28.628             6.483          3241.500
       234   07 Jun 2027 09:11:07.425   07 Jun 2027 09:11:16.501             9.076          4538.000
       235   07 Jun 2027 09:12:10.250   07 Jun 2027 09:12:23.489            13.239          6619.500
       236   07 Jun 2027 09:13:21.010   07 Jun 2027 09:13:32.946            11.936          5968.000
       237   07 Jun 2027 09:14:05.769   07 Jun 2027 09:14:16.281            10.512          5256.000
       238   07 Jun 2027 09:14:40.003   07 Jun 2027 09:14:40.003             0.000             0.000
       239   08 Jun 2027 03:00:00.000   08 Jun 2027 03:00:10.498            10.498          5249.000
       240   08 Jun 2027 03:00:49.477   08 Jun 2027 03:00:53.628             4.151          2075.500
       241   08 Jun 2027 03:01:13.763   08 Jun 2027 03:01:14.961             1.198           599.000
       242   08 Jun 2027 03:01:22.202   08 Jun 2027 03:01:22.929             0.727           363.500
       243   08 Jun 2027 03:02:11.253   08 Jun 2027 03:02:14.168             2.915          1457.500
       244   08 Jun 2027 03:02:32.453   08 Jun 2027 03:02:33.561             1.108           554.000
       245   08 Jun 2027 03:03:00.900   08 Jun 2027 03:03:05.997             5.097          2548.500
       246   08 Jun 2027 03:03:09.802   08 Jun 2027 03:03:19.041             9.239          4619.500
       247   08 Jun 2027 03:03:30.960   08 Jun 2027 03:03:32.624             1.664           832.000
       248   08 Jun 2027 03:04:00.416   08 Jun 2027 03:04:00.969             0.553           276.500
       249   08 Jun 2027 04:32:41.036   08 Jun 2027 04:33:02.681            21.645         10822.500
       250   08 Jun 2027 04:33:50.690   08 Jun 2027 04:33:57.249             6.559          3279.500
       251   08 Jun 2027 04:35:48.825   08 Jun 2027 04:35:49.432             0.607           303.500
       252   08 Jun 2027 04:35:57.826   08 Jun 2027 04:36:03.201             5.375          2687.500
       253   08 Jun 2027 04:36:43.089   08 Jun 2027 04:36:44.368             1.279           639.500
       254   08 Jun 2027 04:37:50.298   08 Jun 2027 04:37:52.571             2.273          1136.500
       255   08 Jun 2027 04:38:09.768   08 Jun 2027 04:38:16.314             6.546          3273.000
       256   08 Jun 2027 04:38:49.262   08 Jun 2027 04:38:50.742             1.480           740.000
       257   08 Jun 2027 04:39:45.130   08 Jun 2027 04:39:56.530            11.400          5700.000
       258   08 Jun 2027 06:09:55.005   08 Jun 2027 06:10:27.597            32.592         16296.000
       259   08 Jun 2027 06:11:43.958   08 Jun 2027 06:11:55.586            11.628          5814.000
       260   08 Jun 2027 06:14:00.360   08 Jun 2027 06:14:02.298             1.938           969.000
       261   08 Jun 2027 06:14:58.765   08 Jun 2027 06:14:59.380             0.615           307.500
       262   08 Jun 2027 06:15:27.477   08 Jun 2027 06:15:28.052             0.575           287.500
       263   08 Jun 2027 07:46:35.503   08 Jun 2027 07:46:39.754             4.251          2125.500
       264   08 Jun 2027 07:46:44.513   08 Jun 2027 07:46:46.472             1.959           979.500
       265   08 Jun 2027 07:47:14.007   08 Jun 2027 07:47:16.892             2.885          1442.500
       266   08 Jun 2027 07:48:01.538   08 Jun 2027 07:48:06.003             4.465          2232.500
       267   08 Jun 2027 07:48:37.143   08 Jun 2027 07:48:39.119             1.976           988.000
       268   08 Jun 2027 07:48:57.727   08 Jun 2027 07:49:00.750             3.023          1511.500
       269   08 Jun 2027 07:49:14.824   08 Jun 2027 07:49:26.279            11.455          5727.500
       270   08 Jun 2027 07:50:12.957   08 Jun 2027 07:50:13.491             0.534           267.000
       271   08 Jun 2027 07:50:18.102   08 Jun 2027 07:50:24.864             6.762          3381.000
       272   08 Jun 2027 07:50:41.706   08 Jun 2027 07:50:45.048             3.342          1671.000
       273   08 Jun 2027 09:21:48.305   08 Jun 2027 09:22:01.899            13.594          6797.000
       274   08 Jun 2027 09:23:34.104   08 Jun 2027 09:23:48.593            14.489          7244.500
       275   08 Jun 2027 09:24:55.761   08 Jun 2027 09:24:58.841             3.080          1540.000
       276   08 Jun 2027 09:25:21.590   08 Jun 2027 09:25:27.288             5.698          2849.000
       277   08 Jun 2027 09:26:03.922   08 Jun 2027 09:26:04.304             0.382           191.000
       278   08 Jun 2027 09:26:11.591   08 Jun 2027 09:26:15.875             4.284          2142.000
       279   08 Jun 2027 09:26:22.955   08 Jun 2027 09:26:22.955             0.000             0.000
       280   09 Jun 2027 03:06:16.430   09 Jun 2027 03:06:25.162             8.732          4366.000
       281   09 Jun 2027 03:07:57.870   09 Jun 2027 03:08:14.062            16.192          8096.000
       282   09 Jun 2027 03:08:50.567   09 Jun 2027 03:08:50.567             0.000             0.000
       283   09 Jun 2027 03:09:37.082   09 Jun 2027 03:09:40.381             3.299          1649.500
       284   09 Jun 2027 03:10:35.289   09 Jun 2027 03:10:38.253             2.964          1482.000
       285   09 Jun 2027 03:11:30.140   09 Jun 2027 03:11:32.326             2.186          1093.000
       286   09 Jun 2027 03:12:05.294   09 Jun 2027 03:12:16.512            11.218          5609.000
       287   09 Jun 2027 03:13:03.361   09 Jun 2027 03:13:05.642             2.281          1140.500
       288   09 Jun 2027 03:13:19.922   09 Jun 2027 03:13:28.921             8.999          4499.500
       289   09 Jun 2027 03:14:05.070   09 Jun 2027 03:14:08.016             2.946          1473.000
       290   09 Jun 2027 03:14:33.742   09 Jun 2027 03:14:39.798             6.056          3028.000
       291   09 Jun 2027 03:14:53.124   09 Jun 2027 03:14:53.124             0.000             0.000
       292   09 Jun 2027 03:15:01.143   09 Jun 2027 03:15:04.712             3.569          1784.500
       293   09 Jun 2027 03:15:44.853   09 Jun 2027 03:15:48.456             3.603          1801.500
       294   09 Jun 2027 04:45:04.937   09 Jun 2027 04:45:06.420             1.483           741.500
       295   09 Jun 2027 04:45:11.039   09 Jun 2027 04:45:13.256             2.217          1108.500
       296   09 Jun 2027 04:45:41.576   09 Jun 2027 04:46:25.919            44.343         22171.500
       297   09 Jun 2027 04:46:45.376   09 Jun 2027 04:46:45.557             0.181            90.500
       298   09 Jun 2027 04:48:42.818   09 Jun 2027 04:48:44.811             1.993           996.500
       299   09 Jun 2027 04:50:06.330   09 Jun 2027 04:50:17.487            11.157          5578.500
       300   09 Jun 2027 04:50:34.163   09 Jun 2027 04:50:35.395             1.232           616.000
       301   09 Jun 2027 04:51:18.673   09 Jun 2027 04:51:32.935            14.262          7131.000
       302   09 Jun 2027 06:22:02.687   09 Jun 2027 06:22:11.525             8.838          4419.000
       303   09 Jun 2027 06:22:23.074   09 Jun 2027 06:22:52.867            29.793         14896.500
       304   09 Jun 2027 06:25:31.658   09 Jun 2027 06:25:39.424             7.766          3883.000
       305   09 Jun 2027 06:26:12.678   09 Jun 2027 06:26:15.617             2.939          1469.500
       306   09 Jun 2027 06:26:49.394   09 Jun 2027 06:26:50.568             1.174           587.000
       307   09 Jun 2027 07:58:50.191   09 Jun 2027 07:59:01.135            10.944          5472.000
       308   09 Jun 2027 07:59:57.006   09 Jun 2027 07:59:58.000             0.994           497.000
       309   09 Jun 2027 08:00:29.174   09 Jun 2027 08:00:29.627             0.453           226.500
       310   09 Jun 2027 08:00:35.213   09 Jun 2027 08:00:37.311             2.098          1049.000
       311   09 Jun 2027 08:00:47.498   09 Jun 2027 08:01:01.872            14.374          7187.000
       312   09 Jun 2027 08:01:36.142   09 Jun 2027 08:01:43.591             7.449          3724.500
       313   09 Jun 2027 08:02:05.394   09 Jun 2027 08:02:14.558             9.164          4582.000
       314   09 Jun 2027 09:37:00.476   09 Jun 2027 09:37:22.396            21.920         10960.000
       315   10 Jun 2027 03:21:09.894   10 Jun 2027 03:21:14.118             4.224          2112.000
       316   10 Jun 2027 03:21:36.957   10 Jun 2027 03:21:42.651             5.694          2847.000
       317   10 Jun 2027 03:22:47.359   10 Jun 2027 03:22:49.838             2.479          1239.500
       318   10 Jun 2027 03:23:16.848   10 Jun 2027 03:23:22.166             5.318          2659.000
       319   10 Jun 2027 03:23:29.921   10 Jun 2027 03:23:30.807             0.886           443.000
       320   10 Jun 2027 03:24:02.324   10 Jun 2027 03:24:07.141             4.817          2408.500
       321   10 Jun 2027 03:24:51.392   10 Jun 2027 03:24:51.830             0.438           219.000
       322   10 Jun 2027 03:25:10.163   10 Jun 2027 03:25:10.566             0.403           201.500
       323   10 Jun 2027 03:25:52.386   10 Jun 2027 03:25:59.914             7.528          3764.000
       324   10 Jun 2027 03:26:26.917   10 Jun 2027 03:26:28.182             1.265           632.500
       325   10 Jun 2027 03:26:52.009   10 Jun 2027 03:26:55.734             3.725          1862.500
       326   10 Jun 2027 03:26:55.802   10 Jun 2027 03:27:09.634            13.832          6916.000
       327   10 Jun 2027 03:27:50.826   10 Jun 2027 03:27:54.827             4.001          2000.500
       328   10 Jun 2027 04:57:30.422   10 Jun 2027 04:57:35.005             4.583          2291.500
       329   10 Jun 2027 04:58:15.158   10 Jun 2027 04:58:26.341            11.183          5591.500
       330   10 Jun 2027 04:59:17.341   10 Jun 2027 04:59:23.929             6.588          3294.000
       331   10 Jun 2027 05:00:48.493   10 Jun 2027 05:00:55.080             6.587          3293.500
       332   10 Jun 2027 05:01:29.959   10 Jun 2027 05:01:30.708             0.749           374.500
       333   10 Jun 2027 05:01:55.547   10 Jun 2027 05:02:06.461            10.914          5457.000
       334   10 Jun 2027 05:02:54.452   10 Jun 2027 05:02:56.226             1.774           887.000
       335   10 Jun 2027 05:03:16.227   10 Jun 2027 05:03:24.646             8.419          4209.500
       336   10 Jun 2027 06:35:04.480   10 Jun 2027 06:35:05.906             1.426           713.000
       337   10 Jun 2027 06:35:20.419   10 Jun 2027 06:35:24.473             4.054          2027.000
       338   10 Jun 2027 06:35:34.689   10 Jun 2027 06:35:46.924            12.235          6117.500
       339   10 Jun 2027 06:36:34.516   10 Jun 2027 06:36:42.124             7.608          3804.000
       340   10 Jun 2027 06:37:13.056   10 Jun 2027 06:37:16.725             3.669          1834.500
       341   10 Jun 2027 06:38:00.638   10 Jun 2027 06:38:02.033             1.395           697.500
       342   10 Jun 2027 06:38:11.573   10 Jun 2027 06:38:11.662             0.089            44.500
       343   10 Jun 2027 06:38:12.883   10 Jun 2027 06:38:18.822             5.939          2969.500
       344   10 Jun 2027 06:38:38.299   10 Jun 2027 06:38:39.487             1.188           594.000
       345   10 Jun 2027 06:38:56.571   10 Jun 2027 06:39:08.814            12.243          6121.500
       346   10 Jun 2027 08:11:07.821   10 Jun 2027 08:11:21.045            13.224          6612.000
       347   10 Jun 2027 08:11:46.603   10 Jun 2027 08:11:50.624             4.021          2010.500
       348   10 Jun 2027 08:13:00.890   10 Jun 2027 08:13:02.810             1.920           960.000
       349   10 Jun 2027 08:13:18.924   10 Jun 2027 08:13:28.939            10.015          5007.500
       350   10 Jun 2027 08:14:32.524   10 Jun 2027 08:14:34.873             2.349          1174.500
       351   10 Jun 2027 08:15:05.930   10 Jun 2027 08:15:15.507             9.577          4788.500
       352   11 Jun 2027 03:33:21.900   11 Jun 2027 03:33:26.719             4.819          2409.500
       353   11 Jun 2027 03:34:09.182   11 Jun 2027 03:34:10.668             1.486           743.000
       354   11 Jun 2027 03:34:27.937   11 Jun 2027 03:34:29.385             1.448           724.000
       355   11 Jun 2027 03:34:52.621   11 Jun 2027 03:34:57.571             4.950          2475.000
       356   11 Jun 2027 03:35:13.134   11 Jun 2027 03:35:16.861             3.727          1863.500
       357   11 Jun 2027 03:35:40.912   11 Jun 2027 03:36:08.909            27.997         13998.500
       358   11 Jun 2027 03:38:12.824   11 Jun 2027 03:38:19.883             7.059          3529.500
       359   11 Jun 2027 03:38:50.638   11 Jun 2027 03:38:51.033             0.395           197.500
       360   11 Jun 2027 03:39:43.489   11 Jun 2027 03:39:43.875             0.386           193.000
       361   11 Jun 2027 03:39:51.113   11 Jun 2027 03:39:57.736             6.623          3311.500
       362   11 Jun 2027 05:09:39.865   11 Jun 2027 05:10:04.056            24.191         12095.500
       363   11 Jun 2027 05:11:55.892   11 Jun 2027 05:12:03.256             7.364          3682.000
       364   11 Jun 2027 05:12:30.758   11 Jun 2027 05:12:38.232             7.474          3737.000
       365   11 Jun 2027 05:13:37.992   11 Jun 2027 05:13:42.481             4.489          2244.500
       366   11 Jun 2027 05:14:04.032   11 Jun 2027 05:14:05.597             1.565           782.500
       367   11 Jun 2027 05:14:14.673   11 Jun 2027 05:14:15.057             0.384           192.000
       368   11 Jun 2027 05:14:34.061   11 Jun 2027 05:14:37.596             3.535          1767.500
       369   11 Jun 2027 05:15:33.723   11 Jun 2027 05:15:34.991             1.268           634.000
       370   11 Jun 2027 05:15:43.400   11 Jun 2027 05:15:44.822             1.422           711.000
       371   11 Jun 2027 06:47:08.742   11 Jun 2027 06:47:10.686             1.944           972.000
       372   11 Jun 2027 06:48:01.931   11 Jun 2027 06:48:10.422             8.491          4245.500
       373   11 Jun 2027 06:48:43.265   11 Jun 2027 06:48:48.024             4.759          2379.500
       374   11 Jun 2027 06:49:09.519   11 Jun 2027 06:49:18.893             9.374          4687.000
       375   11 Jun 2027 06:49:54.053   11 Jun 2027 06:50:06.216            12.163          6081.500
       376   11 Jun 2027 06:50:44.203   11 Jun 2027 06:50:49.528             5.325          2662.500
       377   11 Jun 2027 08:23:12.017   11 Jun 2027 08:23:12.254             0.237           118.500
       378   11 Jun 2027 08:24:21.043   11 Jun 2027 08:24:21.285             0.242           121.000
       379   11 Jun 2027 08:25:14.779   11 Jun 2027 08:25:28.991            14.212          7106.000
       380   11 Jun 2027 08:26:13.854   11 Jun 2027 08:26:14.563             0.709           354.500
       381   11 Jun 2027 08:26:43.344   11 Jun 2027 08:26:49.402             6.058          3029.000
       382   11 Jun 2027 08:27:14.928   11 Jun 2027 08:27:16.669             1.741           870.500
       383   11 Jun 2027 08:27:39.942   11 Jun 2027 08:27:40.681             0.739           369.500
       384   12 Jun 2027 03:44:50.729   12 Jun 2027 03:44:54.413             3.684          1842.000
       385   12 Jun 2027 03:45:40.776   12 Jun 2027 03:45:42.889             2.113          1056.500
       386   12 Jun 2027 03:46:09.287   12 Jun 2027 03:46:20.644            11.357          5678.500
       387   12 Jun 2027 03:47:10.361   12 Jun 2027 03:47:19.828             9.467          4733.500
       388   12 Jun 2027 03:49:01.407   12 Jun 2027 03:49:02.405             0.998           499.000
       389   12 Jun 2027 03:49:27.348   12 Jun 2027 03:49:28.087             0.739           369.500
       390   12 Jun 2027 03:50:25.934   12 Jun 2027 03:50:29.273             3.339          1669.500
       391   12 Jun 2027 03:50:58.903   12 Jun 2027 03:51:06.265             7.362          3681.000
       392   12 Jun 2027 03:51:47.287   12 Jun 2027 03:51:47.810             0.523           261.500
       393   12 Jun 2027 03:52:03.126   12 Jun 2027 03:52:07.191             4.065          2032.500
       394   12 Jun 2027 05:21:21.385   12 Jun 2027 05:21:30.573             9.188          4594.000
       395   12 Jun 2027 05:22:46.647   12 Jun 2027 05:22:55.041             8.394          4197.000
       396   12 Jun 2027 05:23:28.367   12 Jun 2027 05:23:28.392             0.025            12.500
       397   12 Jun 2027 05:23:31.238   12 Jun 2027 05:23:33.127             1.889           944.500
       398   12 Jun 2027 05:23:55.944   12 Jun 2027 05:24:18.658            22.714         11357.000
       399   12 Jun 2027 05:26:53.784   12 Jun 2027 05:27:15.543            21.759         10879.500
       400   12 Jun 2027 06:59:39.826   12 Jun 2027 06:59:50.168            10.342          5171.000
       401   12 Jun 2027 07:00:43.332   12 Jun 2027 07:00:45.753             2.421          1210.500
       402   12 Jun 2027 07:01:44.156   12 Jun 2027 07:01:46.214             2.058          1029.000
       403   12 Jun 2027 07:02:09.200   12 Jun 2027 07:02:16.401             7.201          3600.500
       404   12 Jun 2027 07:02:18.507   12 Jun 2027 07:02:19.304             0.797           398.500
       405   12 Jun 2027 07:02:38.151   12 Jun 2027 07:02:38.151             0.000             0.000
       406   12 Jun 2027 07:02:54.785   12 Jun 2027 07:02:56.694             1.909           954.500
       407   12 Jun 2027 07:03:09.387   12 Jun 2027 07:03:13.810             4.423          2211.500
       408   12 Jun 2027 08:35:04.713   12 Jun 2027 08:35:26.419            21.706         10853.000
       409   12 Jun 2027 08:37:26.161   12 Jun 2027 08:37:28.270             2.109          1054.500
       410   12 Jun 2027 08:37:55.487   12 Jun 2027 08:37:58.664             3.177          1588.500
       411   12 Jun 2027 08:38:28.508   12 Jun 2027 08:38:30.008             1.500           750.000
       412   12 Jun 2027 08:38:38.253   12 Jun 2027 08:38:45.960             7.707          3853.500
       413   12 Jun 2027 08:39:05.482   12 Jun 2027 08:39:05.482             0.000             0.000
       414   12 Jun 2027 08:39:28.808   12 Jun 2027 08:39:32.332             3.524          1762.000
       415   12 Jun 2027 08:39:35.752   12 Jun 2027 08:39:39.477             3.725          1862.500
       416   12 Jun 2027 08:40:16.810   12 Jun 2027 08:40:21.241             4.431          2215.500
       417   13 Jun 2027 03:56:35.373   13 Jun 2027 03:56:56.119            20.746         10373.000
       418   13 Jun 2027 03:58:00.387   13 Jun 2027 03:58:00.930             0.543           271.500
       419   13 Jun 2027 03:58:33.490   13 Jun 2027 03:58:37.276             3.786          1893.000
       420   13 Jun 2027 03:58:50.953   13 Jun 2027 03:58:58.314             7.361          3680.500
       421   13 Jun 2027 04:00:17.563   13 Jun 2027 04:00:20.518             2.955          1477.500
       422   13 Jun 2027 04:00:36.598   13 Jun 2027 04:00:40.717             4.119          2059.500
       423   13 Jun 2027 04:01:11.599   13 Jun 2027 04:01:16.252             4.653          2326.500
       424   13 Jun 2027 04:01:37.126   13 Jun 2027 04:01:42.887             5.761          2880.500
       425   13 Jun 2027 04:01:54.654   13 Jun 2027 04:02:07.721            13.067          6533.500
       426   13 Jun 2027 04:02:41.924   13 Jun 2027 04:02:43.283             1.359           679.500
       427   13 Jun 2027 04:03:20.596   13 Jun 2027 04:03:35.475            14.879          7439.500
       428   13 Jun 2027 05:33:41.372   13 Jun 2027 05:34:01.377            20.005         10002.500
       429   13 Jun 2027 05:36:50.498   13 Jun 2027 05:36:52.484             1.986           993.000
       430   13 Jun 2027 05:37:20.423   13 Jun 2027 05:37:21.834             1.411           705.500
       431   13 Jun 2027 05:38:29.210   13 Jun 2027 05:38:32.355             3.145          1572.500
       432   13 Jun 2027 05:39:04.990   13 Jun 2027 05:39:14.145             9.155          4577.500
       433   13 Jun 2027 07:11:36.936   13 Jun 2027 07:11:47.237            10.301          5150.500
       434   13 Jun 2027 07:12:05.513   13 Jun 2027 07:12:10.711             5.198          2599.000
       435   13 Jun 2027 07:12:56.493   13 Jun 2027 07:12:59.250             2.757          1378.500
       436   13 Jun 2027 07:13:54.306   13 Jun 2027 07:14:04.857            10.551          5275.500
       437   13 Jun 2027 07:14:49.224   13 Jun 2027 07:14:57.176             7.952          3976.000
       438   13 Jun 2027 08:44:42.732   13 Jun 2027 08:45:10.541            27.809         13904.500
       439   13 Jun 2027 08:45:45.088   13 Jun 2027 08:46:02.502            17.414          8707.000
       440   13 Jun 2027 08:48:52.551   13 Jun 2027 08:49:06.017            13.466          6733.000
       441   13 Jun 2027 08:50:33.926   13 Jun 2027 08:50:38.333             4.407          2203.500
       442   13 Jun 2027 08:51:44.506   13 Jun 2027 08:51:45.540             1.034           517.000
       443   13 Jun 2027 08:51:56.899   13 Jun 2027 08:52:13.108            16.209          8104.500
