uniorb/output/strategy_2/Camera/Camera_KinoSat_110802.txt

KinoSat_110802
-------------------------
    Access    *     Start Time (UTCG)     *     Stop Time (UTCG)  *   Duration (s) *   Data (Mbytes)
         1   01 Jun 2027 04:02:09.879   01 Jun 2027 04:02:56.660            46.781         23390.500
         2   01 Jun 2027 04:04:17.954   01 Jun 2027 04:04:24.971             7.017          3508.500
         3   01 Jun 2027 04:04:47.319   01 Jun 2027 04:04:47.740             0.421           210.500
         4   01 Jun 2027 04:04:49.316   01 Jun 2027 04:05:15.332            26.016         13008.000
         5   01 Jun 2027 04:06:45.248   01 Jun 2027 04:06:45.248             0.000             0.000
         6   01 Jun 2027 04:06:54.515   01 Jun 2027 04:07:12.318            17.803          8901.500
         7   01 Jun 2027 04:07:18.878   01 Jun 2027 04:07:21.802             2.924          1462.000
         8   01 Jun 2027 05:37:02.910   01 Jun 2027 05:40:23.503           200.593        100296.500
         9   01 Jun 2027 05:43:20.757   01 Jun 2027 05:43:20.757             0.000             0.000
        10   01 Jun 2027 05:44:15.401   01 Jun 2027 05:44:15.401             0.000             0.000
        11   01 Jun 2027 05:44:16.270   01 Jun 2027 05:44:21.292             5.022          2511.000
        12   01 Jun 2027 05:46:16.545   01 Jun 2027 05:46:24.538             7.993          3996.500
        13   01 Jun 2027 07:14:56.535   01 Jun 2027 07:16:06.375            69.840         34920.000
        14   01 Jun 2027 07:16:54.302   01 Jun 2027 07:18:23.260            88.958         44479.000
        15   01 Jun 2027 07:18:38.645   01 Jun 2027 07:19:01.476            22.831         11415.500
        16   01 Jun 2027 07:20:28.016   01 Jun 2027 07:21:03.425            35.409         17704.500
        17   01 Jun 2027 07:21:29.964   01 Jun 2027 07:21:44.618            14.654          7327.000
        18   01 Jun 2027 08:51:40.471   01 Jun 2027 08:54:23.479           163.008         81504.000
        19   01 Jun 2027 08:55:19.046   01 Jun 2027 08:55:27.174             8.128          4064.000
        20   01 Jun 2027 08:55:46.572   01 Jun 2027 08:55:48.026             1.454           727.000
        21   01 Jun 2027 08:55:54.242   01 Jun 2027 08:55:57.553             3.311          1655.500
        22   01 Jun 2027 08:56:10.248   01 Jun 2027 08:56:25.361            15.113          7556.500
        23   01 Jun 2027 08:57:59.700   01 Jun 2027 08:58:07.235             7.535          3767.500
        24   01 Jun 2027 10:29:46.729   01 Jun 2027 10:32:21.443           154.714         77357.000
        25   01 Jun 2027 10:33:08.506   01 Jun 2027 10:33:11.057             2.551          1275.500
        26   02 Jun 2027 04:16:07.965   02 Jun 2027 04:17:21.966            74.001         37000.500
        27   02 Jun 2027 04:17:23.812   02 Jun 2027 04:17:47.212            23.400         11700.000
        28   02 Jun 2027 04:18:05.064   02 Jun 2027 04:18:32.273            27.209         13604.500
        29   02 Jun 2027 04:19:19.080   02 Jun 2027 04:19:21.258             2.178          1089.000
        30   02 Jun 2027 05:49:55.353   02 Jun 2027 05:52:12.436           137.083         68541.500
        31   02 Jun 2027 05:52:20.727   02 Jun 2027 05:52:25.669             4.942          2471.000
        32   02 Jun 2027 05:52:34.651   02 Jun 2027 05:52:40.774             6.123          3061.500
        33   02 Jun 2027 05:54:47.085   02 Jun 2027 05:54:47.085             0.000             0.000
        34   02 Jun 2027 05:55:49.176   02 Jun 2027 05:55:58.003             8.827          4413.500
        35   02 Jun 2027 05:56:53.644   02 Jun 2027 05:57:01.671             8.027          4013.500
        36   02 Jun 2027 05:58:19.488   02 Jun 2027 05:58:25.779             6.291          3145.500
        37   02 Jun 2027 07:27:04.158   02 Jun 2027 07:28:56.997           112.839         56419.500
        38   02 Jun 2027 07:29:41.446   02 Jun 2027 07:30:27.327            45.881         22940.500
        39   02 Jun 2027 07:31:09.429   02 Jun 2027 07:31:18.984             9.555          4777.500
        40   02 Jun 2027 07:31:38.476   02 Jun 2027 07:31:55.145            16.669          8334.500
        41   02 Jun 2027 07:32:03.739   02 Jun 2027 07:32:36.471            32.732         16366.000
        42   02 Jun 2027 07:33:53.442   02 Jun 2027 07:33:58.955             5.513          2756.500
        43   02 Jun 2027 07:34:19.936   02 Jun 2027 07:34:22.040             2.104          1052.000
        44   02 Jun 2027 09:04:18.740   02 Jun 2027 09:06:19.548           120.808         60404.000
        45   02 Jun 2027 09:07:41.619   02 Jun 2027 09:07:49.248             7.629          3394.438
        46   02 Jun 2027 09:08:25.815   02 Jun 2027 09:08:26.835             1.020           510.000
        47   02 Jun 2027 09:08:43.727   02 Jun 2027 09:08:45.434             1.707           853.500
        48   02 Jun 2027 09:09:52.097   02 Jun 2027 09:09:57.600             5.503          2390.313
        49   02 Jun 2027 10:41:00.653   02 Jun 2027 10:41:24.158            23.505         10671.406
        50   02 Jun 2027 10:42:23.030   02 Jun 2027 10:42:27.235             4.205          1839.750
        51   02 Jun 2027 10:43:14.845   02 Jun 2027 10:43:19.721             4.876          1487.813
        52   02 Jun 2027 10:43:42.429   02 Jun 2027 10:43:44.722             2.293           709.625
        53   02 Jun 2027 10:44:34.797   02 Jun 2027 10:44:39.253             4.456          1533.250
        54   02 Jun 2027 10:45:14.098   02 Jun 2027 10:45:16.706             2.608           917.156
        55   03 Jun 2027 04:28:20.742   03 Jun 2027 04:31:19.577           178.835         89417.500
        56   03 Jun 2027 06:02:19.207   03 Jun 2027 06:04:27.611           128.404         64202.000
        57   03 Jun 2027 06:04:37.854   03 Jun 2027 06:04:39.744             1.890           578.375
        58   03 Jun 2027 06:05:00.413   03 Jun 2027 06:05:00.413             0.000             0.000
        59   03 Jun 2027 06:05:13.904   03 Jun 2027 06:05:21.590             7.686          1056.219
        60   03 Jun 2027 06:06:06.988   03 Jun 2027 06:06:06.988             0.000             0.000
        61   03 Jun 2027 06:07:39.049   03 Jun 2027 06:07:44.448             5.399          2699.500
        62   03 Jun 2027 06:08:55.362   03 Jun 2027 06:09:03.411             8.049          3629.812
        63   03 Jun 2027 06:09:11.753   03 Jun 2027 06:09:11.753             0.000             0.000
        64   03 Jun 2027 06:09:54.276   03 Jun 2027 06:10:02.111             7.835          1589.531
        65   03 Jun 2027 06:10:16.447   03 Jun 2027 06:10:20.378             3.931           448.000
        66   03 Jun 2027 07:39:29.518   03 Jun 2027 07:39:54.121            24.603         11738.406
        67   03 Jun 2027 07:41:00.473   03 Jun 2027 07:41:02.914             2.441           443.594
        68   03 Jun 2027 07:42:30.247   03 Jun 2027 07:42:33.288             3.041          1507.781
        69   03 Jun 2027 07:43:09.728   03 Jun 2027 07:43:15.804             6.076           567.875
        70   03 Jun 2027 07:43:48.902   03 Jun 2027 07:43:50.325             1.423           325.156
        71   03 Jun 2027 07:44:45.676   03 Jun 2027 07:44:54.466             8.790          1616.219
        72   03 Jun 2027 07:45:09.698   03 Jun 2027 07:45:13.166             3.468           157.156
        73   03 Jun 2027 07:45:46.774   03 Jun 2027 07:45:50.070             3.296          1050.250
        74   03 Jun 2027 09:16:28.848   03 Jun 2027 09:16:47.490            18.642          9277.188
        75   03 Jun 2027 09:18:10.551   03 Jun 2027 09:18:14.755             4.204          1583.500
        76   03 Jun 2027 09:19:04.792   03 Jun 2027 09:19:04.792             0.000             0.000
        77   03 Jun 2027 09:19:13.357   03 Jun 2027 09:19:16.421             3.064          1426.312
        78   03 Jun 2027 09:19:34.304   03 Jun 2027 09:19:35.504             1.200           549.594
        79   03 Jun 2027 09:20:12.272   03 Jun 2027 09:20:14.481             2.209          1104.219
        80   03 Jun 2027 09:20:21.600   03 Jun 2027 09:20:29.341             7.741           108.656
        81   03 Jun 2027 09:20:41.787   03 Jun 2027 09:20:43.705             1.918           325.906
        82   03 Jun 2027 09:21:25.641   03 Jun 2027 09:21:28.957             3.316          1136.125
        83   03 Jun 2027 09:21:52.475   03 Jun 2027 09:21:53.047             0.572           286.000
        84   03 Jun 2027 10:53:15.433   03 Jun 2027 10:53:27.943            12.510          5988.812
        85   03 Jun 2027 10:53:41.385   03 Jun 2027 10:53:43.214             1.829           420.062
        86   03 Jun 2027 10:54:18.829   03 Jun 2027 10:54:21.873             3.044          1085.656
        87   03 Jun 2027 10:54:47.987   03 Jun 2027 10:54:50.819             2.832           540.500
        88   03 Jun 2027 10:55:55.847   03 Jun 2027 10:56:01.074             5.227          1846.719
        89   03 Jun 2027 10:57:06.811   03 Jun 2027 10:57:10.624             3.813          1906.500
        90   03 Jun 2027 10:57:18.480   03 Jun 2027 10:57:19.731             1.251           259.375
        91   03 Jun 2027 10:57:31.415   03 Jun 2027 10:57:35.564             4.149           129.406
        92   04 Jun 2027 03:03:54.059   04 Jun 2027 03:04:32.788            38.729         19364.500
        93   04 Jun 2027 03:05:02.681   04 Jun 2027 03:05:04.087             1.406           703.000
        94   04 Jun 2027 04:40:26.457   04 Jun 2027 04:43:23.381           176.924         88462.000
        95   04 Jun 2027 04:43:56.471   04 Jun 2027 04:43:59.288             2.817          1408.500
        96   04 Jun 2027 06:15:35.287   04 Jun 2027 06:17:01.327            86.040         43020.000
        97   04 Jun 2027 06:17:34.382   04 Jun 2027 06:17:39.503             5.121          1933.781
        98   04 Jun 2027 06:17:46.087   04 Jun 2027 06:17:46.672             0.585           143.844
        99   04 Jun 2027 06:17:51.301   04 Jun 2027 06:17:52.457             1.156            14.594
       100   04 Jun 2027 06:18:12.014   04 Jun 2027 06:18:16.829             4.815           611.156
       101   04 Jun 2027 06:19:01.712   04 Jun 2027 06:19:06.126             4.414          1083.719
       102   04 Jun 2027 06:21:06.973   04 Jun 2027 06:21:20.287            13.314          3776.469
       103   04 Jun 2027 06:21:33.049   04 Jun 2027 06:21:37.198             4.149           260.188
       104   04 Jun 2027 06:22:09.265   04 Jun 2027 06:22:13.699             4.434           914.281
       105   04 Jun 2027 07:51:55.480   04 Jun 2027 07:52:15.260            19.780          9747.344
       106   04 Jun 2027 07:52:41.707   04 Jun 2027 07:52:42.603             0.896           448.000
       107   04 Jun 2027 07:52:42.797   04 Jun 2027 07:52:43.294             0.497           212.812
       108   04 Jun 2027 07:53:26.142   04 Jun 2027 07:53:31.078             4.936           606.500
       109   04 Jun 2027 07:54:08.354   04 Jun 2027 07:54:13.716             5.362           828.500
       110   04 Jun 2027 07:55:11.389   04 Jun 2027 07:55:17.366             5.977          1493.281
       111   04 Jun 2027 07:55:24.834   04 Jun 2027 07:55:25.960             1.126           165.844
       112   04 Jun 2027 07:56:58.476   04 Jun 2027 07:57:02.622             4.146          2059.813
       113   04 Jun 2027 07:57:28.248   04 Jun 2027 07:57:30.267             2.019           199.000
       114   04 Jun 2027 07:58:01.508   04 Jun 2027 07:58:02.034             0.526           191.844
       115   04 Jun 2027 07:58:15.892   04 Jun 2027 07:58:17.664             1.772           410.375
       116   04 Jun 2027 09:29:29.715   04 Jun 2027 09:29:49.401            19.686          8838.406
       117   04 Jun 2027 09:30:27.576   04 Jun 2027 09:30:27.576             0.000             0.000
       118   04 Jun 2027 09:31:07.396   04 Jun 2027 09:31:13.321             5.925          2274.156
       119   04 Jun 2027 09:31:14.727   04 Jun 2027 09:31:14.827             0.100            43.938
       120   04 Jun 2027 09:32:25.444   04 Jun 2027 09:32:30.979             5.535          2206.781
       121   04 Jun 2027 09:33:08.350   04 Jun 2027 09:33:11.188             2.838          1167.844
       122   04 Jun 2027 09:33:12.157   04 Jun 2027 09:33:13.320             1.163            30.281
       123   04 Jun 2027 11:05:32.733   04 Jun 2027 11:05:48.087            15.354          7384.469
       124   04 Jun 2027 11:07:11.942   04 Jun 2027 11:07:18.568             6.626          2091.906
       125   04 Jun 2027 11:07:37.110   04 Jun 2027 11:07:39.759             2.649           495.594
       126   04 Jun 2027 11:08:10.271   04 Jun 2027 11:08:14.937             4.666           927.250
       127   04 Jun 2027 11:09:02.492   04 Jun 2027 11:09:04.824             2.332           453.000
       128   05 Jun 2027 03:16:01.280   05 Jun 2027 03:16:22.525            21.245         10622.500
       129   05 Jun 2027 03:16:41.353   05 Jun 2027 03:16:44.525             3.172          1586.000
       130   05 Jun 2027 03:17:25.786   05 Jun 2027 03:17:38.150            12.364          6182.000
       131   05 Jun 2027 03:17:43.234   05 Jun 2027 03:18:24.200            40.966         20483.000
       132   05 Jun 2027 03:18:30.543   05 Jun 2027 03:18:30.543             0.000             0.000
       133   05 Jun 2027 03:18:37.985   05 Jun 2027 03:18:40.530             2.545          1272.500
       134   05 Jun 2027 04:52:36.784   05 Jun 2027 04:53:28.353            51.569         25784.500
       135   05 Jun 2027 04:53:32.350   05 Jun 2027 04:55:36.631           124.281         62140.500
       136   05 Jun 2027 04:55:37.124   05 Jun 2027 04:55:37.124             0.000             0.000
       137   05 Jun 2027 06:27:46.990   05 Jun 2027 06:28:49.633            62.643         31283.875
       138   05 Jun 2027 06:28:53.647   05 Jun 2027 06:29:03.908            10.261            96.750
       139   05 Jun 2027 06:30:24.110   05 Jun 2027 06:30:32.070             7.960          2407.500
       140   05 Jun 2027 06:30:40.903   05 Jun 2027 06:30:42.029             1.126           276.031
       141   05 Jun 2027 06:32:19.085   05 Jun 2027 06:32:25.272             6.187          2756.687
       142   05 Jun 2027 06:33:31.213   05 Jun 2027 06:33:34.863             3.650          1791.187
       143   05 Jun 2027 06:33:39.152   05 Jun 2027 06:33:40.745             1.593           134.031
       144   05 Jun 2027 06:34:09.024   05 Jun 2027 06:34:11.249             2.225           883.719
       145   05 Jun 2027 08:04:07.768   05 Jun 2027 08:04:30.929            23.161         11114.375
       146   05 Jun 2027 08:04:56.004   05 Jun 2027 08:04:59.472             3.468           777.656
       147   05 Jun 2027 08:05:30.082   05 Jun 2027 08:05:36.937             6.855           231.375
       148   05 Jun 2027 08:06:32.291   05 Jun 2027 08:06:37.810             5.519          1521.500
       149   05 Jun 2027 08:07:00.712   05 Jun 2027 08:07:04.667             3.955           715.687
       150   05 Jun 2027 08:08:30.909   05 Jun 2027 08:08:35.655             4.746          2373.000
       151   05 Jun 2027 08:08:57.101   05 Jun 2027 08:08:58.858             1.757           717.406
       152   05 Jun 2027 08:09:32.231   05 Jun 2027 08:09:38.258             6.027          1042.906
       153   05 Jun 2027 08:10:03.746   05 Jun 2027 08:10:05.122             1.376           525.125
       154   05 Jun 2027 09:41:24.457   05 Jun 2027 09:41:46.092            21.635          8953.281
       155   05 Jun 2027 09:42:09.390   05 Jun 2027 09:42:10.542             1.152           563.656
       156   05 Jun 2027 09:43:18.045   05 Jun 2027 09:43:21.913             3.868          1571.625
       157   05 Jun 2027 09:43:54.041   05 Jun 2027 09:43:59.341             5.300           977.594
       158   05 Jun 2027 09:44:16.757   05 Jun 2027 09:44:23.599             6.842           544.250
       159   05 Jun 2027 09:45:07.043   05 Jun 2027 09:45:10.002             2.959          1357.625
       160   05 Jun 2027 09:45:40.424   05 Jun 2027 09:45:42.583             2.159           950.687
       161   05 Jun 2027 09:46:03.587   05 Jun 2027 09:46:04.882             1.295           489.281
       162   05 Jun 2027 11:17:36.990   05 Jun 2027 11:17:51.341            14.351          6688.719
       163   05 Jun 2027 11:18:34.678   05 Jun 2027 11:18:37.613             2.935          1274.625
       164   05 Jun 2027 11:19:12.761   05 Jun 2027 11:19:19.103             6.342           939.531
       165   05 Jun 2027 11:19:43.499   05 Jun 2027 11:19:46.500             3.001           762.375
       166   05 Jun 2027 11:20:51.012   05 Jun 2027 11:20:55.619             4.607          1774.187
       167   05 Jun 2027 11:21:11.417   05 Jun 2027 11:21:11.417             0.000             0.000
       168   05 Jun 2027 11:21:51.913   05 Jun 2027 11:21:55.145             3.232          1484.125
       169   05 Jun 2027 11:22:21.888   05 Jun 2027 11:22:23.662             1.774           787.438
       170   06 Jun 2027 03:28:34.609   06 Jun 2027 03:29:12.818            38.209         19104.500
       171   06 Jun 2027 03:29:28.522   06 Jun 2027 03:29:35.782             7.260          3630.000
       172   06 Jun 2027 03:31:02.937   06 Jun 2027 03:31:17.559            14.622          7311.000
       173   06 Jun 2027 05:04:24.016   06 Jun 2027 05:08:09.688           225.672        112836.000
       174   06 Jun 2027 06:39:17.082   06 Jun 2027 06:39:42.871            25.789         12282.250
       175   06 Jun 2027 06:40:31.637   06 Jun 2027 06:40:34.992             3.355          1068.469
       176   06 Jun 2027 06:41:07.344   06 Jun 2027 06:41:09.260             1.916           602.125
       177   06 Jun 2027 06:41:21.560   06 Jun 2027 06:41:22.693             1.133           384.375
       178   06 Jun 2027 06:42:02.151   06 Jun 2027 06:42:04.633             2.482           455.219
       179   06 Jun 2027 06:42:19.825   06 Jun 2027 06:42:21.197             1.372           474.750
       180   06 Jun 2027 06:43:59.004   06 Jun 2027 06:44:04.956             5.952          2968.281
       181   06 Jun 2027 06:44:36.889   06 Jun 2027 06:44:38.057             1.168           563.437
       182   06 Jun 2027 06:45:29.019   06 Jun 2027 06:45:35.004             5.985          1347.563
       183   06 Jun 2027 06:45:40.463   06 Jun 2027 06:45:45.299             4.836            81.781
       184   06 Jun 2027 08:15:46.558   06 Jun 2027 08:16:10.241            23.683         11695.375
       185   06 Jun 2027 08:16:11.883   06 Jun 2027 08:16:13.675             1.792             0.469
       186   06 Jun 2027 08:17:40.507   06 Jun 2027 08:17:46.270             5.763          1612.156
       187   06 Jun 2027 08:18:27.018   06 Jun 2027 08:18:30.100             3.082           917.594
       188   06 Jun 2027 08:18:54.423   06 Jun 2027 08:18:56.724             2.301           685.500
       189   06 Jun 2027 08:19:13.556   06 Jun 2027 08:19:17.813             4.257           404.281
       190   06 Jun 2027 08:20:24.647   06 Jun 2027 08:20:28.472             3.825          1904.594
       191   06 Jun 2027 08:20:39.065   06 Jun 2027 08:20:40.702             1.637           189.531
       192   06 Jun 2027 08:20:57.777   06 Jun 2027 08:21:00.976             3.199           294.469
       193   06 Jun 2027 08:21:13.637   06 Jun 2027 08:21:14.233             0.596           298.000
       194   06 Jun 2027 08:21:36.712   06 Jun 2027 08:21:39.633             2.921           800.125
       195   06 Jun 2027 09:54:04.236   06 Jun 2027 09:54:25.515            21.279         10242.344
       196   06 Jun 2027 09:55:27.268   06 Jun 2027 09:55:33.234             5.966          1845.781
       197   06 Jun 2027 09:55:43.175   06 Jun 2027 09:55:43.629             0.454           125.875
       198   06 Jun 2027 09:57:11.239   06 Jun 2027 09:57:15.047             3.808          1904.000
       199   06 Jun 2027 09:57:31.879   06 Jun 2027 09:57:35.022             3.143          1023.406
       200   06 Jun 2027 11:29:30.843   06 Jun 2027 11:29:51.171            20.328          8231.094
       201   06 Jun 2027 11:30:23.705   06 Jun 2027 11:30:23.998             0.293           146.500
       202   06 Jun 2027 11:31:24.755   06 Jun 2027 11:31:29.778             5.023          2302.875
       203   06 Jun 2027 11:32:06.629   06 Jun 2027 11:32:09.524             2.895          1151.594
       204   06 Jun 2027 11:33:22.261   06 Jun 2027 11:33:31.189             8.928          2196.437
       205   06 Jun 2027 11:33:53.296   06 Jun 2027 11:33:55.212             1.916           328.219
       206   06 Jun 2027 11:34:26.409   06 Jun 2027 11:34:27.910             1.501           659.219
       207   07 Jun 2027 03:39:09.048   07 Jun 2027 03:39:36.192            27.144         13572.000
       208   07 Jun 2027 03:40:43.942   07 Jun 2027 03:41:03.586            19.644          9822.000
       209   07 Jun 2027 03:41:30.276   07 Jun 2027 03:41:42.498            12.222          6111.000
       210   07 Jun 2027 03:43:03.779   07 Jun 2027 03:43:40.347            36.568         18284.000
       211   07 Jun 2027 05:14:40.495   07 Jun 2027 05:15:31.263            50.768         25384.000
       212   07 Jun 2027 05:16:09.399   07 Jun 2027 05:17:55.741           106.342         53171.000
       213   07 Jun 2027 05:18:31.753   07 Jun 2027 05:18:37.999             6.246          3123.000
       214   07 Jun 2027 05:18:45.464   07 Jun 2027 05:18:59.171            13.707          6853.500
       215   07 Jun 2027 05:19:18.342   07 Jun 2027 05:19:33.972            15.630          7815.000
       216   07 Jun 2027 06:51:00.068   07 Jun 2027 06:51:49.152            49.084         23926.781
       217   07 Jun 2027 06:52:05.637   07 Jun 2027 06:52:07.730             2.093           197.500
       218   07 Jun 2027 06:52:50.742   07 Jun 2027 06:52:55.512             4.770           579.000
       219   07 Jun 2027 06:53:53.495   07 Jun 2027 06:53:54.792             1.297           488.469
       220   07 Jun 2027 06:54:01.989   07 Jun 2027 06:54:02.373             0.384            71.187
       221   07 Jun 2027 06:54:15.823   07 Jun 2027 06:54:16.587             0.764           382.000
       222   07 Jun 2027 06:55:13.555   07 Jun 2027 06:55:17.579             4.024          1810.375
       223   07 Jun 2027 06:55:41.839   07 Jun 2027 06:55:43.671             1.832           563.781
       224   07 Jun 2027 06:56:26.828   07 Jun 2027 06:56:31.037             4.209          1342.719
       225   07 Jun 2027 06:56:54.985   07 Jun 2027 06:56:57.402             2.417           534.719
       226   07 Jun 2027 06:57:16.892   07 Jun 2027 06:57:18.215             1.323           590.719
       227   07 Jun 2027 06:58:32.421   07 Jun 2027 06:58:32.550             0.129            64.500
       228   07 Jun 2027 08:28:06.605   07 Jun 2027 08:28:45.778            39.173         15515.656
       229   07 Jun 2027 08:29:26.960   07 Jun 2027 08:29:28.764             1.804           610.062
       230   07 Jun 2027 08:30:27.440   07 Jun 2027 08:30:28.796             1.356           678.000
       231   07 Jun 2027 08:30:35.079   07 Jun 2027 08:30:40.750             5.671           789.281
       232   07 Jun 2027 08:31:44.721   07 Jun 2027 08:31:52.558             7.837          1999.094
       233   07 Jun 2027 08:32:29.445   07 Jun 2027 08:32:32.220             2.775          1121.125
       234   07 Jun 2027 08:33:06.195   07 Jun 2027 08:33:07.424             1.229           597.187
       235   07 Jun 2027 08:33:25.090   07 Jun 2027 08:33:26.845             1.755           552.063
       236   07 Jun 2027 08:33:58.502   07 Jun 2027 08:34:01.954             3.452           989.281
       237   07 Jun 2027 08:34:24.042   07 Jun 2027 08:34:25.451             1.409           690.250
       238   07 Jun 2027 10:06:01.939   07 Jun 2027 10:06:18.230            16.291          7862.406
       239   07 Jun 2027 10:07:35.250   07 Jun 2027 10:07:42.215             6.965          2232.219
       240   07 Jun 2027 10:08:15.546   07 Jun 2027 10:08:21.139             5.593          1041.594
       241   07 Jun 2027 10:09:40.761   07 Jun 2027 10:09:43.887             3.126          1563.000
       242   07 Jun 2027 11:39:07.085   07 Jun 2027 11:39:20.772            13.687          6000.406
       243   07 Jun 2027 11:39:43.183   07 Jun 2027 11:39:46.967             3.784           647.719
       244   07 Jun 2027 11:40:33.241   07 Jun 2027 11:40:35.667             2.426          1005.188
       245   07 Jun 2027 11:41:03.297   07 Jun 2027 11:41:05.856             2.559           259.875
       246   07 Jun 2027 11:41:21.760   07 Jun 2027 11:41:23.215             1.455           480.594
       247   07 Jun 2027 11:41:32.511   07 Jun 2027 11:41:32.511             0.000             0.000
       248   07 Jun 2027 11:41:46.817   07 Jun 2027 11:41:49.013             2.196           737.562
       249   07 Jun 2027 11:42:25.375   07 Jun 2027 11:42:29.844             4.469           794.687
       250   07 Jun 2027 11:42:58.470   07 Jun 2027 11:43:03.655             5.185           573.094
       251   07 Jun 2027 11:44:13.061   07 Jun 2027 11:44:18.582             5.521          2168.938
       252   07 Jun 2027 11:46:09.490   07 Jun 2027 11:46:21.696            12.206          2176.688
       253   07 Jun 2027 11:46:50.903   07 Jun 2027 11:46:54.822             3.919           901.750
       254   07 Jun 2027 11:47:03.326   07 Jun 2027 11:47:08.956             5.630           231.875
       255   08 Jun 2027 03:50:51.672   08 Jun 2027 03:51:57.607            65.935         32967.500
       256   08 Jun 2027 03:53:01.551   08 Jun 2027 03:53:31.292            29.741         14870.500
       257   08 Jun 2027 03:55:08.906   08 Jun 2027 03:55:08.906             0.000             0.000
       258   08 Jun 2027 03:55:25.341   08 Jun 2027 03:55:25.341             0.000             0.000
       259   08 Jun 2027 05:25:49.016   08 Jun 2027 05:27:44.796           115.780         57890.000
       260   08 Jun 2027 05:27:53.501   08 Jun 2027 05:27:54.121             0.620           310.000
       261   08 Jun 2027 05:27:55.400   08 Jun 2027 05:28:11.282            15.882          7941.000
       262   08 Jun 2027 05:29:08.686   08 Jun 2027 05:29:38.633            29.947         14973.500
       263   08 Jun 2027 05:31:18.303   08 Jun 2027 05:32:09.201            50.898         25449.000
       264   08 Jun 2027 05:33:04.909   08 Jun 2027 05:33:04.909             0.000             0.000
       265   08 Jun 2027 07:03:18.054   08 Jun 2027 07:03:53.035            34.981         17258.438
       266   08 Jun 2027 07:04:37.471   08 Jun 2027 07:04:44.457             6.986           948.219
       267   08 Jun 2027 07:06:02.146   08 Jun 2027 07:06:05.664             3.518          1047.562
       268   08 Jun 2027 07:06:38.152   08 Jun 2027 07:06:41.365             3.213           986.313
       269   08 Jun 2027 07:07:09.503   08 Jun 2027 07:07:09.503             0.000             0.000
       270   08 Jun 2027 07:08:16.433   08 Jun 2027 07:08:26.224             9.791          2898.781
       271   08 Jun 2027 07:08:42.127   08 Jun 2027 07:08:42.127             0.000             0.000
       272   08 Jun 2027 07:09:28.042   08 Jun 2027 07:09:32.913             4.871          1890.375
       273   08 Jun 2027 07:10:16.383   08 Jun 2027 07:10:16.383             0.000             0.000
       274   08 Jun 2027 08:40:02.648   08 Jun 2027 08:40:28.602            25.954         12531.063
       275   08 Jun 2027 08:41:00.711   08 Jun 2027 08:41:06.435             5.724            25.625
       276   08 Jun 2027 08:42:26.912   08 Jun 2027 08:42:34.840             7.928           958.531
       277   08 Jun 2027 08:42:45.015   08 Jun 2027 08:42:49.300             4.285           317.969
       278   08 Jun 2027 08:43:27.641   08 Jun 2027 08:43:30.878             3.237           473.969
       279   08 Jun 2027 08:43:55.753   08 Jun 2027 08:43:57.909             2.156           475.812
       280   08 Jun 2027 08:44:05.707   08 Jun 2027 08:44:06.330             0.623           225.781
       281   08 Jun 2027 08:44:50.820   08 Jun 2027 08:44:54.913             4.093          1390.313
       282   08 Jun 2027 08:45:17.595   08 Jun 2027 08:45:18.217             0.622           311.000
       283   08 Jun 2027 08:45:55.650   08 Jun 2027 08:45:59.436             3.786          1476.469
       284   08 Jun 2027 08:46:20.047   08 Jun 2027 08:46:21.002             0.955           477.500
       285   08 Jun 2027 10:18:01.193   08 Jun 2027 10:18:20.530            19.337          8255.562
       286   08 Jun 2027 10:18:55.766   08 Jun 2027 10:18:59.436             3.670          1051.219
       287   08 Jun 2027 10:19:34.639   08 Jun 2027 10:19:40.619             5.980           642.437
       288   08 Jun 2027 10:19:52.771   08 Jun 2027 10:19:55.846             3.075           379.750
       289   08 Jun 2027 10:20:41.576   08 Jun 2027 10:20:45.477             3.901          1356.531
       290   08 Jun 2027 10:21:04.307   08 Jun 2027 10:21:06.428             2.121            92.938
       291   08 Jun 2027 10:21:23.683   08 Jun 2027 10:21:25.121             1.438           273.469
       292   08 Jun 2027 10:21:52.901   08 Jun 2027 10:21:56.031             3.130           845.406
       293   08 Jun 2027 11:51:38.948   08 Jun 2027 11:51:43.807             4.859          1785.781
       294   08 Jun 2027 11:52:13.313   08 Jun 2027 11:52:14.574             1.261           313.063
       295   08 Jun 2027 11:53:00.682   08 Jun 2027 11:53:10.524             9.842          1170.781
       296   08 Jun 2027 11:53:19.418   08 Jun 2027 11:53:21.498             2.080           183.031
       297   08 Jun 2027 11:53:31.764   08 Jun 2027 11:53:36.945             5.181           301.187
       298   08 Jun 2027 11:53:54.974   08 Jun 2027 11:53:54.974             0.000             0.000
       299   08 Jun 2027 11:54:27.035   08 Jun 2027 11:54:30.710             3.675          1230.062
       300   08 Jun 2027 11:56:13.497   08 Jun 2027 11:56:20.671             7.174          3211.094
       301   08 Jun 2027 11:57:19.798   08 Jun 2027 11:57:24.301             4.503          1518.156
       302   08 Jun 2027 11:57:48.583   08 Jun 2027 11:57:50.601             2.018           525.312
       303   09 Jun 2027 04:02:23.784   09 Jun 2027 04:03:43.398            79.614         39807.000
       304   09 Jun 2027 04:05:32.956   09 Jun 2027 04:05:39.418             6.462          3231.000
       305   09 Jun 2027 04:07:01.242   09 Jun 2027 04:07:01.242             0.000             0.000
       306   09 Jun 2027 04:07:06.120   09 Jun 2027 04:07:09.514             3.394          1697.000
       307   09 Jun 2027 04:07:37.624   09 Jun 2027 04:07:41.125             3.501          1750.500
       308   09 Jun 2027 05:37:17.384   09 Jun 2027 05:40:22.956           185.572         92786.000
       309   09 Jun 2027 05:42:33.502   09 Jun 2027 05:42:33.502             0.000             0.000
       310   09 Jun 2027 05:43:36.294   09 Jun 2027 05:43:54.598            18.304          9152.000
       311   09 Jun 2027 05:46:10.975   09 Jun 2027 05:46:26.035            15.060          7530.000
       312   09 Jun 2027 07:15:11.410   09 Jun 2027 07:15:42.615            31.205         15602.500
       313   09 Jun 2027 07:16:02.222   09 Jun 2027 07:16:24.942            22.720          9341.968
       314   09 Jun 2027 07:16:56.816   09 Jun 2027 07:16:59.785             2.969           781.469
       315   09 Jun 2027 07:17:56.505   09 Jun 2027 07:18:01.891             5.386          1148.312
       316   09 Jun 2027 07:18:39.604   09 Jun 2027 07:18:44.517             4.913           654.062
       317   09 Jun 2027 07:19:17.902   09 Jun 2027 07:19:20.402             2.500           964.563
       318   09 Jun 2027 07:19:45.569   09 Jun 2027 07:19:52.891             7.322           579.187
       319   09 Jun 2027 07:20:30.721   09 Jun 2027 07:20:33.380             2.659          1182.187
       320   09 Jun 2027 07:21:29.533   09 Jun 2027 07:21:33.075             3.542          1598.000
       321   09 Jun 2027 07:22:17.726   09 Jun 2027 07:22:17.726             0.000             0.000
       322   09 Jun 2027 08:51:55.459   09 Jun 2027 08:52:07.561            12.102          6051.000
       323   09 Jun 2027 08:52:30.087   09 Jun 2027 08:52:45.759            15.672          7412.031
       324   09 Jun 2027 08:52:58.618   09 Jun 2027 08:52:59.840             1.222           125.219
       325   09 Jun 2027 08:54:42.731   09 Jun 2027 08:54:52.814            10.083          1647.000
       326   09 Jun 2027 08:55:36.166   09 Jun 2027 08:55:36.934             0.768            34.406
       327   09 Jun 2027 08:55:53.692   09 Jun 2027 08:55:55.404             1.712           523.687
       328   09 Jun 2027 08:56:50.773   09 Jun 2027 08:56:54.594             3.821          1702.156
       329   09 Jun 2027 08:57:29.165   09 Jun 2027 08:57:31.867             2.702           893.781
       330   09 Jun 2027 10:29:48.904   09 Jun 2027 10:30:06.418            17.514          8585.937
       331   09 Jun 2027 10:30:43.478   09 Jun 2027 10:30:46.308             2.830          1009.375
       332   09 Jun 2027 10:31:28.123   09 Jun 2027 10:31:30.712             2.589          1183.281
       333   09 Jun 2027 10:31:57.802   09 Jun 2027 10:31:59.228             1.426           706.469
       334   09 Jun 2027 10:32:06.038   09 Jun 2027 10:32:11.630             5.592           126.062
       335   09 Jun 2027 10:32:45.428   09 Jun 2027 10:32:52.045             6.617          1005.844
       336   09 Jun 2027 10:32:56.589   09 Jun 2027 10:32:57.068             0.479           142.000
       337   09 Jun 2027 10:33:13.570   09 Jun 2027 10:33:16.822             3.252           412.594
       338   09 Jun 2027 10:33:21.465   09 Jun 2027 10:33:23.672             2.207           145.094
       339   09 Jun 2027 10:33:54.697   09 Jun 2027 10:34:03.427             8.730           969.531
       340   09 Jun 2027 10:34:07.871   09 Jun 2027 10:34:09.450             1.579            11.906
       341   10 Jun 2027 04:16:22.221   10 Jun 2027 04:18:02.832           100.611         50305.500
       342   10 Jun 2027 04:18:19.890   10 Jun 2027 04:18:48.351            28.461         14230.500
       343   10 Jun 2027 05:50:10.277   10 Jun 2027 05:52:27.382           137.105         68552.500
       344   10 Jun 2027 05:52:56.891   10 Jun 2027 05:53:02.304             5.413          2706.500
       345   10 Jun 2027 05:54:00.902   10 Jun 2027 05:54:31.880            30.978         15489.000
       346   10 Jun 2027 05:57:10.634   10 Jun 2027 05:57:17.106             6.472          3236.000
       347   10 Jun 2027 05:58:24.580   10 Jun 2027 05:58:40.701            16.121          8060.500
       348   10 Jun 2027 07:27:19.412   10 Jun 2027 07:27:54.896            35.484         17589.874
       349   10 Jun 2027 07:28:04.675   10 Jun 2027 07:28:06.671             1.996           301.531
       350   10 Jun 2027 07:28:33.792   10 Jun 2027 07:28:35.151             1.359           429.781
       351   10 Jun 2027 07:29:01.623   10 Jun 2027 07:29:01.623             0.000             0.000
       352   10 Jun 2027 07:29:33.337   10 Jun 2027 07:29:35.563             2.226          1052.469
       353   10 Jun 2027 07:31:09.255   10 Jun 2027 07:31:14.793             5.538          2286.937
       354   10 Jun 2027 07:31:27.209   10 Jun 2027 07:31:27.555             0.346            91.844
       355   10 Jun 2027 07:31:54.194   10 Jun 2027 07:31:57.052             2.858           651.500
       356   10 Jun 2027 07:32:11.398   10 Jun 2027 07:32:12.461             1.063           197.062
       357   10 Jun 2027 07:32:17.379   10 Jun 2027 07:32:18.213             0.834           153.687
       358   10 Jun 2027 07:33:15.976   10 Jun 2027 07:33:22.177             6.201           737.844
       359   10 Jun 2027 07:33:43.265   10 Jun 2027 07:33:47.072             3.807           649.344
       360   10 Jun 2027 07:34:17.170   10 Jun 2027 07:34:18.834             1.664           108.719
       361   10 Jun 2027 07:34:32.109   10 Jun 2027 07:34:36.602             4.493           414.844
       362   10 Jun 2027 09:04:33.975   10 Jun 2027 09:04:56.172            22.197         10707.250
       363   10 Jun 2027 09:05:50.917   10 Jun 2027 09:05:57.246             6.329          1698.563
       364   10 Jun 2027 09:06:34.742   10 Jun 2027 09:06:38.259             3.517           782.000
       365   10 Jun 2027 09:07:14.823   10 Jun 2027 09:07:21.326             6.503          1016.812
       366   10 Jun 2027 09:07:49.848   10 Jun 2027 09:07:51.995             2.147           869.531
       367   10 Jun 2027 09:09:04.195   10 Jun 2027 09:09:05.042             0.847           423.500
       368   10 Jun 2027 09:09:14.953   10 Jun 2027 09:09:17.868             2.915          1457.500
       369   10 Jun 2027 09:09:42.617   10 Jun 2027 09:09:42.617             0.000             0.000
       370   10 Jun 2027 09:09:57.911   10 Jun 2027 09:10:02.290             4.379          1496.063
       371   10 Jun 2027 10:41:15.241   10 Jun 2027 10:41:31.667            16.426          7862.063
       372   10 Jun 2027 10:41:42.434   10 Jun 2027 10:41:43.940             1.506           184.594
       373   10 Jun 2027 10:41:51.446   10 Jun 2027 10:41:52.934             1.488           234.563
       374   10 Jun 2027 10:42:27.392   10 Jun 2027 10:42:31.930             4.538          1076.812
       375   10 Jun 2027 10:43:13.717   10 Jun 2027 10:43:19.363             5.646          1297.000
       376   10 Jun 2027 10:44:16.924   10 Jun 2027 10:44:20.351             3.427          1549.438
       377   10 Jun 2027 10:45:15.024   10 Jun 2027 10:45:18.510             3.486          1708.531
       378   10 Jun 2027 10:45:18.801   10 Jun 2027 10:45:19.983             1.182             9.094
       379   11 Jun 2027 04:28:35.290   11 Jun 2027 04:31:19.023           163.733         81866.500
       380   11 Jun 2027 04:31:40.954   11 Jun 2027 04:32:05.995            25.041         12520.500
       381   11 Jun 2027 06:02:35.826   11 Jun 2027 06:04:28.927           113.101         56550.500
       382   11 Jun 2027 06:05:56.970   11 Jun 2027 06:06:01.846             4.876          2438.000
       383   11 Jun 2027 06:06:31.598   11 Jun 2027 06:06:35.699             4.101          2050.500
       384   11 Jun 2027 06:07:03.779   11 Jun 2027 06:07:04.493             0.714           357.000
       385   11 Jun 2027 06:07:55.454   11 Jun 2027 06:08:01.167             5.713          2707.468
       386   11 Jun 2027 06:08:33.488   11 Jun 2027 06:08:37.702             4.214          1003.344
       387   11 Jun 2027 06:09:15.509   11 Jun 2027 06:09:17.884             2.375          1156.187
       388   11 Jun 2027 06:09:27.263   11 Jun 2027 06:09:27.263             0.000             0.000
       389   11 Jun 2027 06:10:10.026   11 Jun 2027 06:10:16.917             6.891          1602.781
       390   11 Jun 2027 06:10:31.116   11 Jun 2027 06:10:35.356             4.240           443.719
       391   11 Jun 2027 07:39:44.545   11 Jun 2027 07:40:08.961            24.416         11756.281
       392   11 Jun 2027 07:42:44.739   11 Jun 2027 07:42:48.037             3.298          1503.812
       393   11 Jun 2027 07:43:40.054   11 Jun 2027 07:43:43.261             3.207          1437.062
       394   11 Jun 2027 07:44:57.566   11 Jun 2027 07:45:02.474             4.908          2096.500
       395   11 Jun 2027 07:45:26.323   11 Jun 2027 07:45:28.030             1.707           221.344
       396   11 Jun 2027 07:46:06.627   11 Jun 2027 07:46:11.550             4.923          1206.156
       397   11 Jun 2027 09:16:43.067   11 Jun 2027 09:17:08.271            25.204         11615.250
       398   11 Jun 2027 09:17:09.993   11 Jun 2027 09:17:10.292             0.299            53.813
       399   11 Jun 2027 09:18:17.826   11 Jun 2027 09:18:21.598             3.772          1216.625
       400   11 Jun 2027 09:18:42.359   11 Jun 2027 09:18:45.421             3.062           484.781
       401   11 Jun 2027 09:19:07.966   11 Jun 2027 09:19:12.050             4.084           704.531
       402   11 Jun 2027 09:19:35.548   11 Jun 2027 09:19:39.210             3.662           734.312
       403   11 Jun 2027 09:20:21.061   11 Jun 2027 09:20:24.224             3.163           888.313
       404   11 Jun 2027 09:20:53.430   11 Jun 2027 09:20:56.737             3.307           912.687
       405   11 Jun 2027 09:21:04.257   11 Jun 2027 09:21:07.152             2.895           235.000
       406   11 Jun 2027 09:21:32.377   11 Jun 2027 09:21:41.225             8.848           788.281
       407   11 Jun 2027 10:53:30.055   11 Jun 2027 10:53:42.782            12.727          6363.500
       408   11 Jun 2027 10:53:56.045   11 Jun 2027 10:53:58.704             2.659           789.500
       409   11 Jun 2027 10:54:34.548   11 Jun 2027 10:54:36.922             2.374          1090.969
       410   11 Jun 2027 10:55:04.276   11 Jun 2027 10:55:07.250             2.974           582.625
       411   11 Jun 2027 10:55:53.675   11 Jun 2027 10:55:57.536             3.861          1188.156
       412   11 Jun 2027 10:56:11.358   11 Jun 2027 10:56:20.124             8.766           431.937
       413   11 Jun 2027 10:57:21.463   11 Jun 2027 10:57:25.758             4.295          1916.844
       414   11 Jun 2027 10:57:33.374   11 Jun 2027 10:57:38.681             5.307           238.000
       415   11 Jun 2027 10:57:48.702   11 Jun 2027 10:57:51.508             2.806           187.625
       416   12 Jun 2027 03:04:14.492   12 Jun 2027 03:04:36.183            21.691         10845.500
       417   12 Jun 2027 03:04:47.413   12 Jun 2027 03:04:51.679             4.266          2133.000
       418   12 Jun 2027 03:04:56.563   12 Jun 2027 03:04:56.563             0.000             0.000
       419   12 Jun 2027 03:05:36.288   12 Jun 2027 03:05:50.137            13.849          6924.500
       420   12 Jun 2027 04:40:41.263   12 Jun 2027 04:44:10.907           209.644        104822.000
       421   12 Jun 2027 06:15:50.107   12 Jun 2027 06:16:52.015            61.908         29946.499
       422   12 Jun 2027 06:16:58.528   12 Jun 2027 06:17:00.407             1.879            33.500
       423   12 Jun 2027 06:17:13.292   12 Jun 2027 06:17:16.118             2.826           381.063
       424   12 Jun 2027 06:17:48.746   12 Jun 2027 06:17:52.078             3.332          1019.625
       425   12 Jun 2027 06:18:57.336   12 Jun 2027 06:19:01.277             3.941          1926.125
       426   12 Jun 2027 06:20:41.453   12 Jun 2027 06:20:47.389             5.936          2759.688
       427   12 Jun 2027 06:21:40.312   12 Jun 2027 06:21:44.683             4.371          1637.500
       428   12 Jun 2027 06:21:57.556   12 Jun 2027 06:21:59.594             2.038           284.438
       429   12 Jun 2027 06:22:30.946   12 Jun 2027 06:22:32.109             1.163           448.125
       430   12 Jun 2027 07:52:10.466   12 Jun 2027 07:52:31.417            20.951         10198.688
       431   12 Jun 2027 07:52:59.824   12 Jun 2027 07:53:03.861             4.037            51.313
       432   12 Jun 2027 07:54:22.904   12 Jun 2027 07:54:31.499             8.595           826.656
       433   12 Jun 2027 07:55:28.192   12 Jun 2027 07:55:28.980             0.788            85.969
       434   12 Jun 2027 07:55:40.050   12 Jun 2027 07:55:40.680             0.630           118.156
       435   12 Jun 2027 07:56:09.691   12 Jun 2027 07:56:09.691             0.000             0.000
       436   12 Jun 2027 07:56:52.641   12 Jun 2027 07:56:59.799             7.158          2247.313
       437   12 Jun 2027 07:57:16.990   12 Jun 2027 07:57:18.345             1.355           124.063
       438   12 Jun 2027 07:57:41.748   12 Jun 2027 07:57:43.592             1.844           731.344
       439   12 Jun 2027 07:58:16.773   12 Jun 2027 07:58:17.052             0.279            69.281
       440   12 Jun 2027 07:58:32.075   12 Jun 2027 07:58:32.635             0.560           280.000
       441   12 Jun 2027 09:29:44.483   12 Jun 2027 09:30:04.307            19.824          8996.469
       442   12 Jun 2027 09:30:46.392   12 Jun 2027 09:30:52.171             5.779           724.594
       443   12 Jun 2027 09:31:26.935   12 Jun 2027 09:31:29.475             2.540           826.906
       444   12 Jun 2027 09:31:32.178   12 Jun 2027 09:31:33.676             1.498            84.469
       445   12 Jun 2027 09:31:57.611   12 Jun 2027 09:32:01.258             3.647           297.781
       446   12 Jun 2027 09:32:46.369   12 Jun 2027 09:32:49.771             3.402          1409.719
       447   12 Jun 2027 09:33:19.525   12 Jun 2027 09:33:21.859             2.334           929.812
       448   12 Jun 2027 09:33:24.446   12 Jun 2027 09:33:27.820             3.374            80.844
       449   12 Jun 2027 09:33:30.123   12 Jun 2027 09:33:32.419             2.296            71.969
       450   12 Jun 2027 09:33:45.170   12 Jun 2027 09:33:47.169             1.999           398.469
       451   12 Jun 2027 11:05:47.788   12 Jun 2027 11:06:03.476            15.688          6933.813
       452   12 Jun 2027 11:06:39.937   12 Jun 2027 11:06:43.025             3.088           637.063
       453   12 Jun 2027 11:07:42.646   12 Jun 2027 11:07:46.600             3.954          1471.344
       454   12 Jun 2027 11:07:58.433   12 Jun 2027 11:07:59.507             1.074           351.469
       455   12 Jun 2027 11:08:05.073   12 Jun 2027 11:08:13.176             8.103           173.938
       456   12 Jun 2027 11:09:01.521   12 Jun 2027 11:09:03.022             1.501           750.500
       457   12 Jun 2027 11:09:05.264   12 Jun 2027 11:09:16.356            11.092           689.094
       458   13 Jun 2027 03:16:15.798   13 Jun 2027 03:16:38.355            22.557         11278.500
       459   13 Jun 2027 03:16:56.190   13 Jun 2027 03:16:59.592             3.402          1701.000
       460   13 Jun 2027 03:17:40.353   13 Jun 2027 03:18:40.330            59.977         29988.500
       461   13 Jun 2027 04:52:51.606   13 Jun 2027 04:53:42.520            50.914         25457.000
       462   13 Jun 2027 04:53:52.438   13 Jun 2027 04:56:01.094           128.656         64328.000
       463   13 Jun 2027 06:28:01.884   13 Jun 2027 06:28:29.408            27.524         13762.000
       464   13 Jun 2027 06:30:36.040   13 Jun 2027 06:31:02.203            26.163         12511.250
       465   13 Jun 2027 06:32:34.513   13 Jun 2027 06:32:40.151             5.638          2758.750
       466   13 Jun 2027 06:33:47.221   13 Jun 2027 06:33:53.109             5.888          1757.156
       467   13 Jun 2027 06:34:28.845   13 Jun 2027 06:34:28.845             0.000             0.000
       468   13 Jun 2027 08:04:22.031   13 Jun 2027 08:04:44.632            22.601         10887.594
       469   13 Jun 2027 08:05:11.676   13 Jun 2027 08:05:13.198             1.522           310.156
       470   13 Jun 2027 08:06:05.904   13 Jun 2027 08:06:07.369             1.465           651.688
       471   13 Jun 2027 08:06:46.602   13 Jun 2027 08:06:49.376             2.774           182.844
       472   13 Jun 2027 08:07:02.646   13 Jun 2027 08:07:03.567             0.921           210.844
       473   13 Jun 2027 08:07:49.807   13 Jun 2027 08:07:53.610             3.803          1090.250
       474   13 Jun 2027 08:09:04.650   13 Jun 2027 08:09:09.006             4.356          1587.594
       475   13 Jun 2027 08:09:13.569   13 Jun 2027 08:09:14.606             1.037           142.594
       476   13 Jun 2027 08:10:20.430   13 Jun 2027 08:10:23.731             3.301          1352.312
       477   13 Jun 2027 09:41:48.084   13 Jun 2027 09:42:06.212            18.128          8941.281
       478   13 Jun 2027 09:42:26.602   13 Jun 2027 09:42:28.020             1.418           637.188
       479   13 Jun 2027 09:42:53.898   13 Jun 2027 09:42:58.543             4.645           808.688
       480   13 Jun 2027 09:43:45.977   13 Jun 2027 09:43:49.793             3.816           904.344
       481   13 Jun 2027 09:44:15.026   13 Jun 2027 09:44:18.387             3.361           788.531
       482   13 Jun 2027 09:44:33.920   13 Jun 2027 09:44:39.255             5.335           485.406
       483   13 Jun 2027 09:45:07.306   13 Jun 2027 09:45:11.677             4.371           612.063
       484   13 Jun 2027 11:17:51.858   13 Jun 2027 11:18:04.825            12.967          6013.812
       485   13 Jun 2027 11:18:50.810   13 Jun 2027 11:18:54.764             3.954          1405.563
       486   13 Jun 2027 11:19:27.527   13 Jun 2027 11:19:31.189             3.662           902.969
       487   13 Jun 2027 11:19:41.150   13 Jun 2027 11:19:43.538             2.388           177.469
       488   13 Jun 2027 11:20:08.993   13 Jun 2027 11:20:11.068             2.075           795.469
       489   13 Jun 2027 11:20:25.044   13 Jun 2027 11:20:27.257             2.213           254.125
       490   13 Jun 2027 11:20:27.850   13 Jun 2027 11:20:32.772             4.922            18.531
       491   13 Jun 2027 11:21:06.266   13 Jun 2027 11:21:12.862             6.596          1046.688
       492   13 Jun 2027 11:22:07.465   13 Jun 2027 11:22:10.935             3.470          1474.406
