uniorb/output/strategy_2/Camera/Camera_KinoSat_111704.txt

KinoSat_111704
-------------------------
    Access    *     Start Time (UTCG)     *     Stop Time (UTCG)  *   Duration (s) *   Data (Mbytes)
         1   01 Jun 2027 03:19:01.874   01 Jun 2027 03:19:28.450            26.576         13288.000
         2   01 Jun 2027 03:19:33.421   01 Jun 2027 03:20:08.044            34.623         17311.500
         3   01 Jun 2027 03:20:11.772   01 Jun 2027 03:23:03.785           172.013         86006.500
         4   01 Jun 2027 03:24:51.034   01 Jun 2027 03:25:01.310            10.276          5138.000
         5   01 Jun 2027 04:57:48.420   01 Jun 2027 04:59:41.370           112.950         56475.000
         6   01 Jun 2027 05:00:08.999   01 Jun 2027 05:00:53.947            44.948         22474.000
         7   01 Jun 2027 05:01:08.715   01 Jun 2027 05:01:08.715             0.000             0.000
         8   01 Jun 2027 05:01:52.438   01 Jun 2027 05:01:52.438             0.000             0.000
         9   01 Jun 2027 05:03:57.151   01 Jun 2027 05:04:11.619            14.468          7234.000
        10   01 Jun 2027 06:22:09.315   01 Jun 2027 06:22:34.509            25.194         12597.000
        11   01 Jun 2027 06:34:25.760   01 Jun 2027 06:34:53.440            27.680         13840.000
        12   01 Jun 2027 07:56:15.861   01 Jun 2027 07:57:29.203            73.342         36671.000
        13   01 Jun 2027 07:58:19.033   01 Jun 2027 07:59:01.848            42.815         21407.500
        14   01 Jun 2027 07:59:42.887   01 Jun 2027 07:59:54.365            11.478          5739.000
        15   01 Jun 2027 08:01:10.490   01 Jun 2027 08:01:20.342             9.852          4926.000
        16   01 Jun 2027 09:31:03.293   01 Jun 2027 09:32:14.129            70.836         35418.000
        17   01 Jun 2027 09:33:04.569   01 Jun 2027 09:33:08.933             4.364          2182.000
        18   01 Jun 2027 09:38:49.340   01 Jun 2027 09:39:03.351            14.011          7005.500
        19   01 Jun 2027 09:39:25.824   01 Jun 2027 09:40:01.319            35.495         17747.500
        20   01 Jun 2027 11:14:19.931   01 Jun 2027 11:16:21.063           121.132         60566.000
        21   02 Jun 2027 03:31:44.592   02 Jun 2027 03:32:00.808            16.216          8108.000
        22   02 Jun 2027 03:32:08.814   02 Jun 2027 03:33:21.231            72.417         36208.500
        23   02 Jun 2027 03:33:49.043   02 Jun 2027 03:35:52.526           123.483         61741.500
        24   02 Jun 2027 03:36:58.378   02 Jun 2027 03:37:01.853             3.475          1737.500
        25   02 Jun 2027 05:10:12.902   02 Jun 2027 05:12:41.261           148.359         74179.500
        26   02 Jun 2027 05:13:31.001   02 Jun 2027 05:13:45.028            14.027          7013.500
        27   02 Jun 2027 05:13:58.216   02 Jun 2027 05:14:08.102             9.886          4943.000
        28   02 Jun 2027 06:34:07.225   02 Jun 2027 06:34:36.912            29.687         14843.500
        29   02 Jun 2027 06:34:51.662   02 Jun 2027 06:35:10.002            18.340          9170.000
        30   02 Jun 2027 08:10:04.943   02 Jun 2027 08:12:19.823           134.880         67440.000
        31   02 Jun 2027 08:12:53.572   02 Jun 2027 08:12:59.401             5.829          2914.500
        32   02 Jun 2027 08:13:23.630   02 Jun 2027 08:13:23.630             0.000             0.000
        33   02 Jun 2027 09:43:53.424   02 Jun 2027 09:44:14.763            21.339          8688.219
        34   02 Jun 2027 09:44:44.038   02 Jun 2027 09:44:45.957             1.919           454.000
        35   02 Jun 2027 09:45:25.558   02 Jun 2027 09:45:29.081             3.523           840.844
        36   02 Jun 2027 09:45:50.557   02 Jun 2027 09:45:51.977             1.420           346.125
        37   02 Jun 2027 09:46:04.807   02 Jun 2027 09:46:06.168             1.361           400.937
        38   02 Jun 2027 09:48:32.173   02 Jun 2027 09:48:32.173             0.000             0.000
        39   02 Jun 2027 09:51:41.154   02 Jun 2027 09:52:03.883            22.729         10468.312
        40   02 Jun 2027 09:52:16.415   02 Jun 2027 09:52:18.614             2.199           211.469
        41   02 Jun 2027 11:21:02.783   02 Jun 2027 11:21:20.505            17.722          7220.781
        42   02 Jun 2027 11:22:24.453   02 Jun 2027 11:22:28.778             4.325          1511.094
        43   02 Jun 2027 11:23:42.333   02 Jun 2027 11:23:47.220             4.887          2283.938
        44   02 Jun 2027 11:24:07.049   02 Jun 2027 11:24:09.021             1.972           619.656
        45   02 Jun 2027 11:24:36.876   02 Jun 2027 11:24:40.096             3.220           112.344
        46   02 Jun 2027 11:25:01.330   02 Jun 2027 11:25:02.011             0.681           324.844
        47   02 Jun 2027 11:26:01.494   02 Jun 2027 11:26:01.494             0.000             0.000
        48   02 Jun 2027 11:26:11.165   02 Jun 2027 11:26:14.489             3.324          1662.000
        49   02 Jun 2027 11:26:28.332   02 Jun 2027 11:26:30.539             2.207           878.281
        50   02 Jun 2027 11:27:05.145   02 Jun 2027 11:27:10.416             5.271           420.656
        51   02 Jun 2027 11:28:02.391   02 Jun 2027 11:28:09.551             7.160          1366.906
        52   03 Jun 2027 03:44:29.030   03 Jun 2027 03:44:48.282            19.252          9626.000
        53   03 Jun 2027 03:45:02.559   03 Jun 2027 03:45:57.076            54.517         27258.500
        54   03 Jun 2027 03:45:58.570   03 Jun 2027 03:48:16.442           137.872         68936.000
        55   03 Jun 2027 03:48:46.572   03 Jun 2027 03:48:58.717            12.145          6072.500
        56   03 Jun 2027 05:22:36.700   03 Jun 2027 05:24:04.327            87.627         42693.438
        57   03 Jun 2027 05:24:57.529   03 Jun 2027 05:24:59.453             1.924           347.781
        58   03 Jun 2027 05:25:49.663   03 Jun 2027 05:25:56.399             6.736          1569.063
        59   03 Jun 2027 05:25:58.022   03 Jun 2027 05:26:02.965             4.943            41.562
        60   03 Jun 2027 06:45:59.916   03 Jun 2027 06:46:21.712            21.796          8439.250
        61   03 Jun 2027 06:47:35.026   03 Jun 2027 06:47:39.077             4.051          2025.500
        62   03 Jun 2027 06:48:15.297   03 Jun 2027 06:48:19.028             3.731          1271.687
        63   03 Jun 2027 08:22:22.286   03 Jun 2027 08:22:41.576            19.290          9607.937
        64   03 Jun 2027 08:23:18.818   03 Jun 2027 08:23:18.818             0.000             0.000
        65   03 Jun 2027 08:23:45.361   03 Jun 2027 08:23:49.638             4.277          1707.031
        66   03 Jun 2027 08:25:11.377   03 Jun 2027 08:25:11.377             0.000             0.000
        67   03 Jun 2027 09:56:16.033   03 Jun 2027 09:56:24.523             8.490          4245.000
        68   03 Jun 2027 09:57:02.489   03 Jun 2027 09:57:06.212             3.723          1574.906
        69   03 Jun 2027 09:58:55.376   03 Jun 2027 09:59:08.965            13.589          1792.531
        70   03 Jun 2027 10:02:45.695   03 Jun 2027 10:03:01.643            15.948          6464.031
        71   03 Jun 2027 10:03:16.857   03 Jun 2027 10:03:16.857             0.000             0.000
        72   03 Jun 2027 10:03:41.989   03 Jun 2027 10:03:45.449             3.460          1260.812
        73   03 Jun 2027 11:33:29.049   03 Jun 2027 11:33:44.082            15.033          6866.531
        74   03 Jun 2027 11:33:56.439   03 Jun 2027 11:34:02.015             5.576           386.156
        75   03 Jun 2027 11:34:33.628   03 Jun 2027 11:34:36.200             2.572           934.281
        76   03 Jun 2027 11:34:56.709   03 Jun 2027 11:35:02.933             6.224           640.906
        77   03 Jun 2027 11:35:48.567   03 Jun 2027 11:35:52.467             3.900           598.875
        78   03 Jun 2027 11:36:12.808   03 Jun 2027 11:36:13.734             0.926           302.344
        79   03 Jun 2027 11:36:37.752   03 Jun 2027 11:36:40.327             2.575           750.563
        80   03 Jun 2027 11:37:09.054   03 Jun 2027 11:37:12.546             3.492           429.062
        81   03 Jun 2027 11:37:26.630   03 Jun 2027 11:37:29.764             3.134            33.750
        82   03 Jun 2027 11:37:37.830   03 Jun 2027 11:37:39.398             1.568           252.062
        83   03 Jun 2027 11:38:22.957   03 Jun 2027 11:38:28.497             5.540          1109.438
        84   03 Jun 2027 11:39:12.893   03 Jun 2027 11:39:13.391             0.498           249.000
        85   03 Jun 2027 11:39:19.385   03 Jun 2027 11:39:25.514             6.129           939.562
        86   03 Jun 2027 11:40:01.429   03 Jun 2027 11:40:02.708             1.279           639.500
        87   04 Jun 2027 03:56:36.635   04 Jun 2027 03:57:28.820            52.185         26092.500
        88   04 Jun 2027 03:57:34.664   04 Jun 2027 03:58:11.577            36.913         18456.500
        89   04 Jun 2027 03:58:28.532   04 Jun 2027 03:58:56.978            28.446         14223.000
        90   04 Jun 2027 03:59:16.589   04 Jun 2027 04:01:16.801           120.212         60106.000
        91   04 Jun 2027 05:34:57.446   04 Jun 2027 05:35:50.160            52.714         26357.000
        92   04 Jun 2027 05:36:12.229   04 Jun 2027 05:36:52.271            40.042         19783.406
        93   04 Jun 2027 05:38:25.621   04 Jun 2027 05:38:28.492             2.871          1435.500
        94   04 Jun 2027 05:38:44.969   04 Jun 2027 05:38:48.183             3.214          1080.719
        95   04 Jun 2027 06:57:49.578   04 Jun 2027 06:58:01.336            11.758          5879.000
        96   04 Jun 2027 06:59:18.514   04 Jun 2027 06:59:33.436            14.922          3216.656
        97   04 Jun 2027 07:00:01.590   04 Jun 2027 07:00:03.288             1.698           849.000
        98   04 Jun 2027 08:34:25.813   04 Jun 2027 08:34:35.223             9.410          4603.063
        99   04 Jun 2027 08:35:05.001   04 Jun 2027 08:35:06.731             1.730           672.313
       100   04 Jun 2027 08:35:26.402   04 Jun 2027 08:35:33.773             7.371           350.281
       101   04 Jun 2027 08:36:07.801   04 Jun 2027 08:36:08.930             1.129           564.500
       102   04 Jun 2027 08:37:11.115   04 Jun 2027 08:37:20.553             9.438          2442.156
       103   04 Jun 2027 10:09:33.618   04 Jun 2027 10:09:42.441             8.823          4255.719
       104   04 Jun 2027 10:11:33.367   04 Jun 2027 10:11:39.278             5.911          2487.687
       105   04 Jun 2027 10:12:10.214   04 Jun 2027 10:12:17.750             7.536           947.563
       106   04 Jun 2027 10:13:22.736   04 Jun 2027 10:13:22.736             0.000             0.000
       107   04 Jun 2027 10:14:42.110   04 Jun 2027 10:14:49.669             7.559          3719.781
       108   04 Jun 2027 10:15:33.929   04 Jun 2027 10:15:35.730             1.801           878.531
       109   04 Jun 2027 10:15:46.566   04 Jun 2027 10:15:47.315             0.749           338.625
       110   04 Jun 2027 11:45:53.949   04 Jun 2027 11:46:08.646            14.697          6916.937
       111   04 Jun 2027 11:47:31.411   04 Jun 2027 11:47:35.222             3.811          1905.500
       112   04 Jun 2027 11:48:16.904   04 Jun 2027 11:48:22.483             5.579          1363.687
       113   04 Jun 2027 11:50:17.121   04 Jun 2027 11:50:29.529            12.408          3027.187
       114   04 Jun 2027 11:51:23.415   04 Jun 2027 11:51:26.712             3.297          1483.656
       115   04 Jun 2027 11:52:15.753   04 Jun 2027 11:52:16.281             0.528           264.000
       116   05 Jun 2027 04:08:23.148   05 Jun 2027 04:09:23.295            60.147         30073.500
       117   05 Jun 2027 04:09:30.695   05 Jun 2027 04:11:23.658           112.963         56481.500
       118   05 Jun 2027 04:11:58.133   05 Jun 2027 04:12:10.561            12.428          6214.000
       119   05 Jun 2027 04:12:24.568   05 Jun 2027 04:13:12.222            47.654         23827.000
       120   05 Jun 2027 04:14:02.050   05 Jun 2027 04:14:35.230            33.180         16590.000
       121   05 Jun 2027 05:46:40.272   05 Jun 2027 05:47:15.106            34.834         17417.000
       122   05 Jun 2027 05:47:28.927   05 Jun 2027 05:48:16.962            48.035         22891.844
       123   05 Jun 2027 05:49:19.273   05 Jun 2027 05:49:23.411             4.138          1646.031
       124   05 Jun 2027 05:50:01.018   05 Jun 2027 05:50:05.382             4.364          1132.969
       125   05 Jun 2027 07:10:02.578   05 Jun 2027 07:10:20.844            18.266          7999.625
       126   05 Jun 2027 07:11:30.103   05 Jun 2027 07:11:35.685             5.582          1757.188
       127   05 Jun 2027 07:12:40.329   05 Jun 2027 07:12:44.556             4.227          1807.156
       128   05 Jun 2027 08:46:37.093   05 Jun 2027 08:46:47.934            10.841          4393.219
       129   05 Jun 2027 08:47:50.978   05 Jun 2027 08:47:54.528             3.550          1775.000
       130   05 Jun 2027 08:49:10.232   05 Jun 2027 08:49:16.065             5.833          2560.875
       131   05 Jun 2027 08:49:36.393   05 Jun 2027 08:49:39.265             2.872           268.344
       132   05 Jun 2027 10:22:02.987   05 Jun 2027 10:22:15.495            12.508          5878.500
       133   05 Jun 2027 10:23:19.835   05 Jun 2027 10:23:19.835             0.000             0.000
       134   05 Jun 2027 10:24:58.517   05 Jun 2027 10:25:05.547             7.030          3490.687
       135   05 Jun 2027 10:25:25.682   05 Jun 2027 10:25:27.745             2.063             6.688
       136   05 Jun 2027 10:26:09.162   05 Jun 2027 10:26:11.535             2.373          1159.563
       137   05 Jun 2027 10:26:55.955   05 Jun 2027 10:26:57.881             1.926           868.188
       138   05 Jun 2027 10:27:03.099   05 Jun 2027 10:27:07.794             4.695           163.063
       139   05 Jun 2027 10:27:16.727   05 Jun 2027 10:27:18.672             1.945           152.219
       140   05 Jun 2027 10:27:44.128   05 Jun 2027 10:27:46.218             2.090           609.688
       141   05 Jun 2027 11:58:07.836   05 Jun 2027 11:58:31.620            23.784          6349.063
       142   05 Jun 2027 11:59:33.327   05 Jun 2027 11:59:39.779             6.452          1747.250
       143   05 Jun 2027 11:59:58.776   05 Jun 2027 12:00:00.000             1.224           579.969
       144   06 Jun 2027 04:21:29.720   06 Jun 2027 04:25:10.111           220.391        110195.500
       145   06 Jun 2027 04:29:02.684   06 Jun 2027 04:29:25.769            23.085         11542.500
       146   06 Jun 2027 05:58:36.989   06 Jun 2027 05:59:29.131            52.142         26071.000
       147   06 Jun 2027 05:59:34.750   06 Jun 2027 06:00:14.682            39.932         19820.031
       148   06 Jun 2027 06:00:43.127   06 Jun 2027 06:00:46.781             3.654           792.688
       149   06 Jun 2027 06:01:26.751   06 Jun 2027 06:01:31.360             4.609          1124.125
       150   06 Jun 2027 06:01:35.380   06 Jun 2027 06:01:38.640             3.260            53.938
       151   06 Jun 2027 07:22:32.956   06 Jun 2027 07:22:49.906            16.950          7469.094
       152   06 Jun 2027 07:23:29.138   06 Jun 2027 07:23:33.824             4.686           825.000
       153   06 Jun 2027 07:24:36.956   06 Jun 2027 07:24:40.685             3.729          1357.437
       154   06 Jun 2027 07:24:59.726   06 Jun 2027 07:25:01.859             2.133           595.031
       155   06 Jun 2027 08:58:40.168   06 Jun 2027 08:58:50.822            10.654          5327.000
       156   06 Jun 2027 08:59:12.087   06 Jun 2027 08:59:16.101             4.014          1094.812
       157   06 Jun 2027 08:59:39.683   06 Jun 2027 08:59:42.775             3.092            48.594
       158   06 Jun 2027 08:59:56.076   06 Jun 2027 08:59:56.076             0.000             0.000
       159   06 Jun 2027 09:00:32.367   06 Jun 2027 09:00:37.894             5.527          1549.750
       160   06 Jun 2027 09:00:39.251   06 Jun 2027 09:00:40.245             0.994            42.406
       161   06 Jun 2027 09:01:45.981   06 Jun 2027 09:01:46.645             0.664           332.000
       162   06 Jun 2027 10:33:19.792   06 Jun 2027 10:33:36.695            16.903          4417.625
       163   06 Jun 2027 10:33:52.754   06 Jun 2027 10:33:53.467             0.713           197.812
       164   06 Jun 2027 10:36:12.467   06 Jun 2027 10:36:15.326             2.859          1168.812
       165   06 Jun 2027 10:38:42.504   06 Jun 2027 10:38:50.218             7.714          3857.000
       166   06 Jun 2027 10:39:03.378   06 Jun 2027 10:39:08.305             4.927          1064.562
       167   06 Jun 2027 10:39:21.838   06 Jun 2027 10:39:25.641             3.803           383.094
       168   06 Jun 2027 10:39:33.573   06 Jun 2027 10:39:44.740            11.167           230.125
       169   06 Jun 2027 10:40:09.629   06 Jun 2027 10:40:13.066             3.437           777.781
       170   06 Jun 2027 10:40:23.637   06 Jun 2027 10:40:27.396             3.759            85.219
       171   07 Jun 2027 03:00:00.000   07 Jun 2027 03:00:22.162            22.162         11081.000
       172   07 Jun 2027 03:00:26.793   07 Jun 2027 03:00:46.798            20.005         10002.500
       173   07 Jun 2027 04:33:34.108   07 Jun 2027 04:36:27.485           173.377         86688.500
       174   07 Jun 2027 04:37:19.169   07 Jun 2027 04:37:44.870            25.701         12850.500
       175   07 Jun 2027 04:37:47.459   07 Jun 2027 04:37:48.013             0.554           277.000
       176   07 Jun 2027 04:39:56.751   07 Jun 2027 04:40:16.716            19.965          9982.500
       177   07 Jun 2027 04:40:37.170   07 Jun 2027 04:41:07.156            29.986         14993.000
       178   07 Jun 2027 05:59:17.052   07 Jun 2027 05:59:58.142            41.090         20545.000
       179   07 Jun 2027 06:00:03.578   07 Jun 2027 06:00:17.637            14.059          6810.063
       180   07 Jun 2027 06:10:34.153   07 Jun 2027 06:10:49.507            15.354          7052.625
       181   07 Jun 2027 06:11:49.812   07 Jun 2027 06:11:58.792             8.980          1099.781
       182   07 Jun 2027 07:33:09.546   07 Jun 2027 07:33:22.360            12.814          6164.625
       183   07 Jun 2027 07:34:27.921   07 Jun 2027 07:34:31.605             3.684          1495.938
       184   07 Jun 2027 07:35:30.619   07 Jun 2027 07:35:32.234             1.615           798.750
       185   07 Jun 2027 07:36:30.668   07 Jun 2027 07:36:36.027             5.359          1141.344
       186   07 Jun 2027 07:37:02.816   07 Jun 2027 07:37:07.154             4.338           697.188
       187   07 Jun 2027 07:37:49.845   07 Jun 2027 07:37:50.686             0.841           420.500
       188   07 Jun 2027 09:08:42.380   07 Jun 2027 09:08:51.023             8.643          3586.437
       189   07 Jun 2027 09:09:12.200   07 Jun 2027 09:09:20.900             8.700           278.656
       190   07 Jun 2027 09:10:29.210   07 Jun 2027 09:10:32.885             3.675          1837.500
       191   07 Jun 2027 09:11:05.048   07 Jun 2027 09:11:09.862             4.814          1210.531
       192   07 Jun 2027 09:13:02.857   07 Jun 2027 09:13:05.955             3.098          1549.000
       193   07 Jun 2027 09:13:31.026   07 Jun 2027 09:13:32.247             1.221           610.500
       194   07 Jun 2027 10:44:59.711   07 Jun 2027 10:45:12.779            13.068          6479.875
       195   07 Jun 2027 10:45:35.356   07 Jun 2027 10:45:38.023             2.667           700.250
       196   07 Jun 2027 10:45:53.985   07 Jun 2027 10:45:58.498             4.513           175.250
       197   07 Jun 2027 10:46:49.248   07 Jun 2027 10:46:50.903             1.655           101.469
       198   07 Jun 2027 10:48:01.962   07 Jun 2027 10:48:07.852             5.890           783.250
       199   07 Jun 2027 10:49:18.290   07 Jun 2027 10:49:36.156            17.866          2201.187
       200   07 Jun 2027 10:49:42.668   07 Jun 2027 10:49:46.321             3.653           138.281
       201   07 Jun 2027 10:50:06.340   07 Jun 2027 10:50:07.897             1.557           555.719
       202   07 Jun 2027 10:50:43.803   07 Jun 2027 10:50:46.722             2.919           499.813
       203   07 Jun 2027 10:51:28.677   07 Jun 2027 10:51:33.102             4.425           874.156
       204   07 Jun 2027 10:51:37.237   07 Jun 2027 10:51:37.830             0.593           129.219
       205   07 Jun 2027 10:52:08.838   07 Jun 2027 10:52:10.738             1.900           725.156
       206   07 Jun 2027 10:52:25.723   07 Jun 2027 10:52:27.741             2.018           357.750
       207   08 Jun 2027 03:06:59.323   08 Jun 2027 03:09:05.978           126.655         63327.500
       208   08 Jun 2027 03:09:11.996   08 Jun 2027 03:09:14.383             2.387          1193.500
       209   08 Jun 2027 03:09:41.979   08 Jun 2027 03:09:43.595             1.616           808.000
       210   08 Jun 2027 03:09:50.310   08 Jun 2027 03:10:00.793            10.483          5241.500
       211   08 Jun 2027 03:10:33.967   08 Jun 2027 03:10:33.967             0.000             0.000
       212   08 Jun 2027 03:11:18.929   08 Jun 2027 03:11:46.042            27.113         13556.500
       213   08 Jun 2027 03:12:06.226   08 Jun 2027 03:12:06.691             0.465           232.500
       214   08 Jun 2027 03:12:08.637   08 Jun 2027 03:12:12.739             4.102          2051.000
       215   08 Jun 2027 03:12:41.725   08 Jun 2027 03:12:41.725             0.000             0.000
       216   08 Jun 2027 03:13:02.028   08 Jun 2027 03:13:04.249             2.221          1110.500
       217   08 Jun 2027 04:46:04.268   08 Jun 2027 04:48:15.026           130.758         64336.031
       218   08 Jun 2027 04:49:20.332   08 Jun 2027 04:49:26.445             6.113          2004.094
       219   08 Jun 2027 04:50:49.380   08 Jun 2027 04:50:54.078             4.698          2075.844
       220   08 Jun 2027 04:51:42.339   08 Jun 2027 04:51:45.445             3.106          1280.813
       221   08 Jun 2027 04:52:51.841   08 Jun 2027 04:52:56.420             4.579          2024.344
       222   08 Jun 2027 06:10:53.804   08 Jun 2027 06:11:02.559             8.755          4377.500
       223   08 Jun 2027 06:11:42.193   08 Jun 2027 06:11:47.428             5.235          1854.125
       224   08 Jun 2027 06:12:25.054   08 Jun 2027 06:12:25.054             0.000             0.000
       225   08 Jun 2027 06:22:34.157   08 Jun 2027 06:22:42.884             8.727          3031.344
       226   08 Jun 2027 06:23:18.702   08 Jun 2027 06:23:18.702             0.000             0.000
       227   08 Jun 2027 06:23:33.530   08 Jun 2027 06:23:35.493             1.963           981.500
       228   08 Jun 2027 07:44:52.947   08 Jun 2027 07:45:07.174            14.227          6824.406
       229   08 Jun 2027 07:45:35.346   08 Jun 2027 07:45:35.926             0.580           290.000
       230   08 Jun 2027 07:45:36.648   08 Jun 2027 07:45:40.504             3.856           489.594
       231   08 Jun 2027 07:47:07.130   08 Jun 2027 07:47:11.306             4.176          1979.813
       232   08 Jun 2027 07:47:34.616   08 Jun 2027 07:47:34.616             0.000             0.000
       233   08 Jun 2027 07:48:39.690   08 Jun 2027 07:48:45.369             5.679          2649.156
       234   08 Jun 2027 07:49:12.687   08 Jun 2027 07:49:13.333             0.646           215.844
       235   08 Jun 2027 09:19:50.701   08 Jun 2027 09:20:01.242            10.541          4432.250
       236   08 Jun 2027 09:20:36.219   08 Jun 2027 09:20:37.958             1.739           571.688
       237   08 Jun 2027 09:21:22.613   08 Jun 2027 09:21:26.236             3.623          1300.375
       238   08 Jun 2027 09:22:33.666   08 Jun 2027 09:22:40.517             6.851          1119.187
       239   08 Jun 2027 09:23:27.796   08 Jun 2027 09:23:27.796             0.000             0.000
       240   08 Jun 2027 09:23:35.988   08 Jun 2027 09:23:39.798             3.810          1387.469
       241   08 Jun 2027 09:27:49.658   08 Jun 2027 09:27:58.290             8.632          4093.250
       242   08 Jun 2027 10:57:19.234   08 Jun 2027 10:57:28.673             9.439          4588.563
       243   08 Jun 2027 10:57:52.786   08 Jun 2027 10:57:55.156             2.370           543.156
       244   08 Jun 2027 10:58:25.212   08 Jun 2027 10:58:28.901             3.689           419.062
       245   08 Jun 2027 10:59:17.894   08 Jun 2027 10:59:23.786             5.892           896.500
       246   08 Jun 2027 11:00:25.344   08 Jun 2027 11:00:26.349             1.005           319.000
       247   08 Jun 2027 11:02:40.119   08 Jun 2027 11:02:40.119             0.000             0.000
       248   08 Jun 2027 11:03:02.309   08 Jun 2027 11:03:14.606            12.297          4646.156
       249   08 Jun 2027 11:03:26.878   08 Jun 2027 11:03:28.974             2.096           352.531
       250   08 Jun 2027 11:03:46.787   08 Jun 2027 11:03:49.130             2.343           502.656
       251   08 Jun 2027 11:04:36.161   08 Jun 2027 11:04:37.065             0.904           452.000
       252   09 Jun 2027 03:19:19.499   09 Jun 2027 03:19:46.028            26.529         13264.500
       253   09 Jun 2027 03:19:53.001   09 Jun 2027 03:20:25.011            32.010         16005.000
       254   09 Jun 2027 03:20:29.036   09 Jun 2027 03:21:23.006            53.970         26985.000
       255   09 Jun 2027 03:21:24.883   09 Jun 2027 03:22:32.006            67.123         33561.500
       256   09 Jun 2027 03:23:24.594   09 Jun 2027 03:23:35.913            11.319          5659.500
       257   09 Jun 2027 03:24:48.158   09 Jun 2027 03:24:54.702             6.544          3272.000
       258   09 Jun 2027 04:58:06.663   09 Jun 2027 04:59:41.183            94.520         47260.000
       259   09 Jun 2027 05:00:11.704   09 Jun 2027 05:00:22.704            11.000          4593.375
       260   09 Jun 2027 05:00:29.082   09 Jun 2027 05:00:30.176             1.094           155.250
       261   09 Jun 2027 05:00:45.425   09 Jun 2027 05:00:46.994             1.569           476.531
       262   09 Jun 2027 05:01:20.024   09 Jun 2027 05:01:23.196             3.172          1032.187
       263   09 Jun 2027 05:02:44.617   09 Jun 2027 05:02:45.676             1.059           529.500
       264   09 Jun 2027 05:02:50.524   09 Jun 2027 05:02:52.591             2.067          1033.500
       265   09 Jun 2027 05:03:19.494   09 Jun 2027 05:03:22.354             2.860          1414.812
       266   09 Jun 2027 05:05:04.569   09 Jun 2027 05:05:04.803             0.234           117.000
       267   09 Jun 2027 06:22:27.134   09 Jun 2027 06:22:47.902            20.768          7760.250
       268   09 Jun 2027 06:23:31.505   09 Jun 2027 06:23:35.867             4.362          1263.875
       269   09 Jun 2027 06:24:12.782   09 Jun 2027 06:24:15.835             3.053           366.906
       270   09 Jun 2027 06:34:42.777   09 Jun 2027 06:34:47.619             4.842          2328.469
       271   09 Jun 2027 07:56:26.541   09 Jun 2027 07:56:41.587            15.046          5330.031
       272   09 Jun 2027 07:57:14.309   09 Jun 2027 07:57:16.579             2.270           478.938
       273   09 Jun 2027 07:58:34.726   09 Jun 2027 07:58:37.905             3.179           934.312
       274   09 Jun 2027 08:00:01.316   09 Jun 2027 08:00:06.940             5.624          2279.906
       275   09 Jun 2027 09:31:18.723   09 Jun 2027 09:31:30.865            12.142          4834.938
       276   09 Jun 2027 09:33:15.400   09 Jun 2027 09:33:16.256             0.856           428.000
       277   09 Jun 2027 09:33:19.614   09 Jun 2027 09:33:26.628             7.014          1805.156
       278   09 Jun 2027 09:36:56.577   09 Jun 2027 09:37:03.815             7.238          3619.000
       279   09 Jun 2027 09:38:09.553   09 Jun 2027 09:38:16.246             6.693          3346.500
       280   09 Jun 2027 09:38:56.027   09 Jun 2027 09:38:56.027             0.000             0.000
       281   09 Jun 2027 09:39:42.561   09 Jun 2027 09:39:50.800             8.239          3675.094
       282   09 Jun 2027 09:40:01.986   09 Jun 2027 09:40:05.268             3.282           291.875
       283   09 Jun 2027 11:12:11.275   09 Jun 2027 11:12:35.363            24.088         11622.031
       284   09 Jun 2027 11:13:28.118   09 Jun 2027 11:13:30.508             2.390          1195.000
       285   09 Jun 2027 11:15:07.181   09 Jun 2027 11:15:13.331             6.150          3075.000
       286   09 Jun 2027 11:15:17.191   09 Jun 2027 11:15:17.191             0.000             0.000
       287   09 Jun 2027 11:15:31.208   09 Jun 2027 11:15:32.464             1.256           610.594
       288   09 Jun 2027 11:16:13.596   09 Jun 2027 11:16:18.011             4.415          1285.375
       289   10 Jun 2027 03:32:02.409   10 Jun 2027 03:32:16.499            14.090          7045.000
       290   10 Jun 2027 03:32:25.960   10 Jun 2027 03:33:34.844            68.884         34442.000
       291   10 Jun 2027 03:34:12.945   10 Jun 2027 03:36:41.866           148.921         74460.500
       292   10 Jun 2027 03:37:12.246   10 Jun 2027 03:37:12.910             0.664           332.000
       293   10 Jun 2027 03:37:19.227   10 Jun 2027 03:37:26.979             7.752          3876.000
       294   10 Jun 2027 05:10:32.549   10 Jun 2027 05:11:49.990            77.441         38478.937
       295   10 Jun 2027 05:12:21.215   10 Jun 2027 05:12:24.384             3.169            41.281
       296   10 Jun 2027 05:14:03.470   10 Jun 2027 05:14:09.472             6.002          2679.500
       297   10 Jun 2027 05:14:52.864   10 Jun 2027 05:14:55.947             3.083          1356.000
       298   10 Jun 2027 05:15:28.858   10 Jun 2027 05:15:28.858             0.000             0.000
       299   10 Jun 2027 06:34:23.391   10 Jun 2027 06:34:40.709            17.318          8193.656
       300   10 Jun 2027 06:35:27.068   10 Jun 2027 06:35:30.713             3.645          1235.000
       301   10 Jun 2027 08:10:24.087   10 Jun 2027 08:10:42.945            18.858          8577.469
       302   10 Jun 2027 08:10:49.151   10 Jun 2027 08:10:49.854             0.703           193.938
       303   10 Jun 2027 08:11:16.808   10 Jun 2027 08:11:16.808             0.000             0.000
       304   10 Jun 2027 08:11:51.421   10 Jun 2027 08:11:55.924             4.503          1456.406
       305   10 Jun 2027 08:13:28.594   10 Jun 2027 08:13:37.222             8.628          2518.531
       306   10 Jun 2027 09:44:11.708   10 Jun 2027 09:44:22.400            10.692          4523.719
       307   10 Jun 2027 09:46:11.284   10 Jun 2027 09:46:14.852             3.568          1715.031
       308   10 Jun 2027 09:47:38.895   10 Jun 2027 09:47:38.895             0.000             0.000
       309   10 Jun 2027 09:49:03.415   10 Jun 2027 09:49:16.399            12.984          4996.156
       310   10 Jun 2027 09:49:48.546   10 Jun 2027 09:49:53.932             5.386           993.344
       311   10 Jun 2027 09:50:26.582   10 Jun 2027 09:50:32.492             5.910          1020.313
       312   10 Jun 2027 09:50:54.890   10 Jun 2027 09:50:54.890             0.000             0.000
       313   10 Jun 2027 09:50:57.773   10 Jun 2027 09:51:01.015             3.242           258.125
       314   10 Jun 2027 09:51:56.459   10 Jun 2027 09:52:01.168             4.709          1655.937
       315   10 Jun 2027 09:52:20.432   10 Jun 2027 09:52:21.439             1.007            48.469
       316   10 Jun 2027 11:21:20.651   10 Jun 2027 11:21:35.923            15.272          7134.500
       317   10 Jun 2027 11:22:41.780   10 Jun 2027 11:22:45.364             3.584          1529.375
       318   10 Jun 2027 11:23:57.685   10 Jun 2027 11:24:03.019             5.334          2260.031
       319   10 Jun 2027 11:24:51.075   10 Jun 2027 11:24:54.814             3.739          1501.750
       320   10 Jun 2027 11:26:02.952   10 Jun 2027 11:26:06.693             3.741          1444.719
       321   10 Jun 2027 11:26:12.583   10 Jun 2027 11:26:14.279             1.696           159.375
       322   10 Jun 2027 11:27:18.213   10 Jun 2027 11:27:20.628             2.415          1207.500
       323   10 Jun 2027 11:27:37.875   10 Jun 2027 11:27:40.388             2.513          1085.250
       324   10 Jun 2027 11:27:58.796   10 Jun 2027 11:27:58.796             0.000             0.000
       325   10 Jun 2027 11:28:17.214   10 Jun 2027 11:28:26.164             8.950          1038.125
       326   11 Jun 2027 03:44:45.568   11 Jun 2027 03:45:05.083            19.515          9757.500
       327   11 Jun 2027 03:45:18.527   11 Jun 2027 03:48:33.988           195.461         97730.500
       328   11 Jun 2027 03:49:01.111   11 Jun 2027 03:49:14.918            13.807          6903.500
       329   11 Jun 2027 03:49:54.542   11 Jun 2027 03:49:54.542             0.000             0.000
       330   11 Jun 2027 05:22:53.654   11 Jun 2027 05:23:20.231            26.577         13288.500
       331   11 Jun 2027 05:23:43.801   11 Jun 2027 05:24:40.662            56.861         28165.250
       332   11 Jun 2027 05:25:15.273   11 Jun 2027 05:25:17.542             2.269           449.344
       333   11 Jun 2027 05:26:12.961   11 Jun 2027 05:26:14.025             1.064           354.594
       334   11 Jun 2027 05:27:08.443   11 Jun 2027 05:27:08.443             0.000             0.000
       335   11 Jun 2027 06:46:16.606   11 Jun 2027 06:46:29.134            12.528          4768.719
       336   11 Jun 2027 06:47:52.238   11 Jun 2027 06:48:01.895             9.657          2229.781
       337   11 Jun 2027 06:48:20.038   11 Jun 2027 06:48:22.028             1.990           365.500
       338   11 Jun 2027 08:22:37.747   11 Jun 2027 08:22:55.517            17.770          8683.031
       339   11 Jun 2027 08:24:16.861   11 Jun 2027 08:24:25.050             8.189          2418.906
       340   11 Jun 2027 08:24:32.085   11 Jun 2027 08:24:33.273             1.188           165.219
       341   11 Jun 2027 08:25:42.710   11 Jun 2027 08:25:56.039            13.329          1927.688
       342   11 Jun 2027 09:57:16.920   11 Jun 2027 09:57:30.882            13.962          6836.969
       343   11 Jun 2027 09:58:38.097   11 Jun 2027 09:58:38.097             0.000             0.000
       344   11 Jun 2027 09:59:15.563   11 Jun 2027 09:59:23.580             8.017          1821.125
       345   11 Jun 2027 10:02:38.678   11 Jun 2027 10:02:54.711            16.033          5499.219
       346   11 Jun 2027 10:03:20.914   11 Jun 2027 10:03:20.914             0.000             0.000
       347   11 Jun 2027 10:04:00.889   11 Jun 2027 10:04:04.848             3.959          1929.656
       348   11 Jun 2027 10:04:40.360   11 Jun 2027 10:04:40.360             0.000             0.000
       349   11 Jun 2027 11:33:46.260   11 Jun 2027 11:34:00.776            14.516          6684.625
       350   11 Jun 2027 11:34:14.317   11 Jun 2027 11:34:18.384             4.067           423.156
       351   11 Jun 2027 11:34:49.883   11 Jun 2027 11:34:53.067             3.184           930.250
       352   11 Jun 2027 11:35:14.322   11 Jun 2027 11:35:21.058             6.736           664.219
       353   11 Jun 2027 11:36:04.200   11 Jun 2027 11:36:05.846             1.646           594.813
       354   11 Jun 2027 11:36:17.751   11 Jun 2027 11:36:20.028             2.277           372.031
       355   11 Jun 2027 11:36:53.371   11 Jun 2027 11:36:55.043             1.672           797.156
       356   11 Jun 2027 11:38:29.565   11 Jun 2027 11:38:33.817             4.252          1974.281
       357   11 Jun 2027 11:39:30.903   11 Jun 2027 11:39:34.407             3.504          1752.000
       358   11 Jun 2027 11:40:08.655   11 Jun 2027 11:40:13.608             4.953          1102.188
       359   12 Jun 2027 03:56:47.502   12 Jun 2027 03:57:45.991            58.489         29244.500
       360   12 Jun 2027 03:57:51.763   12 Jun 2027 03:58:50.546            58.783         29391.500
       361   12 Jun 2027 03:59:01.599   12 Jun 2027 03:59:27.966            26.367         13183.500
       362   12 Jun 2027 03:59:30.887   12 Jun 2027 04:00:49.825            78.938         39469.000
       363   12 Jun 2027 04:01:11.743   12 Jun 2027 04:01:18.867             7.124          3562.000
       364   12 Jun 2027 04:01:23.282   12 Jun 2027 04:01:31.088             7.806          3903.000
       365   12 Jun 2027 04:02:39.102   12 Jun 2027 04:02:40.315             1.213           606.500
       366   12 Jun 2027 05:35:19.298   12 Jun 2027 05:36:48.600            89.302         44459.594
       367   12 Jun 2027 05:37:37.817   12 Jun 2027 05:37:40.925             3.108          1538.031
       368   12 Jun 2027 05:38:16.667   12 Jun 2027 05:38:21.157             4.490          1116.938
       369   12 Jun 2027 05:39:00.192   12 Jun 2027 05:39:03.479             3.287           613.500
       370   12 Jun 2027 06:58:10.214   12 Jun 2027 06:58:28.008            17.794          6252.969
       371   12 Jun 2027 07:00:15.382   12 Jun 2027 07:00:20.657             5.275          2637.500
       372   12 Jun 2027 08:34:43.350   12 Jun 2027 08:34:56.456            13.106          6098.719
       373   12 Jun 2027 08:35:45.750   12 Jun 2027 08:35:45.750             0.000             0.000
       374   12 Jun 2027 08:36:27.982   12 Jun 2027 08:36:32.512             4.530          2265.000
       375   12 Jun 2027 08:37:15.802   12 Jun 2027 08:37:26.161            10.359          1524.687
       376   12 Jun 2027 10:09:52.204   12 Jun 2027 10:10:10.317            18.113          8419.250
       377   12 Jun 2027 10:10:55.384   12 Jun 2027 10:10:59.539             4.155           794.250
       378   12 Jun 2027 10:11:52.139   12 Jun 2027 10:11:52.139             0.000             0.000
       379   12 Jun 2027 10:13:00.295   12 Jun 2027 10:13:07.914             7.619          3700.531
       380   12 Jun 2027 10:13:58.521   12 Jun 2027 10:14:02.959             4.438           991.531
       381   12 Jun 2027 10:14:42.935   12 Jun 2027 10:14:44.819             1.884            42.938
       382   12 Jun 2027 10:16:34.363   12 Jun 2027 10:16:38.712             4.349          2174.500
       383   12 Jun 2027 11:46:12.540   12 Jun 2027 11:46:24.991            12.451          5443.625
       384   12 Jun 2027 11:47:47.168   12 Jun 2027 11:47:50.481             3.313          1656.500
       385   12 Jun 2027 11:48:56.880   12 Jun 2027 11:49:07.666            10.786          2352.687
       386   12 Jun 2027 11:49:48.301   12 Jun 2027 11:49:51.118             2.817           719.812
       387   12 Jun 2027 11:50:02.349   12 Jun 2027 11:50:04.647             2.298           294.938
       388   12 Jun 2027 11:51:08.582   12 Jun 2027 11:51:12.689             4.107          1997.969
       389   12 Jun 2027 11:51:21.623   12 Jun 2027 11:51:26.923             5.300           279.188
       390   12 Jun 2027 11:51:51.879   12 Jun 2027 11:51:51.879             0.000             0.000
       391   12 Jun 2027 11:52:30.682   12 Jun 2027 11:52:34.014             3.332          1666.000
       392   13 Jun 2027 04:08:40.986   13 Jun 2027 04:09:38.098            57.112         28556.000
       393   13 Jun 2027 04:09:47.964   13 Jun 2027 04:11:43.141           115.177         57588.500
       394   13 Jun 2027 04:12:14.841   13 Jun 2027 04:12:58.843            44.002         22001.000
       395   13 Jun 2027 04:13:32.690   13 Jun 2027 04:14:19.358            46.668         23334.000
       396   13 Jun 2027 05:46:57.241   13 Jun 2027 05:48:15.377            78.136         39063.593
       397   13 Jun 2027 05:49:01.164   13 Jun 2027 05:49:05.439             4.275          1425.719
       398   13 Jun 2027 05:50:15.836   13 Jun 2027 05:50:18.198             2.362          1046.625
       399   13 Jun 2027 07:10:18.474   13 Jun 2027 07:10:35.329            16.855          7668.844
       400   13 Jun 2027 07:11:17.272   13 Jun 2027 07:11:21.175             3.903           876.562
       401   13 Jun 2027 07:12:57.247   13 Jun 2027 07:13:02.341             5.094          2530.250
       402   13 Jun 2027 08:46:53.979   13 Jun 2027 08:47:06.972            12.993          6457.531
       403   13 Jun 2027 08:48:06.808   13 Jun 2027 08:48:10.575             3.767          1708.000
       404   13 Jun 2027 08:50:20.725   13 Jun 2027 08:50:22.747             2.022          1011.000
       405   13 Jun 2027 10:22:04.236   13 Jun 2027 10:22:14.086             9.850          4911.719
       406   13 Jun 2027 10:24:02.897   13 Jun 2027 10:24:10.183             7.286          3248.062
       407   13 Jun 2027 10:24:33.438   13 Jun 2027 10:24:37.715             4.277           450.500
       408   13 Jun 2027 10:25:41.748   13 Jun 2027 10:25:46.879             5.131          1999.688
       409   13 Jun 2027 10:26:00.141   13 Jun 2027 10:26:06.244             6.103           267.094
       410   13 Jun 2027 10:26:27.100   13 Jun 2027 10:26:28.023             0.923           370.250
       411   13 Jun 2027 10:27:12.386   13 Jun 2027 10:27:14.393             2.007           857.969
       412   13 Jun 2027 10:27:37.552   13 Jun 2027 10:27:40.110             2.558           723.719
       413   13 Jun 2027 10:28:16.676   13 Jun 2027 10:28:22.099             5.423          1108.875
       414   13 Jun 2027 10:28:27.532   13 Jun 2027 10:28:28.104             0.572            38.625
       415   13 Jun 2027 10:28:36.295   13 Jun 2027 10:28:39.224             2.929           255.969
       416   13 Jun 2027 11:58:24.078   13 Jun 2027 11:58:46.332            22.254          6108.563
