uniorb/output/strategy_2/Camera/Camera_KinoSat_110904.txt

KinoSat_110904
-------------------------
    Access    *     Start Time (UTCG)     *     Stop Time (UTCG)  *   Duration (s) *   Data (Mbytes)
         1   01 Jun 2027 03:40:39.538   01 Jun 2027 03:41:28.664            49.126         24563.000
         2   01 Jun 2027 03:41:30.538   01 Jun 2027 03:41:43.973            13.435          6717.500
         3   01 Jun 2027 03:41:48.622   01 Jun 2027 03:41:54.319             5.697          2848.500
         4   01 Jun 2027 03:42:16.178   01 Jun 2027 03:42:16.178             0.000             0.000
         5   01 Jun 2027 03:42:18.414   01 Jun 2027 03:42:22.479             4.065          2032.500
         6   01 Jun 2027 05:17:09.634   01 Jun 2027 05:18:02.939            53.305         26652.500
         7   01 Jun 2027 05:18:19.524   01 Jun 2027 05:19:33.998            74.474         37237.000
         8   01 Jun 2027 05:20:15.897   01 Jun 2027 05:20:45.468            29.571         14785.500
         9   01 Jun 2027 06:52:19.927   01 Jun 2027 06:55:16.539           176.612         88306.000
        10   01 Jun 2027 06:55:33.150   01 Jun 2027 06:55:49.927            16.777          8388.500
        11   01 Jun 2027 06:57:07.751   01 Jun 2027 06:57:25.154            17.403          8701.500
        12   01 Jun 2027 06:57:57.071   01 Jun 2027 06:58:21.032            23.961         11980.500
        13   01 Jun 2027 06:58:54.984   01 Jun 2027 06:58:56.844             1.860           930.000
        14   01 Jun 2027 08:28:40.777   01 Jun 2027 08:31:32.294           171.517         85758.500
        15   01 Jun 2027 08:31:57.257   01 Jun 2027 08:31:59.354             2.097          1048.500
        16   01 Jun 2027 08:33:49.921   01 Jun 2027 08:33:51.863             1.942           971.000
        17   01 Jun 2027 10:06:00.164   01 Jun 2027 10:08:20.235           140.071         70035.500
        18   01 Jun 2027 10:09:02.245   01 Jun 2027 10:09:23.267            21.022         10511.000
        19   01 Jun 2027 11:42:11.923   01 Jun 2027 11:43:51.810            99.887         49943.500
        20   01 Jun 2027 11:44:30.550   01 Jun 2027 11:44:38.124             7.574          3787.000
        21   02 Jun 2027 03:53:19.611   02 Jun 2027 03:54:12.343            52.732         26366.000
        22   02 Jun 2027 05:29:05.300   02 Jun 2027 05:29:39.993            34.693         17346.500
        23   02 Jun 2027 05:29:42.274   02 Jun 2027 05:29:54.504            12.230          6115.000
        24   02 Jun 2027 05:31:14.094   02 Jun 2027 05:32:21.937            67.843         33921.500
        25   02 Jun 2027 07:04:03.263   02 Jun 2027 07:08:34.988           271.725        135862.500
        26   02 Jun 2027 07:08:41.952   02 Jun 2027 07:09:07.640            25.688         12844.000
        27   02 Jun 2027 07:10:39.090   02 Jun 2027 07:10:52.000            12.910          6455.000
        28   02 Jun 2027 08:40:15.051   02 Jun 2027 08:42:04.456           109.405         54213.968
        29   02 Jun 2027 08:42:29.777   02 Jun 2027 08:42:33.588             3.811           709.063
        30   02 Jun 2027 08:43:24.241   02 Jun 2027 08:43:25.033             0.792           396.000
        31   02 Jun 2027 08:44:19.575   02 Jun 2027 08:44:23.598             4.023          1962.500
        32   02 Jun 2027 08:46:13.312   02 Jun 2027 08:46:19.654             6.342          2589.531
        33   02 Jun 2027 08:46:32.178   02 Jun 2027 08:46:33.582             1.404           387.250
        34   02 Jun 2027 10:18:15.047   02 Jun 2027 10:18:35.559            20.512          9572.625
        35   02 Jun 2027 10:18:50.503   02 Jun 2027 10:18:53.712             3.209           284.094
        36   02 Jun 2027 10:19:16.521   02 Jun 2027 10:19:18.796             2.275           693.625
        37   02 Jun 2027 10:19:47.225   02 Jun 2027 10:20:05.136            17.911           888.406
        38   02 Jun 2027 10:20:30.817   02 Jun 2027 10:20:34.716             3.899           379.781
        39   02 Jun 2027 10:21:43.683   02 Jun 2027 10:21:55.915            12.232          2155.219
        40   02 Jun 2027 11:53:56.713   02 Jun 2027 11:54:15.882            19.169          6610.656
        41   02 Jun 2027 11:54:45.185   02 Jun 2027 11:54:46.630             1.445           512.094
        42   02 Jun 2027 11:55:16.151   02 Jun 2027 11:55:19.216             3.065           743.406
        43   02 Jun 2027 11:56:21.751   02 Jun 2027 11:56:31.891            10.140          1741.063
        44   02 Jun 2027 11:56:40.134   02 Jun 2027 11:56:42.681             2.547           179.469
        45   02 Jun 2027 11:57:38.636   02 Jun 2027 11:57:49.214            10.578          1348.000
        46   02 Jun 2027 11:57:52.675   02 Jun 2027 11:57:53.614             0.939           108.156
        47   02 Jun 2027 11:58:25.970   02 Jun 2027 11:58:29.244             3.274           956.125
        48   02 Jun 2027 11:58:37.218   02 Jun 2027 11:58:37.218             0.000             0.000
        49   02 Jun 2027 11:58:44.506   02 Jun 2027 11:58:47.041             2.535           476.937
        50   03 Jun 2027 04:04:09.548   03 Jun 2027 04:05:17.150            67.602         33801.000
        51   03 Jun 2027 04:05:20.475   03 Jun 2027 04:05:23.898             3.423          1711.500
        52   03 Jun 2027 04:05:51.437   03 Jun 2027 04:05:53.120             1.683           841.500
        53   03 Jun 2027 04:07:43.254   03 Jun 2027 04:07:48.141             4.887          2443.500
        54   03 Jun 2027 05:39:41.445   03 Jun 2027 05:39:46.973             5.528          2764.000
        55   03 Jun 2027 05:40:50.747   03 Jun 2027 05:43:19.168           148.421         74210.500
        56   03 Jun 2027 05:44:27.417   03 Jun 2027 05:45:17.145            49.728         24864.000
        57   03 Jun 2027 07:15:36.850   03 Jun 2027 07:16:28.289            51.439         24316.218
        58   03 Jun 2027 07:17:40.506   03 Jun 2027 07:17:45.132             4.626           524.187
        59   03 Jun 2027 07:18:55.464   03 Jun 2027 07:19:00.985             5.521          1596.375
        60   03 Jun 2027 07:19:24.594   03 Jun 2027 07:19:26.361             1.767           348.219
        61   03 Jun 2027 07:20:15.403   03 Jun 2027 07:20:19.158             3.755          1405.375
        62   03 Jun 2027 07:20:42.508   03 Jun 2027 07:20:44.439             1.931           650.219
        63   03 Jun 2027 07:21:50.829   03 Jun 2027 07:21:58.883             8.054          1858.656
        64   03 Jun 2027 07:22:27.800   03 Jun 2027 07:22:28.970             1.170           540.906
        65   03 Jun 2027 08:52:29.695   03 Jun 2027 08:52:50.860            21.165         10191.594
        66   03 Jun 2027 08:53:12.134   03 Jun 2027 08:53:15.380             3.246           549.531
        67   03 Jun 2027 08:54:29.330   03 Jun 2027 08:54:34.897             5.567          2228.156
        68   03 Jun 2027 08:55:07.787   03 Jun 2027 08:55:09.676             1.889           841.969
        69   03 Jun 2027 08:55:28.966   03 Jun 2027 08:55:30.225             1.259           601.437
        70   03 Jun 2027 08:55:52.370   03 Jun 2027 08:55:52.370             0.000             0.000
        71   03 Jun 2027 08:56:39.294   03 Jun 2027 08:56:43.628             4.334          2030.906
        72   03 Jun 2027 08:56:50.755   03 Jun 2027 08:56:51.885             1.130           222.719
        73   03 Jun 2027 08:57:31.432   03 Jun 2027 08:57:32.029             0.597           298.500
        74   03 Jun 2027 08:57:59.697   03 Jun 2027 08:58:08.179             8.482          1801.969
        75   03 Jun 2027 10:30:36.919   03 Jun 2027 10:30:51.042            14.123          7061.500
        76   03 Jun 2027 10:31:27.630   03 Jun 2027 10:31:32.388             4.758          1375.156
        77   03 Jun 2027 10:32:19.401   03 Jun 2027 10:32:22.882             3.481          1313.094
        78   03 Jun 2027 10:32:53.782   03 Jun 2027 10:33:01.138             7.356           828.844
        79   03 Jun 2027 10:34:13.980   03 Jun 2027 10:34:18.167             4.187          2046.813
        80   03 Jun 2027 10:34:29.694   03 Jun 2027 10:34:29.694             0.000             0.000
        81   04 Jun 2027 04:15:25.544   04 Jun 2027 04:16:40.628            75.084         37542.000
        82   04 Jun 2027 04:17:24.682   04 Jun 2027 04:17:52.977            28.295         14147.500
        83   04 Jun 2027 04:18:04.677   04 Jun 2027 04:18:11.239             6.562          3281.000
        84   04 Jun 2027 04:18:22.995   04 Jun 2027 04:18:27.158             4.163          2081.500
        85   04 Jun 2027 04:19:20.000   04 Jun 2027 04:19:20.000             0.000             0.000
        86   04 Jun 2027 04:19:22.137   04 Jun 2027 04:19:49.102            26.965         13482.500
        87   04 Jun 2027 05:50:35.852   04 Jun 2027 05:52:01.291            85.439         42719.500
        88   04 Jun 2027 05:52:34.394   04 Jun 2027 05:53:14.194            39.800         19900.000
        89   04 Jun 2027 05:53:41.228   04 Jun 2027 05:53:44.968             3.740          1870.000
        90   04 Jun 2027 05:54:11.204   04 Jun 2027 05:54:11.204             0.000             0.000
        91   04 Jun 2027 05:55:23.969   04 Jun 2027 05:55:39.795            15.826          7913.000
        92   04 Jun 2027 05:56:21.586   04 Jun 2027 05:56:36.558            14.972          7486.000
        93   04 Jun 2027 05:58:29.306   04 Jun 2027 05:58:33.567             4.261          2130.500
        94   04 Jun 2027 07:27:43.979   04 Jun 2027 07:28:12.436            28.457         13537.375
        95   04 Jun 2027 07:29:23.890   04 Jun 2027 07:29:31.616             7.726          2232.937
        96   04 Jun 2027 07:30:20.846   04 Jun 2027 07:30:27.728             6.882          1228.344
        97   04 Jun 2027 07:30:49.683   04 Jun 2027 07:30:50.829             1.146           396.250
        98   04 Jun 2027 07:31:21.089   04 Jun 2027 07:31:25.566             4.477           622.875
        99   04 Jun 2027 07:31:32.253   04 Jun 2027 07:31:34.636             2.383           208.969
       100   04 Jun 2027 07:32:34.940   04 Jun 2027 07:32:38.404             3.464          1706.969
       101   04 Jun 2027 07:32:57.038   04 Jun 2027 07:32:58.399             1.361           376.688
       102   04 Jun 2027 07:33:29.940   04 Jun 2027 07:33:31.967             2.027           764.844
       103   04 Jun 2027 07:34:07.471   04 Jun 2027 07:34:12.417             4.946          1109.500
       104   04 Jun 2027 09:04:41.633   04 Jun 2027 09:05:05.273            23.640         10932.281
       105   04 Jun 2027 09:05:11.817   04 Jun 2027 09:05:12.808             0.991           204.500
       106   04 Jun 2027 09:06:14.165   04 Jun 2027 09:06:18.005             3.840           729.531
       107   04 Jun 2027 09:07:10.812   04 Jun 2027 09:07:13.221             2.409          1165.625
       108   04 Jun 2027 09:08:32.029   04 Jun 2027 09:08:37.748             5.719          2390.969
       109   04 Jun 2027 09:08:44.320   04 Jun 2027 09:08:44.578             0.258            62.562
       110   04 Jun 2027 09:08:49.281   04 Jun 2027 09:08:50.528             1.247           123.062
       111   04 Jun 2027 09:09:25.604   04 Jun 2027 09:09:29.432             3.828          1096.125
       112   04 Jun 2027 09:09:42.044   04 Jun 2027 09:09:44.276             2.232           287.375
       113   04 Jun 2027 09:10:21.800   04 Jun 2027 09:10:23.163             1.363           681.500
       114   04 Jun 2027 10:42:34.726   04 Jun 2027 10:42:51.820            17.094          8132.000
       115   04 Jun 2027 10:43:38.255   04 Jun 2027 10:43:46.237             7.982          1451.094
       116   04 Jun 2027 10:44:10.807   04 Jun 2027 10:44:14.373             3.566           708.969
       117   04 Jun 2027 10:44:26.852   04 Jun 2027 10:44:27.982             1.130           313.000
       118   04 Jun 2027 10:44:52.198   04 Jun 2027 10:45:00.281             8.083           756.750
       119   04 Jun 2027 10:45:12.367   04 Jun 2027 10:45:13.308             0.941           343.375
       120   04 Jun 2027 10:46:11.183   04 Jun 2027 10:46:15.591             4.408          1690.937
       121   04 Jun 2027 10:46:20.875   04 Jun 2027 10:46:23.085             2.210           153.000
       122   05 Jun 2027 03:05:08.324   05 Jun 2027 03:06:02.165            53.841         26920.500
       123   05 Jun 2027 04:27:10.457   05 Jun 2027 04:28:28.674            78.217         39108.500
       124   05 Jun 2027 04:29:13.479   05 Jun 2027 04:30:22.484            69.005         34502.500
       125   05 Jun 2027 04:30:51.364   05 Jun 2027 04:31:05.098            13.734          6867.000
       126   05 Jun 2027 04:31:24.578   05 Jun 2027 04:31:28.411             3.833          1916.500
       127   05 Jun 2027 04:32:30.926   05 Jun 2027 04:32:45.793            14.867          7433.500
       128   05 Jun 2027 06:02:03.249   05 Jun 2027 06:03:22.638            79.389         39493.531
       129   05 Jun 2027 06:03:43.524   05 Jun 2027 06:03:44.239             0.715           320.750
       130   05 Jun 2027 06:04:24.026   05 Jun 2027 06:04:24.026             0.000             0.000
       131   05 Jun 2027 06:05:16.607   05 Jun 2027 06:05:22.431             5.824          2101.969
       132   05 Jun 2027 06:05:47.697   05 Jun 2027 06:05:48.080             0.383           191.500
       133   05 Jun 2027 06:07:21.686   05 Jun 2027 06:07:26.419             4.733          2366.500
       134   05 Jun 2027 06:07:31.779   05 Jun 2027 06:07:44.983            13.204          1312.406
       135   05 Jun 2027 06:08:00.018   05 Jun 2027 06:08:02.381             2.363           340.063
       136   05 Jun 2027 06:08:48.068   05 Jun 2027 06:08:54.746             6.678          1420.594
       137   05 Jun 2027 06:09:27.326   05 Jun 2027 06:09:30.250             2.924           911.313
       138   05 Jun 2027 06:10:52.797   05 Jun 2027 06:10:55.282             2.485          1242.500
       139   05 Jun 2027 06:11:06.337   05 Jun 2027 06:11:07.075             0.738           369.000
       140   05 Jun 2027 07:39:45.495   05 Jun 2027 07:40:06.553            21.058          9966.375
       141   05 Jun 2027 07:41:23.476   05 Jun 2027 07:41:28.276             4.800          2143.875
       142   05 Jun 2027 07:42:30.284   05 Jun 2027 07:42:37.133             6.849          1361.687
       143   05 Jun 2027 07:43:55.573   05 Jun 2027 07:43:59.041             3.468          1529.687
       144   05 Jun 2027 07:45:03.151   05 Jun 2027 07:45:13.749            10.598          1618.656
       145   05 Jun 2027 07:45:37.473   05 Jun 2027 07:45:46.545             9.072           718.625
       146   05 Jun 2027 07:45:50.896   05 Jun 2027 07:45:55.175             4.279           132.594
       147   05 Jun 2027 07:46:03.063   05 Jun 2027 07:46:05.551             2.488           181.250
       148   05 Jun 2027 09:16:33.569   05 Jun 2027 09:16:53.889            20.320          9972.875
       149   05 Jun 2027 09:16:55.150   05 Jun 2027 09:16:56.404             1.254            39.406
       150   05 Jun 2027 09:17:46.052   05 Jun 2027 09:17:47.079             1.027           512.906
       151   05 Jun 2027 09:18:21.409   05 Jun 2027 09:18:28.391             6.982          1072.813
       152   05 Jun 2027 09:18:32.874   05 Jun 2027 09:18:33.388             0.514            55.687
       153   05 Jun 2027 09:19:06.380   05 Jun 2027 09:19:07.294             0.914           242.781
       154   05 Jun 2027 09:19:58.126   05 Jun 2027 09:20:07.669             9.543          1448.750
       155   05 Jun 2027 09:20:27.072   05 Jun 2027 09:20:28.237             1.165           203.531
       156   05 Jun 2027 09:20:50.204   05 Jun 2027 09:20:56.213             6.009           661.844
       157   05 Jun 2027 09:22:38.919   05 Jun 2027 09:22:47.186             8.267          3042.000
       158   05 Jun 2027 09:22:59.721   05 Jun 2027 09:23:00.960             1.239           391.719
       159   05 Jun 2027 10:54:35.143   05 Jun 2027 10:54:51.226            16.083          7933.594
       160   05 Jun 2027 10:55:40.850   05 Jun 2027 10:55:44.640             3.790          1516.000
       161   05 Jun 2027 10:56:16.091   05 Jun 2027 10:56:23.237             7.146           908.094
       162   05 Jun 2027 10:56:39.580   05 Jun 2027 10:56:39.970             0.390           195.000
       163   05 Jun 2027 10:56:57.831   05 Jun 2027 10:57:05.497             7.666           605.375
       164   05 Jun 2027 10:57:43.833   05 Jun 2027 10:57:49.202             5.369          1135.688
       165   05 Jun 2027 10:58:28.322   05 Jun 2027 10:58:32.952             4.630          1222.500
       166   06 Jun 2027 03:04:59.458   06 Jun 2027 03:05:12.648            13.190          6595.000
       167   06 Jun 2027 03:06:01.682   06 Jun 2027 03:06:43.918            42.236         21118.000
       168   06 Jun 2027 03:06:56.191   06 Jun 2027 03:06:56.191             0.000             0.000
       169   06 Jun 2027 04:38:46.165   06 Jun 2027 04:41:42.796           176.631         88315.500
       170   06 Jun 2027 04:41:43.065   06 Jun 2027 04:41:56.144            13.079          6539.500
       171   06 Jun 2027 04:43:35.584   06 Jun 2027 04:43:46.134            10.550          5275.000
       172   06 Jun 2027 04:44:01.637   06 Jun 2027 04:44:14.603            12.966          6483.000
       173   06 Jun 2027 04:44:16.584   06 Jun 2027 04:44:21.992             5.408          2704.000
       174   06 Jun 2027 06:13:38.659   06 Jun 2027 06:14:19.811            41.152         20576.000
       175   06 Jun 2027 06:14:45.608   06 Jun 2027 06:14:53.241             7.633          2904.500
       176   06 Jun 2027 06:15:35.165   06 Jun 2027 06:15:38.003             2.838           842.250
       177   06 Jun 2027 06:16:35.851   06 Jun 2027 06:16:40.201             4.350          1536.313
       178   06 Jun 2027 06:18:14.711   06 Jun 2027 06:18:18.995             4.284          1624.031
       179   06 Jun 2027 06:18:57.415   06 Jun 2027 06:18:59.800             2.385          1027.031
       180   06 Jun 2027 06:19:11.051   06 Jun 2027 06:19:12.441             1.390           199.813
       181   06 Jun 2027 06:19:34.715   06 Jun 2027 06:19:39.263             4.548           301.031
       182   06 Jun 2027 06:20:17.944   06 Jun 2027 06:20:17.944             0.000             0.000
       183   06 Jun 2027 06:21:15.956   06 Jun 2027 06:21:29.550            13.594          2964.844
       184   06 Jun 2027 06:22:33.630   06 Jun 2027 06:22:37.091             3.461          1730.500
       185   06 Jun 2027 07:51:48.723   06 Jun 2027 07:52:03.514            14.791          7072.406
       186   06 Jun 2027 07:53:48.631   06 Jun 2027 07:53:51.092             2.461           820.000
       187   06 Jun 2027 07:55:10.071   06 Jun 2027 07:55:17.668             7.597          1844.031
       188   06 Jun 2027 07:55:34.883   06 Jun 2027 07:55:38.516             3.633            78.031
       189   06 Jun 2027 07:56:02.944   06 Jun 2027 07:56:04.801             1.857            87.094
       190   06 Jun 2027 07:56:22.641   06 Jun 2027 07:56:25.476             2.835           455.531
       191   06 Jun 2027 07:56:43.161   06 Jun 2027 07:56:44.488             1.327           552.656
       192   06 Jun 2027 07:57:00.482   06 Jun 2027 07:57:01.095             0.613           306.500
       193   06 Jun 2027 07:57:16.194   06 Jun 2027 07:57:20.797             4.603           665.156
       194   06 Jun 2027 07:57:39.437   06 Jun 2027 07:57:45.349             5.912           309.625
       195   06 Jun 2027 07:58:28.765   06 Jun 2027 07:58:28.765             0.000             0.000
       196   06 Jun 2027 07:58:46.412   06 Jun 2027 07:58:51.257             4.845          1833.344
       197   06 Jun 2027 09:28:43.481   06 Jun 2027 09:29:07.984            24.503          9136.281
       198   06 Jun 2027 09:31:11.786   06 Jun 2027 09:31:14.889             3.103          1370.812
       199   06 Jun 2027 09:32:10.915   06 Jun 2027 09:32:15.114             4.199          1182.906
       200   06 Jun 2027 09:32:42.047   06 Jun 2027 09:32:43.018             0.971           485.500
       201   06 Jun 2027 09:33:26.230   06 Jun 2027 09:33:32.098             5.868          1702.219
       202   06 Jun 2027 09:33:35.892   06 Jun 2027 09:33:36.827             0.935            26.500
       203   06 Jun 2027 09:34:45.527   06 Jun 2027 09:34:49.429             3.902          1918.625
       204   06 Jun 2027 11:05:49.929   06 Jun 2027 11:06:06.273            16.344          7191.344
       205   06 Jun 2027 11:06:13.002   06 Jun 2027 11:06:14.090             1.088            69.469
       206   06 Jun 2027 11:06:53.985   06 Jun 2027 11:06:57.222             3.237           892.031
       207   06 Jun 2027 11:07:15.400   06 Jun 2027 11:07:15.630             0.230           115.000
       208   06 Jun 2027 11:07:39.729   06 Jun 2027 11:07:42.284             2.555           854.625
       209   06 Jun 2027 11:07:53.787   06 Jun 2027 11:07:56.386             2.599           346.531
       210   06 Jun 2027 11:08:05.978   06 Jun 2027 11:08:06.918             0.940            25.875
       211   06 Jun 2027 11:08:49.442   06 Jun 2027 11:08:52.983             3.541          1028.688
       212   06 Jun 2027 11:09:11.981   06 Jun 2027 11:09:19.842             7.861           593.688
       213   06 Jun 2027 11:09:25.988   06 Jun 2027 11:09:26.325             0.337            24.219
       214   06 Jun 2027 11:09:47.139   06 Jun 2027 11:09:49.705             2.566           650.438
       215   06 Jun 2027 11:10:03.646   06 Jun 2027 11:10:07.224             3.578           170.813
       216   06 Jun 2027 11:10:13.220   06 Jun 2027 11:10:13.643             0.423           187.375
       217   06 Jun 2027 11:10:37.234   06 Jun 2027 11:10:39.180             1.946           695.719
       218   07 Jun 2027 03:16:54.172   07 Jun 2027 03:18:15.644            81.472         40736.000
       219   07 Jun 2027 03:18:23.668   07 Jun 2027 03:18:25.876             2.208          1104.000
       220   07 Jun 2027 04:53:13.346   07 Jun 2027 04:56:20.254           186.908         93454.000
       221   07 Jun 2027 06:26:42.616   07 Jun 2027 06:27:21.613            38.997         19420.031
       222   07 Jun 2027 06:29:03.849   07 Jun 2027 06:29:07.782             3.933           412.344
       223   07 Jun 2027 06:29:28.564   07 Jun 2027 06:29:28.564             0.000             0.000
       224   07 Jun 2027 06:29:34.926   07 Jun 2027 06:29:36.720             1.794           787.469
       225   07 Jun 2027 06:29:41.939   07 Jun 2027 06:29:42.577             0.638           161.312
       226   07 Jun 2027 06:29:47.802   07 Jun 2027 06:29:47.802             0.000             0.000
       227   07 Jun 2027 06:30:44.932   07 Jun 2027 06:30:50.101             5.169          1941.437
       228   07 Jun 2027 06:30:59.882   07 Jun 2027 06:31:03.501             3.619           251.719
       229   07 Jun 2027 06:31:06.319   07 Jun 2027 06:31:07.356             1.037            88.063
       230   07 Jun 2027 06:33:05.362   07 Jun 2027 06:33:13.709             8.347          3598.500
       231   07 Jun 2027 06:34:04.904   07 Jun 2027 06:34:04.961             0.057            28.500
       232   07 Jun 2027 06:34:11.766   07 Jun 2027 06:34:15.729             3.963          1640.313
       233   07 Jun 2027 06:35:11.489   07 Jun 2027 06:35:15.206             3.717          1679.312
       234   07 Jun 2027 08:04:14.944   07 Jun 2027 08:04:39.044            24.100          8774.531
       235   07 Jun 2027 08:07:10.754   07 Jun 2027 08:07:15.468             4.714          2264.719
       236   07 Jun 2027 08:07:25.015   07 Jun 2027 08:07:31.499             6.484            99.531
       237   07 Jun 2027 08:07:53.385   07 Jun 2027 08:07:55.320             1.935           551.437
       238   07 Jun 2027 08:08:25.094   07 Jun 2027 08:08:28.598             3.504           591.375
       239   07 Jun 2027 08:09:17.327   07 Jun 2027 08:09:23.089             5.762          1511.438
       240   07 Jun 2027 08:09:38.711   07 Jun 2027 08:09:38.949             0.238           119.000
       241   07 Jun 2027 08:10:28.569   07 Jun 2027 08:10:32.704             4.135          1864.844
       242   07 Jun 2027 08:10:43.492   07 Jun 2027 08:10:46.044             2.552           325.031
       243   07 Jun 2027 09:41:10.594   07 Jun 2027 09:41:29.290            18.696          9117.469
       244   07 Jun 2027 09:41:33.488   07 Jun 2027 09:41:36.750             3.262            89.250
       245   07 Jun 2027 09:41:47.684   07 Jun 2027 09:41:51.946             4.262           341.625
       246   07 Jun 2027 09:42:56.526   07 Jun 2027 09:43:00.250             3.724          1666.875
       247   07 Jun 2027 09:43:12.073   07 Jun 2027 09:43:13.407             1.334           369.469
       248   07 Jun 2027 09:44:11.615   07 Jun 2027 09:44:11.615             0.000             0.000
       249   07 Jun 2027 09:44:39.854   07 Jun 2027 09:44:41.407             1.553           776.500
       250   07 Jun 2027 09:44:47.959   07 Jun 2027 09:44:50.393             2.434           892.219
       251   07 Jun 2027 09:45:03.737   07 Jun 2027 09:45:04.528             0.791           349.875
       252   07 Jun 2027 09:45:46.442   07 Jun 2027 09:45:53.619             7.177          1309.813
       253   07 Jun 2027 09:46:36.549   07 Jun 2027 09:46:37.879             1.330           665.000
       254   07 Jun 2027 09:46:42.864   07 Jun 2027 09:46:43.076             0.212           106.000
       255   07 Jun 2027 11:18:01.752   07 Jun 2027 11:18:16.812            15.060          7209.750
       256   07 Jun 2027 11:18:55.306   07 Jun 2027 11:18:57.467             2.161          1010.094
       257   07 Jun 2027 11:19:21.699   07 Jun 2027 11:19:26.400             4.701           757.250
       258   07 Jun 2027 11:19:56.568   07 Jun 2027 11:19:56.568             0.000             0.000
       259   07 Jun 2027 11:19:58.767   07 Jun 2027 11:20:10.716            11.949           817.750
       260   07 Jun 2027 11:20:44.567   07 Jun 2027 11:20:47.456             2.889           866.563
       261   07 Jun 2027 11:21:23.348   07 Jun 2027 11:21:26.496             3.148          1121.625
       262   07 Jun 2027 11:22:04.405   07 Jun 2027 11:22:05.972             1.567           624.812
       263   07 Jun 2027 11:22:11.420   07 Jun 2027 11:22:12.477             1.057           170.250
       264   08 Jun 2027 03:28:45.823   08 Jun 2027 03:29:02.603            16.780          8390.000
       265   08 Jun 2027 03:29:21.016   08 Jun 2027 03:30:03.469            42.453         21226.500
       266   08 Jun 2027 03:30:13.358   08 Jun 2027 03:30:42.440            29.082         14541.000
       267   08 Jun 2027 03:30:48.411   08 Jun 2027 03:31:02.167            13.756          6878.000
       268   08 Jun 2027 05:05:14.669   08 Jun 2027 05:06:28.873            74.204         37102.000
       269   08 Jun 2027 05:07:15.662   08 Jun 2027 05:07:48.707            33.045         16522.500
       270   08 Jun 2027 05:08:03.407   08 Jun 2027 05:08:49.702            46.295         23147.500
       271   08 Jun 2027 06:39:22.226   08 Jun 2027 06:40:18.146            55.920         27284.375
       272   08 Jun 2027 06:41:08.629   08 Jun 2027 06:41:10.841             2.212           829.438
       273   08 Jun 2027 06:41:38.452   08 Jun 2027 06:41:40.321             1.869           844.344
       274   08 Jun 2027 06:42:10.079   08 Jun 2027 06:42:10.079             0.000             0.000
       275   08 Jun 2027 06:43:23.260   08 Jun 2027 06:43:30.389             7.129          2993.219
       276   08 Jun 2027 06:43:39.585   08 Jun 2027 06:43:40.233             0.648           287.375
       277   08 Jun 2027 06:43:41.605   08 Jun 2027 06:43:44.824             3.219            42.875
       278   08 Jun 2027 06:45:08.820   08 Jun 2027 06:45:15.570             6.750          2161.563
       279   08 Jun 2027 06:45:40.328   08 Jun 2027 06:45:41.991             1.663           539.469
       280   08 Jun 2027 06:46:05.802   08 Jun 2027 06:46:09.136             3.334           744.094
       281   08 Jun 2027 06:46:22.674   08 Jun 2027 06:46:27.080             4.406           391.094
       282   08 Jun 2027 06:46:40.317   08 Jun 2027 06:46:42.458             2.141           413.656
       283   08 Jun 2027 08:16:20.770   08 Jun 2027 08:16:41.519            20.749          9502.250
       284   08 Jun 2027 08:17:50.540   08 Jun 2027 08:17:54.122             3.582           915.625
       285   08 Jun 2027 08:18:50.619   08 Jun 2027 08:18:51.494             0.875           331.687
       286   08 Jun 2027 08:19:16.695   08 Jun 2027 08:19:18.334             1.639           787.531
       287   08 Jun 2027 08:19:38.655   08 Jun 2027 08:19:43.460             4.805           635.031
       288   08 Jun 2027 08:20:13.422   08 Jun 2027 08:20:18.354             4.932           544.344
       289   08 Jun 2027 08:20:56.332   08 Jun 2027 08:20:58.780             2.448          1186.813
       290   08 Jun 2027 08:21:19.829   08 Jun 2027 08:21:25.097             5.268           516.250
       291   08 Jun 2027 08:22:11.891   08 Jun 2027 08:22:16.636             4.745          1414.031
       292   08 Jun 2027 08:22:28.913   08 Jun 2027 08:22:29.776             0.863           354.875
       293   08 Jun 2027 08:22:44.996   08 Jun 2027 08:22:45.992             0.996           433.781
       294   08 Jun 2027 09:53:58.098   08 Jun 2027 09:54:16.584            18.486          8413.812
       295   08 Jun 2027 09:55:05.002   08 Jun 2027 09:55:09.031             4.029          1211.281
       296   08 Jun 2027 09:55:20.976   08 Jun 2027 09:55:21.991             1.015           373.281
       297   08 Jun 2027 09:56:22.772   08 Jun 2027 09:56:24.875             2.103          1009.656
       298   08 Jun 2027 09:56:33.233   08 Jun 2027 09:56:35.501             2.268           214.438
       299   08 Jun 2027 09:57:05.023   08 Jun 2027 09:57:07.125             2.102           867.469
       300   08 Jun 2027 09:57:13.534   08 Jun 2027 09:57:16.357             2.823           200.281
       301   08 Jun 2027 09:57:37.634   08 Jun 2027 09:57:45.037             7.403           490.375
       302   08 Jun 2027 09:57:57.439   08 Jun 2027 09:58:00.517             3.078           228.469
       303   08 Jun 2027 09:58:14.442   08 Jun 2027 09:58:16.048             1.606           149.000
       304   08 Jun 2027 11:30:05.181   08 Jun 2027 11:30:21.066            15.885          7538.000
       305   08 Jun 2027 11:30:45.917   08 Jun 2027 11:30:47.405             1.488           744.000
       306   08 Jun 2027 11:30:58.882   08 Jun 2027 11:31:05.066             6.184           391.250
       307   08 Jun 2027 11:31:23.319   08 Jun 2027 11:31:23.319             0.000             0.000
       308   08 Jun 2027 11:31:47.888   08 Jun 2027 11:31:54.720             6.832          1205.313
       309   08 Jun 2027 11:32:24.447   08 Jun 2027 11:32:33.345             8.898           865.781
       310   08 Jun 2027 11:34:05.151   08 Jun 2027 11:34:09.830             4.679          2339.500
       311   08 Jun 2027 11:34:14.291   08 Jun 2027 11:34:15.447             1.156           459.219
       312   08 Jun 2027 11:34:30.395   08 Jun 2027 11:34:30.395             0.000             0.000
       313   08 Jun 2027 11:34:37.106   08 Jun 2027 11:34:45.141             8.035           666.406
       314   09 Jun 2027 03:40:54.457   09 Jun 2027 03:41:03.516             9.059          4529.500
       315   09 Jun 2027 03:41:29.607   09 Jun 2027 03:42:27.057            57.450         28725.000
       316   09 Jun 2027 05:17:24.845   09 Jun 2027 05:20:31.747           186.902         93451.000
       317   09 Jun 2027 06:52:34.973   09 Jun 2027 06:53:30.019            55.046         27523.000
       318   09 Jun 2027 06:53:38.060   09 Jun 2027 06:53:39.610             1.550           769.906
       319   09 Jun 2027 06:54:18.466   09 Jun 2027 06:54:20.233             1.767           836.094
       320   09 Jun 2027 06:55:20.576   09 Jun 2027 06:55:24.852             4.276          1526.031
       321   09 Jun 2027 06:55:33.789   09 Jun 2027 06:55:34.431             0.642           229.938
       322   09 Jun 2027 06:55:55.413   09 Jun 2027 06:55:55.413             0.000             0.000
       323   09 Jun 2027 06:57:23.450   09 Jun 2027 06:57:30.338             6.888          3147.094
       324   09 Jun 2027 06:58:38.218   09 Jun 2027 06:58:40.180             1.962           981.000
       325   09 Jun 2027 06:59:08.944   09 Jun 2027 06:59:11.809             2.865          1432.500
       326   09 Jun 2027 08:28:56.967   09 Jun 2027 08:29:14.803            17.836          8602.094
       327   09 Jun 2027 08:29:44.655   09 Jun 2027 08:29:47.683             3.028           674.250
       328   09 Jun 2027 08:30:12.413   09 Jun 2027 08:30:14.648             2.235           306.438
       329   09 Jun 2027 08:30:35.371   09 Jun 2027 08:30:37.514             2.143            15.938
       330   09 Jun 2027 08:30:51.507   09 Jun 2027 08:30:55.928             4.421           319.031
       331   09 Jun 2027 08:31:20.706   09 Jun 2027 08:31:22.357             1.651           732.625
       332   09 Jun 2027 08:33:02.118   09 Jun 2027 08:33:08.147             6.029          2577.438
       333   09 Jun 2027 08:33:23.597   09 Jun 2027 08:33:29.517             5.920           252.781
       334   09 Jun 2027 08:33:55.419   09 Jun 2027 08:33:56.951             1.532           676.844
       335   09 Jun 2027 08:34:29.984   09 Jun 2027 08:34:33.022             3.038          1032.281
       336   09 Jun 2027 08:34:46.281   09 Jun 2027 08:34:50.001             3.720           414.344
       337   09 Jun 2027 10:06:15.195   09 Jun 2027 10:06:34.889            19.694          9241.469
       338   09 Jun 2027 10:07:10.855   09 Jun 2027 10:07:13.917             3.062           959.750
       339   09 Jun 2027 10:07:38.517   09 Jun 2027 10:07:40.322             1.805           512.656
       340   09 Jun 2027 10:07:40.404   09 Jun 2027 10:07:42.172             1.768             2.563
       341   09 Jun 2027 10:07:51.892   09 Jun 2027 10:07:52.610             0.718           187.375
       342   09 Jun 2027 10:07:54.815   09 Jun 2027 10:07:55.854             1.039            68.906
       343   09 Jun 2027 10:08:33.676   09 Jun 2027 10:08:33.900             0.224           112.000
       344   09 Jun 2027 10:08:59.086   09 Jun 2027 10:09:03.812             4.726          1857.000
       345   09 Jun 2027 10:09:10.842   09 Jun 2027 10:09:16.570             5.728           219.687
       346   09 Jun 2027 10:09:16.906   09 Jun 2027 10:09:18.512             1.606            10.500
       347   09 Jun 2027 10:09:40.806   09 Jun 2027 10:09:40.806             0.000             0.000
       348   09 Jun 2027 10:10:30.962   09 Jun 2027 10:10:36.098             5.136          2264.062
       349   09 Jun 2027 11:42:26.947   09 Jun 2027 11:42:40.879            13.932          6702.156
       350   09 Jun 2027 11:42:57.271   09 Jun 2027 11:42:58.304             1.033           402.594
       351   09 Jun 2027 11:43:14.952   09 Jun 2027 11:43:17.234             2.282           520.250
       352   09 Jun 2027 11:44:15.526   09 Jun 2027 11:44:18.191             2.665          1110.906
       353   09 Jun 2027 11:44:36.854   09 Jun 2027 11:44:39.284             2.430           581.187
       354   09 Jun 2027 11:45:09.793   09 Jun 2027 11:45:11.973             2.180           524.656
       355   09 Jun 2027 11:46:29.464   09 Jun 2027 11:46:34.894             5.430          2145.969
       356   09 Jun 2027 11:46:37.344   09 Jun 2027 11:46:38.123             0.779            76.562
       357   09 Jun 2027 11:46:48.828   09 Jun 2027 11:46:48.828             0.000             0.000
       358   09 Jun 2027 11:47:06.465   09 Jun 2027 11:47:06.800             0.335           167.500
       359   10 Jun 2027 03:53:34.316   10 Jun 2027 03:54:27.171            52.855         26427.500
       360   10 Jun 2027 03:56:02.228   10 Jun 2027 03:56:06.125             3.897          1948.500
       361   10 Jun 2027 05:29:20.029   10 Jun 2027 05:29:54.898            34.869         17434.500
       362   10 Jun 2027 05:29:56.486   10 Jun 2027 05:30:09.039            12.553          6276.500
       363   10 Jun 2027 05:31:28.620   10 Jun 2027 05:32:56.442            87.822         43911.000
       364   10 Jun 2027 07:04:17.606   10 Jun 2027 07:06:13.400           115.794         56262.844
       365   10 Jun 2027 07:07:24.759   10 Jun 2027 07:07:27.861             3.102           249.406
       366   10 Jun 2027 07:07:41.636   10 Jun 2027 07:07:43.149             1.513           430.469
       367   10 Jun 2027 07:07:55.766   10 Jun 2027 07:07:57.297             1.531           394.281
       368   10 Jun 2027 07:08:12.689   10 Jun 2027 07:08:13.515             0.826           357.312
       369   10 Jun 2027 07:09:21.408   10 Jun 2027 07:09:23.313             1.905           952.500
       370   10 Jun 2027 07:09:46.518   10 Jun 2027 07:09:48.413             1.895           804.500
       371   10 Jun 2027 07:10:05.681   10 Jun 2027 07:10:09.218             3.537           398.375
       372   10 Jun 2027 07:10:21.981   10 Jun 2027 07:10:22.751             0.770           385.000
       373   10 Jun 2027 07:10:32.844   10 Jun 2027 07:10:35.311             2.467           329.250
       374   10 Jun 2027 07:11:15.790   10 Jun 2027 07:11:17.563             1.773           886.500
       375   10 Jun 2027 08:40:29.871   10 Jun 2027 08:40:54.066            24.195         11679.875
       376   10 Jun 2027 08:41:38.253   10 Jun 2027 08:41:40.713             2.460           884.250
       377   10 Jun 2027 08:42:13.270   10 Jun 2027 08:42:19.071             5.801            59.750
       378   10 Jun 2027 08:42:47.115   10 Jun 2027 08:42:49.799             2.684           774.250
       379   10 Jun 2027 08:43:22.276   10 Jun 2027 08:43:22.699             0.423           211.500
       380   10 Jun 2027 08:44:03.784   10 Jun 2027 08:44:07.808             4.024          1601.250
       381   10 Jun 2027 08:44:25.938   10 Jun 2027 08:44:29.012             3.074           566.562
       382   10 Jun 2027 08:44:58.487   10 Jun 2027 08:45:03.371             4.884           871.187
       383   10 Jun 2027 08:45:17.048   10 Jun 2027 08:45:24.728             7.680           374.719
       384   10 Jun 2027 08:45:41.028   10 Jun 2027 08:45:42.939             1.911           509.375
       385   10 Jun 2027 08:46:51.003   10 Jun 2027 08:46:56.106             5.103          1908.125
       386   10 Jun 2027 10:18:30.536   10 Jun 2027 10:18:50.880            20.344         10086.688
       387   10 Jun 2027 10:19:33.535   10 Jun 2027 10:19:36.204             2.669          1144.062
       388   10 Jun 2027 10:19:56.553   10 Jun 2027 10:20:01.852             5.299           229.125
       389   10 Jun 2027 10:20:02.319   10 Jun 2027 10:20:09.393             7.074            14.594
       390   10 Jun 2027 10:20:22.271   10 Jun 2027 10:20:22.420             0.149            50.375
       391   10 Jun 2027 10:20:41.470   10 Jun 2027 10:20:43.744             2.274           244.500
       392   10 Jun 2027 10:21:06.742   10 Jun 2027 10:21:09.150             2.408           718.688
       393   10 Jun 2027 10:21:27.731   10 Jun 2027 10:21:32.220             4.489           461.031
       394   10 Jun 2027 10:22:32.114   10 Jun 2027 10:22:38.806             6.692          1871.688
       395   10 Jun 2027 10:22:40.228   10 Jun 2027 10:22:42.054             1.826            44.437
       396   10 Jun 2027 11:54:11.079   10 Jun 2027 11:54:28.850            17.771          7779.938
       397   10 Jun 2027 11:54:59.924   10 Jun 2027 11:55:00.389             0.465           232.500
       398   10 Jun 2027 11:55:40.648   10 Jun 2027 11:55:43.137             2.489          1244.500
       399   10 Jun 2027 11:56:22.022   10 Jun 2027 11:56:26.289             4.267          1441.656
       400   10 Jun 2027 11:56:33.943   10 Jun 2027 11:56:35.250             1.307           239.188
       401   10 Jun 2027 11:56:47.967   10 Jun 2027 11:56:54.607             6.640           366.344
       402   10 Jun 2027 11:57:53.461   10 Jun 2027 11:57:57.738             4.277          1826.812
       403   10 Jun 2027 11:58:40.975   10 Jun 2027 11:58:44.341             3.366          1068.563
       404   10 Jun 2027 11:58:53.851   10 Jun 2027 11:58:55.757             1.906           297.187
       405   10 Jun 2027 11:59:05.896   10 Jun 2027 11:59:11.368             5.472           309.750
       406   11 Jun 2027 04:04:23.914   11 Jun 2027 04:06:07.493           103.579         51789.500
       407   11 Jun 2027 05:39:56.040   11 Jun 2027 05:40:02.265             6.225          3112.500
       408   11 Jun 2027 05:41:05.718   11 Jun 2027 05:42:03.698            57.980         28990.000
       409   11 Jun 2027 05:42:10.775   11 Jun 2027 05:43:00.188            49.413         24706.500
       410   11 Jun 2027 05:44:13.678   11 Jun 2027 05:45:17.004            63.326         31663.000
       411   11 Jun 2027 07:15:51.366   11 Jun 2027 07:16:36.271            44.905         22071.969
       412   11 Jun 2027 07:17:52.569   11 Jun 2027 07:17:53.568             0.999           394.937
       413   11 Jun 2027 07:18:00.311   11 Jun 2027 07:18:02.602             2.291           181.531
       414   11 Jun 2027 07:18:43.795   11 Jun 2027 07:18:46.163             2.368           605.844
       415   11 Jun 2027 07:19:07.530   11 Jun 2027 07:19:09.181             1.651           558.219
       416   11 Jun 2027 07:19:10.224   11 Jun 2027 07:19:10.414             0.190            14.563
       417   11 Jun 2027 07:19:27.424   11 Jun 2027 07:19:29.459             2.035           531.563
       418   11 Jun 2027 07:20:21.820   11 Jun 2027 07:20:24.603             2.783          1326.438
       419   11 Jun 2027 07:20:36.441   11 Jun 2027 07:20:39.414             2.973           291.719
       420   11 Jun 2027 07:20:59.289   11 Jun 2027 07:21:01.470             2.181           463.594
       421   11 Jun 2027 07:21:15.797   11 Jun 2027 07:21:20.676             4.879           437.844
       422   11 Jun 2027 07:21:49.446   11 Jun 2027 07:21:52.642             3.196           840.313
       423   11 Jun 2027 07:22:43.217   11 Jun 2027 07:22:46.365             3.148          1349.625
       424   11 Jun 2027 08:52:51.122   11 Jun 2027 08:53:13.630            22.508         10602.094
       425   11 Jun 2027 08:53:33.302   11 Jun 2027 08:53:34.899             1.597           536.063
       426   11 Jun 2027 08:54:09.378   11 Jun 2027 08:54:12.366             2.988           936.531
       427   11 Jun 2027 08:54:34.985   11 Jun 2027 08:54:39.864             4.879           706.844
       428   11 Jun 2027 08:54:48.564   11 Jun 2027 08:54:49.373             0.809           131.219
       429   11 Jun 2027 08:54:58.935   11 Jun 2027 08:55:00.146             1.211            47.563
       430   11 Jun 2027 08:56:12.031   11 Jun 2027 08:56:16.446             4.415          1532.406
       431   11 Jun 2027 08:56:49.237   11 Jun 2027 08:56:55.373             6.136           778.906
       432   11 Jun 2027 08:58:09.129   11 Jun 2027 08:58:14.222             5.093          2304.875
       433   11 Jun 2027 08:58:24.155   11 Jun 2027 08:58:26.154             1.999           310.406
       434   11 Jun 2027 08:58:50.299   11 Jun 2027 08:58:52.245             1.946           666.906
       435   11 Jun 2027 10:30:52.172   11 Jun 2027 10:31:09.047            16.875          7925.219
       436   11 Jun 2027 10:31:28.415   11 Jun 2027 10:31:35.390             6.975           566.719
       437   11 Jun 2027 10:31:54.035   11 Jun 2027 10:31:56.923             2.888           363.906
       438   11 Jun 2027 10:32:12.979   11 Jun 2027 10:32:13.943             0.964           405.906
       439   11 Jun 2027 10:32:44.182   11 Jun 2027 10:32:45.487             1.305           622.344
       440   11 Jun 2027 10:33:51.210   11 Jun 2027 10:33:59.196             7.986          2053.844
       441   11 Jun 2027 10:34:15.749   11 Jun 2027 10:34:16.998             1.249           132.312
       442   12 Jun 2027 04:15:40.205   12 Jun 2027 04:16:53.852            73.647         36823.500
       443   12 Jun 2027 04:17:40.430   12 Jun 2027 04:18:04.493            24.063         12031.500
       444   12 Jun 2027 04:20:35.618   12 Jun 2027 04:20:45.321             9.703          4851.500
       445   12 Jun 2027 05:50:48.288   12 Jun 2027 05:52:12.882            84.594         42297.000
       446   12 Jun 2027 05:53:29.210   12 Jun 2027 05:54:30.851            61.641         30820.500
       447   12 Jun 2027 05:55:54.248   12 Jun 2027 05:56:11.504            17.256          8628.000
       448   12 Jun 2027 05:56:19.619   12 Jun 2027 05:56:36.220            16.601          8300.500
       449   12 Jun 2027 05:56:40.649   12 Jun 2027 05:56:53.388            12.739          6369.500
       450   12 Jun 2027 07:27:59.344   12 Jun 2027 07:28:43.864            44.520         22221.031
       451   12 Jun 2027 07:29:38.935   12 Jun 2027 07:29:39.855             0.920           221.344
       452   12 Jun 2027 07:30:25.420   12 Jun 2027 07:30:27.785             2.365           887.656
       453   12 Jun 2027 07:30:52.057   12 Jun 2027 07:30:53.545             1.488           458.844
       454   12 Jun 2027 07:30:58.404   12 Jun 2027 07:30:58.404             0.000             0.000
       455   12 Jun 2027 07:31:01.062   12 Jun 2027 07:31:04.648             3.586           233.781
       456   12 Jun 2027 07:32:19.536   12 Jun 2027 07:32:25.074             5.538          2340.250
       457   12 Jun 2027 07:32:39.078   12 Jun 2027 07:32:42.406             3.328           400.313
       458   12 Jun 2027 07:33:39.905   12 Jun 2027 07:33:46.177             6.272          1796.844
       459   12 Jun 2027 07:33:52.231   12 Jun 2027 07:33:55.602             3.371           189.187
       460   12 Jun 2027 07:34:47.295   12 Jun 2027 07:34:54.629             7.334          1468.531
       461   12 Jun 2027 07:34:56.384   12 Jun 2027 07:34:58.427             2.043            54.844
       462   12 Jun 2027 09:04:56.647   12 Jun 2027 09:05:21.495            24.848         10142.375
       463   12 Jun 2027 09:06:05.469   12 Jun 2027 09:06:08.035             2.566          1217.656
       464   12 Jun 2027 09:07:07.491   12 Jun 2027 09:07:12.855             5.364          1851.812
       465   12 Jun 2027 09:07:25.291   12 Jun 2027 09:07:25.910             0.619            78.656
       466   12 Jun 2027 09:08:02.733   12 Jun 2027 09:08:05.280             2.547          1150.719
       467   12 Jun 2027 09:09:00.609   12 Jun 2027 09:09:03.784             3.175          1023.531
       468   12 Jun 2027 09:09:06.014   12 Jun 2027 09:09:06.136             0.122            26.687
       469   12 Jun 2027 09:09:38.384   12 Jun 2027 09:09:40.736             2.352           818.813
       470   12 Jun 2027 09:10:05.615   12 Jun 2027 09:10:07.671             2.056           736.125
       471   12 Jun 2027 09:10:38.049   12 Jun 2027 09:10:40.996             2.947           704.187
       472   12 Jun 2027 10:42:49.665   12 Jun 2027 10:43:06.552            16.887          8443.500
       473   12 Jun 2027 10:43:53.039   12 Jun 2027 10:43:58.709             5.670          1608.844
       474   12 Jun 2027 10:44:16.496   12 Jun 2027 10:44:20.015             3.519           407.281
       475   12 Jun 2027 10:44:44.919   12 Jun 2027 10:44:48.837             3.918           581.875
       476   12 Jun 2027 10:44:51.587   12 Jun 2027 10:44:53.674             2.087            85.937
       477   12 Jun 2027 10:45:59.699   12 Jun 2027 10:46:06.512             6.813          1718.938
       478   13 Jun 2027 03:06:12.538   13 Jun 2027 03:06:16.225             3.687          1843.500
       479   13 Jun 2027 04:27:25.133   13 Jun 2027 04:28:44.164            79.031         39515.500
       480   13 Jun 2027 04:29:28.221   13 Jun 2027 04:31:04.447            96.226         48113.000
       481   13 Jun 2027 06:02:17.634   13 Jun 2027 06:04:17.858           120.224         59792.313
       482   13 Jun 2027 06:05:32.307   13 Jun 2027 06:05:32.307             0.000             0.000
       483   13 Jun 2027 06:05:46.806   13 Jun 2027 06:05:50.016             3.210          1605.000
       484   13 Jun 2027 06:06:58.702   13 Jun 2027 06:07:06.145             7.443          3109.094
       485   13 Jun 2027 06:08:29.731   13 Jun 2027 06:08:36.646             6.915          2569.812
       486   13 Jun 2027 06:09:13.569   13 Jun 2027 06:09:17.406             3.837           883.437
       487   13 Jun 2027 06:09:46.789   13 Jun 2027 06:09:50.188             3.399           918.219
       488   13 Jun 2027 06:10:52.523   13 Jun 2027 06:10:56.124             3.601          1513.031
       489   13 Jun 2027 07:40:00.651   13 Jun 2027 07:40:20.110            19.459          9528.937
       490   13 Jun 2027 07:40:49.751   13 Jun 2027 07:40:51.803             2.052           372.031
       491   13 Jun 2027 07:41:46.423   13 Jun 2027 07:41:54.210             7.787           876.500
       492   13 Jun 2027 07:42:23.293   13 Jun 2027 07:42:23.293             0.000             0.000
       493   13 Jun 2027 07:42:47.032   13 Jun 2027 07:42:52.416             5.384          1332.187
       494   13 Jun 2027 07:43:01.099   13 Jun 2027 07:43:01.760             0.661           271.344
       495   13 Jun 2027 07:43:35.432   13 Jun 2027 07:43:38.001             2.569           489.281
       496   13 Jun 2027 07:43:50.406   13 Jun 2027 07:43:53.725             3.319           387.656
       497   13 Jun 2027 07:44:13.662   13 Jun 2027 07:44:15.071             1.409            94.187
       498   13 Jun 2027 07:44:31.647   13 Jun 2027 07:44:35.120             3.473           390.563
       499   13 Jun 2027 07:44:42.689   13 Jun 2027 07:44:46.132             3.443            76.437
       500   13 Jun 2027 07:46:04.085   13 Jun 2027 07:46:12.070             7.985          2338.375
       501   13 Jun 2027 07:47:01.777   13 Jun 2027 07:47:07.190             5.413          1553.344
       502   13 Jun 2027 09:16:48.849   13 Jun 2027 09:17:07.513            18.664          9332.000
       503   13 Jun 2027 09:17:10.688   13 Jun 2027 09:17:13.608             2.920           208.031
       504   13 Jun 2027 09:18:37.730   13 Jun 2027 09:18:40.026             2.296          1120.719
       505   13 Jun 2027 09:18:47.908   13 Jun 2027 09:18:49.304             1.396            16.969
       506   13 Jun 2027 09:19:26.606   13 Jun 2027 09:19:28.762             2.156          1016.750
       507   13 Jun 2027 09:20:38.707   13 Jun 2027 09:20:43.422             4.715          1750.781
       508   13 Jun 2027 09:20:47.288   13 Jun 2027 09:20:48.659             1.371           110.906
       509   13 Jun 2027 09:21:05.702   13 Jun 2027 09:21:11.771             6.069           384.562
       510   13 Jun 2027 09:21:46.874   13 Jun 2027 09:21:49.248             2.374           922.219
       511   13 Jun 2027 09:21:59.017   13 Jun 2027 09:22:03.131             4.114           305.281
       512   13 Jun 2027 09:22:17.506   13 Jun 2027 09:22:18.273             0.767            63.375
       513   13 Jun 2027 09:22:51.535   13 Jun 2027 09:22:54.127             2.592           874.875
       514   13 Jun 2027 09:22:57.061   13 Jun 2027 09:23:00.069             3.008            91.687
       515   13 Jun 2027 09:23:14.949   13 Jun 2027 09:23:16.629             1.680           319.938
       516   13 Jun 2027 10:54:50.852   13 Jun 2027 10:55:06.257            15.405          7659.281
       517   13 Jun 2027 10:56:03.769   13 Jun 2027 10:56:05.547             1.778           889.000
       518   13 Jun 2027 10:56:08.586   13 Jun 2027 10:56:12.442             3.856           962.969
       519   13 Jun 2027 10:56:54.893   13 Jun 2027 10:56:57.391             2.498          1020.094
       520   13 Jun 2027 10:57:08.512   13 Jun 2027 10:57:09.055             0.543           174.031
       521   13 Jun 2027 10:57:22.250   13 Jun 2027 10:57:29.192             6.942           350.813
       522   13 Jun 2027 10:58:12.078   13 Jun 2027 10:58:14.615             2.537          1267.594
       523   13 Jun 2027 10:58:24.421   13 Jun 2027 10:58:25.593             1.172           151.187
       524   13 Jun 2027 10:58:47.610   13 Jun 2027 10:58:51.389             3.779           432.562
