uniorb/output/strategy_2/Camera/Camera_KinoSat_111410.txt

KinoSat_111410
-------------------------
    Access    *     Start Time (UTCG)     *     Stop Time (UTCG)  *   Duration (s) *   Data (Mbytes)
         1   01 Jun 2027 04:12:14.647   01 Jun 2027 04:14:27.528           132.881         66440.500
         2   01 Jun 2027 04:14:58.743   01 Jun 2027 04:15:35.489            36.746         18373.000
         3   01 Jun 2027 04:15:52.372   01 Jun 2027 04:15:52.372             0.000             0.000
         4   01 Jun 2027 05:35:36.721   01 Jun 2027 05:37:05.967            89.246         44623.000
         5   01 Jun 2027 05:37:17.567   01 Jun 2027 05:37:49.003            31.436         15718.000
         6   01 Jun 2027 07:11:58.768   01 Jun 2027 07:14:38.287           159.519         79759.500
         7   01 Jun 2027 07:14:55.344   01 Jun 2027 07:15:02.059             6.715          3357.500
         8   01 Jun 2027 08:46:02.805   01 Jun 2027 08:48:06.243           123.438         61719.000
         9   01 Jun 2027 08:49:09.603   01 Jun 2027 08:49:11.204             1.601           800.500
        10   01 Jun 2027 08:49:17.546   01 Jun 2027 08:49:21.418             3.872          1936.000
        11   01 Jun 2027 08:50:57.544   01 Jun 2027 08:51:14.257            16.713          8356.500
        12   01 Jun 2027 08:51:18.801   01 Jun 2027 08:51:39.188            20.387         10193.500
        13   01 Jun 2027 08:52:32.787   01 Jun 2027 08:52:38.575             5.788          2894.000
        14   01 Jun 2027 08:53:54.050   01 Jun 2027 08:53:58.342             4.292          2146.000
        15   01 Jun 2027 10:23:07.402   01 Jun 2027 10:26:01.202           173.800         86900.000
        16   01 Jun 2027 10:26:19.789   01 Jun 2027 10:26:23.306             3.517          1758.500
        17   01 Jun 2027 10:29:02.162   01 Jun 2027 10:29:10.714             8.552          4276.000
        18   01 Jun 2027 10:29:17.389   01 Jun 2027 10:29:24.192             6.803          3401.500
        19   02 Jun 2027 04:25:07.173   02 Jun 2027 04:28:04.649           177.476         88738.000
        20   02 Jun 2027 05:47:40.366   02 Jun 2027 05:48:56.116            75.750         37875.000
        21   02 Jun 2027 05:50:28.510   02 Jun 2027 05:50:29.037             0.527           263.500
        22   02 Jun 2027 07:24:09.494   02 Jun 2027 07:27:04.002           174.508         87254.000
        23   02 Jun 2027 08:59:14.505   02 Jun 2027 09:01:35.094           140.589         69672.312
        24   02 Jun 2027 09:01:55.282   02 Jun 2027 09:01:59.286             4.004           577.813
        25   02 Jun 2027 09:03:14.064   02 Jun 2027 09:03:17.800             3.736          1791.062
        26   02 Jun 2027 09:05:53.587   02 Jun 2027 09:06:02.293             8.706          4353.000
        27   02 Jun 2027 10:35:36.578   02 Jun 2027 10:35:53.145            16.567          8167.156
        28   02 Jun 2027 10:36:18.704   02 Jun 2027 10:36:19.469             0.765           342.437
        29   02 Jun 2027 10:37:28.517   02 Jun 2027 10:37:29.117             0.600           300.000
        30   02 Jun 2027 10:37:46.159   02 Jun 2027 10:37:52.180             6.021          2151.750
        31   02 Jun 2027 10:37:58.929   02 Jun 2027 10:38:00.539             1.610           147.344
        32   02 Jun 2027 10:38:22.454   02 Jun 2027 10:38:24.716             2.262           644.812
        33   02 Jun 2027 10:38:59.918   02 Jun 2027 10:39:01.782             1.864           892.781
        34   02 Jun 2027 10:39:13.462   02 Jun 2027 10:39:14.726             1.264           365.000
        35   02 Jun 2027 10:39:36.271   02 Jun 2027 10:39:38.332             2.061           543.187
        36   02 Jun 2027 10:40:12.943   02 Jun 2027 10:40:15.129             2.186          1027.906
        37   02 Jun 2027 10:40:23.702   02 Jun 2027 10:40:27.280             3.578           240.062
        38   02 Jun 2027 10:40:36.756   02 Jun 2027 10:40:42.575             5.819           208.406
        39   02 Jun 2027 10:41:14.454   02 Jun 2027 10:41:19.361             4.907           996.219
        40   02 Jun 2027 10:41:21.087   02 Jun 2027 10:41:21.160             0.073            32.469
        41   02 Jun 2027 10:41:39.757   02 Jun 2027 10:41:43.427             3.670           581.156
        42   02 Jun 2027 10:41:44.534   02 Jun 2027 10:41:45.842             1.308            30.781
        43   03 Jun 2027 03:00:00.000   03 Jun 2027 03:00:18.443            18.443          9221.500
        44   03 Jun 2027 03:00:35.610   03 Jun 2027 03:01:05.833            30.223         15111.500
        45   03 Jun 2027 03:01:10.519   03 Jun 2027 03:01:12.072             1.553           776.500
        46   03 Jun 2027 03:01:20.142   03 Jun 2027 03:01:27.965             7.823          3911.500
        47   03 Jun 2027 03:01:39.400   03 Jun 2027 03:01:44.615             5.215          2607.500
        48   03 Jun 2027 03:01:44.963   03 Jun 2027 03:01:56.495            11.532          5766.000
        49   03 Jun 2027 03:03:04.625   03 Jun 2027 03:03:09.491             4.866          2433.000
        50   03 Jun 2027 03:03:34.703   03 Jun 2027 03:03:34.949             0.246           123.000
        51   03 Jun 2027 03:03:49.916   03 Jun 2027 03:03:49.916             0.000             0.000
        52   03 Jun 2027 04:36:16.593   03 Jun 2027 04:36:54.077            37.484         18742.000
        53   03 Jun 2027 04:37:06.576   03 Jun 2027 04:39:20.396           133.820         66910.000
        54   03 Jun 2027 05:59:36.533   03 Jun 2027 06:00:31.421            54.888         27444.000
        55   03 Jun 2027 06:01:09.845   03 Jun 2027 06:01:20.697            10.852          5426.000
        56   03 Jun 2027 07:36:14.301   03 Jun 2027 07:36:27.268            12.967          5291.938
        57   03 Jun 2027 07:37:23.999   03 Jun 2027 07:37:24.320             0.321           160.500
        58   03 Jun 2027 07:37:28.831   03 Jun 2027 07:37:32.482             3.651           919.062
        59   03 Jun 2027 07:38:29.325   03 Jun 2027 07:38:29.325             0.000             0.000
        60   03 Jun 2027 07:38:50.485   03 Jun 2027 07:38:59.124             8.639          2179.812
        61   03 Jun 2027 09:11:24.696   03 Jun 2027 09:11:29.412             4.716          2358.000
        62   03 Jun 2027 09:11:36.533   03 Jun 2027 09:11:41.256             4.723          1419.250
        63   03 Jun 2027 09:13:49.343   03 Jun 2027 09:13:58.365             9.022          1726.375
        64   03 Jun 2027 09:14:41.792   03 Jun 2027 09:14:42.546             0.754           377.000
        65   03 Jun 2027 09:16:39.046   03 Jun 2027 09:16:43.707             4.661          2330.500
        66   03 Jun 2027 09:16:56.420   03 Jun 2027 09:17:02.101             5.681          2123.969
        67   03 Jun 2027 09:17:35.613   03 Jun 2027 09:17:38.441             2.828          1047.250
        68   03 Jun 2027 09:17:56.283   03 Jun 2027 09:18:00.913             4.630           393.469
        69   03 Jun 2027 10:47:38.725   03 Jun 2027 10:47:52.373            13.648          5929.750
        70   03 Jun 2027 10:48:55.677   03 Jun 2027 10:49:02.226             6.549          1964.187
        71   03 Jun 2027 10:49:34.863   03 Jun 2027 10:49:38.739             3.876           180.281
        72   03 Jun 2027 10:49:49.803   03 Jun 2027 10:49:53.121             3.318           337.750
        73   03 Jun 2027 10:49:58.816   03 Jun 2027 10:49:59.971             1.155            39.844
        74   03 Jun 2027 10:50:06.117   03 Jun 2027 10:50:06.722             0.605           180.156
        75   03 Jun 2027 10:50:24.317   03 Jun 2027 10:50:26.317             2.000           549.844
        76   03 Jun 2027 10:51:41.662   03 Jun 2027 10:51:46.304             4.642          2037.250
        77   03 Jun 2027 10:52:45.811   03 Jun 2027 10:52:51.282             5.471          1859.594
        78   03 Jun 2027 10:53:16.358   03 Jun 2027 10:53:18.701             2.343           561.094
        79   03 Jun 2027 10:53:27.943   03 Jun 2027 10:53:29.108             1.165           288.813
        80   03 Jun 2027 10:53:38.891   03 Jun 2027 10:53:40.365             1.474           156.219
        81   04 Jun 2027 03:11:07.995   04 Jun 2027 03:13:35.472           147.477         73738.500
        82   04 Jun 2027 03:16:18.678   04 Jun 2027 03:16:22.496             3.818          1909.000
        83   04 Jun 2027 03:17:23.742   04 Jun 2027 03:17:49.447            25.705         12852.500
        84   04 Jun 2027 03:18:01.871   04 Jun 2027 03:18:15.902            14.031          7015.500
        85   04 Jun 2027 03:18:27.757   04 Jun 2027 03:18:57.746            29.989         14994.500
        86   04 Jun 2027 04:37:25.518   04 Jun 2027 04:37:28.238             2.720          1360.000
        87   04 Jun 2027 04:48:13.941   04 Jun 2027 04:50:06.286           112.345         55785.344
        88   04 Jun 2027 06:12:12.481   04 Jun 2027 06:12:27.301            14.820          7170.313
        89   04 Jun 2027 06:14:26.959   04 Jun 2027 06:14:32.491             5.532          2766.000
        90   04 Jun 2027 06:14:42.198   04 Jun 2027 06:14:49.945             7.747          1025.375
        91   04 Jun 2027 07:47:58.192   04 Jun 2027 07:48:11.610            13.418          4998.312
        92   04 Jun 2027 07:49:18.270   04 Jun 2027 07:49:26.144             7.874          2001.937
        93   04 Jun 2027 07:49:42.572   04 Jun 2027 07:49:46.744             4.172           206.094
        94   04 Jun 2027 07:50:10.054   04 Jun 2027 07:50:17.403             7.349           124.937
        95   04 Jun 2027 07:50:39.379   04 Jun 2027 07:50:43.149             3.770           361.594
        96   04 Jun 2027 07:50:57.238   04 Jun 2027 07:51:02.689             5.451           440.281
        97   04 Jun 2027 09:22:48.915   04 Jun 2027 09:22:58.414             9.499          3795.781
        98   04 Jun 2027 09:23:08.618   04 Jun 2027 09:23:10.621             2.003           244.938
        99   04 Jun 2027 09:24:54.859   04 Jun 2027 09:25:03.195             8.336          2955.875
       100   04 Jun 2027 09:25:35.812   04 Jun 2027 09:25:39.762             3.950           307.594
       101   04 Jun 2027 09:26:44.899   04 Jun 2027 09:26:51.286             6.387          1271.844
       102   04 Jun 2027 09:27:21.220   04 Jun 2027 09:27:23.246             2.026           586.531
       103   04 Jun 2027 09:29:36.316   04 Jun 2027 09:29:44.715             8.399          4158.438
       104   04 Jun 2027 09:29:54.623   04 Jun 2027 09:29:54.623             0.000             0.000
       105   04 Jun 2027 10:59:24.922   04 Jun 2027 10:59:37.565            12.643          6295.406
       106   04 Jun 2027 11:01:12.034   04 Jun 2027 11:01:18.233             6.199          2304.906
       107   04 Jun 2027 11:01:38.378   04 Jun 2027 11:01:42.529             4.151           567.500
       108   04 Jun 2027 11:01:56.619   04 Jun 2027 11:01:57.774             1.155           440.313
       109   04 Jun 2027 11:02:22.561   04 Jun 2027 11:02:25.317             2.756           567.969
       110   04 Jun 2027 11:02:29.198   04 Jun 2027 11:02:31.269             2.071           121.281
       111   04 Jun 2027 11:02:55.929   04 Jun 2027 11:03:01.090             5.161           611.250
       112   04 Jun 2027 11:03:18.656   04 Jun 2027 11:03:21.279             2.623           327.188
       113   04 Jun 2027 11:03:38.303   04 Jun 2027 11:03:40.570             2.267           479.594
       114   04 Jun 2027 11:04:29.090   04 Jun 2027 11:04:33.168             4.078          1193.344
       115   04 Jun 2027 11:05:16.163   04 Jun 2027 11:05:22.129             5.966          1254.563
       116   04 Jun 2027 11:05:42.943   04 Jun 2027 11:05:42.943             0.000             0.000
       117   05 Jun 2027 03:23:28.498   05 Jun 2027 03:26:33.261           184.763         92381.500
       118   05 Jun 2027 03:27:44.169   05 Jun 2027 03:27:52.427             8.258          4129.000
       119   05 Jun 2027 03:27:55.532   05 Jun 2027 03:28:14.197            18.665          9332.500
       120   05 Jun 2027 03:28:53.887   05 Jun 2027 03:29:11.819            17.932          8966.000
       121   05 Jun 2027 03:29:27.353   05 Jun 2027 03:29:32.324             4.971          2485.500
       122   05 Jun 2027 03:29:51.667   05 Jun 2027 03:30:04.222            12.555          6277.500
       123   05 Jun 2027 04:48:51.190   05 Jun 2027 04:49:05.869            14.679          7339.500
       124   05 Jun 2027 05:00:12.307   05 Jun 2027 05:01:12.055            59.748         29818.312
       125   05 Jun 2027 05:01:15.956   05 Jun 2027 05:01:16.976             1.020           121.906
       126   05 Jun 2027 06:22:51.449   05 Jun 2027 06:23:08.928            17.479          8733.000
       127   05 Jun 2027 06:24:26.933   05 Jun 2027 06:24:30.476             3.543          1381.219
       128   05 Jun 2027 06:24:42.944   05 Jun 2027 06:24:43.297             0.353            78.781
       129   05 Jun 2027 06:26:34.492   05 Jun 2027 06:26:41.220             6.728          3195.250
       130   05 Jun 2027 06:27:25.909   05 Jun 2027 06:27:30.143             4.234          1275.938
       131   05 Jun 2027 07:58:08.584   05 Jun 2027 07:58:18.332             9.748          3976.969
       132   05 Jun 2027 07:59:42.763   05 Jun 2027 07:59:47.385             4.622          1623.219
       133   05 Jun 2027 08:01:19.235   05 Jun 2027 08:01:27.695             8.460          2723.000
       134   05 Jun 2027 08:01:32.913   05 Jun 2027 08:01:36.973             4.060           163.063
       135   05 Jun 2027 08:02:22.664   05 Jun 2027 08:02:25.630             2.966            83.438
       136   05 Jun 2027 08:03:06.648   05 Jun 2027 08:03:09.713             3.065           903.625
       137   05 Jun 2027 08:03:22.349   05 Jun 2027 08:03:26.277             3.928           394.875
       138   05 Jun 2027 08:03:29.620   05 Jun 2027 08:03:34.119             4.499            82.031
       139   05 Jun 2027 08:03:48.936   05 Jun 2027 08:03:48.936             0.000             0.000
       140   05 Jun 2027 08:03:50.394   05 Jun 2027 08:03:51.660             1.266           343.219
       141   05 Jun 2027 09:34:42.725   05 Jun 2027 09:34:51.595             8.870          3604.375
       142   05 Jun 2027 09:38:00.143   05 Jun 2027 09:38:08.203             8.060          4030.000
       143   05 Jun 2027 09:38:23.331   05 Jun 2027 09:38:28.210             4.879          2173.875
       144   05 Jun 2027 09:39:17.788   05 Jun 2027 09:39:20.925             3.137          1462.219
       145   05 Jun 2027 09:39:28.877   05 Jun 2027 09:39:29.868             0.991           122.000
       146   05 Jun 2027 09:41:22.835   05 Jun 2027 09:41:31.939             9.104          3530.219
       147   05 Jun 2027 09:41:46.357   05 Jun 2027 09:41:48.909             2.552           307.344
       148   05 Jun 2027 09:41:51.353   05 Jun 2027 09:41:52.418             1.065            76.375
       149   05 Jun 2027 11:11:46.239   05 Jun 2027 11:11:58.814            12.575          5915.906
       150   05 Jun 2027 11:13:08.250   05 Jun 2027 11:13:12.421             4.171          2019.344
       151   05 Jun 2027 11:13:32.225   05 Jun 2027 11:13:33.837             1.612           618.875
       152   05 Jun 2027 11:13:43.782   05 Jun 2027 11:13:45.058             1.276           310.781
       153   05 Jun 2027 11:14:28.185   05 Jun 2027 11:14:34.941             6.756          1056.594
       154   05 Jun 2027 11:15:05.973   05 Jun 2027 11:15:08.944             2.971           956.469
       155   05 Jun 2027 11:15:55.223   05 Jun 2027 11:15:55.223             0.000             0.000
       156   05 Jun 2027 11:16:11.328   05 Jun 2027 11:16:15.806             4.478          1485.750
       157   05 Jun 2027 11:16:26.176   05 Jun 2027 11:16:28.090             1.914           324.063
       158   05 Jun 2027 11:17:00.633   05 Jun 2027 11:17:06.733             6.100           914.531
       159   05 Jun 2027 11:17:20.421   05 Jun 2027 11:17:23.575             3.154           427.750
       160   05 Jun 2027 11:17:44.397   05 Jun 2027 11:17:46.309             1.912           539.594
       161   06 Jun 2027 03:35:42.937   06 Jun 2027 03:38:15.503           152.566         76283.000
       162   06 Jun 2027 03:39:14.962   06 Jun 2027 03:39:36.060            21.098         10549.000
       163   06 Jun 2027 03:39:46.055   06 Jun 2027 03:40:11.397            25.342         12671.000
       164   06 Jun 2027 03:41:35.932   06 Jun 2027 03:41:51.758            15.826          7913.000
       165   06 Jun 2027 03:42:32.120   06 Jun 2027 03:42:48.378            16.258          8129.000
       166   06 Jun 2027 04:59:58.839   06 Jun 2027 05:00:51.858            53.019         26509.500
       167   06 Jun 2027 05:12:11.507   06 Jun 2027 05:12:53.173            41.666         20345.749
       168   06 Jun 2027 05:13:04.520   06 Jun 2027 05:13:05.295             0.775           354.594
       169   06 Jun 2027 06:34:27.345   06 Jun 2027 06:34:43.391            16.046          7709.156
       170   06 Jun 2027 06:35:00.213   06 Jun 2027 06:35:04.816             4.603           487.062
       171   06 Jun 2027 06:35:24.519   06 Jun 2027 06:35:27.290             2.771           187.031
       172   06 Jun 2027 06:36:32.782   06 Jun 2027 06:36:34.762             1.980           854.219
       173   06 Jun 2027 06:36:44.783   06 Jun 2027 06:36:46.894             2.111           131.656
       174   06 Jun 2027 06:38:33.043   06 Jun 2027 06:38:37.805             4.762          2381.000
       175   06 Jun 2027 06:38:47.827   06 Jun 2027 06:38:55.370             7.543           979.406
       176   06 Jun 2027 06:39:42.871   06 Jun 2027 06:39:45.178             2.307          1153.500
       177   06 Jun 2027 08:09:20.142   06 Jun 2027 08:09:32.068            11.926          5474.906
       178   06 Jun 2027 08:09:58.623   06 Jun 2027 08:10:00.986             2.363           151.531
       179   06 Jun 2027 08:10:40.737   06 Jun 2027 08:10:41.520             0.783           197.250
       180   06 Jun 2027 08:11:43.980   06 Jun 2027 08:11:48.086             4.106          1519.125
       181   06 Jun 2027 08:14:40.671   06 Jun 2027 08:14:56.929            16.258          5062.094
       182   06 Jun 2027 08:15:44.472   06 Jun 2027 08:15:50.838             6.366          1106.000
       183   06 Jun 2027 08:16:11.868   06 Jun 2027 08:16:13.675             1.807           657.187
       184   06 Jun 2027 09:46:54.564   06 Jun 2027 09:47:03.249             8.685          4263.031
       185   06 Jun 2027 09:49:59.278   06 Jun 2027 09:50:09.851            10.573          4672.500
       186   06 Jun 2027 09:51:09.704   06 Jun 2027 09:51:17.137             7.433          1427.094
       187   06 Jun 2027 09:52:07.365   06 Jun 2027 09:52:11.382             4.017          1455.281
       188   06 Jun 2027 09:53:14.896   06 Jun 2027 09:53:24.211             9.315          1915.781
       189   06 Jun 2027 09:53:49.764   06 Jun 2027 09:53:51.511             1.747           794.187
       190   06 Jun 2027 11:23:37.441   06 Jun 2027 11:23:53.006            15.565          6394.719
       191   06 Jun 2027 11:26:12.753   06 Jun 2027 11:26:22.124             9.371          2748.594
       192   06 Jun 2027 11:26:35.900   06 Jun 2027 11:26:36.938             1.038           406.875
       193   06 Jun 2027 11:27:11.076   06 Jun 2027 11:27:12.516             1.440           720.000
       194   06 Jun 2027 11:27:36.007   06 Jun 2027 11:27:39.909             3.902          1080.906
       195   06 Jun 2027 11:29:22.537   06 Jun 2027 11:29:30.843             8.306          3164.844
       196   07 Jun 2027 03:47:48.021   07 Jun 2027 03:49:45.279           117.258         58629.000
       197   07 Jun 2027 03:51:13.297   07 Jun 2027 03:51:29.911            16.614          8307.000
       198   07 Jun 2027 03:51:52.097   07 Jun 2027 03:52:52.924            60.827         30413.500
       199   07 Jun 2027 03:52:54.773   07 Jun 2027 03:53:05.922            11.149          5574.500
       200   07 Jun 2027 03:53:53.313   07 Jun 2027 03:54:10.245            16.932          8466.000
       201   07 Jun 2027 05:12:04.614   07 Jun 2027 05:13:12.328            67.714         33857.000
       202   07 Jun 2027 05:13:49.594   07 Jun 2027 05:13:58.254             8.660          4330.000
       203   07 Jun 2027 05:24:27.378   07 Jun 2027 05:24:43.983            16.605          8302.500
       204   07 Jun 2027 06:45:55.956   07 Jun 2027 06:46:29.330            33.374         16243.438
       205   07 Jun 2027 06:47:57.349   07 Jun 2027 06:47:59.906             2.557          1278.500
       206   07 Jun 2027 06:48:11.345   07 Jun 2027 06:48:11.345             0.000             0.000
       207   07 Jun 2027 06:48:54.766   07 Jun 2027 06:48:58.847             4.081          2040.500
       208   07 Jun 2027 06:49:22.017   07 Jun 2027 06:49:23.578             1.561           761.468
       209   07 Jun 2027 06:50:30.748   07 Jun 2027 06:50:36.998             6.250          2099.063
       210   07 Jun 2027 06:50:50.417   07 Jun 2027 06:50:50.417             0.000             0.000
       211   07 Jun 2027 06:51:15.042   07 Jun 2027 06:51:16.417             1.375           687.500
       212   07 Jun 2027 08:20:50.506   07 Jun 2027 08:21:03.709            13.203          6276.656
       213   07 Jun 2027 08:21:58.598   07 Jun 2027 08:22:04.640             6.042          1643.812
       214   07 Jun 2027 08:23:02.971   07 Jun 2027 08:23:03.255             0.284           113.312
       215   07 Jun 2027 08:24:07.441   07 Jun 2027 08:24:12.664             5.223          1468.938
       216   07 Jun 2027 08:24:34.023   07 Jun 2027 08:24:36.179             2.156           306.906
       217   07 Jun 2027 08:25:34.012   07 Jun 2027 08:25:36.362             2.350           912.156
       218   07 Jun 2027 08:27:55.372   07 Jun 2027 08:28:00.652             5.280          2532.313
       219   07 Jun 2027 08:28:53.491   07 Jun 2027 08:28:57.158             3.667          1647.000
       220   07 Jun 2027 08:29:47.989   07 Jun 2027 08:29:51.218             3.229          1469.906
       221   07 Jun 2027 09:58:48.862   07 Jun 2027 09:59:02.430            13.568          6452.625
       222   07 Jun 2027 09:59:34.912   07 Jun 2027 09:59:37.392             2.480           920.281
       223   07 Jun 2027 10:00:08.567   07 Jun 2027 10:00:11.454             2.887           884.781
       224   07 Jun 2027 10:00:30.794   07 Jun 2027 10:00:32.331             1.537           604.375
       225   07 Jun 2027 10:00:44.234   07 Jun 2027 10:00:46.790             2.556           163.469
       226   07 Jun 2027 10:01:05.091   07 Jun 2027 10:01:07.321             2.230           535.094
       227   07 Jun 2027 10:01:59.776   07 Jun 2027 10:02:04.239             4.463          1639.219
       228   07 Jun 2027 10:02:56.276   07 Jun 2027 10:03:04.708             8.432           852.875
       229   07 Jun 2027 10:04:13.153   07 Jun 2027 10:04:21.500             8.347          2138.906
       230   07 Jun 2027 10:04:27.538   07 Jun 2027 10:04:30.962             3.424           188.687
       231   07 Jun 2027 10:04:35.459   07 Jun 2027 10:04:39.066             3.607           140.531
       232   07 Jun 2027 10:04:46.926   07 Jun 2027 10:04:50.476             3.550           216.750
       233   07 Jun 2027 10:05:00.198   07 Jun 2027 10:05:00.959             0.761           303.813
       234   07 Jun 2027 10:05:44.609   07 Jun 2027 10:05:47.438             2.829           959.938
       235   07 Jun 2027 10:05:49.445   07 Jun 2027 10:05:50.232             0.787            62.719
       236   07 Jun 2027 10:05:54.986   07 Jun 2027 10:05:58.072             3.086            92.375
       237   07 Jun 2027 11:35:44.455   07 Jun 2027 11:35:59.927            15.472          6409.688
       238   07 Jun 2027 11:36:21.321   07 Jun 2027 11:36:24.560             3.239           339.875
       239   07 Jun 2027 11:36:46.021   07 Jun 2027 11:36:47.686             1.665           670.656
       240   07 Jun 2027 11:37:56.595   07 Jun 2027 11:38:00.567             3.972          1986.000
       241   07 Jun 2027 11:38:25.792   07 Jun 2027 11:38:27.149             1.357           678.500
       242   07 Jun 2027 11:38:51.729   07 Jun 2027 11:38:51.729             0.000             0.000
       243   07 Jun 2027 11:39:20.772   07 Jun 2027 11:39:26.897             6.125          1804.188
       244   07 Jun 2027 11:39:46.967   07 Jun 2027 11:39:48.560             1.593           627.188
       245   07 Jun 2027 11:40:28.680   07 Jun 2027 11:40:32.789             4.109           858.625
       246   07 Jun 2027 11:40:54.981   07 Jun 2027 11:40:57.213             2.232           679.375
       247   07 Jun 2027 11:41:44.686   07 Jun 2027 11:41:46.817             2.131           982.469
       248   07 Jun 2027 11:41:59.945   07 Jun 2027 11:42:01.712             1.767           410.250
       249   08 Jun 2027 04:00:12.128   08 Jun 2027 04:03:17.339           185.211         92605.500
       250   08 Jun 2027 04:03:25.418   08 Jun 2027 04:03:50.113            24.695         12347.500
       251   08 Jun 2027 04:04:42.301   08 Jun 2027 04:04:45.977             3.676          1838.000
       252   08 Jun 2027 05:24:00.470   08 Jun 2027 05:24:57.989            57.519         28759.500
       253   08 Jun 2027 07:00:00.766   08 Jun 2027 07:00:46.751            45.985         22862.157
       254   08 Jun 2027 07:01:02.142   08 Jun 2027 07:01:02.142             0.000             0.000
       255   08 Jun 2027 07:01:33.605   08 Jun 2027 07:01:36.766             3.161          1439.969
       256   08 Jun 2027 07:03:18.251   08 Jun 2027 07:03:22.545             4.294          2135.719
       257   08 Jun 2027 08:33:44.644   08 Jun 2027 08:34:00.288            15.644          4296.938
       258   08 Jun 2027 08:35:23.416   08 Jun 2027 08:35:23.416             0.000             0.000
       259   08 Jun 2027 08:36:07.228   08 Jun 2027 08:36:15.963             8.735          1988.125
       260   08 Jun 2027 08:37:07.000   08 Jun 2027 08:37:17.909            10.909          1490.406
       261   08 Jun 2027 08:37:48.117   08 Jun 2027 08:37:50.729             2.612           944.000
       262   08 Jun 2027 08:37:59.186   08 Jun 2027 08:38:00.521             1.335           251.125
       263   08 Jun 2027 08:39:14.407   08 Jun 2027 08:39:19.491             5.084          1528.375
       264   08 Jun 2027 08:39:30.735   08 Jun 2027 08:39:31.833             1.098           311.063
       265   08 Jun 2027 08:39:37.145   08 Jun 2027 08:39:38.494             1.349            80.094
       266   08 Jun 2027 08:39:42.930   08 Jun 2027 08:39:42.930             0.000             0.000
       267   08 Jun 2027 08:40:37.701   08 Jun 2027 08:40:42.505             4.804          1819.469
       268   08 Jun 2027 08:40:54.844   08 Jun 2027 08:40:54.844             0.000             0.000
       269   08 Jun 2027 08:41:40.813   08 Jun 2027 08:41:50.325             9.512          1822.125
       270   08 Jun 2027 08:42:15.654   08 Jun 2027 08:42:19.074             3.420           625.219
       271   08 Jun 2027 10:11:10.407   08 Jun 2027 10:11:25.595            15.188          6544.875
       272   08 Jun 2027 10:11:29.316   08 Jun 2027 10:11:31.195             1.879            21.812
       273   08 Jun 2027 10:11:47.471   08 Jun 2027 10:11:49.180             1.709           508.625
       274   08 Jun 2027 10:12:51.688   08 Jun 2027 10:12:51.688             0.000             0.000
       275   08 Jun 2027 10:13:30.399   08 Jun 2027 10:13:34.490             4.091          1679.625
       276   08 Jun 2027 10:14:33.157   08 Jun 2027 10:14:36.526             3.369          1315.375
       277   08 Jun 2027 10:14:50.013   08 Jun 2027 10:14:51.096             1.083           169.875
       278   08 Jun 2027 10:15:41.370   08 Jun 2027 10:15:43.220             1.850           925.000
       279   08 Jun 2027 10:16:19.891   08 Jun 2027 10:16:23.743             3.852          1792.031
       280   08 Jun 2027 10:17:05.559   08 Jun 2027 10:17:11.139             5.580          1306.750
       281   08 Jun 2027 10:17:32.964   08 Jun 2027 10:17:39.781             6.817           235.594
       282   08 Jun 2027 10:17:47.239   08 Jun 2027 10:17:47.891             0.652           233.062
       283   08 Jun 2027 10:18:00.967   08 Jun 2027 10:18:02.847             1.880           408.625
       284   08 Jun 2027 11:48:13.966   08 Jun 2027 11:48:31.033            17.067          6230.063
       285   08 Jun 2027 11:49:21.620   08 Jun 2027 11:49:26.209             4.589          1016.812
       286   08 Jun 2027 11:49:54.275   08 Jun 2027 11:49:56.672             2.397           276.438
       287   08 Jun 2027 11:50:29.197   08 Jun 2027 11:50:37.593             8.396          1008.187
       288   08 Jun 2027 11:51:27.852   08 Jun 2027 11:51:29.123             1.271           635.500
       289   08 Jun 2027 11:52:36.941   08 Jun 2027 11:52:43.177             6.236          2845.750
       290   08 Jun 2027 11:53:26.355   08 Jun 2027 11:53:26.805             0.450           225.000
       291   09 Jun 2027 04:12:30.752   09 Jun 2027 04:14:44.156           133.404         66702.000
       292   09 Jun 2027 04:15:14.449   09 Jun 2027 04:15:51.874            37.425         18712.500
       293   09 Jun 2027 04:16:09.213   09 Jun 2027 04:16:11.009             1.796           898.000
       294   09 Jun 2027 04:16:31.027   09 Jun 2027 04:16:31.027             0.000             0.000
       295   09 Jun 2027 04:16:34.952   09 Jun 2027 04:16:37.921             2.969          1484.500
       296   09 Jun 2027 05:35:52.093   09 Jun 2027 05:37:21.379            89.286         44643.000
       297   09 Jun 2027 05:38:23.420   09 Jun 2027 05:38:27.173             3.753          1876.500
       298   09 Jun 2027 07:12:15.556   09 Jun 2027 07:13:10.795            55.239         27619.500
       299   09 Jun 2027 07:13:31.537   09 Jun 2027 07:13:36.915             5.378          1852.562
       300   09 Jun 2027 07:14:20.157   09 Jun 2027 07:14:22.846             2.689          1202.781
       301   09 Jun 2027 07:14:24.054   09 Jun 2027 07:14:24.656             0.602            37.750
       302   09 Jun 2027 07:15:42.615   09 Jun 2027 07:15:48.512             5.897          1999.906
       303   09 Jun 2027 08:46:21.154   09 Jun 2027 08:46:29.072             7.918          3838.344
       304   09 Jun 2027 08:47:58.224   09 Jun 2027 08:48:02.099             3.875          1703.000
       305   09 Jun 2027 08:48:12.690   09 Jun 2027 08:48:13.459             0.769           330.969
       306   09 Jun 2027 08:49:08.894   09 Jun 2027 08:49:15.908             7.014          1293.875
       307   09 Jun 2027 08:49:45.287   09 Jun 2027 08:49:47.620             2.333           260.188
       308   09 Jun 2027 08:50:02.439   09 Jun 2027 08:50:05.244             2.805           209.562
       309   09 Jun 2027 08:51:15.535   09 Jun 2027 08:51:20.848             5.313          1956.375
       310   09 Jun 2027 08:52:55.791   09 Jun 2027 08:53:04.460             8.669          2702.844
       311   09 Jun 2027 08:53:31.926   09 Jun 2027 08:53:34.077             2.151           858.312
       312   09 Jun 2027 08:53:58.579   09 Jun 2027 08:54:02.074             3.495           647.781
       313   09 Jun 2027 08:54:15.051   09 Jun 2027 08:54:15.556             0.505           225.750
       314   09 Jun 2027 10:23:23.012   09 Jun 2027 10:23:35.895            12.883          5993.344
       315   09 Jun 2027 10:25:43.421   09 Jun 2027 10:25:46.974             3.553          1719.125
       316   09 Jun 2027 10:26:07.207   09 Jun 2027 10:26:08.742             1.535           455.531
       317   09 Jun 2027 10:26:12.748   09 Jun 2027 10:26:14.579             1.831           125.188
       318   09 Jun 2027 10:26:36.552   09 Jun 2027 10:26:38.830             2.278           607.062
       319   09 Jun 2027 10:28:08.902   09 Jun 2027 10:28:14.922             6.020          2022.844
       320   09 Jun 2027 10:28:38.637   09 Jun 2027 10:28:41.546             2.909           257.313
       321   09 Jun 2027 10:29:28.738   09 Jun 2027 10:29:29.127             0.389           194.500
       322   09 Jun 2027 10:29:54.267   09 Jun 2027 10:29:58.369             4.102          1984.031
       323   10 Jun 2027 04:25:24.277   10 Jun 2027 04:28:09.806           165.529         82764.500
       324   10 Jun 2027 04:28:19.199   10 Jun 2027 04:28:29.719            10.520          5260.000
       325   10 Jun 2027 05:47:57.097   10 Jun 2027 05:49:12.121            75.024         37512.000
       326   10 Jun 2027 07:24:26.056   10 Jun 2027 07:25:29.834            63.778         30437.813
       327   10 Jun 2027 07:26:50.117   10 Jun 2027 07:26:55.141             5.024          2405.625
       328   10 Jun 2027 08:59:32.285   10 Jun 2027 08:59:43.087            10.802          4313.438
       329   10 Jun 2027 09:00:03.816   10 Jun 2027 09:00:03.816             0.000             0.000
       330   10 Jun 2027 09:00:41.333   10 Jun 2027 09:00:47.649             6.316          1558.437
       331   10 Jun 2027 09:01:10.448   10 Jun 2027 09:01:10.448             0.000             0.000
       332   10 Jun 2027 09:01:54.979   10 Jun 2027 09:01:59.199             4.220          2054.125
       333   10 Jun 2027 09:02:58.115   10 Jun 2027 09:03:01.930             3.815           579.250
       334   10 Jun 2027 09:04:56.261   10 Jun 2027 09:05:03.172             6.911          3313.469
       335   10 Jun 2027 09:05:29.360   10 Jun 2027 09:05:31.062             1.702           505.156
       336   10 Jun 2027 09:06:09.498   10 Jun 2027 09:06:14.177             4.679          1060.594
       337   10 Jun 2027 10:35:54.350   10 Jun 2027 10:36:07.660            13.310          6471.500
       338   10 Jun 2027 10:36:36.794   10 Jun 2027 10:36:37.943             1.149           252.094
       339   10 Jun 2027 10:36:43.690   10 Jun 2027 10:36:44.373             0.683           179.594
       340   10 Jun 2027 10:36:58.369   10 Jun 2027 10:37:00.471             2.102           128.250
       341   10 Jun 2027 10:37:48.455   10 Jun 2027 10:37:50.807             2.352           764.750
       342   10 Jun 2027 10:38:02.263   10 Jun 2027 10:38:02.877             0.614           307.000
       343   10 Jun 2027 10:38:07.627   10 Jun 2027 10:38:08.726             1.099           156.406
       344   10 Jun 2027 10:38:16.493   10 Jun 2027 10:38:18.155             1.662           191.219
       345   10 Jun 2027 10:38:39.170   10 Jun 2027 10:38:45.293             6.123           650.719
       346   10 Jun 2027 10:39:16.692   10 Jun 2027 10:39:20.619             3.927           981.219
       347   10 Jun 2027 10:39:41.070   10 Jun 2027 10:39:42.051             0.981           339.281
       348   10 Jun 2027 10:40:17.869   10 Jun 2027 10:40:22.439             4.570           770.719
       349   10 Jun 2027 10:40:38.433   10 Jun 2027 10:40:40.277             1.844           224.312
       350   10 Jun 2027 10:40:52.031   10 Jun 2027 10:40:56.957             4.926           229.375
       351   10 Jun 2027 10:41:30.517   10 Jun 2027 10:41:34.495             3.978          1010.687
       352   10 Jun 2027 10:41:43.940   10 Jun 2027 10:41:45.868             1.928           295.156
       353   10 Jun 2027 10:41:52.934   10 Jun 2027 10:41:53.307             0.373            46.500
       354   11 Jun 2027 03:00:00.000   11 Jun 2027 03:00:15.078            15.078          7539.000
       355   11 Jun 2027 03:00:28.870   11 Jun 2027 03:00:57.973            29.103         14551.500
       356   11 Jun 2027 03:01:30.104   11 Jun 2027 03:01:57.754            27.650         13825.000
       357   11 Jun 2027 03:02:42.009   11 Jun 2027 03:03:03.397            21.388         10694.000
       358   11 Jun 2027 03:03:21.929   11 Jun 2027 03:03:25.417             3.488          1744.000
       359   11 Jun 2027 04:36:32.577   11 Jun 2027 04:37:10.462            37.885         18942.500
       360   11 Jun 2027 04:37:22.875   11 Jun 2027 04:39:23.280           120.405         60202.500
       361   11 Jun 2027 04:39:42.407   11 Jun 2027 04:39:53.142            10.735          5367.500
       362   11 Jun 2027 06:00:01.116   11 Jun 2027 06:00:47.070            45.954         22977.000
       363   11 Jun 2027 06:01:03.604   11 Jun 2027 06:01:05.174             1.570           785.000
       364   11 Jun 2027 06:02:50.570   11 Jun 2027 06:02:50.570             0.000             0.000
       365   11 Jun 2027 07:36:30.176   11 Jun 2027 07:36:44.775            14.599          6968.030
       366   11 Jun 2027 07:37:39.997   11 Jun 2027 07:37:43.555             3.558           885.375
       367   11 Jun 2027 07:38:08.434   11 Jun 2027 07:38:14.857             6.423           324.719
       368   11 Jun 2027 07:38:54.224   11 Jun 2027 07:38:58.525             4.301          1015.969
       369   11 Jun 2027 07:39:33.032   11 Jun 2027 07:39:36.034             3.002          1078.344
       370   11 Jun 2027 07:39:50.993   11 Jun 2027 07:39:54.030             3.037           420.062
       371   11 Jun 2027 09:11:40.738   11 Jun 2027 09:11:47.000             6.262          3131.000
       372   11 Jun 2027 09:11:51.840   11 Jun 2027 09:11:54.459             2.619           755.094
       373   11 Jun 2027 09:12:16.795   11 Jun 2027 09:12:21.769             4.974           698.000
       374   11 Jun 2027 09:12:33.082   11 Jun 2027 09:12:34.708             1.626            83.156
       375   11 Jun 2027 09:15:37.192   11 Jun 2027 09:15:49.603            12.411          4549.406
       376   11 Jun 2027 09:16:05.767   11 Jun 2027 09:16:08.514             2.747           499.594
       377   11 Jun 2027 09:16:13.774   11 Jun 2027 09:16:24.179            10.405            12.156
       378   11 Jun 2027 09:16:59.283   11 Jun 2027 09:17:02.408             3.125          1064.031
       379   11 Jun 2027 09:17:48.070   11 Jun 2027 09:17:51.297             3.227          1348.156
       380   11 Jun 2027 09:17:58.351   11 Jun 2027 09:17:58.351             0.000             0.000
       381   11 Jun 2027 09:18:13.825   11 Jun 2027 09:18:15.656             1.831           704.000
       382   11 Jun 2027 10:47:38.548   11 Jun 2027 10:47:53.110            14.562          5784.250
       383   11 Jun 2027 10:48:46.347   11 Jun 2027 10:48:47.931             1.584           195.187
       384   11 Jun 2027 10:49:02.836   11 Jun 2027 10:49:03.484             0.648           238.812
       385   11 Jun 2027 10:49:27.265   11 Jun 2027 10:49:29.335             2.070           499.906
       386   11 Jun 2027 10:49:56.065   11 Jun 2027 10:50:01.163             5.098           298.563
       387   11 Jun 2027 10:51:36.422   11 Jun 2027 10:51:43.000             6.578          2540.031
       388   11 Jun 2027 10:52:22.259   11 Jun 2027 10:52:26.719             4.460          1150.813
       389   11 Jun 2027 10:52:57.046   11 Jun 2027 10:53:01.239             4.193           748.375
       390   12 Jun 2027 03:11:24.488   12 Jun 2027 03:14:21.986           177.498         88749.000
       391   12 Jun 2027 03:18:06.407   12 Jun 2027 03:18:30.712            24.305         12152.500
       392   12 Jun 2027 04:37:39.694   12 Jun 2027 04:37:58.749            19.055          9527.500
       393   12 Jun 2027 04:48:30.287   12 Jun 2027 04:50:16.356           106.069         51503.844
       394   12 Jun 2027 04:50:48.205   12 Jun 2027 04:50:56.040             7.835           995.281
       395   12 Jun 2027 06:12:28.034   12 Jun 2027 06:12:44.701            16.667          7613.937
       396   12 Jun 2027 06:13:12.965   12 Jun 2027 06:13:12.965             0.000             0.000
       397   12 Jun 2027 06:14:07.542   12 Jun 2027 06:14:13.458             5.916          2351.656
       398   12 Jun 2027 07:48:14.616   12 Jun 2027 07:48:26.335            11.719          5145.688
       399   12 Jun 2027 07:49:35.786   12 Jun 2027 07:49:45.524             9.738          2066.188
       400   12 Jun 2027 07:50:01.758   12 Jun 2027 07:50:02.782             1.024           346.875
       401   12 Jun 2027 07:50:46.845   12 Jun 2027 07:50:48.242             1.397           594.000
       402   12 Jun 2027 07:50:59.787   12 Jun 2027 07:51:04.751             4.964            67.500
       403   12 Jun 2027 07:51:31.866   12 Jun 2027 07:51:31.866             0.000             0.000
       404   12 Jun 2027 07:52:12.737   12 Jun 2027 07:52:21.818             9.081          2124.563
       405   12 Jun 2027 09:22:58.171   12 Jun 2027 09:23:10.129            11.958          3930.750
       406   12 Jun 2027 09:23:23.579   12 Jun 2027 09:23:25.585             2.006           145.969
       407   12 Jun 2027 09:24:07.613   12 Jun 2027 09:24:11.161             3.548          1019.219
       408   12 Jun 2027 09:24:58.644   12 Jun 2027 09:25:01.032             2.388           539.312
       409   12 Jun 2027 09:26:23.025   12 Jun 2027 09:26:23.025             0.000             0.000
       410   12 Jun 2027 09:26:23.172   12 Jun 2027 09:26:27.606             4.434          2213.844
       411   12 Jun 2027 09:26:53.530   12 Jun 2027 09:26:55.809             2.279           810.125
       412   12 Jun 2027 09:29:51.935   12 Jun 2027 09:30:04.307            12.372          5278.687
       413   12 Jun 2027 09:30:05.052   12 Jun 2027 09:30:12.121             7.069            23.281
       414   12 Jun 2027 09:30:19.711   12 Jun 2027 09:30:23.205             3.494           237.188
       415   12 Jun 2027 10:59:42.509   12 Jun 2027 11:00:01.896            19.387          9037.250
       416   12 Jun 2027 11:00:15.557   12 Jun 2027 11:00:16.752             1.195           231.406
       417   12 Jun 2027 11:01:42.030   12 Jun 2027 11:01:46.889             4.859          2175.094
       418   12 Jun 2027 11:02:14.261   12 Jun 2027 11:02:17.280             3.019           811.438
       419   12 Jun 2027 11:02:38.421   12 Jun 2027 11:02:41.921             3.500           597.187
       420   12 Jun 2027 11:02:46.134   12 Jun 2027 11:02:48.966             2.832           131.656
       421   12 Jun 2027 11:03:11.009   12 Jun 2027 11:03:15.785             4.776           595.719
       422   12 Jun 2027 11:04:16.397   12 Jun 2027 11:04:23.897             7.500          1668.406
       423   12 Jun 2027 11:05:25.393   12 Jun 2027 11:05:31.069             5.676          1763.219
       424   12 Jun 2027 11:05:33.044   12 Jun 2027 11:05:34.418             1.374            36.688
       425   12 Jun 2027 11:06:00.727   12 Jun 2027 11:06:03.476             2.749           822.156
       426   13 Jun 2027 03:23:45.092   13 Jun 2027 03:26:14.345           149.253         74626.500
       427   13 Jun 2027 03:27:25.683   13 Jun 2027 03:28:00.556            34.873         17436.500
       428   13 Jun 2027 03:28:31.630   13 Jun 2027 03:29:09.875            38.245         19122.500
       429   13 Jun 2027 03:30:07.426   13 Jun 2027 03:30:17.113             9.687          4843.500
       430   13 Jun 2027 04:48:55.565   13 Jun 2027 04:49:08.725            13.160          6580.000
       431   13 Jun 2027 05:00:28.849   13 Jun 2027 05:01:52.968            84.119         41795.313
       432   13 Jun 2027 06:23:06.597   13 Jun 2027 06:23:24.700            18.103          6757.875
       433   13 Jun 2027 06:25:12.766   13 Jun 2027 06:25:17.704             4.938          2323.844
       434   13 Jun 2027 06:27:30.810   13 Jun 2027 06:27:40.026             9.216          3854.438
       435   13 Jun 2027 07:58:15.172   13 Jun 2027 07:58:25.008             9.836          4635.250
       436   13 Jun 2027 07:59:17.409   13 Jun 2027 07:59:21.072             3.663          1478.625
       437   13 Jun 2027 07:59:57.925   13 Jun 2027 07:59:59.419             1.494           744.406
       438   13 Jun 2027 08:00:17.243   13 Jun 2027 08:00:17.243             0.000             0.000
       439   13 Jun 2027 08:01:36.722   13 Jun 2027 08:01:42.390             5.668          2693.344
       440   13 Jun 2027 08:01:49.941   13 Jun 2027 08:01:49.941             0.000             0.000
       441   13 Jun 2027 08:03:00.647   13 Jun 2027 08:03:05.541             4.894          2445.531
       442   13 Jun 2027 08:03:56.462   13 Jun 2027 08:03:56.462             0.000             0.000
       443   13 Jun 2027 08:04:03.586   13 Jun 2027 08:04:05.680             2.094          1047.000
       444   13 Jun 2027 09:35:01.875   13 Jun 2027 09:35:11.325             9.450          4605.781
       445   13 Jun 2027 09:35:45.212   13 Jun 2027 09:35:48.854             3.642          1058.969
       446   13 Jun 2027 09:36:05.279   13 Jun 2027 09:36:05.920             0.641           182.937
       447   13 Jun 2027 09:38:18.967   13 Jun 2027 09:38:23.902             4.935          2076.437
       448   13 Jun 2027 09:39:48.268   13 Jun 2027 09:39:57.239             8.971          2624.594
       449   13 Jun 2027 09:40:15.278   13 Jun 2027 09:40:19.779             4.501           360.813
       450   13 Jun 2027 09:40:36.421   13 Jun 2027 09:40:38.094             1.673           365.500
       451   13 Jun 2027 09:41:13.809   13 Jun 2027 09:41:13.809             0.000             0.000
       452   13 Jun 2027 09:41:28.945   13 Jun 2027 09:41:32.794             3.849          1160.875
       453   13 Jun 2027 09:42:01.014   13 Jun 2027 09:42:04.277             3.263           805.531
       454   13 Jun 2027 09:42:27.790   13 Jun 2027 09:42:28.322             0.532           266.000
       455   13 Jun 2027 11:12:02.996   13 Jun 2027 11:12:20.866            17.870          8559.000
       456   13 Jun 2027 11:12:55.634   13 Jun 2027 11:12:59.988             4.354           595.406
       457   13 Jun 2027 11:13:48.021   13 Jun 2027 11:13:50.216             2.195           744.875
       458   13 Jun 2027 11:13:58.784   13 Jun 2027 11:14:01.023             2.239           267.750
       459   13 Jun 2027 11:14:44.162   13 Jun 2027 11:14:46.320             2.158          1054.063
       460   13 Jun 2027 11:15:20.689   13 Jun 2027 11:15:21.290             0.601           300.500
       461   13 Jun 2027 11:15:44.004   13 Jun 2027 11:15:46.719             2.715          1302.032
       462   13 Jun 2027 11:16:36.608   13 Jun 2027 11:16:40.971             4.363          1442.781
       463   13 Jun 2027 11:17:08.911   13 Jun 2027 11:17:17.741             8.830           873.125
