uniorb/output/strategy_2/Camera/Camera_KinoSat_110108.txt

KinoSat_110108
-------------------------
    Access    *     Start Time (UTCG)     *     Stop Time (UTCG)  *   Duration (s) *   Data (Mbytes)
         1   01 Jun 2027 03:38:12.223   01 Jun 2027 03:38:25.129            12.906          6453.000
         2   01 Jun 2027 03:39:27.647   01 Jun 2027 03:39:29.669             2.022          1011.000
         3   01 Jun 2027 03:39:50.379   01 Jun 2027 03:39:57.736             7.357          3678.500
         4   01 Jun 2027 03:41:25.341   01 Jun 2027 03:41:32.683             7.342          3671.000
         5   01 Jun 2027 03:42:12.838   01 Jun 2027 03:42:13.844             1.006           503.000
         6   01 Jun 2027 03:42:27.642   01 Jun 2027 03:42:38.130            10.488          5244.000
         7   01 Jun 2027 03:42:59.399   01 Jun 2027 03:43:02.225             2.826          1413.000
         8   01 Jun 2027 03:44:00.331   01 Jun 2027 03:44:00.606             0.275           137.500
         9   01 Jun 2027 03:44:08.222   01 Jun 2027 03:44:11.249             3.027          1513.500
        10   01 Jun 2027 05:15:37.649   01 Jun 2027 05:15:38.481             0.832           416.000
        11   01 Jun 2027 05:16:17.794   01 Jun 2027 05:16:24.873             7.079          3539.500
        12   01 Jun 2027 05:17:16.218   01 Jun 2027 05:17:17.172             0.954           477.000
        13   01 Jun 2027 05:17:21.668   01 Jun 2027 05:17:28.023             6.355          3177.500
        14   01 Jun 2027 05:18:02.939   01 Jun 2027 05:18:06.690             3.751          1875.500
        15   01 Jun 2027 05:18:28.890   01 Jun 2027 05:18:31.330             2.440          1220.000
        16   01 Jun 2027 05:18:42.470   01 Jun 2027 05:18:45.383             2.913          1456.500
        17   01 Jun 2027 05:19:00.779   01 Jun 2027 05:19:01.088             0.309           154.500
        18   01 Jun 2027 05:19:02.696   01 Jun 2027 05:19:09.672             6.976          3488.000
        19   01 Jun 2027 05:19:33.625   01 Jun 2027 05:19:46.241            12.616          6308.000
        20   01 Jun 2027 06:51:48.553   01 Jun 2027 06:51:55.610             7.057          3528.500
        21   01 Jun 2027 06:52:51.605   01 Jun 2027 06:52:55.640             4.035          2017.500
        22   01 Jun 2027 06:53:51.607   01 Jun 2027 06:53:57.446             5.839          2919.500
        23   01 Jun 2027 06:54:27.682   01 Jun 2027 06:54:37.276             9.594          4797.000
        24   01 Jun 2027 06:55:21.199   01 Jun 2027 06:55:25.861             4.662          2331.000
        25   02 Jun 2027 03:49:53.114   02 Jun 2027 03:50:19.711            26.597         13298.500
        26   02 Jun 2027 03:52:21.413   02 Jun 2027 03:52:37.656            16.243          8121.500
        27   02 Jun 2027 03:53:36.019   02 Jun 2027 03:53:39.310             3.291          1645.500
        28   02 Jun 2027 03:54:35.313   02 Jun 2027 03:54:39.143             3.830          1915.000
        29   02 Jun 2027 03:55:04.067   02 Jun 2027 03:55:10.750             6.683          3341.500
        30   02 Jun 2027 05:27:45.291   02 Jun 2027 05:27:51.483             6.192          3096.000
        31   02 Jun 2027 05:28:30.602   02 Jun 2027 05:28:33.570             2.968          1484.000
        32   02 Jun 2027 05:29:47.328   02 Jun 2027 05:29:53.227             5.899          2949.500
        33   02 Jun 2027 05:30:19.290   02 Jun 2027 05:30:25.720             6.430          3215.000
        34   02 Jun 2027 05:30:44.924   02 Jun 2027 05:30:46.260             1.336           668.000
        35   02 Jun 2027 05:31:34.611   02 Jun 2027 05:31:44.236             9.625          4812.500
        36   02 Jun 2027 05:31:58.527   02 Jun 2027 05:32:05.891             7.364          3682.000
        37   02 Jun 2027 07:03:43.010   02 Jun 2027 07:03:43.894             0.884           442.000
        38   02 Jun 2027 07:04:44.737   02 Jun 2027 07:04:44.772             0.035            17.500
        39   02 Jun 2027 07:05:25.482   02 Jun 2027 07:05:39.336            13.854          6927.000
        40   02 Jun 2027 07:06:36.447   02 Jun 2027 07:06:37.286             0.839           419.500
        41   02 Jun 2027 07:06:39.754   02 Jun 2027 07:06:42.342             2.588          1294.000
        42   02 Jun 2027 07:06:54.177   02 Jun 2027 07:07:03.473             9.296          4648.000
        43   02 Jun 2027 07:08:12.059   02 Jun 2027 07:08:12.901             0.842           421.000
        44   02 Jun 2027 07:08:33.826   02 Jun 2027 07:08:41.337             7.511          3755.500
        45   03 Jun 2027 04:01:58.978   03 Jun 2027 04:02:00.468             1.490           745.000
        46   03 Jun 2027 04:02:51.803   03 Jun 2027 04:02:52.892             1.089           544.500
        47   03 Jun 2027 04:03:10.371   03 Jun 2027 04:03:14.859             4.488          2244.000
        48   03 Jun 2027 04:03:49.343   03 Jun 2027 04:03:51.378             2.035          1017.500
        49   03 Jun 2027 04:04:06.392   03 Jun 2027 04:04:10.109             3.717          1858.500
        50   03 Jun 2027 04:04:29.111   03 Jun 2027 04:04:29.918             0.807           403.500
        51   03 Jun 2027 04:04:35.034   03 Jun 2027 04:04:42.971             7.937          3968.500
        52   03 Jun 2027 04:04:59.651   03 Jun 2027 04:05:07.101             7.450          3725.000
        53   03 Jun 2027 04:06:00.617   03 Jun 2027 04:06:09.490             8.873          4436.500
        54   03 Jun 2027 04:06:16.928   03 Jun 2027 04:06:20.472             3.544          1772.000
        55   03 Jun 2027 04:06:54.199   03 Jun 2027 04:07:05.998            11.799          5899.500
        56   03 Jun 2027 04:08:18.816   03 Jun 2027 04:08:20.850             2.034          1017.000
        57   03 Jun 2027 05:40:14.607   03 Jun 2027 05:40:25.502            10.895          5447.500
        58   03 Jun 2027 05:41:06.071   03 Jun 2027 05:41:08.400             2.329          1164.500
        59   03 Jun 2027 05:41:49.127   03 Jun 2027 05:41:51.791             2.664          1332.000
        60   03 Jun 2027 05:42:38.279   03 Jun 2027 05:42:56.384            18.105          9052.500
        61   03 Jun 2027 05:43:31.033   03 Jun 2027 05:43:31.980             0.947           473.500
        62   03 Jun 2027 05:43:45.650   03 Jun 2027 05:43:47.150             1.500           750.000
        63   03 Jun 2027 07:13:33.333   03 Jun 2027 07:13:46.954            13.621          6810.500
        64   03 Jun 2027 07:15:02.988   03 Jun 2027 07:15:03.389             0.401           200.500
        65   03 Jun 2027 07:15:30.033   03 Jun 2027 07:15:32.487             2.454          1227.000
        66   03 Jun 2027 07:16:17.973   03 Jun 2027 07:16:23.725             5.752          2876.000
        67   03 Jun 2027 07:16:47.071   03 Jun 2027 07:16:54.661             7.590          3795.000
        68   03 Jun 2027 07:17:34.351   03 Jun 2027 07:17:38.125             3.774          1887.000
        69   03 Jun 2027 07:18:04.380   03 Jun 2027 07:18:26.773            22.393         11196.500
        70   03 Jun 2027 07:20:35.175   03 Jun 2027 07:20:43.593             8.418          4209.000
        71   03 Jun 2027 07:21:09.940   03 Jun 2027 07:21:13.483             3.543          1771.500
        72   04 Jun 2027 04:14:19.380   04 Jun 2027 04:14:20.550             1.170           585.000
        73   04 Jun 2027 04:14:30.438   04 Jun 2027 04:14:35.086             4.648          2324.000
        74   04 Jun 2027 04:15:09.860   04 Jun 2027 04:15:14.639             4.779          2389.500
        75   04 Jun 2027 04:15:30.051   04 Jun 2027 04:15:34.675             4.624          2312.000
        76   04 Jun 2027 04:15:58.627   04 Jun 2027 04:16:03.745             5.118          2559.000
        77   04 Jun 2027 04:16:57.800   04 Jun 2027 04:17:01.408             3.608          1804.000
        78   04 Jun 2027 04:17:28.231   04 Jun 2027 04:17:33.161             4.930          2465.000
        79   04 Jun 2027 04:17:48.805   04 Jun 2027 04:17:55.489             6.684          3342.000
        80   04 Jun 2027 04:18:27.821   04 Jun 2027 04:18:37.937            10.116          5058.000
        81   04 Jun 2027 04:19:07.993   04 Jun 2027 04:19:07.993             0.000             0.000
        82   04 Jun 2027 04:19:27.540   04 Jun 2027 04:19:29.777             2.237          1118.500
        83   04 Jun 2027 04:19:49.059   04 Jun 2027 04:19:51.237             2.178          1089.000
        84   04 Jun 2027 04:20:23.740   04 Jun 2027 04:20:26.881             3.141          1570.500
        85   04 Jun 2027 05:52:12.823   04 Jun 2027 05:52:20.410             7.587          3793.500
        86   04 Jun 2027 05:53:15.786   04 Jun 2027 05:53:19.628             3.842          1921.000
        87   04 Jun 2027 05:53:46.001   04 Jun 2027 05:53:46.837             0.836           418.000
        88   04 Jun 2027 05:54:01.285   04 Jun 2027 05:54:03.783             2.498          1249.000
        89   04 Jun 2027 05:54:17.517   04 Jun 2027 05:54:24.970             7.453          3726.500
        90   04 Jun 2027 05:55:16.045   04 Jun 2027 05:55:23.573             7.528          3764.000
        91   04 Jun 2027 05:56:02.145   04 Jun 2027 05:56:11.802             9.657          4828.500
        92   04 Jun 2027 07:25:30.096   04 Jun 2027 07:25:30.781             0.685           342.500
        93   04 Jun 2027 07:25:33.005   04 Jun 2027 07:25:52.999            19.994          9997.000
        94   04 Jun 2027 07:27:41.368   04 Jun 2027 07:27:41.514             0.146            73.000
        95   04 Jun 2027 07:27:48.003   04 Jun 2027 07:28:14.205            26.202         13101.000
        96   04 Jun 2027 07:30:18.436   04 Jun 2027 07:30:20.846             2.410          1205.000
        97   04 Jun 2027 07:30:37.043   04 Jun 2027 07:30:40.043             3.000          1500.000
        98   04 Jun 2027 07:31:00.854   04 Jun 2027 07:31:07.352             6.498          3249.000
        99   04 Jun 2027 07:32:31.115   04 Jun 2027 07:32:31.754             0.639           319.500
       100   04 Jun 2027 07:32:49.496   04 Jun 2027 07:32:57.038             7.542          3771.000
       101   05 Jun 2027 04:26:08.373   05 Jun 2027 04:26:09.437             1.064           532.000
       102   05 Jun 2027 04:26:23.894   05 Jun 2027 04:26:27.787             3.893          1946.500
       103   05 Jun 2027 04:27:52.646   05 Jun 2027 04:27:57.175             4.529          2264.500
       104   05 Jun 2027 04:28:32.737   05 Jun 2027 04:28:41.383             8.646          4323.000
       105   05 Jun 2027 04:29:18.437   05 Jun 2027 04:29:23.434             4.997          2498.500
       106   05 Jun 2027 04:30:09.851   05 Jun 2027 04:30:21.464            11.613          5806.500
       107   05 Jun 2027 04:31:09.457   05 Jun 2027 04:31:10.019             0.562           281.000
       108   05 Jun 2027 04:31:17.588   05 Jun 2027 04:31:17.890             0.302           151.000
       109   05 Jun 2027 04:31:40.896   05 Jun 2027 04:31:44.661             3.765          1882.500
       110   05 Jun 2027 04:31:55.833   05 Jun 2027 04:32:06.634            10.801          5400.500
       111   05 Jun 2027 04:32:20.082   05 Jun 2027 04:32:20.853             0.771           385.500
       112   05 Jun 2027 06:04:12.055   05 Jun 2027 06:04:20.847             8.792          4396.000
       113   05 Jun 2027 06:04:57.315   05 Jun 2027 06:05:04.976             7.661          3830.500
       114   05 Jun 2027 06:05:47.671   05 Jun 2027 06:05:51.902             4.231          2115.500
       115   05 Jun 2027 06:06:12.321   05 Jun 2027 06:06:12.443             0.122            61.000
       116   05 Jun 2027 06:06:17.568   05 Jun 2027 06:06:20.988             3.420          1710.000
       117   05 Jun 2027 06:06:54.129   05 Jun 2027 06:06:59.867             5.738          2869.000
       118   05 Jun 2027 06:07:14.430   05 Jun 2027 06:07:21.905             7.475          3737.500
       119   05 Jun 2027 06:08:17.208   05 Jun 2027 06:08:17.262             0.054            27.000
       120   05 Jun 2027 07:37:56.021   05 Jun 2027 07:37:58.452             2.431          1215.500
       121   05 Jun 2027 07:38:14.268   05 Jun 2027 07:38:22.156             7.888          3944.000
       122   05 Jun 2027 07:38:45.739   05 Jun 2027 07:38:45.739             0.000             0.000
       123   05 Jun 2027 07:38:52.888   05 Jun 2027 07:38:59.722             6.834          3417.000
       124   05 Jun 2027 07:40:05.405   05 Jun 2027 07:40:45.779            40.374         20187.000
       125   05 Jun 2027 07:43:50.858   05 Jun 2027 07:44:08.919            18.061          9030.500
       126   06 Jun 2027 03:01:20.878   06 Jun 2027 03:01:21.046             0.168            84.000
       127   06 Jun 2027 03:01:53.762   06 Jun 2027 03:01:56.170             2.408          1204.000
       128   06 Jun 2027 03:02:32.457   06 Jun 2027 03:02:40.070             7.613          3806.500
       129   06 Jun 2027 03:03:10.803   06 Jun 2027 03:03:14.632             3.829          1914.500
       130   06 Jun 2027 03:03:35.699   06 Jun 2027 03:03:40.605             4.906          2453.000
       131   06 Jun 2027 03:04:13.315   06 Jun 2027 03:04:16.504             3.189          1594.500
       132   06 Jun 2027 03:04:59.785   06 Jun 2027 03:05:06.781             6.996          3498.000
       133   06 Jun 2027 03:05:18.374   06 Jun 2027 03:05:20.115             1.741           870.500
       134   06 Jun 2027 03:05:53.848   06 Jun 2027 03:06:01.911             8.063          4031.500
       135   06 Jun 2027 03:06:45.615   06 Jun 2027 03:06:47.851             2.236          1118.000
       136   06 Jun 2027 03:07:06.707   06 Jun 2027 03:07:07.866             1.159           579.500
       137   06 Jun 2027 03:07:14.407   06 Jun 2027 03:07:19.925             5.518          2759.000
       138   06 Jun 2027 03:08:15.235   06 Jun 2027 03:08:16.814             1.579           789.500
       139   06 Jun 2027 03:08:38.326   06 Jun 2027 03:08:39.659             1.333           666.500
       140   06 Jun 2027 04:38:15.413   06 Jun 2027 04:38:30.324            14.911          7455.500
       141   06 Jun 2027 04:40:02.112   06 Jun 2027 04:40:07.435             5.323          2661.500
       142   06 Jun 2027 04:40:31.158   06 Jun 2027 04:40:40.390             9.232          4616.000
       143   06 Jun 2027 04:41:26.705   06 Jun 2027 04:41:27.749             1.044           522.000
       144   06 Jun 2027 04:42:43.886   06 Jun 2027 04:43:00.607            16.721          8360.500
       145   06 Jun 2027 04:44:10.767   06 Jun 2027 04:44:17.684             6.917          3458.500
       146   06 Jun 2027 06:15:49.528   06 Jun 2027 06:15:52.892             3.364          1682.000
       147   06 Jun 2027 06:16:09.084   06 Jun 2027 06:16:15.118             6.034          3017.000
       148   06 Jun 2027 06:16:41.699   06 Jun 2027 06:16:45.087             3.388          1694.000
       149   06 Jun 2027 06:17:25.556   06 Jun 2027 06:17:25.727             0.171            85.500
       150   06 Jun 2027 06:17:35.056   06 Jun 2027 06:17:43.441             8.385          4192.500
       151   06 Jun 2027 06:18:24.550   06 Jun 2027 06:18:29.382             4.832          2416.000
       152   06 Jun 2027 06:19:12.598   06 Jun 2027 06:19:14.257             1.659           829.500
       153   06 Jun 2027 06:19:39.289   06 Jun 2027 06:19:50.834            11.545          5772.500
       154   06 Jun 2027 07:50:12.081   06 Jun 2027 07:50:15.802             3.721          1860.500
       155   06 Jun 2027 07:50:43.638   06 Jun 2027 07:50:47.494             3.856          1928.000
       156   06 Jun 2027 07:50:58.038   06 Jun 2027 07:50:58.038             0.000             0.000
       157   06 Jun 2027 07:51:10.424   06 Jun 2027 07:51:24.297            13.873          6936.500
       158   06 Jun 2027 07:52:59.740   06 Jun 2027 07:53:19.812            20.072         10036.000
       159   06 Jun 2027 07:55:11.316   06 Jun 2027 07:55:20.539             9.223          4611.500
       160   07 Jun 2027 03:13:42.932   07 Jun 2027 03:13:48.320             5.388          2694.000
       161   07 Jun 2027 03:14:21.094   07 Jun 2027 03:14:22.271             1.177           588.500
       162   07 Jun 2027 03:14:59.852   07 Jun 2027 03:15:12.874            13.022          6511.000
       163   07 Jun 2027 03:16:13.997   07 Jun 2027 03:16:15.425             1.428           714.000
       164   07 Jun 2027 03:16:30.038   07 Jun 2027 03:16:36.166             6.128          3064.000
       165   07 Jun 2027 03:17:01.338   07 Jun 2027 03:17:04.158             2.820          1410.000
       166   07 Jun 2027 03:17:17.554   07 Jun 2027 03:17:25.494             7.940          3970.000
       167   07 Jun 2027 03:17:48.471   07 Jun 2027 03:17:56.929             8.458          4229.000
       168   07 Jun 2027 03:18:21.176   07 Jun 2027 03:18:31.406            10.230          5115.000
       169   07 Jun 2027 03:19:58.432   07 Jun 2027 03:20:01.528             3.096          1548.000
       170   07 Jun 2027 03:20:33.272   07 Jun 2027 03:20:34.000             0.728           364.000
       171   07 Jun 2027 04:50:44.798   07 Jun 2027 04:51:04.813            20.015         10007.500
       172   07 Jun 2027 04:52:05.612   07 Jun 2027 04:52:11.657             6.045          3022.500
       173   07 Jun 2027 04:52:17.893   07 Jun 2027 04:52:27.335             9.442          4721.000
       174   07 Jun 2027 04:53:50.951   07 Jun 2027 04:54:02.989            12.038          6019.000
       175   07 Jun 2027 04:54:54.511   07 Jun 2027 04:54:58.543             4.032          2016.000
       176   07 Jun 2027 04:55:13.218   07 Jun 2027 04:55:14.003             0.785           392.500
       177   07 Jun 2027 04:55:48.461   07 Jun 2027 04:55:56.573             8.112          4056.000
       178   07 Jun 2027 04:56:14.087   07 Jun 2027 04:56:24.772            10.685          5342.500
       179   07 Jun 2027 06:27:34.152   07 Jun 2027 06:28:06.913            32.761         16380.500
       180   07 Jun 2027 06:30:22.283   07 Jun 2027 06:30:40.354            18.071          9035.500
       181   07 Jun 2027 06:32:05.419   07 Jun 2027 06:32:18.079            12.660          6330.000
       182   07 Jun 2027 08:04:47.461   07 Jun 2027 08:05:06.023            18.562          9281.000
       183   07 Jun 2027 08:06:54.033   07 Jun 2027 08:07:17.188            23.155         11577.500
       184   08 Jun 2027 03:25:53.642   08 Jun 2027 03:26:02.203             8.561          4280.500
       185   08 Jun 2027 03:26:39.322   08 Jun 2027 03:26:41.480             2.158          1079.000
       186   08 Jun 2027 03:26:53.618   08 Jun 2027 03:27:03.042             9.424          4712.000
       187   08 Jun 2027 03:28:15.042   08 Jun 2027 03:28:20.810             5.768          2884.000
       188   08 Jun 2027 03:28:58.602   08 Jun 2027 03:28:59.168             0.566           283.000
       189   08 Jun 2027 03:29:10.601   08 Jun 2027 03:29:10.929             0.328           164.000
       190   08 Jun 2027 03:29:22.891   08 Jun 2027 03:29:30.783             7.892          3946.000
       191   08 Jun 2027 03:30:17.633   08 Jun 2027 03:30:34.533            16.900          8450.000
       192   08 Jun 2027 03:31:42.998   08 Jun 2027 03:31:46.043             3.045          1522.500
       193   08 Jun 2027 03:32:16.305   08 Jun 2027 03:32:26.854            10.549          5274.500
       194   08 Jun 2027 05:03:02.384   08 Jun 2027 05:03:07.701             5.317          2658.500
       195   08 Jun 2027 05:03:46.844   08 Jun 2027 05:03:57.789            10.945          5472.500
       196   08 Jun 2027 05:05:06.111   08 Jun 2027 05:05:06.950             0.839           419.500
       197   08 Jun 2027 05:05:32.189   08 Jun 2027 05:05:34.457             2.268          1134.000
       198   08 Jun 2027 05:06:00.740   08 Jun 2027 05:06:03.105             2.365          1182.500
       199   08 Jun 2027 05:06:28.873   08 Jun 2027 05:06:31.784             2.911          1455.500
       200   08 Jun 2027 05:06:48.463   08 Jun 2027 05:06:53.321             4.858          2429.000
       201   08 Jun 2027 05:07:21.457   08 Jun 2027 05:07:28.356             6.899          3449.500
       202   08 Jun 2027 06:39:36.907   08 Jun 2027 06:39:45.099             8.192          4096.000
       203   08 Jun 2027 06:40:29.250   08 Jun 2027 06:40:40.254            11.004          5502.000
       204   08 Jun 2027 06:41:25.865   08 Jun 2027 06:41:29.665             3.800          1900.000
       205   08 Jun 2027 06:41:52.582   08 Jun 2027 06:41:53.148             0.566           283.000
       206   08 Jun 2027 06:41:57.102   08 Jun 2027 06:42:04.143             7.041          3520.500
       207   08 Jun 2027 06:42:37.331   08 Jun 2027 06:42:39.590             2.259          1129.500
       208   08 Jun 2027 06:42:58.087   08 Jun 2027 06:43:01.193             3.106          1553.000
       209   08 Jun 2027 06:43:17.130   08 Jun 2027 06:43:20.130             3.000          1500.000
       210   08 Jun 2027 06:43:44.824   08 Jun 2027 06:43:47.304             2.480          1240.000
       211   08 Jun 2027 06:44:34.074   08 Jun 2027 06:44:45.686            11.612          5806.000
       212   08 Jun 2027 08:17:55.629   08 Jun 2027 08:17:58.528             2.899          1449.500
       213   08 Jun 2027 08:18:20.526   08 Jun 2027 08:18:41.385            20.859         10429.500
       214   09 Jun 2027 03:38:27.598   09 Jun 2027 03:38:28.052             0.454           227.000
       215   09 Jun 2027 03:38:43.290   09 Jun 2027 03:38:44.833             1.543           771.500
       216   09 Jun 2027 03:39:21.285   09 Jun 2027 03:39:24.689             3.404          1702.000
       217   09 Jun 2027 03:40:14.695   09 Jun 2027 03:40:16.282             1.587           793.500
       218   09 Jun 2027 03:40:47.942   09 Jun 2027 03:40:58.433            10.491          5245.500
       219   09 Jun 2027 03:41:47.818   09 Jun 2027 03:42:13.494            25.676         12838.000
       220   09 Jun 2027 03:44:04.897   09 Jun 2027 03:44:14.865             9.968          4984.000
       221   09 Jun 2027 05:15:52.388   09 Jun 2027 05:15:53.242             0.854           427.000
       222   09 Jun 2027 05:16:32.288   09 Jun 2027 05:16:33.217             0.929           464.500
       223   09 Jun 2027 05:16:48.924   09 Jun 2027 05:17:04.094            15.170          7585.000
       224   09 Jun 2027 05:18:05.420   09 Jun 2027 05:18:11.010             5.590          2795.000
       225   09 Jun 2027 05:18:46.626   09 Jun 2027 05:18:48.621             1.995           997.500
       226   09 Jun 2027 05:19:17.777   09 Jun 2027 05:19:18.312             0.535           267.500
       227   09 Jun 2027 05:19:24.246   09 Jun 2027 05:19:30.237             5.991          2995.500
       228   09 Jun 2027 05:20:03.579   09 Jun 2027 05:20:14.268            10.689          5344.500
       229   09 Jun 2027 06:52:03.474   09 Jun 2027 06:52:09.823             6.349          3174.500
       230   09 Jun 2027 06:53:06.340   09 Jun 2027 06:53:11.197             4.857          2428.500
       231   09 Jun 2027 06:54:06.373   09 Jun 2027 06:54:12.145             5.772          2886.000
       232   09 Jun 2027 06:54:42.030   09 Jun 2027 06:54:52.181            10.151          5075.500
       233   09 Jun 2027 06:55:34.434   09 Jun 2027 06:55:41.803             7.369          3684.500
       234   09 Jun 2027 06:55:48.039   09 Jun 2027 06:55:48.803             0.764           382.000
       235   10 Jun 2027 03:50:07.734   10 Jun 2027 03:50:35.510            27.776         13888.000
       236   10 Jun 2027 03:52:07.625   10 Jun 2027 03:52:11.462             3.837          1918.500
       237   10 Jun 2027 03:53:48.499   10 Jun 2027 03:53:49.051             0.552           276.000
       238   10 Jun 2027 03:54:19.471   10 Jun 2027 03:54:24.920             5.449          2724.500
       239   10 Jun 2027 03:55:21.651   10 Jun 2027 03:55:28.842             7.191          3595.500
       240   10 Jun 2027 03:55:53.359   10 Jun 2027 03:56:03.365            10.006          5003.000
       241   10 Jun 2027 05:28:00.982   10 Jun 2027 05:28:10.599             9.617          4808.500
       242   10 Jun 2027 05:29:12.228   10 Jun 2027 05:29:22.895            10.667          5333.500
       243   10 Jun 2027 05:30:12.879   10 Jun 2027 05:30:19.689             6.810          3405.000
       244   10 Jun 2027 05:30:48.244   10 Jun 2027 05:30:53.955             5.711          2855.500
       245   10 Jun 2027 05:31:02.930   10 Jun 2027 05:31:09.783             6.853          3426.500
       246   10 Jun 2027 05:31:53.535   10 Jun 2027 05:32:02.559             9.024          4512.000
       247   10 Jun 2027 05:32:12.240   10 Jun 2027 05:32:15.246             3.006          1503.000
       248   10 Jun 2027 07:03:57.831   10 Jun 2027 07:03:59.244             1.413           706.500
       249   10 Jun 2027 07:04:57.254   10 Jun 2027 07:04:58.078             0.824           412.000
       250   10 Jun 2027 07:05:09.950   10 Jun 2027 07:05:27.273            17.323          8661.500
       251   10 Jun 2027 07:06:52.285   10 Jun 2027 07:06:56.199             3.914          1957.000
       252   10 Jun 2027 07:07:35.293   10 Jun 2027 07:07:36.001             0.708           354.000
       253   10 Jun 2027 07:08:27.508   10 Jun 2027 07:08:27.590             0.082            41.000
       254   10 Jun 2027 07:08:51.158   10 Jun 2027 07:08:56.080             4.922          2461.000
       255   11 Jun 2027 04:02:14.090   11 Jun 2027 04:02:14.854             0.764           382.000
       256   11 Jun 2027 04:03:06.242   11 Jun 2027 04:03:08.491             2.249          1124.500
       257   11 Jun 2027 04:03:24.972   11 Jun 2027 04:03:26.736             1.764           882.000
       258   11 Jun 2027 04:03:59.683   11 Jun 2027 04:04:00.273             0.590           295.000
       259   11 Jun 2027 04:04:06.229   11 Jun 2027 04:04:19.273            13.044          6522.000
       260   11 Jun 2027 04:04:20.535   11 Jun 2027 04:04:25.367             4.832          2416.000
       261   11 Jun 2027 04:05:55.995   11 Jun 2027 04:05:57.149             1.154           577.000
       262   11 Jun 2027 04:06:03.306   11 Jun 2027 04:06:15.973            12.667          6333.500
       263   11 Jun 2027 04:07:23.926   11 Jun 2027 04:07:26.635             2.709          1354.500
       264   11 Jun 2027 04:08:22.057   11 Jun 2027 04:08:31.091             9.034          4517.000
       265   11 Jun 2027 05:40:29.541   11 Jun 2027 05:40:40.127            10.586          5293.000
       266   11 Jun 2027 05:41:06.355   11 Jun 2027 05:41:12.408             6.053          3026.500
       267   11 Jun 2027 05:42:04.312   11 Jun 2027 05:42:06.803             2.491          1245.500
       268   11 Jun 2027 05:42:38.775   11 Jun 2027 05:42:44.384             5.609          2804.500
       269   11 Jun 2027 05:43:19.869   11 Jun 2027 05:43:21.073             1.204           602.000
       270   11 Jun 2027 05:43:53.943   11 Jun 2027 05:44:05.773            11.830          5915.000
       271   11 Jun 2027 07:13:47.955   11 Jun 2027 07:14:01.747            13.792          6896.000
       272   11 Jun 2027 07:14:24.619   11 Jun 2027 07:14:25.230             0.611           305.500
       273   11 Jun 2027 07:15:04.480   11 Jun 2027 07:15:15.549            11.069          5534.500
       274   11 Jun 2027 07:16:38.406   11 Jun 2027 07:16:42.857             4.451          2225.500
       275   11 Jun 2027 07:17:02.280   11 Jun 2027 07:17:04.829             2.549          1274.500
       276   11 Jun 2027 07:17:55.521   11 Jun 2027 07:18:00.117             4.596          2298.000
       277   11 Jun 2027 07:18:19.809   11 Jun 2027 07:18:41.522            21.713         10856.500
       278   11 Jun 2027 07:20:50.060   11 Jun 2027 07:20:59.289             9.229          4614.500
       279   12 Jun 2027 04:14:34.336   12 Jun 2027 04:14:37.910             3.574          1787.000
       280   12 Jun 2027 04:15:02.498   12 Jun 2027 04:15:27.325            24.827         12413.500
       281   12 Jun 2027 04:16:32.024   12 Jun 2027 04:16:42.435            10.411          5205.500
       282   12 Jun 2027 04:18:15.585   12 Jun 2027 04:18:18.690             3.105          1552.500
       283   12 Jun 2027 04:19:08.991   12 Jun 2027 04:19:18.387             9.396          4698.000
       284   12 Jun 2027 04:19:32.135   12 Jun 2027 04:19:36.061             3.926          1963.000
       285   12 Jun 2027 04:20:39.904   12 Jun 2027 04:20:41.573             1.669           834.500
       286   12 Jun 2027 05:52:28.107   12 Jun 2027 05:52:39.180            11.073          5536.500
       287   12 Jun 2027 05:53:30.897   12 Jun 2027 05:53:39.083             8.186          4093.000
       288   12 Jun 2027 05:54:15.112   12 Jun 2027 05:54:16.032             0.920           460.000
       289   12 Jun 2027 05:54:24.382   12 Jun 2027 05:54:30.876             6.494          3247.000
       290   12 Jun 2027 05:54:59.808   12 Jun 2027 05:55:17.797            17.989          8994.500
       291   12 Jun 2027 05:56:18.472   12 Jun 2027 05:56:23.693             5.221          2610.500
       292   12 Jun 2027 07:25:45.275   12 Jun 2027 07:25:47.926             2.651          1325.500
       293   12 Jun 2027 07:26:07.785   12 Jun 2027 07:26:27.212            19.427          9713.500
       294   12 Jun 2027 07:27:56.603   12 Jun 2027 07:27:59.094             2.491          1245.500
       295   12 Jun 2027 07:28:38.261   12 Jun 2027 07:28:45.558             7.297          3648.500
       296   12 Jun 2027 07:29:35.675   12 Jun 2027 07:29:38.935             3.260          1630.000
       297   12 Jun 2027 07:30:21.804   12 Jun 2027 07:30:29.445             7.641          3820.500
       298   12 Jun 2027 07:31:05.854   12 Jun 2027 07:31:07.315             1.461           730.500
       299   12 Jun 2027 07:31:25.741   12 Jun 2027 07:31:27.031             1.290           645.000
       300   12 Jun 2027 07:32:12.084   12 Jun 2027 07:32:17.803             5.719          2859.500
       301   12 Jun 2027 07:32:18.531   12 Jun 2027 07:32:33.176            14.645          7322.500
       302   12 Jun 2027 07:33:21.174   12 Jun 2027 07:33:21.174             0.000             0.000
       303   13 Jun 2027 04:26:22.971   13 Jun 2027 04:26:23.648             0.677           338.500
       304   13 Jun 2027 04:26:39.417   13 Jun 2027 04:26:41.745             2.328          1164.000
       305   13 Jun 2027 04:28:07.469   13 Jun 2027 04:28:11.876             4.407          2203.500
       306   13 Jun 2027 04:28:46.942   13 Jun 2027 04:28:50.768             3.826          1913.000
       307   13 Jun 2027 04:29:21.000   13 Jun 2027 04:29:21.802             0.802           401.000
       308   13 Jun 2027 04:29:33.233   13 Jun 2027 04:29:35.876             2.643          1321.500
       309   13 Jun 2027 04:29:49.916   13 Jun 2027 04:29:50.428             0.512           256.000
       310   13 Jun 2027 04:30:13.890   13 Jun 2027 04:30:20.713             6.823          3411.500
       311   13 Jun 2027 04:30:58.310   13 Jun 2027 04:31:04.430             6.120          3060.000
       312   13 Jun 2027 04:32:04.192   13 Jun 2027 04:32:22.657            18.465          9232.500
       313   13 Jun 2027 06:04:27.065   13 Jun 2027 06:04:36.855             9.790          4895.000
       314   13 Jun 2027 06:05:20.066   13 Jun 2027 06:05:33.843            13.777          6888.500
       315   13 Jun 2027 06:06:36.082   13 Jun 2027 06:06:40.606             4.524          2262.000
       316   13 Jun 2027 06:06:59.530   13 Jun 2027 06:07:08.863             9.333          4666.500
       317   13 Jun 2027 06:08:25.474   13 Jun 2027 06:08:29.489             4.015          2007.500
       318   13 Jun 2027 07:38:11.381   13 Jun 2027 07:38:29.289            17.908          8954.000
       319   13 Jun 2027 07:39:35.159   13 Jun 2027 07:39:53.247            18.088          9044.000
       320   13 Jun 2027 07:41:12.184   13 Jun 2027 07:41:36.621            24.437         12218.500
       321   13 Jun 2027 07:43:24.451   13 Jun 2027 07:43:27.638             3.187          1593.500
       322   13 Jun 2027 07:44:05.496   13 Jun 2027 07:44:23.441            17.945          8972.500
