uniorb/output/strategy_2/Camera/Camera_KinoSat_111609.txt

KinoSat_111609
-------------------------
    Access    *     Start Time (UTCG)     *     Stop Time (UTCG)  *   Duration (s) *   Data (Mbytes)
         1   01 Jun 2027 04:13:25.203   01 Jun 2027 04:14:58.743            93.540         46770.000
         2   01 Jun 2027 04:16:28.153   01 Jun 2027 04:16:55.750            27.597         13798.500
         3   01 Jun 2027 04:17:24.485   01 Jun 2027 04:18:46.545            82.060         41030.000
         4   01 Jun 2027 04:20:15.365   01 Jun 2027 04:20:47.862            32.497         16248.500
         5   01 Jun 2027 05:38:34.825   01 Jun 2027 05:39:24.864            50.039         25019.500
         6   01 Jun 2027 05:50:09.822   01 Jun 2027 05:51:06.835            57.013         28506.500
         7   01 Jun 2027 07:12:45.495   01 Jun 2027 07:13:44.120            58.625         29312.500
         8   01 Jun 2027 07:14:22.776   01 Jun 2027 07:15:37.272            74.496         37248.000
         9   01 Jun 2027 08:47:54.502   01 Jun 2027 08:49:08.474            73.972         36986.000
        10   01 Jun 2027 08:49:37.276   01 Jun 2027 08:50:57.544            80.268         40134.000
        11   01 Jun 2027 08:51:39.188   01 Jun 2027 08:51:39.188             0.000             0.000
        12   01 Jun 2027 10:24:41.948   01 Jun 2027 10:26:33.636           111.688         55844.000
        13   01 Jun 2027 10:31:18.119   01 Jun 2027 10:32:07.780            49.661         24830.500
        14   02 Jun 2027 04:25:41.227   02 Jun 2027 04:28:43.240           182.013         91006.500
        15   02 Jun 2027 04:29:25.467   02 Jun 2027 04:29:25.467             0.000             0.000
        16   02 Jun 2027 04:29:37.889   02 Jun 2027 04:30:23.146            45.257         22628.500
        17   02 Jun 2027 04:32:15.367   02 Jun 2027 04:32:43.461            28.094         14047.000
        18   02 Jun 2027 05:49:53.924   02 Jun 2027 05:50:28.510            34.586         17293.000
        19   02 Jun 2027 06:02:07.575   02 Jun 2027 06:03:03.283            55.708         27854.000
        20   02 Jun 2027 07:24:21.282   02 Jun 2027 07:25:29.310            68.028         34014.000
        21   02 Jun 2027 07:26:17.809   02 Jun 2027 07:27:40.859            83.050         41525.000
        22   02 Jun 2027 08:59:14.529   02 Jun 2027 09:00:29.177            74.648         37324.000
        23   02 Jun 2027 09:01:39.086   02 Jun 2027 09:02:23.199            44.113         22056.500
        24   02 Jun 2027 09:03:17.800   02 Jun 2027 09:03:17.800             0.000             0.000
        25   02 Jun 2027 09:05:52.904   02 Jun 2027 09:05:53.587             0.683           341.500
        26   02 Jun 2027 10:36:49.370   02 Jun 2027 10:37:09.281            19.911          9955.500
        27   02 Jun 2027 10:37:29.117   02 Jun 2027 10:37:42.644            13.527          5992.001
        28   02 Jun 2027 10:37:52.180   02 Jun 2027 10:37:53.123             0.943           170.094
        29   02 Jun 2027 10:42:58.831   02 Jun 2027 10:43:14.845            16.014          8007.000
        30   02 Jun 2027 10:43:19.721   02 Jun 2027 10:43:21.102             1.381           434.688
        31   02 Jun 2027 10:43:27.940   02 Jun 2027 10:43:30.038             2.098            38.125
        32   02 Jun 2027 10:43:40.534   02 Jun 2027 10:43:40.592             0.058            29.000
        33   03 Jun 2027 03:00:19.113   03 Jun 2027 03:01:10.519            51.406         25703.000
        34   03 Jun 2027 03:01:44.297   03 Jun 2027 03:02:07.225            22.928         11464.000
        35   03 Jun 2027 03:03:40.814   03 Jun 2027 03:03:49.916             9.102          4551.000
        36   03 Jun 2027 03:04:23.617   03 Jun 2027 03:04:27.743             4.126          2063.000
        37   03 Jun 2027 03:04:27.802   03 Jun 2027 03:04:34.932             7.130          3565.000
        38   03 Jun 2027 04:37:47.552   03 Jun 2027 04:39:02.207            74.655         37327.500
        39   03 Jun 2027 04:39:49.274   03 Jun 2027 04:41:26.219            96.945         48472.500
        40   03 Jun 2027 04:41:43.944   03 Jun 2027 04:41:59.509            15.565          7782.500
        41   03 Jun 2027 04:42:58.691   03 Jun 2027 04:42:58.691             0.000             0.000
        42   03 Jun 2027 04:43:44.014   03 Jun 2027 04:44:10.434            26.420         13210.000
        43   03 Jun 2027 06:01:59.860   03 Jun 2027 06:02:35.371            35.511         17755.500
        44   03 Jun 2027 06:03:42.374   03 Jun 2027 06:03:51.804             9.430          4715.000
        45   03 Jun 2027 06:14:30.918   03 Jun 2027 06:14:34.874             3.956          1978.000
        46   03 Jun 2027 07:35:50.259   03 Jun 2027 07:36:04.542            14.283          5953.937
        47   03 Jun 2027 07:37:17.033   03 Jun 2027 07:37:20.616             3.583          1692.719
        48   03 Jun 2027 07:37:41.365   03 Jun 2027 07:37:42.462             1.097           542.688
        49   03 Jun 2027 07:38:13.886   03 Jun 2027 07:38:16.272             2.386           271.281
        50   03 Jun 2027 07:39:05.953   03 Jun 2027 07:39:05.953             0.000             0.000
        51   03 Jun 2027 07:39:39.067   03 Jun 2027 07:39:44.041             4.974          2179.438
        52   03 Jun 2027 07:40:25.012   03 Jun 2027 07:40:29.111             4.099          1203.750
        53   03 Jun 2027 07:41:09.423   03 Jun 2027 07:41:14.419             4.996          1258.562
        54   03 Jun 2027 09:10:44.830   03 Jun 2027 09:10:53.959             9.129          3528.781
        55   03 Jun 2027 09:12:54.099   03 Jun 2027 09:13:05.376            11.277          2646.469
        56   03 Jun 2027 09:14:42.546   03 Jun 2027 09:14:48.886             6.340          2918.531
        57   03 Jun 2027 09:16:29.196   03 Jun 2027 09:16:29.196             0.000             0.000
        58   03 Jun 2027 09:17:36.719   03 Jun 2027 09:17:46.222             9.503          4751.500
        59   03 Jun 2027 09:17:53.331   03 Jun 2027 09:17:54.719             1.388           559.844
        60   03 Jun 2027 09:19:16.421   03 Jun 2027 09:19:20.613             4.192          1658.844
        61   03 Jun 2027 09:19:43.186   03 Jun 2027 09:19:44.733             1.547           705.406
        62   03 Jun 2027 09:20:12.272   03 Jun 2027 09:20:13.903             1.631           732.469
        63   03 Jun 2027 10:48:45.080   03 Jun 2027 10:49:02.226            17.146          6328.250
        64   03 Jun 2027 10:49:33.669   03 Jun 2027 10:49:33.669             0.000             0.000
        65   03 Jun 2027 10:51:41.628   03 Jun 2027 10:51:41.628             0.000             0.000
        66   03 Jun 2027 10:52:52.632   03 Jun 2027 10:53:08.073            15.441          7042.562
        67   03 Jun 2027 10:53:33.892   03 Jun 2027 10:53:37.653             3.761           792.219
        68   03 Jun 2027 10:53:45.517   03 Jun 2027 10:53:47.228             1.711            71.969
        69   03 Jun 2027 10:54:18.960   03 Jun 2027 10:54:19.421             0.461           230.500
        70   03 Jun 2027 10:54:30.691   03 Jun 2027 10:54:36.462             5.771          1068.656
        71   03 Jun 2027 10:55:27.127   03 Jun 2027 10:55:31.165             4.038          1223.125
        72   04 Jun 2027 03:11:39.405   04 Jun 2027 03:11:49.082             9.677          4838.500
        73   04 Jun 2027 03:12:01.337   04 Jun 2027 03:13:03.005            61.668         30834.000
        74   04 Jun 2027 03:13:08.018   04 Jun 2027 03:13:46.574            38.556         19278.000
        75   04 Jun 2027 03:13:46.999   04 Jun 2027 03:15:06.915            79.916         39958.000
        76   04 Jun 2027 04:50:25.808   04 Jun 2027 04:51:17.825            52.017         26008.500
        77   04 Jun 2027 04:51:48.001   04 Jun 2027 04:52:05.720            17.719          8859.500
        78   04 Jun 2027 04:52:13.791   04 Jun 2027 04:52:37.600            23.809         11904.500
        79   04 Jun 2027 04:52:57.383   04 Jun 2027 04:53:26.708            29.325         14662.500
        80   04 Jun 2027 04:53:46.025   04 Jun 2027 04:53:46.025             0.000             0.000
        81   04 Jun 2027 04:54:04.371   04 Jun 2027 04:54:04.371             0.000             0.000
        82   04 Jun 2027 04:55:02.308   04 Jun 2027 04:55:06.795             4.487          2243.500
        83   04 Jun 2027 06:13:56.310   04 Jun 2027 06:14:16.337            20.027          7610.625
        84   04 Jun 2027 06:15:33.037   04 Jun 2027 06:15:35.017             1.980           990.000
        85   04 Jun 2027 07:50:08.636   04 Jun 2027 07:50:20.657            12.021          5698.719
        86   04 Jun 2027 07:50:39.379   04 Jun 2027 07:50:43.149             3.770           361.594
        87   04 Jun 2027 07:50:57.238   04 Jun 2027 07:51:02.689             5.451           440.281
        88   04 Jun 2027 07:51:17.332   04 Jun 2027 07:51:18.248             0.916           295.875
        89   04 Jun 2027 07:52:10.161   04 Jun 2027 07:52:10.161             0.000             0.000
        90   04 Jun 2027 07:52:41.334   04 Jun 2027 07:52:47.483             6.149          2341.656
        91   04 Jun 2027 07:53:14.549   04 Jun 2027 07:53:20.292             5.743           845.812
        92   04 Jun 2027 09:23:41.582   04 Jun 2027 09:23:51.613            10.031          4310.563
        93   04 Jun 2027 09:25:25.969   04 Jun 2027 09:25:29.325             3.356           972.188
        94   04 Jun 2027 09:26:04.200   04 Jun 2027 09:26:04.200             0.000             0.000
        95   04 Jun 2027 09:26:44.899   04 Jun 2027 09:26:51.286             6.387          2158.969
        96   04 Jun 2027 09:30:46.548   04 Jun 2027 09:31:07.396            20.848          7116.031
        97   04 Jun 2027 09:31:10.579   04 Jun 2027 09:31:13.321             2.742            99.469
        98   04 Jun 2027 09:31:15.457   04 Jun 2027 09:31:18.448             2.991            22.813
        99   04 Jun 2027 09:31:33.558   04 Jun 2027 09:31:35.197             1.639           472.188
       100   04 Jun 2027 11:01:07.433   04 Jun 2027 11:01:25.405            17.972          6864.062
       101   04 Jun 2027 11:01:54.242   04 Jun 2027 11:01:56.619             2.377           901.156
       102   04 Jun 2027 11:02:04.959   04 Jun 2027 11:02:07.685             2.726           260.625
       103   04 Jun 2027 11:03:39.188   04 Jun 2027 11:03:48.497             9.309          2394.594
       104   04 Jun 2027 11:04:23.921   04 Jun 2027 11:04:27.311             3.390           375.281
       105   04 Jun 2027 11:06:04.605   04 Jun 2027 11:06:07.066             2.461          1230.500
       106   04 Jun 2027 11:06:20.470   04 Jun 2027 11:06:23.726             3.256          1240.625
       107   04 Jun 2027 11:07:08.827   04 Jun 2027 11:07:11.942             3.115          1242.313
       108   04 Jun 2027 11:07:22.704   04 Jun 2027 11:07:23.638             0.934           129.250
       109   05 Jun 2027 03:24:06.982   05 Jun 2027 03:24:35.265            28.283         14141.500
       110   05 Jun 2027 03:24:39.880   05 Jun 2027 03:26:30.581           110.701         55350.500
       111   05 Jun 2027 03:27:18.430   05 Jun 2027 03:27:55.532            37.102         18551.000
       112   05 Jun 2027 03:28:25.221   05 Jun 2027 03:28:58.642            33.421         16710.500
       113   05 Jun 2027 03:29:10.935   05 Jun 2027 03:29:50.446            39.511         19755.500
       114   05 Jun 2027 03:30:17.995   05 Jun 2027 03:30:18.305             0.310           155.000
       115   05 Jun 2027 05:02:07.533   05 Jun 2027 05:02:38.071            30.538         15269.000
       116   05 Jun 2027 05:02:43.276   05 Jun 2027 05:02:56.758            13.482          6741.000
       117   05 Jun 2027 05:03:04.166   05 Jun 2027 05:03:06.410             2.244          1122.000
       118   05 Jun 2027 05:03:58.781   05 Jun 2027 05:04:20.931            22.150         11075.000
       119   05 Jun 2027 05:04:39.571   05 Jun 2027 05:04:44.418             4.847          2229.125
       120   05 Jun 2027 05:05:46.683   05 Jun 2027 05:05:52.265             5.582          1781.844
       121   05 Jun 2027 05:05:54.123   05 Jun 2027 05:05:54.968             0.845            11.188
       122   05 Jun 2027 05:06:24.877   05 Jun 2027 05:06:25.120             0.243           105.469
       123   05 Jun 2027 05:06:59.689   05 Jun 2027 05:07:00.481             0.792           396.000
       124   05 Jun 2027 06:25:47.775   05 Jun 2027 06:26:01.081            13.306          6373.188
       125   05 Jun 2027 06:27:07.031   05 Jun 2027 06:27:10.559             3.528          1502.969
       126   05 Jun 2027 08:02:14.962   05 Jun 2027 08:02:29.655            14.693          6889.625
       127   05 Jun 2027 08:03:06.648   05 Jun 2027 08:03:09.713             3.065           903.625
       128   05 Jun 2027 08:03:22.349   05 Jun 2027 08:03:26.277             3.928           394.875
       129   05 Jun 2027 08:03:48.936   05 Jun 2027 08:03:49.811             0.875           297.656
       130   05 Jun 2027 08:04:02.744   05 Jun 2027 08:04:04.239             1.495           385.938
       131   05 Jun 2027 08:05:03.923   05 Jun 2027 08:05:08.314             4.391          1865.125
       132   05 Jun 2027 09:34:26.149   05 Jun 2027 09:34:32.465             6.316          3158.000
       133   05 Jun 2027 09:36:20.403   05 Jun 2027 09:36:26.187             5.784          2409.906
       134   05 Jun 2027 09:38:08.203   05 Jun 2027 09:38:14.688             6.485          2284.344
       135   05 Jun 2027 09:39:29.868   05 Jun 2027 09:39:34.145             4.277          2079.281
       136   05 Jun 2027 09:40:07.747   05 Jun 2027 09:40:07.747             0.000             0.000
       137   05 Jun 2027 09:42:37.804   05 Jun 2027 09:42:41.583             3.779          1889.500
       138   05 Jun 2027 09:43:03.177   05 Jun 2027 09:43:10.217             7.040          3520.000
       139   05 Jun 2027 09:43:12.319   05 Jun 2027 09:43:14.990             2.671           595.969
       140   05 Jun 2027 09:43:31.379   05 Jun 2027 09:43:33.215             1.836           416.687
       141   05 Jun 2027 09:44:00.537   05 Jun 2027 09:44:02.650             2.113           853.813
       142   05 Jun 2027 09:44:11.189   05 Jun 2027 09:44:13.829             2.640           266.844
       143   05 Jun 2027 11:13:18.380   05 Jun 2027 11:13:32.225            13.845          6376.281
       144   05 Jun 2027 11:13:46.580   05 Jun 2027 11:13:48.573             1.993           448.594
       145   05 Jun 2027 11:14:12.714   05 Jun 2027 11:14:13.777             1.063           518.094
       146   05 Jun 2027 11:15:24.864   05 Jun 2027 11:15:29.025             4.161          1859.000
       147   05 Jun 2027 11:15:55.017   05 Jun 2027 11:15:59.684             4.667           609.906
       148   05 Jun 2027 11:16:16.896   05 Jun 2027 11:16:21.024             4.128           435.594
       149   05 Jun 2027 11:17:40.480   05 Jun 2027 11:17:44.397             3.917          1958.500
       150   05 Jun 2027 11:17:55.064   05 Jun 2027 11:17:56.978             1.914           857.844
       151   05 Jun 2027 11:19:20.556   05 Jun 2027 11:19:27.751             7.195          2455.844
       152   05 Jun 2027 11:19:54.238   05 Jun 2027 11:19:58.071             3.833           827.719
       153   06 Jun 2027 03:36:13.047   06 Jun 2027 03:37:16.521            63.474         31737.000
       154   06 Jun 2027 03:37:23.656   06 Jun 2027 03:39:14.962           111.306         55653.000
       155   06 Jun 2027 03:40:11.397   06 Jun 2027 03:40:13.637             2.240          1120.000
       156   06 Jun 2027 03:40:55.845   06 Jun 2027 03:41:35.932            40.087         20043.500
       157   06 Jun 2027 03:41:51.758   06 Jun 2027 03:42:29.811            38.053         19026.500
       158   06 Jun 2027 05:15:21.242   06 Jun 2027 05:16:33.694            72.452         36226.000
       159   06 Jun 2027 05:18:07.579   06 Jun 2027 05:18:13.209             5.630          2815.000
       160   06 Jun 2027 05:18:48.018   06 Jun 2027 05:18:51.842             3.824          1600.375
       161   06 Jun 2027 06:37:54.210   06 Jun 2027 06:38:07.754            13.544          5449.687
       162   06 Jun 2027 06:39:08.015   06 Jun 2027 06:39:08.015             0.000             0.000
       163   06 Jun 2027 06:39:14.693   06 Jun 2027 06:39:19.834             5.141          2091.844
       164   06 Jun 2027 06:39:42.871   06 Jun 2027 06:39:45.178             2.307           682.062
       165   06 Jun 2027 06:40:34.992   06 Jun 2027 06:40:37.911             2.919          1232.000
       166   06 Jun 2027 08:14:22.798   06 Jun 2027 08:14:31.636             8.838          3187.437
       167   06 Jun 2027 08:15:29.488   06 Jun 2027 08:15:33.948             4.460          1525.531
       168   06 Jun 2027 08:15:36.486   06 Jun 2027 08:15:37.685             1.199            79.313
       169   06 Jun 2027 08:16:02.585   06 Jun 2027 08:16:05.024             2.439           566.031
       170   06 Jun 2027 08:16:30.445   06 Jun 2027 08:16:33.199             2.754           580.063
       171   06 Jun 2027 08:17:22.342   06 Jun 2027 08:17:28.388             6.046           955.156
       172   06 Jun 2027 09:49:59.278   06 Jun 2027 09:50:14.167            14.889          6148.500
       173   06 Jun 2027 09:53:03.933   06 Jun 2027 09:53:14.116            10.183          4500.437
       174   06 Jun 2027 09:54:10.416   06 Jun 2027 09:54:14.059             3.643          1735.000
       175   06 Jun 2027 09:54:15.142   06 Jun 2027 09:54:15.949             0.807            33.844
       176   06 Jun 2027 09:54:23.174   06 Jun 2027 09:54:25.515             2.341           225.781
       177   06 Jun 2027 09:55:29.321   06 Jun 2027 09:55:33.234             3.913          1907.000
       178   06 Jun 2027 09:55:36.825   06 Jun 2027 09:55:38.040             1.215           112.219
       179   06 Jun 2027 09:55:57.225   06 Jun 2027 09:55:59.284             2.059           424.875
       180   06 Jun 2027 09:56:05.609   06 Jun 2027 09:56:08.180             2.571           116.125
       181   06 Jun 2027 11:25:52.640   06 Jun 2027 11:26:10.778            18.138          7021.094
       182   06 Jun 2027 11:27:46.249   06 Jun 2027 11:27:50.243             3.994          1997.000
       183   06 Jun 2027 11:29:05.654   06 Jun 2027 11:29:12.422             6.768          3281.344
       184   06 Jun 2027 11:29:43.520   06 Jun 2027 11:29:44.363             0.843           421.500
       185   06 Jun 2027 11:29:45.881   06 Jun 2027 11:29:51.171             5.290           587.188
       186   06 Jun 2027 11:30:59.932   06 Jun 2027 11:31:07.582             7.650          2094.437
       187   06 Jun 2027 11:31:23.540   06 Jun 2027 11:31:24.755             1.215           495.125
       188   06 Jun 2027 11:31:29.778   06 Jun 2027 11:31:29.778             0.000             0.000
       189   06 Jun 2027 11:32:06.629   06 Jun 2027 11:32:09.524             2.895          1308.563
       190   07 Jun 2027 03:48:16.828   07 Jun 2027 03:48:58.053            41.225         20612.500
       191   07 Jun 2027 03:49:20.982   07 Jun 2027 03:50:36.114            75.132         37566.000
       192   07 Jun 2027 03:51:57.391   07 Jun 2027 03:52:02.123             4.732          2366.000
       193   07 Jun 2027 03:52:52.468   07 Jun 2027 03:53:42.357            49.889         24944.500
       194   07 Jun 2027 03:53:57.846   07 Jun 2027 03:54:24.790            26.944         13472.000
       195   07 Jun 2027 05:26:29.486   07 Jun 2027 05:27:06.683            37.197         18598.500
       196   07 Jun 2027 05:27:24.498   07 Jun 2027 05:28:33.001            68.503         33764.562
       197   07 Jun 2027 05:28:48.415   07 Jun 2027 05:28:50.721             2.306           297.375
       198   07 Jun 2027 05:29:58.579   07 Jun 2027 05:29:58.579             0.000             0.000
       199   07 Jun 2027 06:49:56.996   07 Jun 2027 06:50:17.996            21.000          7332.562
       200   07 Jun 2027 06:50:40.865   07 Jun 2027 06:50:41.048             0.183            91.500
       201   07 Jun 2027 06:50:50.417   07 Jun 2027 06:50:53.412             2.995           517.438
       202   07 Jun 2027 06:52:31.215   07 Jun 2027 06:52:36.973             5.758          2578.344
       203   07 Jun 2027 06:52:58.491   07 Jun 2027 06:52:58.491             0.000             0.000
       204   07 Jun 2027 08:26:25.600   07 Jun 2027 08:26:35.885            10.285          4766.656
       205   07 Jun 2027 08:26:49.284   07 Jun 2027 08:26:50.687             1.403           154.500
       206   07 Jun 2027 08:27:13.236   07 Jun 2027 08:27:15.094             1.858           297.812
       207   07 Jun 2027 08:27:34.111   07 Jun 2027 08:27:35.190             1.079           201.344
       208   07 Jun 2027 08:27:52.975   07 Jun 2027 08:27:53.643             0.668           249.750
       209   07 Jun 2027 08:29:00.952   07 Jun 2027 08:29:05.597             4.645          2049.375
       210   07 Jun 2027 10:01:37.989   07 Jun 2027 10:01:47.177             9.188          4436.688
       211   07 Jun 2027 10:03:51.438   07 Jun 2027 10:03:59.963             8.525          3883.156
       212   07 Jun 2027 10:05:24.696   07 Jun 2027 10:05:29.198             4.502          2235.719
       213   07 Jun 2027 10:05:32.794   07 Jun 2027 10:05:34.650             1.856           112.375
       214   07 Jun 2027 10:06:01.502   07 Jun 2027 10:06:04.498             2.996           527.906
       215   07 Jun 2027 10:07:24.144   07 Jun 2027 10:07:29.536             5.392          2488.937
       216   07 Jun 2027 10:07:45.002   07 Jun 2027 10:07:45.997             0.995           356.531
       217   07 Jun 2027 11:37:32.809   07 Jun 2027 11:37:47.518            14.709          7160.219
       218   07 Jun 2027 11:38:00.567   07 Jun 2027 11:38:06.728             6.161           124.125
       219   07 Jun 2027 11:39:38.130   07 Jun 2027 11:39:43.020             4.890          2432.969
       220   07 Jun 2027 11:39:50.147   07 Jun 2027 11:39:51.312             1.165           222.719
       221   07 Jun 2027 11:40:28.727   07 Jun 2027 11:40:32.789             4.062           842.375
       222   07 Jun 2027 11:40:38.907   07 Jun 2027 11:40:41.090             2.183            92.750
       223   07 Jun 2027 11:41:52.088   07 Jun 2027 11:41:58.090             6.002          1749.500
       224   07 Jun 2027 11:42:46.415   07 Jun 2027 11:42:51.022             4.607          1510.156
       225   07 Jun 2027 11:43:28.386   07 Jun 2027 11:43:31.035             2.649          1167.625
       226   08 Jun 2027 04:01:21.529   08 Jun 2027 04:05:04.386           222.857        111428.500
       227   08 Jun 2027 04:06:26.540   08 Jun 2027 04:06:43.545            17.005          8502.500
       228   08 Jun 2027 04:08:17.359   08 Jun 2027 04:08:59.270            41.911         20955.500
       229   08 Jun 2027 05:27:33.488   08 Jun 2027 05:27:56.726            23.238         11619.000
       230   08 Jun 2027 05:38:26.015   08 Jun 2027 05:38:37.514            11.499          5749.500
       231   08 Jun 2027 05:38:55.233   08 Jun 2027 05:39:24.115            28.882         14441.000
       232   08 Jun 2027 05:39:47.020   08 Jun 2027 05:39:52.208             5.188          2227.031
       233   08 Jun 2027 05:40:05.648   08 Jun 2027 05:40:07.577             1.929           214.625
       234   08 Jun 2027 05:40:19.596   08 Jun 2027 05:40:20.450             0.854           369.500
       235   08 Jun 2027 05:41:21.856   08 Jun 2027 05:41:25.254             3.398          1287.469
       236   08 Jun 2027 05:41:54.034   08 Jun 2027 05:41:54.665             0.631           164.313
       237   08 Jun 2027 07:02:23.868   08 Jun 2027 07:02:37.827            13.959          6322.625
       238   08 Jun 2027 07:03:18.352   08 Jun 2027 07:03:21.587             3.235          1266.406
       239   08 Jun 2027 07:04:25.950   08 Jun 2027 07:04:28.044             2.094          1016.344
       240   08 Jun 2027 07:04:53.830   08 Jun 2027 07:04:56.181             2.351           672.875
       241   08 Jun 2027 08:38:09.039   08 Jun 2027 08:38:20.345            11.306          4608.000
       242   08 Jun 2027 08:40:24.558   08 Jun 2027 08:40:32.722             8.164          3720.594
       243   08 Jun 2027 08:40:42.505   08 Jun 2027 08:40:46.028             3.523           150.125
       244   08 Jun 2027 10:12:52.348   08 Jun 2027 10:13:03.362            11.014          4416.094
       245   08 Jun 2027 10:13:51.065   08 Jun 2027 10:13:55.278             4.213          1240.813
       246   08 Jun 2027 10:15:02.843   08 Jun 2027 10:15:09.558             6.715           867.312
       247   08 Jun 2027 10:18:41.793   08 Jun 2027 10:18:54.574            12.781          5638.219
       248   08 Jun 2027 10:19:14.081   08 Jun 2027 10:19:15.301             1.220           609.594
       249   08 Jun 2027 10:19:34.261   08 Jun 2027 10:19:34.639             0.378           189.000
       250   08 Jun 2027 10:20:08.395   08 Jun 2027 10:20:14.064             5.669          1119.750
       251   08 Jun 2027 11:49:39.742   08 Jun 2027 11:49:54.275            14.533          5914.000
       252   08 Jun 2027 11:50:24.319   08 Jun 2027 11:50:26.712             2.393           175.219
       253   08 Jun 2027 11:51:29.123   08 Jun 2027 11:51:34.339             5.216          1945.906
       254   08 Jun 2027 11:52:00.949   08 Jun 2027 11:52:03.295             2.346           500.562
       255   08 Jun 2027 11:52:31.565   08 Jun 2027 11:52:34.421             2.856           849.625
       256   08 Jun 2027 11:53:26.242   08 Jun 2027 11:53:29.985             3.743          1540.656
       257   08 Jun 2027 11:53:47.673   08 Jun 2027 11:53:47.673             0.000             0.000
       258   08 Jun 2027 11:53:54.974   08 Jun 2027 11:53:58.865             3.891           725.313
       259   08 Jun 2027 11:54:25.664   08 Jun 2027 11:54:27.035             1.371           685.500
       260   08 Jun 2027 11:55:20.460   08 Jun 2027 11:55:23.971             3.511          1699.781
       261   08 Jun 2027 11:55:30.497   08 Jun 2027 11:55:32.442             1.945           203.937
       262   09 Jun 2027 04:13:43.010   09 Jun 2027 04:16:31.027           168.017         84008.500
       263   09 Jun 2027 04:16:37.921   09 Jun 2027 04:17:08.969            31.048         15524.000
       264   09 Jun 2027 04:17:42.599   09 Jun 2027 04:17:56.942            14.343          7171.500
       265   09 Jun 2027 04:18:04.100   09 Jun 2027 04:18:27.277            23.177         11588.500
       266   09 Jun 2027 04:19:35.846   09 Jun 2027 04:19:38.002             2.156          1078.000
       267   09 Jun 2027 04:20:33.245   09 Jun 2027 04:21:02.526            29.281         14640.500
       268   09 Jun 2027 05:38:48.135   09 Jun 2027 05:39:17.928            29.793         14896.500
       269   09 Jun 2027 05:50:26.938   09 Jun 2027 05:51:23.708            56.770         28385.000
       270   09 Jun 2027 07:13:00.085   09 Jun 2027 07:13:20.220            20.135          7399.187
       271   09 Jun 2027 07:13:46.520   09 Jun 2027 07:13:53.675             7.155           798.250
       272   09 Jun 2027 07:14:40.121   09 Jun 2027 07:14:41.455             1.334           238.156
       273   09 Jun 2027 07:15:20.668   09 Jun 2027 07:15:20.668             0.000             0.000
       274   09 Jun 2027 07:16:31.809   09 Jun 2027 07:16:39.272             7.463          3262.281
       275   09 Jun 2027 07:17:37.792   09 Jun 2027 07:17:44.808             7.016          1280.500
       276   09 Jun 2027 08:48:03.753   09 Jun 2027 08:48:12.690             8.937          3253.156
       277   09 Jun 2027 08:48:27.490   09 Jun 2027 08:48:29.751             2.261           462.500
       278   09 Jun 2027 08:50:12.931   09 Jun 2027 08:50:20.738             7.807          3159.656
       279   09 Jun 2027 08:50:44.341   09 Jun 2027 08:50:46.946             2.605           232.844
       280   09 Jun 2027 08:51:11.973   09 Jun 2027 08:51:14.041             2.068           760.656
       281   09 Jun 2027 08:52:45.759   09 Jun 2027 08:52:45.759             0.000             0.000
       282   09 Jun 2027 08:52:56.802   09 Jun 2027 08:53:04.460             7.658          3164.594
       283   09 Jun 2027 08:53:31.926   09 Jun 2027 08:53:34.077             2.151           858.312
       284   09 Jun 2027 08:54:07.827   09 Jun 2027 08:54:09.761             1.934           420.656
       285   09 Jun 2027 08:54:43.440   09 Jun 2027 08:54:44.935             1.495           747.500
       286   09 Jun 2027 10:25:00.548   09 Jun 2027 10:25:07.635             7.087          3531.625
       287   09 Jun 2027 10:25:33.865   09 Jun 2027 10:25:36.574             2.709            53.000
       288   09 Jun 2027 10:26:17.126   09 Jun 2027 10:26:19.496             2.370          1176.781
       289   09 Jun 2027 10:27:04.171   09 Jun 2027 10:27:06.139             1.968           863.094
       290   09 Jun 2027 10:28:30.403   09 Jun 2027 10:28:36.251             5.848           671.906
       291   09 Jun 2027 10:29:29.127   09 Jun 2027 10:29:35.296             6.169          1577.812
       292   09 Jun 2027 10:29:49.641   09 Jun 2027 10:29:50.671             1.030           448.281
       293   09 Jun 2027 10:29:59.336   09 Jun 2027 10:29:59.683             0.347           158.406
       294   09 Jun 2027 10:30:01.676   09 Jun 2027 10:30:04.117             2.441            21.344
       295   09 Jun 2027 10:30:23.288   09 Jun 2027 10:30:26.185             2.897           352.875
       296   09 Jun 2027 10:31:01.336   09 Jun 2027 10:31:05.485             4.149          1098.469
       297   09 Jun 2027 10:31:23.857   09 Jun 2027 10:31:23.857             0.000             0.000
       298   09 Jun 2027 10:31:37.269   09 Jun 2027 10:31:41.448             4.179           967.625
       299   09 Jun 2027 10:31:58.126   09 Jun 2027 10:31:59.228             1.102           507.375
       300   09 Jun 2027 10:32:06.038   09 Jun 2027 10:32:11.630             5.592           126.062
       301   10 Jun 2027 04:25:59.807   10 Jun 2027 04:29:03.290           183.483         91741.500
       302   10 Jun 2027 04:30:19.405   10 Jun 2027 04:30:38.051            18.646          9323.000
       303   10 Jun 2027 04:31:10.048   10 Jun 2027 04:31:39.718            29.670         14835.000
       304   10 Jun 2027 04:32:47.139   10 Jun 2027 04:33:00.183            13.044          6522.000
       305   10 Jun 2027 05:50:09.213   10 Jun 2027 05:50:44.954            35.741         17870.500
       306   10 Jun 2027 06:02:24.272   10 Jun 2027 06:03:19.441            55.169         27584.500
       307   10 Jun 2027 07:24:30.013   10 Jun 2027 07:24:43.719            13.706          6348.969
       308   10 Jun 2027 07:25:33.137   10 Jun 2027 07:25:38.034             4.897          1510.375
       309   10 Jun 2027 07:26:56.906   10 Jun 2027 07:27:00.842             3.936          1511.844
       310   10 Jun 2027 07:27:22.096   10 Jun 2027 07:27:22.096             0.000             0.000
       311   10 Jun 2027 07:29:19.956   10 Jun 2027 07:29:29.312             9.356          4115.281
       312   10 Jun 2027 07:29:42.878   10 Jun 2027 07:29:44.573             1.695           298.156
       313   10 Jun 2027 08:59:28.516   10 Jun 2027 08:59:40.007            11.491          4342.719
       314   10 Jun 2027 09:00:03.816   10 Jun 2027 09:00:04.679             0.863           386.031
       315   10 Jun 2027 09:01:16.773   10 Jun 2027 09:01:19.251             2.478          1195.156
       316   10 Jun 2027 09:03:16.343   10 Jun 2027 09:03:21.760             5.417          2567.188
       317   10 Jun 2027 09:03:46.769   10 Jun 2027 09:03:48.159             1.390           438.500
       318   10 Jun 2027 09:04:15.852   10 Jun 2027 09:04:17.110             1.258            94.563
       319   10 Jun 2027 09:04:52.682   10 Jun 2027 09:04:54.403             1.721           508.531
       320   10 Jun 2027 09:05:37.741   10 Jun 2027 09:05:45.953             8.212          1299.031
       321   10 Jun 2027 09:06:09.736   10 Jun 2027 09:06:11.023             1.287           289.812
       322   10 Jun 2027 09:06:54.952   10 Jun 2027 09:07:04.341             9.389          1372.781
       323   10 Jun 2027 10:37:04.916   10 Jun 2027 10:37:21.625            16.709          6349.344
       324   10 Jun 2027 10:37:52.184   10 Jun 2027 10:37:53.187             1.003           479.688
       325   10 Jun 2027 10:38:18.347   10 Jun 2027 10:38:20.490             2.143           786.250
       326   10 Jun 2027 10:39:08.796   10 Jun 2027 10:39:10.705             1.909           925.812
       327   10 Jun 2027 10:39:53.206   10 Jun 2027 10:39:56.401             3.195           588.219
       328   10 Jun 2027 10:40:04.717   10 Jun 2027 10:40:10.122             5.405           243.281
       329   10 Jun 2027 10:42:38.265   10 Jun 2027 10:42:48.488            10.223          4629.469
       330   10 Jun 2027 10:43:32.629   10 Jun 2027 10:43:36.382             3.753          1379.406
       331   10 Jun 2027 10:44:22.904   10 Jun 2027 10:44:28.026             5.122          1291.781
       332   11 Jun 2027 03:00:33.446   11 Jun 2027 03:01:30.104            56.658         28329.000
       333   11 Jun 2027 03:01:34.772   11 Jun 2027 03:01:55.098            20.326         10163.000
       334   11 Jun 2027 03:02:42.009   11 Jun 2027 03:02:42.009             0.000             0.000
       335   11 Jun 2027 03:03:25.417   11 Jun 2027 03:03:26.605             1.188           594.000
       336   11 Jun 2027 03:03:31.471   11 Jun 2027 03:03:46.837            15.366          7683.000
       337   11 Jun 2027 03:04:18.123   11 Jun 2027 03:04:19.855             1.732           866.000
       338   11 Jun 2027 03:04:34.165   11 Jun 2027 03:04:42.660             8.495          4247.500
       339   11 Jun 2027 03:04:51.059   11 Jun 2027 03:04:59.455             8.396          4198.000
       340   11 Jun 2027 04:38:07.039   11 Jun 2027 04:39:17.223            70.184         35092.000
       341   11 Jun 2027 04:40:04.221   11 Jun 2027 04:42:23.386           139.165         67771.563
       342   11 Jun 2027 04:43:09.313   11 Jun 2027 04:43:13.544             4.231          1423.000
       343   11 Jun 2027 06:02:16.220   11 Jun 2027 06:02:43.815            27.595         11732.500
       344   11 Jun 2027 06:03:28.592   11 Jun 2027 06:03:39.447            10.855          1273.812
       345   11 Jun 2027 07:36:05.967   11 Jun 2027 07:36:18.417            12.450          5497.906
       346   11 Jun 2027 07:37:34.572   11 Jun 2027 07:37:39.405             4.833          1753.312
       347   11 Jun 2027 07:37:58.043   11 Jun 2027 07:37:58.958             0.915           457.500
       348   11 Jun 2027 07:38:47.708   11 Jun 2027 07:38:52.303             4.595          1629.875
       349   11 Jun 2027 07:38:58.525   11 Jun 2027 07:38:58.525             0.000             0.000
       350   11 Jun 2027 07:39:33.032   11 Jun 2027 07:39:36.034             3.002          1212.750
       351   11 Jun 2027 07:40:04.780   11 Jun 2027 07:40:08.961             4.181           335.938
       352   11 Jun 2027 07:40:45.490   11 Jun 2027 07:40:45.490             0.000             0.000
       353   11 Jun 2027 07:41:02.345   11 Jun 2027 07:41:04.786             2.441          1052.531
       354   11 Jun 2027 09:10:58.844   11 Jun 2027 09:11:02.013             3.169          1584.500
       355   11 Jun 2027 09:11:47.000   11 Jun 2027 09:11:54.459             7.459          3408.063
       356   11 Jun 2027 09:13:02.794   11 Jun 2027 09:13:04.925             2.131           928.500
       357   11 Jun 2027 09:15:00.686   11 Jun 2027 09:15:10.548             9.862          3408.594
       358   11 Jun 2027 09:16:45.750   11 Jun 2027 09:16:53.325             7.575          2975.063
       359   11 Jun 2027 09:18:11.677   11 Jun 2027 09:18:17.408             5.731          2359.563
       360   11 Jun 2027 09:18:18.258   11 Jun 2027 09:18:21.598             3.340            13.500
       361   11 Jun 2027 09:18:56.788   11 Jun 2027 09:19:05.934             9.146           806.281
       362   11 Jun 2027 09:19:59.181   11 Jun 2027 09:20:02.548             3.367          1663.969
       363   11 Jun 2027 09:20:27.617   11 Jun 2027 09:20:30.657             3.040           749.438
       364   11 Jun 2027 10:49:03.484   11 Jun 2027 10:49:23.241            19.757          6616.406
       365   11 Jun 2027 10:49:50.473   11 Jun 2027 10:49:50.628             0.155            77.500
       366   11 Jun 2027 10:50:01.840   11 Jun 2027 10:50:05.918             4.078           998.125
       367   11 Jun 2027 10:51:14.287   11 Jun 2027 10:51:16.464             2.177          1040.844
       368   11 Jun 2027 10:51:58.813   11 Jun 2027 10:52:02.186             3.373          1311.469
       369   11 Jun 2027 10:53:01.571   11 Jun 2027 10:53:08.766             7.195          1824.406
       370   11 Jun 2027 10:54:43.673   11 Jun 2027 10:54:51.658             7.985          2841.344
       371   11 Jun 2027 10:55:41.977   11 Jun 2027 10:55:45.875             3.898          1178.156
       372   12 Jun 2027 03:11:57.011   12 Jun 2027 03:12:04.182             7.171          3585.500
       373   12 Jun 2027 03:12:28.544   12 Jun 2027 03:13:19.601            51.057         25528.500
       374   12 Jun 2027 03:13:24.457   12 Jun 2027 03:14:59.408            94.951         47475.500
       375   12 Jun 2027 03:15:25.193   12 Jun 2027 03:15:43.216            18.023          9011.500
       376   12 Jun 2027 03:16:23.603   12 Jun 2027 03:16:31.233             7.630          3815.000
       377   12 Jun 2027 03:17:21.200   12 Jun 2027 03:17:32.366            11.166          5583.000
       378   12 Jun 2027 04:50:43.506   12 Jun 2027 04:51:01.444            17.938          8969.000
       379   12 Jun 2027 04:51:14.795   12 Jun 2027 04:52:02.214            47.419         23709.500
       380   12 Jun 2027 04:52:33.921   12 Jun 2027 04:52:53.819            19.898          9949.000
       381   12 Jun 2027 04:53:47.948   12 Jun 2027 04:54:19.159            31.211         15605.500
       382   12 Jun 2027 04:55:18.730   12 Jun 2027 04:55:24.360             5.630          2815.000
       383   12 Jun 2027 06:14:14.046   12 Jun 2027 06:14:32.027            17.981          8079.938
       384   12 Jun 2027 06:15:48.875   12 Jun 2027 06:15:54.974             6.099          2356.500
       385   12 Jun 2027 07:50:14.611   12 Jun 2027 07:50:32.325            17.714          8005.000
       386   12 Jun 2027 07:50:57.627   12 Jun 2027 07:50:59.787             2.160           411.344
       387   12 Jun 2027 07:51:43.294   12 Jun 2027 07:51:46.054             2.760          1359.594
       388   12 Jun 2027 07:53:21.109   12 Jun 2027 07:53:31.522            10.413          2136.625
       389   12 Jun 2027 09:23:58.380   12 Jun 2027 09:24:06.899             8.519          4241.406
       390   12 Jun 2027 09:26:23.025   12 Jun 2027 09:26:23.172             0.147            73.500
       391   12 Jun 2027 09:27:03.017   12 Jun 2027 09:27:14.075            11.058          3380.906
       392   12 Jun 2027 09:30:25.866   12 Jun 2027 09:30:37.945            12.079          5911.656
       393   12 Jun 2027 09:30:58.265   12 Jun 2027 09:31:00.474             2.209           138.281
       394   12 Jun 2027 09:31:35.914   12 Jun 2027 09:31:38.351             2.437           997.437
       395   12 Jun 2027 09:32:01.258   12 Jun 2027 09:32:05.658             4.400           411.750
       396   12 Jun 2027 11:01:25.999   12 Jun 2027 11:01:42.030            16.031          6943.688
       397   12 Jun 2027 11:01:50.602   12 Jun 2027 11:01:55.323             4.721           267.875
       398   12 Jun 2027 11:02:06.586   12 Jun 2027 11:02:08.442             1.856           313.375
       399   12 Jun 2027 11:02:41.921   12 Jun 2027 11:02:45.075             3.154           898.500
       400   12 Jun 2027 11:03:28.506   12 Jun 2027 11:03:32.582             4.076          1324.125
       401   12 Jun 2027 11:05:42.643   12 Jun 2027 11:05:51.820             9.177          3823.687
       402   12 Jun 2027 11:05:57.601   12 Jun 2027 11:05:57.601             0.000             0.000
       403   12 Jun 2027 11:06:23.707   12 Jun 2027 11:06:25.793             2.086           954.188
       404   12 Jun 2027 11:06:34.484   12 Jun 2027 11:06:35.131             0.647           254.188
       405   12 Jun 2027 11:06:55.563   12 Jun 2027 11:06:59.733             4.170           638.500
       406   12 Jun 2027 11:07:47.679   12 Jun 2027 11:07:52.805             5.126          1372.906
       407   12 Jun 2027 11:07:57.048   12 Jun 2027 11:07:58.433             1.385           132.594
       408   13 Jun 2027 03:24:23.590   13 Jun 2027 03:24:51.043            27.453         13726.500
       409   13 Jun 2027 03:24:54.836   13 Jun 2027 03:27:25.683           150.847         75423.500
       410   13 Jun 2027 03:28:00.556   13 Jun 2027 03:28:31.630            31.074         15537.000
       411   13 Jun 2027 03:29:41.921   13 Jun 2027 03:29:46.584             4.663          2331.500
       412   13 Jun 2027 03:30:17.113   13 Jun 2027 03:30:31.205            14.092          7046.000
       413   13 Jun 2027 05:02:24.433   13 Jun 2027 05:03:52.996            88.563         44247.156
       414   13 Jun 2027 05:04:13.319   13 Jun 2027 05:04:13.817             0.498           249.000
       415   13 Jun 2027 05:06:08.540   13 Jun 2027 05:06:18.902            10.362          3904.344
       416   13 Jun 2027 06:26:03.949   13 Jun 2027 06:26:16.288            12.339          6122.219
       417   13 Jun 2027 06:27:55.218   13 Jun 2027 06:28:01.729             6.511          2542.906
       418   13 Jun 2027 08:02:30.854   13 Jun 2027 08:02:43.219            12.365          5543.938
       419   13 Jun 2027 08:03:25.433   13 Jun 2027 08:03:27.784             2.351          1078.719
       420   13 Jun 2027 08:05:21.042   13 Jun 2027 08:05:30.052             9.010          3539.313
       421   13 Jun 2027 09:34:40.315   13 Jun 2027 09:34:49.916             9.601          3836.906
       422   13 Jun 2027 09:37:12.521   13 Jun 2027 09:37:28.702            16.181          3182.469
       423   13 Jun 2027 09:38:24.281   13 Jun 2027 09:38:25.995             1.714           166.063
       424   13 Jun 2027 09:41:38.219   13 Jun 2027 09:41:38.219             0.000             0.000
       425   13 Jun 2027 09:42:59.340   13 Jun 2027 09:43:17.038            17.698          8040.875
       426   13 Jun 2027 09:44:16.450   13 Jun 2027 09:44:22.801             6.351          1699.656
       427   13 Jun 2027 11:13:35.766   13 Jun 2027 11:13:48.021            12.255          5643.188
       428   13 Jun 2027 11:14:04.681   13 Jun 2027 11:14:05.580             0.899           445.000
       429   13 Jun 2027 11:14:29.090   13 Jun 2027 11:14:30.344             1.254           477.500
       430   13 Jun 2027 11:14:54.008   13 Jun 2027 11:14:56.806             2.798           307.687
       431   13 Jun 2027 11:15:50.439   13 Jun 2027 11:15:53.673             3.234          1048.375
       432   13 Jun 2027 11:16:19.694   13 Jun 2027 11:16:21.163             1.469           719.750
       433   13 Jun 2027 11:17:17.741   13 Jun 2027 11:17:23.795             6.054          1751.156
       434   13 Jun 2027 11:17:51.689   13 Jun 2027 11:17:53.355             1.666           475.062
       435   13 Jun 2027 11:18:04.825   13 Jun 2027 11:18:05.832             1.007           270.313
       436   13 Jun 2027 11:18:58.632   13 Jun 2027 11:19:02.008             3.376          1490.062
       437   13 Jun 2027 11:19:35.471   13 Jun 2027 11:19:36.938             1.467           552.125
       438   13 Jun 2027 11:19:37.670   13 Jun 2027 11:19:37.741             0.071            22.875
       439   13 Jun 2027 11:20:10.471   13 Jun 2027 11:20:16.912             6.441           916.281
