uniorb/output/strategy_2/Camera/Camera_KinoSat_111101.txt

KinoSat_111101
-------------------------
    Access    *     Start Time (UTCG)     *     Stop Time (UTCG)  *   Duration (s) *   Data (Mbytes)
         1   01 Jun 2027 04:01:40.967   01 Jun 2027 04:02:33.211            52.244         26122.000
         2   01 Jun 2027 04:02:58.843   01 Jun 2027 04:02:58.843             0.000             0.000
         3   01 Jun 2027 05:37:38.356   01 Jun 2027 05:41:05.607           207.251        103625.500
         4   01 Jun 2027 05:41:32.224   01 Jun 2027 05:41:32.565             0.341           170.500
         5   01 Jun 2027 07:11:28.093   01 Jun 2027 07:14:02.138           154.045         77022.500
         6   01 Jun 2027 07:14:52.390   01 Jun 2027 07:14:52.390             0.000             0.000
         7   01 Jun 2027 07:15:02.059   01 Jun 2027 07:15:14.136            12.077          6038.500
         8   01 Jun 2027 07:15:35.701   01 Jun 2027 07:16:03.334            27.633         13816.500
         9   01 Jun 2027 07:19:16.411   01 Jun 2027 07:19:57.770            41.359         20679.500
        10   01 Jun 2027 08:48:31.629   01 Jun 2027 08:50:25.590           113.961         56980.500
        11   01 Jun 2027 08:52:38.575   01 Jun 2027 08:52:38.575             0.000             0.000
        12   01 Jun 2027 08:53:14.107   01 Jun 2027 08:53:36.469            22.362         11181.000
        13   01 Jun 2027 08:53:54.050   01 Jun 2027 08:54:10.367            16.317          8158.500
        14   01 Jun 2027 08:54:23.479   01 Jun 2027 08:54:28.016             4.537          2268.500
        15   01 Jun 2027 08:54:47.162   01 Jun 2027 08:55:19.046            31.884         15942.000
        16   01 Jun 2027 10:25:26.335   01 Jun 2027 10:27:53.247           146.912         73456.000
        17   01 Jun 2027 10:29:25.814   01 Jun 2027 10:29:28.749             2.935          1467.500
        18   02 Jun 2027 04:13:34.999   02 Jun 2027 04:14:57.702            82.703         41351.500
        19   02 Jun 2027 04:15:07.017   02 Jun 2027 04:15:07.579             0.562           281.000
        20   02 Jun 2027 05:49:57.045   02 Jun 2027 05:52:47.694           170.649         85324.500
        21   02 Jun 2027 07:23:26.248   02 Jun 2027 07:25:37.707           131.459         65729.500
        22   02 Jun 2027 07:26:07.655   02 Jun 2027 07:26:51.768            44.113         22056.500
        23   02 Jun 2027 07:27:04.002   02 Jun 2027 07:27:40.859            36.857         18428.500
        24   02 Jun 2027 07:30:48.365   02 Jun 2027 07:31:12.545            24.180         12090.000
        25   02 Jun 2027 07:31:55.145   02 Jun 2027 07:31:57.074             1.929           964.500
        26   02 Jun 2027 09:00:57.990   02 Jun 2027 09:02:52.596           114.606         56548.812
        27   02 Jun 2027 09:03:20.827   02 Jun 2027 09:03:23.950             3.123           426.844
        28   02 Jun 2027 09:04:15.418   02 Jun 2027 09:04:18.543             3.125          1562.500
        29   02 Jun 2027 09:04:37.782   02 Jun 2027 09:04:39.087             1.305           647.094
        30   02 Jun 2027 09:07:06.571   02 Jun 2027 09:07:15.117             8.546          4273.000
        31   02 Jun 2027 09:07:22.493   02 Jun 2027 09:07:28.835             6.342           503.719
        32   02 Jun 2027 10:37:53.123   02 Jun 2027 10:38:17.705            24.582         11418.156
        33   02 Jun 2027 10:38:52.189   02 Jun 2027 10:38:56.049             3.860           353.813
        34   02 Jun 2027 10:39:41.192   02 Jun 2027 10:39:43.119             1.927           920.781
        35   02 Jun 2027 10:40:56.923   02 Jun 2027 10:41:01.214             4.291          2145.500
        36   02 Jun 2027 10:41:24.158   02 Jun 2027 10:41:26.123             1.965           877.875
        37   02 Jun 2027 10:41:36.497   02 Jun 2027 10:41:37.155             0.658           324.187
        38   02 Jun 2027 10:42:11.773   02 Jun 2027 10:42:16.590             4.817          1081.812
        39   02 Jun 2027 10:42:57.476   02 Jun 2027 10:43:02.772             5.296          1247.594
        40   03 Jun 2027 03:01:49.769   03 Jun 2027 03:03:03.864            74.095         37047.500
        41   03 Jun 2027 03:04:01.533   03 Jun 2027 03:04:15.793            14.260          7130.000
        42   03 Jun 2027 03:04:51.182   03 Jun 2027 03:05:26.980            35.798         17899.000
        43   03 Jun 2027 03:06:18.171   03 Jun 2027 03:06:18.171             0.000             0.000
        44   03 Jun 2027 04:25:25.966   03 Jun 2027 04:26:32.210            66.244         33122.000
        45   03 Jun 2027 04:26:38.381   03 Jun 2027 04:26:44.218             5.837          2918.500
        46   03 Jun 2027 04:27:01.330   03 Jun 2027 04:27:07.822             6.492          3246.000
        47   03 Jun 2027 04:27:34.125   03 Jun 2027 04:27:47.494            13.369          6684.500
        48   03 Jun 2027 06:01:58.772   03 Jun 2027 06:02:38.711            39.939         19969.500
        49   03 Jun 2027 06:03:27.020   03 Jun 2027 06:04:56.203            89.183         44591.500
        50   03 Jun 2027 07:36:27.870   03 Jun 2027 07:36:40.891            13.021          6103.782
        51   03 Jun 2027 07:37:23.999   03 Jun 2027 07:37:28.831             4.832           938.594
        52   03 Jun 2027 07:37:53.510   03 Jun 2027 07:37:55.500             1.990           379.531
        53   03 Jun 2027 07:38:13.886   03 Jun 2027 07:38:14.232             0.346           173.000
        54   03 Jun 2027 07:38:30.041   03 Jun 2027 07:38:33.317             3.276           592.313
        55   03 Jun 2027 07:40:13.076   03 Jun 2027 07:40:22.713             9.637          3034.656
        56   03 Jun 2027 07:41:03.523   03 Jun 2027 07:41:09.423             5.900          1203.469
        57   03 Jun 2027 07:42:25.055   03 Jun 2027 07:42:30.247             5.192          2363.500
        58   03 Jun 2027 07:43:32.869   03 Jun 2027 07:43:38.497             5.628          1899.594
        59   03 Jun 2027 09:13:05.376   03 Jun 2027 09:13:19.804            14.428          5755.281
        60   03 Jun 2027 09:14:50.811   03 Jun 2027 09:14:53.865             3.054           202.906
        61   03 Jun 2027 09:15:22.023   03 Jun 2027 09:15:24.457             2.434           705.750
        62   03 Jun 2027 09:16:43.707   03 Jun 2027 09:16:53.799            10.092          2259.000
        63   03 Jun 2027 09:17:33.212   03 Jun 2027 09:17:35.613             2.401           972.219
        64   03 Jun 2027 09:17:43.692   03 Jun 2027 09:17:46.222             2.530           252.469
        65   03 Jun 2027 09:17:51.174   03 Jun 2027 09:17:53.331             2.157           114.344
        66   03 Jun 2027 09:18:11.628   03 Jun 2027 09:18:11.628             0.000             0.000
        67   03 Jun 2027 09:18:27.715   03 Jun 2027 09:18:30.559             2.844           982.250
        68   03 Jun 2027 09:19:20.613   03 Jun 2027 09:19:23.993             3.380           754.781
        69   03 Jun 2027 09:19:37.678   03 Jun 2027 09:19:40.128             2.450           105.437
        70   03 Jun 2027 10:50:46.990   03 Jun 2027 10:51:01.477            14.487          6966.219
        71   03 Jun 2027 10:51:25.600   03 Jun 2027 10:51:26.787             1.187           580.750
        72   03 Jun 2027 10:52:06.288   03 Jun 2027 10:52:12.232             5.944          1164.031
        73   03 Jun 2027 10:52:41.769   03 Jun 2027 10:52:45.604             3.835           731.969
        74   03 Jun 2027 10:54:00.194   03 Jun 2027 10:54:06.000             5.806          2330.937
        75   03 Jun 2027 10:55:05.340   03 Jun 2027 10:55:10.091             4.751          1854.375
        76   04 Jun 2027 03:14:15.355   04 Jun 2027 03:14:41.329            25.974         12987.000
        77   04 Jun 2027 03:15:02.889   04 Jun 2027 03:17:19.908           137.019         68509.500
        78   04 Jun 2027 03:17:49.447   04 Jun 2027 03:18:01.871            12.424          6212.000
        79   04 Jun 2027 04:37:36.302   04 Jun 2027 04:38:20.296            43.994         21997.000
        80   04 Jun 2027 04:38:32.749   04 Jun 2027 04:38:40.772             8.023          4011.500
        81   04 Jun 2027 04:39:13.781   04 Jun 2027 04:39:13.781             0.000             0.000
        82   04 Jun 2027 04:39:24.089   04 Jun 2027 04:39:31.338             7.249          3624.500
        83   04 Jun 2027 06:14:24.183   04 Jun 2027 06:15:51.645            87.462         43630.531
        84   04 Jun 2027 06:16:09.002   04 Jun 2027 06:16:11.256             2.254           261.438
        85   04 Jun 2027 06:16:29.285   04 Jun 2027 06:16:30.007             0.722           327.281
        86   04 Jun 2027 06:17:27.539   04 Jun 2027 06:17:31.392             3.853          1797.875
        87   04 Jun 2027 07:49:16.995   04 Jun 2027 07:49:26.144             9.149          4492.094
        88   04 Jun 2027 07:50:27.808   04 Jun 2027 07:50:31.128             3.320          1413.625
        89   04 Jun 2027 07:50:43.149   04 Jun 2027 07:50:46.653             3.504           117.813
        90   04 Jun 2027 07:51:26.401   04 Jun 2027 07:51:28.534             2.133           911.344
        91   04 Jun 2027 07:51:47.403   04 Jun 2027 07:51:53.827             6.424           585.844
        92   04 Jun 2027 07:51:55.832   04 Jun 2027 07:51:58.936             3.104            62.656
        93   04 Jun 2027 07:52:20.755   04 Jun 2027 07:52:30.348             9.593           370.500
        94   04 Jun 2027 07:52:47.483   04 Jun 2027 07:52:48.371             0.888           192.156
        95   04 Jun 2027 07:53:06.734   04 Jun 2027 07:53:14.549             7.815           246.562
        96   04 Jun 2027 07:54:25.252   04 Jun 2027 07:54:31.177             5.925          2209.469
        97   04 Jun 2027 07:55:10.787   04 Jun 2027 07:55:10.787             0.000             0.000
        98   04 Jun 2027 07:55:19.105   04 Jun 2027 07:55:24.834             5.729          1493.875
        99   04 Jun 2027 09:25:40.533   04 Jun 2027 09:25:58.921            18.388          8965.781
       100   04 Jun 2027 09:27:34.483   04 Jun 2027 09:27:38.209             3.726           660.875
       101   04 Jun 2027 09:27:57.703   04 Jun 2027 09:28:00.033             2.330            88.781
       102   04 Jun 2027 09:28:13.731   04 Jun 2027 09:28:15.010             1.279            64.937
       103   04 Jun 2027 09:28:20.561   04 Jun 2027 09:28:22.914             2.353           168.344
       104   04 Jun 2027 09:28:48.370   04 Jun 2027 09:28:49.554             1.184           446.281
       105   04 Jun 2027 09:29:24.133   04 Jun 2027 09:29:29.715             5.582          1080.594
       106   04 Jun 2027 09:29:44.955   04 Jun 2027 09:29:44.955             0.000             0.000
       107   04 Jun 2027 09:29:54.623   04 Jun 2027 09:29:57.476             2.853           721.875
       108   04 Jun 2027 09:30:06.653   04 Jun 2027 09:30:10.648             3.995           286.781
       109   04 Jun 2027 09:31:18.448   04 Jun 2027 09:31:23.605             5.157          2054.750
       110   04 Jun 2027 09:31:46.448   04 Jun 2027 09:31:50.695             4.247           404.656
       111   04 Jun 2027 11:02:54.487   04 Jun 2027 11:03:08.186            13.699          6849.500
       112   04 Jun 2027 11:03:18.656   04 Jun 2027 11:03:21.279             2.623           465.719
       113   04 Jun 2027 11:04:14.197   04 Jun 2027 11:04:23.311             9.114          1522.438
       114   04 Jun 2027 11:04:27.894   04 Jun 2027 11:04:28.258             0.364           124.156
       115   04 Jun 2027 11:04:37.397   04 Jun 2027 11:04:43.402             6.005           259.594
       116   04 Jun 2027 11:05:40.018   04 Jun 2027 11:05:40.875             0.857           428.500
       117   04 Jun 2027 11:06:11.656   04 Jun 2027 11:06:17.598             5.942          2302.656
       118   04 Jun 2027 11:07:18.568   04 Jun 2027 11:07:22.704             4.136          1905.313
       119   05 Jun 2027 03:26:10.542   05 Jun 2027 03:26:48.281            37.739         18869.500
       120   05 Jun 2027 03:27:18.061   05 Jun 2027 03:29:46.606           148.545         74272.500
       121   05 Jun 2027 04:50:13.206   05 Jun 2027 04:50:52.313            39.107         19553.500
       122   05 Jun 2027 04:51:23.601   05 Jun 2027 04:51:33.718            10.117          5058.500
       123   05 Jun 2027 04:51:36.405   05 Jun 2027 04:51:46.152             9.747          4873.500
       124   05 Jun 2027 04:52:28.763   05 Jun 2027 04:52:28.763             0.000             0.000
       125   05 Jun 2027 04:52:38.532   05 Jun 2027 04:52:48.505             9.973          4986.500
       126   05 Jun 2027 06:26:01.081   05 Jun 2027 06:26:53.921            52.840         24307.094
       127   05 Jun 2027 06:28:20.029   05 Jun 2027 06:28:25.365             5.336          2281.187
       128   05 Jun 2027 06:29:14.804   05 Jun 2027 06:29:21.718             6.914          1380.000
       129   05 Jun 2027 08:00:58.658   05 Jun 2027 08:01:07.733             9.075          4357.000
       130   05 Jun 2027 08:02:21.473   05 Jun 2027 08:02:25.630             4.157          1893.688
       131   05 Jun 2027 08:03:01.264   05 Jun 2027 08:03:04.258             2.994          1027.438
       132   05 Jun 2027 08:03:26.995   05 Jun 2027 08:03:29.452             2.457           587.844
       133   05 Jun 2027 08:03:55.521   05 Jun 2027 08:04:02.744             7.223           809.406
       134   05 Jun 2027 08:04:49.759   05 Jun 2027 08:04:55.484             5.725          1469.219
       135   05 Jun 2027 08:05:22.678   05 Jun 2027 08:05:27.224             4.546           833.562
       136   05 Jun 2027 08:05:40.893   05 Jun 2027 08:05:41.641             0.748           361.781
       137   05 Jun 2027 08:05:50.799   05 Jun 2027 08:05:51.889             1.090           265.844
       138   05 Jun 2027 08:06:12.978   05 Jun 2027 08:06:14.759             1.781           659.031
       139   05 Jun 2027 08:06:51.836   05 Jun 2027 08:06:54.759             2.923           911.938
       140   05 Jun 2027 08:07:35.891   05 Jun 2027 08:07:38.344             2.453          1099.344
       141   05 Jun 2027 08:07:46.120   05 Jun 2027 08:07:47.103             0.983           223.031
       142   05 Jun 2027 08:07:58.231   05 Jun 2027 08:08:01.498             3.267           317.656
       143   05 Jun 2027 09:37:12.311   05 Jun 2027 09:37:30.990            18.679          8416.094
       144   05 Jun 2027 09:38:08.362   05 Jun 2027 09:38:10.909             2.547           732.719
       145   05 Jun 2027 09:39:15.867   05 Jun 2027 09:39:18.010             2.143          1071.500
       146   05 Jun 2027 09:39:23.186   05 Jun 2027 09:39:24.973             1.787           478.969
       147   05 Jun 2027 09:39:57.271   05 Jun 2027 09:40:03.345             6.074           264.406
       148   05 Jun 2027 09:40:45.623   05 Jun 2027 09:40:48.435             2.812          1251.125
       149   05 Jun 2027 09:40:59.057   05 Jun 2027 09:41:03.090             4.033           244.000
       150   05 Jun 2027 09:41:36.522   05 Jun 2027 09:41:46.092             9.570           728.719
       151   05 Jun 2027 09:42:11.280   05 Jun 2027 09:42:13.256             1.976           680.969
       152   05 Jun 2027 09:42:31.726   05 Jun 2027 09:42:34.687             2.961           344.656
       153   05 Jun 2027 09:43:22.758   05 Jun 2027 09:43:26.156             3.398          1476.781
       154   05 Jun 2027 11:15:32.425   05 Jun 2027 11:15:46.033            13.608          6687.938
       155   05 Jun 2027 11:16:21.024   05 Jun 2027 11:16:25.510             4.486           812.719
       156   05 Jun 2027 11:16:54.231   05 Jun 2027 11:17:00.633             6.402           876.719
       157   05 Jun 2027 11:17:41.119   05 Jun 2027 11:17:43.655             2.536           805.719
       158   05 Jun 2027 11:17:46.309   05 Jun 2027 11:17:47.189             0.880            82.937
       159   05 Jun 2027 11:18:42.696   05 Jun 2027 11:18:52.800            10.104          1734.594
       160   06 Jun 2027 03:26:58.821   06 Jun 2027 03:27:30.934            32.113         16056.500
       161   06 Jun 2027 03:38:06.656   06 Jun 2027 03:39:49.285           102.629         51314.500
       162   06 Jun 2027 03:40:03.473   06 Jun 2027 03:41:00.739            57.266         28633.000
       163   06 Jun 2027 05:01:03.512   06 Jun 2027 05:02:16.076            72.564         36282.000
       164   06 Jun 2027 05:04:54.300   06 Jun 2027 05:04:54.300             0.000             0.000
       165   06 Jun 2027 05:04:59.026   06 Jun 2027 05:05:07.601             8.575          4287.500
       166   06 Jun 2027 06:36:23.265   06 Jun 2027 06:36:48.903            25.638         12819.000
       167   06 Jun 2027 06:37:46.036   06 Jun 2027 06:37:55.989             9.953          4824.719
       168   06 Jun 2027 06:39:08.015   06 Jun 2027 06:39:12.588             4.573          2250.812
       169   06 Jun 2027 06:39:55.568   06 Jun 2027 06:39:57.446             1.878           939.000
       170   06 Jun 2027 06:40:31.637   06 Jun 2027 06:40:34.992             3.355          1406.812
       171   06 Jun 2027 06:40:37.911   06 Jun 2027 06:40:40.092             2.181            91.219
       172   06 Jun 2027 06:41:07.382   06 Jun 2027 06:41:09.260             1.878           619.125
       173   06 Jun 2027 06:41:55.118   06 Jun 2027 06:41:58.455             3.337          1270.188
       174   06 Jun 2027 08:12:31.678   06 Jun 2027 08:12:41.452             9.774          4261.469
       175   06 Jun 2027 08:13:19.444   06 Jun 2027 08:13:21.616             2.172           815.344
       176   06 Jun 2027 08:14:44.462   06 Jun 2027 08:14:56.929            12.467          2257.188
       177   06 Jun 2027 08:15:23.008   06 Jun 2027 08:15:25.043             2.035           764.969
       178   06 Jun 2027 08:15:52.755   06 Jun 2027 08:15:55.368             2.613           866.000
       179   06 Jun 2027 08:16:51.777   06 Jun 2027 08:17:03.354            11.577          1759.188
       180   06 Jun 2027 08:17:35.748   06 Jun 2027 08:17:39.030             3.282           578.687
       181   06 Jun 2027 08:18:12.424   06 Jun 2027 08:18:15.510             3.086          1043.563
       182   06 Jun 2027 08:18:37.342   06 Jun 2027 08:18:39.916             2.574           682.250
       183   06 Jun 2027 08:19:44.717   06 Jun 2027 08:19:49.344             4.627          2025.031
       184   06 Jun 2027 09:49:34.065   06 Jun 2027 09:49:53.907            19.842          7971.344
       185   06 Jun 2027 09:50:27.239   06 Jun 2027 09:50:28.801             1.562           660.156
       186   06 Jun 2027 09:51:56.187   06 Jun 2027 09:51:57.188             1.001           400.250
       187   06 Jun 2027 09:52:13.591   06 Jun 2027 09:52:14.271             0.680           194.563
       188   06 Jun 2027 09:52:44.833   06 Jun 2027 09:52:46.468             1.635           653.531
       189   06 Jun 2027 09:53:40.838   06 Jun 2027 09:53:44.073             3.235          1279.406
       190   06 Jun 2027 09:53:52.390   06 Jun 2027 09:53:52.390             0.000             0.000
       191   06 Jun 2027 09:54:28.203   06 Jun 2027 09:54:31.799             3.596          1260.750
       192   06 Jun 2027 09:55:14.465   06 Jun 2027 09:55:19.224             4.759          1140.000
       193   06 Jun 2027 09:55:33.234   06 Jun 2027 09:55:34.808             1.574           345.375
       194   06 Jun 2027 11:27:33.728   06 Jun 2027 11:27:46.249            12.521          6260.500
       195   06 Jun 2027 11:27:50.243   06 Jun 2027 11:27:56.174             5.931          1761.531
       196   06 Jun 2027 11:28:53.176   06 Jun 2027 11:28:58.130             4.954          1713.406
       197   06 Jun 2027 11:29:43.520   06 Jun 2027 11:29:45.707             2.187           961.250
       198   06 Jun 2027 11:30:06.082   06 Jun 2027 11:30:10.699             4.617           636.719
       199   06 Jun 2027 11:30:35.587   06 Jun 2027 11:30:44.057             8.470           718.625
       200   06 Jun 2027 11:31:07.582   06 Jun 2027 11:31:10.584             3.002           487.281
       201   06 Jun 2027 11:31:26.362   06 Jun 2027 11:31:28.082             1.720           144.219
       202   07 Jun 2027 03:38:26.194   07 Jun 2027 03:39:09.375            43.181         21590.500
       203   07 Jun 2027 03:50:08.584   07 Jun 2027 03:51:27.693            79.109         39554.500
       204   07 Jun 2027 05:12:21.526   07 Jun 2027 05:13:34.038            72.512         36256.000
       205   07 Jun 2027 05:14:23.210   07 Jun 2027 05:15:07.337            44.127         22063.500
       206   07 Jun 2027 05:16:34.414   07 Jun 2027 05:16:55.276            20.862         10431.000
       207   07 Jun 2027 06:47:27.814   07 Jun 2027 06:48:17.617            49.803         24792.750
       208   07 Jun 2027 06:48:46.329   07 Jun 2027 06:48:48.291             1.962           741.438
       209   07 Jun 2027 06:49:29.928   07 Jun 2027 06:49:34.002             4.074          1044.594
       210   07 Jun 2027 06:50:01.879   07 Jun 2027 06:50:03.967             2.088           320.844
       211   07 Jun 2027 06:50:41.048   07 Jun 2027 06:50:42.255             1.207           321.875
       212   07 Jun 2027 06:51:15.042   07 Jun 2027 06:51:15.042             0.000             0.000
       213   07 Jun 2027 06:52:32.214   07 Jun 2027 06:52:41.091             8.877          3181.156
       214   07 Jun 2027 06:52:58.491   07 Jun 2027 06:53:02.263             3.772           530.937
       215   07 Jun 2027 06:54:06.112   07 Jun 2027 06:54:09.282             3.170          1562.875
       216   07 Jun 2027 06:55:23.798   07 Jun 2027 06:55:27.630             3.832          1848.531
       217   07 Jun 2027 08:24:43.304   07 Jun 2027 08:24:52.560             9.256          4464.000
       218   07 Jun 2027 08:25:34.012   07 Jun 2027 08:25:36.362             2.350           912.156
       219   07 Jun 2027 08:27:44.983   07 Jun 2027 08:27:52.341             7.358          1740.594
       220   07 Jun 2027 08:28:00.787   07 Jun 2027 08:28:02.436             1.649           244.125
       221   07 Jun 2027 08:28:45.778   07 Jun 2027 08:28:50.804             5.026          1158.000
       222   07 Jun 2027 08:29:30.190   07 Jun 2027 08:29:36.096             5.906          1146.844
       223   07 Jun 2027 08:29:51.726   07 Jun 2027 08:29:53.845             2.119           488.438
       224   07 Jun 2027 08:30:15.953   07 Jun 2027 08:30:17.564             1.611           398.500
       225   07 Jun 2027 08:30:47.796   07 Jun 2027 08:30:50.824             3.028           807.781
       226   07 Jun 2027 08:31:20.231   07 Jun 2027 08:31:22.603             2.372           762.125
       227   07 Jun 2027 10:01:37.439   07 Jun 2027 10:01:54.912            17.473          8287.938
       228   07 Jun 2027 10:03:04.708   07 Jun 2027 10:03:06.642             1.934           263.500
       229   07 Jun 2027 10:03:39.436   07 Jun 2027 10:03:43.977             4.541           753.250
       230   07 Jun 2027 10:03:52.324   07 Jun 2027 10:03:53.278             0.954           125.531
       231   07 Jun 2027 10:04:50.476   07 Jun 2027 10:04:59.969             9.493          1643.594
       232   07 Jun 2027 10:05:13.891   07 Jun 2027 10:05:14.895             1.004           427.906
       233   07 Jun 2027 10:05:29.198   07 Jun 2027 10:05:31.536             2.338           140.687
       234   07 Jun 2027 10:05:53.534   07 Jun 2027 10:05:54.986             1.452           648.125
       235   07 Jun 2027 10:06:04.498   07 Jun 2027 10:06:09.518             5.020           297.250
       236   07 Jun 2027 10:06:23.819   07 Jun 2027 10:06:26.569             2.750           446.906
       237   07 Jun 2027 10:07:07.067   07 Jun 2027 10:07:13.944             6.877          1192.375
       238   07 Jun 2027 10:07:23.494   07 Jun 2027 10:07:24.144             0.650           298.438
       239   07 Jun 2027 10:07:33.593   07 Jun 2027 10:07:35.250             1.657           295.281
       240   07 Jun 2027 11:39:33.628   07 Jun 2027 11:39:46.967            13.339          6220.813
       241   07 Jun 2027 11:40:01.204   07 Jun 2027 11:40:04.335             3.131           444.906
       242   07 Jun 2027 11:40:35.939   07 Jun 2027 11:40:38.907             2.968           802.125
       243   07 Jun 2027 11:40:56.104   07 Jun 2027 11:40:57.213             1.109           537.406
       244   07 Jun 2027 11:41:06.381   07 Jun 2027 11:41:08.841             2.460            96.375
       245   07 Jun 2027 11:41:13.768   07 Jun 2027 11:41:14.130             0.362            62.000
       246   07 Jun 2027 11:42:40.131   07 Jun 2027 11:42:45.223             5.092          2449.094
       247   07 Jun 2027 11:42:57.024   07 Jun 2027 11:42:58.470             1.446           331.531
       248   07 Jun 2027 11:43:03.655   07 Jun 2027 11:43:08.536             4.881           162.031
       249   07 Jun 2027 11:43:21.082   07 Jun 2027 11:43:22.337             1.255           229.437
       250   07 Jun 2027 11:43:31.035   07 Jun 2027 11:43:31.035             0.000             0.000
       251   08 Jun 2027 03:49:54.873   08 Jun 2027 03:51:10.687            75.814         37907.000
       252   08 Jun 2027 04:02:05.300   08 Jun 2027 04:02:43.606            38.306         19153.000
       253   08 Jun 2027 05:24:06.918   08 Jun 2027 05:25:27.464            80.546         40273.000
       254   08 Jun 2027 05:26:09.535   08 Jun 2027 05:27:16.250            66.715         33357.500
       255   08 Jun 2027 05:27:43.242   08 Jun 2027 05:27:43.242             0.000             0.000
       256   08 Jun 2027 05:28:18.568   08 Jun 2027 05:28:36.941            18.373          9186.500
       257   08 Jun 2027 06:58:57.079   08 Jun 2027 06:59:32.313            35.234         17458.625
       258   08 Jun 2027 07:00:47.526   08 Jun 2027 07:00:51.052             3.526          1763.000
       259   08 Jun 2027 07:01:26.247   08 Jun 2027 07:01:26.247             0.000             0.000
       260   08 Jun 2027 07:01:29.814   08 Jun 2027 07:01:33.605             3.791          1508.813
       261   08 Jun 2027 07:02:27.083   08 Jun 2027 07:02:27.433             0.350           175.000
       262   08 Jun 2027 07:02:37.827   08 Jun 2027 07:02:43.630             5.803          1821.000
       263   08 Jun 2027 07:03:18.352   08 Jun 2027 07:03:18.352             0.000             0.000
       264   08 Jun 2027 07:04:32.298   08 Jun 2027 07:04:44.457            12.159          3381.563
       265   08 Jun 2027 07:05:39.825   08 Jun 2027 07:05:44.530             4.705          1437.344
       266   08 Jun 2027 07:05:57.871   08 Jun 2027 07:05:59.683             1.812           416.906
       267   08 Jun 2027 07:06:15.209   08 Jun 2027 07:06:16.381             1.172           298.281
       268   08 Jun 2027 07:06:48.427   08 Jun 2027 07:06:49.987             1.560           780.000
       269   08 Jun 2027 08:36:43.682   08 Jun 2027 08:36:57.410            13.728          6604.656
       270   08 Jun 2027 08:37:38.330   08 Jun 2027 08:37:42.245             3.915           979.062
       271   08 Jun 2027 08:38:51.854   08 Jun 2027 08:38:52.384             0.530           265.000
       272   08 Jun 2027 08:39:39.478   08 Jun 2027 08:39:42.930             3.452          1546.469
       273   08 Jun 2027 08:40:37.701   08 Jun 2027 08:40:42.505             4.804          1711.594
       274   08 Jun 2027 08:41:38.319   08 Jun 2027 08:41:40.813             2.494          1247.000
       275   08 Jun 2027 08:42:19.099   08 Jun 2027 08:42:19.099             0.000             0.000
       276   08 Jun 2027 08:42:44.656   08 Jun 2027 08:42:49.300             4.644          2174.750
       277   08 Jun 2027 08:43:12.474   08 Jun 2027 08:43:17.539             5.065           724.187
       278   08 Jun 2027 08:43:51.205   08 Jun 2027 08:43:55.753             4.548           936.125
       279   08 Jun 2027 08:44:05.762   08 Jun 2027 08:44:08.967             3.205           312.781
       280   08 Jun 2027 10:13:28.843   08 Jun 2027 10:13:47.495            18.652          7469.563
       281   08 Jun 2027 10:14:35.089   08 Jun 2027 10:14:36.526             1.437            60.375
       282   08 Jun 2027 10:16:19.891   08 Jun 2027 10:16:23.144             3.253           673.750
       283   08 Jun 2027 10:16:31.956   08 Jun 2027 10:16:33.494             1.538           275.375
       284   08 Jun 2027 10:16:51.300   08 Jun 2027 10:16:52.444             1.144           171.094
       285   08 Jun 2027 10:17:40.707   08 Jun 2027 10:17:45.676             4.969          1508.219
       286   08 Jun 2027 10:17:50.564   08 Jun 2027 10:17:50.898             0.334           103.906
       287   08 Jun 2027 10:18:29.831   08 Jun 2027 10:18:35.913             6.082          1210.781
       288   08 Jun 2027 10:18:47.746   08 Jun 2027 10:18:49.990             2.244            24.969
       289   08 Jun 2027 10:18:50.824   08 Jun 2027 10:18:52.858             2.034             7.719
       290   08 Jun 2027 10:19:48.780   08 Jun 2027 10:19:51.197             2.417          1208.500
       291   08 Jun 2027 10:20:08.395   08 Jun 2027 10:20:14.064             5.669          1076.500
       292   08 Jun 2027 11:51:34.339   08 Jun 2027 11:51:58.406            24.067          6597.406
       293   08 Jun 2027 11:52:17.583   08 Jun 2027 11:52:23.217             5.634           519.812
       294   08 Jun 2027 11:53:00.682   08 Jun 2027 11:53:10.524             9.842          1170.781
       295   08 Jun 2027 11:53:19.418   08 Jun 2027 11:53:21.498             2.080           183.031
       296   08 Jun 2027 11:53:31.764   08 Jun 2027 11:53:31.764             0.000             0.000
       297   08 Jun 2027 11:53:47.673   08 Jun 2027 11:53:50.974             3.301           798.344
       298   08 Jun 2027 11:54:27.035   08 Jun 2027 11:54:27.035             0.000             0.000
       299   08 Jun 2027 11:55:20.460   08 Jun 2027 11:55:30.497            10.037          2671.437
       300   09 Jun 2027 04:01:56.026   09 Jun 2027 04:03:11.885            75.859         37929.500
       301   09 Jun 2027 04:03:52.932   09 Jun 2027 04:03:54.294             1.362           681.000
       302   09 Jun 2027 04:04:03.599   09 Jun 2027 04:04:04.179             0.580           290.000
       303   09 Jun 2027 05:37:54.063   09 Jun 2027 05:40:47.666           173.603         86801.500
       304   09 Jun 2027 07:11:43.293   09 Jun 2027 07:12:48.330            65.037         31067.968
       305   09 Jun 2027 07:13:05.398   09 Jun 2027 07:13:05.398             0.000             0.000
       306   09 Jun 2027 07:13:20.976   09 Jun 2027 07:13:23.018             2.042          1020.188
       307   09 Jun 2027 07:14:15.225   09 Jun 2027 07:14:17.111             1.886           897.031
       308   09 Jun 2027 07:15:55.197   09 Jun 2027 07:16:01.207             6.010          2970.000
       309   09 Jun 2027 07:16:39.272   09 Jun 2027 07:16:43.860             4.588          1157.813
       310   09 Jun 2027 07:17:19.759   09 Jun 2027 07:17:25.840             6.081           716.969
       311   09 Jun 2027 07:17:56.505   09 Jun 2027 07:18:01.891             5.386           584.781
       312   09 Jun 2027 07:18:10.609   09 Jun 2027 07:18:13.217             2.608           250.437
       313   09 Jun 2027 07:18:51.285   09 Jun 2027 07:18:53.317             2.032          1016.000
       314   09 Jun 2027 07:19:55.808   09 Jun 2027 07:20:02.561             6.753          2110.937
       315   09 Jun 2027 08:48:47.906   09 Jun 2027 08:49:08.894            20.988          8405.344
       316   09 Jun 2027 08:51:10.533   09 Jun 2027 08:51:14.041             3.508          1211.281
       317   09 Jun 2027 08:51:36.304   09 Jun 2027 08:51:37.106             0.802           218.875
       318   09 Jun 2027 08:52:27.043   09 Jun 2027 08:52:30.087             3.044           266.344
       319   09 Jun 2027 08:52:57.069   09 Jun 2027 08:52:58.618             1.549           651.031
       320   09 Jun 2027 08:53:26.134   09 Jun 2027 08:53:29.760             3.626           859.875
       321   09 Jun 2027 08:53:37.850   09 Jun 2027 08:53:39.559             1.709           252.813
       322   09 Jun 2027 08:53:56.340   09 Jun 2027 08:53:58.579             2.239           474.031
       323   09 Jun 2027 08:54:13.860   09 Jun 2027 08:54:15.051             1.191           477.531
       324   09 Jun 2027 08:54:36.873   09 Jun 2027 08:54:37.803             0.930           361.188
       325   09 Jun 2027 08:55:04.115   09 Jun 2027 08:55:06.079             1.964           668.250
       326   09 Jun 2027 08:55:45.882   09 Jun 2027 08:55:48.817             2.935          1243.844
       327   09 Jun 2027 08:56:01.642   09 Jun 2027 08:56:02.928             1.286           400.781
       328   09 Jun 2027 10:25:46.974   09 Jun 2027 10:26:03.051            16.077          7899.125
       329   09 Jun 2027 10:28:07.874   09 Jun 2027 10:28:07.912             0.038            19.000
       330   09 Jun 2027 10:28:36.251   09 Jun 2027 10:28:41.546             5.295          1554.937
       331   09 Jun 2027 10:29:39.541   09 Jun 2027 10:29:45.032             5.491          1707.438
       332   09 Jun 2027 10:29:50.671   09 Jun 2027 10:29:52.755             2.084            32.188
       333   09 Jun 2027 10:30:30.945   09 Jun 2027 10:30:37.484             6.539          1193.437
       334   09 Jun 2027 10:31:45.465   09 Jun 2027 10:31:50.570             5.105          1973.813
       335   10 Jun 2027 04:13:50.347   10 Jun 2027 04:15:12.923            82.576         41288.000
       336   10 Jun 2027 04:15:23.682   10 Jun 2027 04:15:37.888            14.206          7103.000
       337   10 Jun 2027 05:50:13.170   10 Jun 2027 05:52:56.450           163.280         81640.000
       338   10 Jun 2027 05:53:24.658   10 Jun 2027 05:53:39.811            15.153          7576.500
       339   10 Jun 2027 07:23:41.449   10 Jun 2027 07:24:37.013            55.564         24756.562
       340   10 Jun 2027 07:25:08.581   10 Jun 2027 07:25:11.594             3.013           622.125
       341   10 Jun 2027 07:26:02.486   10 Jun 2027 07:26:05.527             3.041            42.938
       342   10 Jun 2027 07:26:16.669   10 Jun 2027 07:26:20.003             3.334           348.188
       343   10 Jun 2027 07:27:08.267   10 Jun 2027 07:27:09.759             1.492           567.188
       344   10 Jun 2027 07:29:19.956   10 Jun 2027 07:29:29.312             9.356          3683.125
       345   10 Jun 2027 07:29:42.878   10 Jun 2027 07:29:44.573             1.695           298.156
       346   10 Jun 2027 07:30:06.636   10 Jun 2027 07:30:06.868             0.232           104.125
       347   10 Jun 2027 07:30:53.629   10 Jun 2027 07:30:55.909             2.280          1099.031
       348   10 Jun 2027 07:31:18.493   10 Jun 2027 07:31:19.961             1.468           529.750
       349   10 Jun 2027 07:31:33.346   10 Jun 2027 07:31:34.132             0.786           284.406
       350   10 Jun 2027 07:31:55.057   10 Jun 2027 07:31:57.052             1.995           457.750
       351   10 Jun 2027 07:32:05.092   10 Jun 2027 07:32:06.868             1.776           192.563
       352   10 Jun 2027 09:01:14.934   10 Jun 2027 09:01:28.014            13.080          6456.906
       353   10 Jun 2027 09:03:38.816   10 Jun 2027 09:03:41.623             2.807          1046.875
       354   10 Jun 2027 09:04:11.911   10 Jun 2027 09:04:14.406             2.495           785.687
       355   10 Jun 2027 09:04:47.089   10 Jun 2027 09:04:48.746             1.657           775.875
       356   10 Jun 2027 09:05:18.448   10 Jun 2027 09:05:20.135             1.687           805.188
       357   10 Jun 2027 09:05:46.367   10 Jun 2027 09:05:49.886             3.519           531.469
       358   10 Jun 2027 09:06:11.602   10 Jun 2027 09:06:14.177             2.575           646.406
       359   10 Jun 2027 09:06:42.285   10 Jun 2027 09:06:46.462             4.177           674.406
       360   10 Jun 2027 09:07:22.023   10 Jun 2027 09:07:28.095             6.072           950.844
       361   10 Jun 2027 10:38:08.726   10 Jun 2027 10:38:31.240            22.514          9128.406
       362   10 Jun 2027 10:39:26.124   10 Jun 2027 10:39:30.213             4.089          1571.219
       363   10 Jun 2027 10:39:41.070   10 Jun 2027 10:39:42.051             0.981           229.406
       364   10 Jun 2027 10:40:28.876   10 Jun 2027 10:40:31.255             2.379          1014.844
       365   10 Jun 2027 10:40:38.433   10 Jun 2027 10:40:40.277             1.844           224.312
       366   10 Jun 2027 10:40:58.175   10 Jun 2027 10:40:59.315             1.140           192.000
       367   10 Jun 2027 10:41:38.516   10 Jun 2027 10:41:42.434             3.918          1035.406
       368   10 Jun 2027 10:41:54.417   10 Jun 2027 10:41:54.417             0.000             0.000
       369   10 Jun 2027 10:42:36.554   10 Jun 2027 10:42:37.649             1.095           547.500
       370   10 Jun 2027 10:43:27.342   10 Jun 2027 10:43:32.629             5.287          2561.000
       371   11 Jun 2027 03:02:42.416   11 Jun 2027 03:03:51.635            69.219         34609.500
       372   11 Jun 2027 03:03:52.281   11 Jun 2027 03:04:18.123            25.842         12921.000
       373   11 Jun 2027 03:04:37.546   11 Jun 2027 03:04:42.660             5.114          2557.000
       374   11 Jun 2027 03:05:51.368   11 Jun 2027 03:06:05.779            14.411          7205.500
       375   11 Jun 2027 03:06:43.862   11 Jun 2027 03:06:45.389             1.527           763.500
       376   11 Jun 2027 04:25:39.574   11 Jun 2027 04:26:28.518            48.944         24472.000
       377   11 Jun 2027 04:26:48.986   11 Jun 2027 04:27:11.549            22.563         11281.500
       378   11 Jun 2027 04:27:51.771   11 Jun 2027 04:27:57.298             5.527          2763.500
       379   11 Jun 2027 06:02:14.625   11 Jun 2027 06:04:37.643           143.018         70980.656
       380   11 Jun 2027 06:04:54.680   11 Jun 2027 06:04:54.680             0.000             0.000
       381   11 Jun 2027 06:05:15.999   11 Jun 2027 06:05:19.223             3.224          1019.344
       382   11 Jun 2027 07:36:57.425   11 Jun 2027 07:37:08.998            11.573          5713.906
       383   11 Jun 2027 07:37:39.997   11 Jun 2027 07:37:43.555             3.558           885.375
       384   11 Jun 2027 07:38:08.434   11 Jun 2027 07:38:14.857             6.423           324.719
       385   11 Jun 2027 07:38:30.164   11 Jun 2027 07:38:30.293             0.129            64.500
       386   11 Jun 2027 07:38:44.856   11 Jun 2027 07:38:47.708             2.852           654.688
       387   11 Jun 2027 07:38:58.525   11 Jun 2027 07:38:58.840             0.315           134.406
       388   11 Jun 2027 07:39:37.551   11 Jun 2027 07:39:44.545             6.994          1129.625
       389   11 Jun 2027 07:41:03.860   11 Jun 2027 07:41:09.329             5.469          2451.219
       390   11 Jun 2027 07:42:19.834   11 Jun 2027 07:42:27.085             7.251          2020.719
       391   11 Jun 2027 07:42:54.068   11 Jun 2027 07:42:54.371             0.303           151.500
       392   11 Jun 2027 07:43:13.828   11 Jun 2027 07:43:19.446             5.618          1105.531
       393   11 Jun 2027 07:44:03.962   11 Jun 2027 07:44:03.962             0.000             0.000
       394   11 Jun 2027 09:13:21.165   11 Jun 2027 09:13:35.886            14.721          6367.969
       395   11 Jun 2027 09:15:05.840   11 Jun 2027 09:15:10.548             4.708           214.063
       396   11 Jun 2027 09:15:49.780   11 Jun 2027 09:15:50.563             0.783           391.500
       397   11 Jun 2027 09:16:04.053   11 Jun 2027 09:16:05.767             1.714           857.000
       398   11 Jun 2027 09:16:25.234   11 Jun 2027 09:16:33.565             8.331           923.156
       399   11 Jun 2027 09:16:57.739   11 Jun 2027 09:16:59.283             1.544           431.187
       400   11 Jun 2027 09:17:10.717   11 Jun 2027 09:17:13.274             2.557           357.312
       401   11 Jun 2027 09:17:48.070   11 Jun 2027 09:17:48.070             0.000             0.000
       402   11 Jun 2027 09:17:51.297   11 Jun 2027 09:17:54.970             3.673          1068.031
       403   11 Jun 2027 09:18:13.825   11 Jun 2027 09:18:13.825             0.000             0.000
       404   11 Jun 2027 09:18:26.846   11 Jun 2027 09:18:29.374             2.528           890.469
       405   11 Jun 2027 09:19:51.501   11 Jun 2027 09:19:59.181             7.680          2160.688
       406   11 Jun 2027 10:51:03.737   11 Jun 2027 10:51:17.522            13.785          6710.125
       407   11 Jun 2027 10:51:45.433   11 Jun 2027 10:51:45.851             0.418           150.969
       408   11 Jun 2027 10:51:54.107   11 Jun 2027 10:51:55.088             0.981           182.781
       409   11 Jun 2027 10:52:03.190   11 Jun 2027 10:52:16.323            13.133           199.469
       410   11 Jun 2027 10:53:01.239   11 Jun 2027 10:53:04.362             3.123           627.531
       411   11 Jun 2027 10:53:13.179   11 Jun 2027 10:53:13.675             0.496           137.906
       412   11 Jun 2027 10:53:23.708   11 Jun 2027 10:53:25.429             1.721           313.531
       413   11 Jun 2027 10:53:42.782   11 Jun 2027 10:53:44.877             2.095           542.281
       414   11 Jun 2027 10:54:26.802   11 Jun 2027 10:54:29.863             3.061          1235.781
       415   11 Jun 2027 10:55:27.333   11 Jun 2027 10:55:30.061             2.728          1364.000
       416   12 Jun 2027 03:15:18.136   12 Jun 2027 03:18:06.407           168.271         84135.500
       417   12 Jun 2027 04:37:51.551   12 Jun 2027 04:38:45.440            53.889         26944.500
       418   12 Jun 2027 04:39:27.854   12 Jun 2027 04:39:27.854             0.000             0.000
       419   12 Jun 2027 04:39:34.074   12 Jun 2027 04:39:39.051             4.977          2488.500
       420   12 Jun 2027 04:40:41.970   12 Jun 2027 04:40:58.412            16.442          8221.000
       421   12 Jun 2027 06:14:23.409   12 Jun 2027 06:15:28.778            65.369         32684.500
       422   12 Jun 2027 06:16:21.733   12 Jun 2027 06:16:29.630             7.897          2786.281
       423   12 Jun 2027 06:16:44.535   12 Jun 2027 06:16:52.015             7.480           321.219
       424   12 Jun 2027 06:17:28.256   12 Jun 2027 06:17:28.256             0.000             0.000
       425   12 Jun 2027 07:49:32.705   12 Jun 2027 07:49:45.524            12.819          4880.156
       426   12 Jun 2027 07:50:32.325   12 Jun 2027 07:50:35.473             3.148          1393.719
       427   12 Jun 2027 07:50:57.627   12 Jun 2027 07:50:59.787             2.160           411.344
       428   12 Jun 2027 07:51:13.709   12 Jun 2027 07:51:18.118             4.409           435.063
       429   12 Jun 2027 07:51:32.684   12 Jun 2027 07:51:33.855             1.171           228.719
       430   12 Jun 2027 07:52:25.703   12 Jun 2027 07:52:25.703             0.000             0.000
       431   12 Jun 2027 07:52:31.417   12 Jun 2027 07:52:34.534             3.117          1503.844
       432   12 Jun 2027 07:52:58.182   12 Jun 2027 07:52:59.824             1.642           699.250
       433   12 Jun 2027 07:54:00.461   12 Jun 2027 07:54:00.880             0.419           209.500
       434   12 Jun 2027 07:54:22.748   12 Jun 2027 07:54:31.499             8.751          2368.781
       435   12 Jun 2027 07:55:25.441   12 Jun 2027 07:55:25.869             0.428           214.000
       436   12 Jun 2027 07:55:34.743   12 Jun 2027 07:55:34.743             0.000             0.000
       437   12 Jun 2027 07:55:40.727   12 Jun 2027 07:55:44.851             4.124          1712.187
       438   12 Jun 2027 07:55:59.006   12 Jun 2027 07:56:00.554             1.548           442.344
       439   12 Jun 2027 09:25:57.026   12 Jun 2027 09:26:14.051            17.025          8082.687
       440   12 Jun 2027 09:26:29.203   12 Jun 2027 09:26:29.919             0.716           148.781
       441   12 Jun 2027 09:27:36.158   12 Jun 2027 09:27:38.896             2.738           582.719
       442   12 Jun 2027 09:28:11.651   12 Jun 2027 09:28:15.363             3.712          1023.594
       443   12 Jun 2027 09:28:59.124   12 Jun 2027 09:29:02.770             3.646          1367.531
       444   12 Jun 2027 09:29:47.757   12 Jun 2027 09:29:49.751             1.994           997.000
       445   12 Jun 2027 09:30:12.121   12 Jun 2027 09:30:18.328             6.207          1107.906
       446   12 Jun 2027 09:30:42.222   12 Jun 2027 09:30:46.392             4.170           703.469
       447   12 Jun 2027 09:31:05.157   12 Jun 2027 09:31:07.419             2.262           586.406
       448   12 Jun 2027 11:03:10.140   12 Jun 2027 11:03:28.506            18.366          7181.031
       449   12 Jun 2027 11:04:16.397   12 Jun 2027 11:04:19.196             2.799          1290.656
       450   12 Jun 2027 11:04:41.821   12 Jun 2027 11:04:43.225             1.404           436.219
       451   12 Jun 2027 11:04:53.300   12 Jun 2027 11:04:58.780             5.480           314.844
       452   12 Jun 2027 11:05:55.744   12 Jun 2027 11:06:00.125             4.381          1780.125
       453   12 Jun 2027 11:06:26.350   12 Jun 2027 11:06:30.187             3.837           800.719
       454   12 Jun 2027 11:07:33.799   12 Jun 2027 11:07:38.234             4.435          1853.594
       455   13 Jun 2027 03:26:25.896   13 Jun 2027 03:27:03.873            37.977         18988.500
       456   13 Jun 2027 03:27:33.257   13 Jun 2027 03:30:02.537           149.280         74640.000
       457   13 Jun 2027 04:50:27.684   13 Jun 2027 04:51:14.517            46.833         23416.500
       458   13 Jun 2027 04:51:47.092   13 Jun 2027 04:52:11.738            24.646         12323.000
       459   13 Jun 2027 04:52:44.812   13 Jun 2027 04:52:44.812             0.000             0.000
       460   13 Jun 2027 06:26:16.288   13 Jun 2027 06:26:53.194            36.906         18453.000
       461   13 Jun 2027 06:27:41.865   13 Jun 2027 06:27:52.996            11.131          3876.093
       462   13 Jun 2027 06:28:16.631   13 Jun 2027 06:28:16.631             0.000             0.000
       463   13 Jun 2027 06:28:37.192   13 Jun 2027 06:28:41.221             4.029          1311.687
       464   13 Jun 2027 06:29:01.771   13 Jun 2027 06:29:01.771             0.000             0.000
       465   13 Jun 2027 06:29:30.562   13 Jun 2027 06:29:37.740             7.178          1380.562
       466   13 Jun 2027 08:01:13.588   13 Jun 2027 08:01:23.536             9.948          4391.500
       467   13 Jun 2027 08:02:36.384   13 Jun 2027 08:02:40.527             4.143          1901.687
       468   13 Jun 2027 08:03:11.087   13 Jun 2027 08:03:14.923             3.836           326.250
       469   13 Jun 2027 08:04:46.255   13 Jun 2027 08:04:52.256             6.001          2041.562
       470   13 Jun 2027 08:05:01.687   13 Jun 2027 08:05:02.431             0.744           294.719
       471   13 Jun 2027 08:05:34.311   13 Jun 2027 08:05:39.756             5.445           850.781
       472   13 Jun 2027 08:05:45.050   13 Jun 2027 08:05:49.670             4.620           165.438
       473   13 Jun 2027 08:05:55.490   13 Jun 2027 08:05:58.196             2.706           181.875
       474   13 Jun 2027 08:06:06.749   13 Jun 2027 08:06:07.369             0.620           267.281
       475   13 Jun 2027 08:06:55.899   13 Jun 2027 08:06:59.969             4.070           845.281
       476   13 Jun 2027 08:07:46.130   13 Jun 2027 08:07:49.807             3.677          1442.531
       477   13 Jun 2027 08:08:13.847   13 Jun 2027 08:08:16.959             3.112           335.250
       478   13 Jun 2027 09:37:28.702   13 Jun 2027 09:37:48.272            19.570          8368.500
       479   13 Jun 2027 09:38:35.242   13 Jun 2027 09:38:36.183             0.941           288.969
       480   13 Jun 2027 09:39:33.554   13 Jun 2027 09:39:37.419             3.865          1520.875
       481   13 Jun 2027 09:40:09.639   13 Jun 2027 09:40:11.964             2.325           915.094
       482   13 Jun 2027 09:40:28.796   13 Jun 2027 09:40:30.334             1.538           422.437
       483   13 Jun 2027 09:40:51.611   13 Jun 2027 09:40:53.889             2.278           474.688
       484   13 Jun 2027 09:41:00.268   13 Jun 2027 09:41:00.618             0.350           144.781
       485   13 Jun 2027 09:41:52.477   13 Jun 2027 09:42:01.014             8.537          1620.594
       486   13 Jun 2027 09:42:42.402   13 Jun 2027 09:42:45.890             3.488          1293.375
       487   13 Jun 2027 09:43:01.357   13 Jun 2027 09:43:02.467             1.110           483.344
       488   13 Jun 2027 09:43:39.427   13 Jun 2027 09:43:43.823             4.396          1155.000
       489   13 Jun 2027 11:15:47.628   13 Jun 2027 11:16:07.645            20.017          6179.937
       490   13 Jun 2027 11:17:30.746   13 Jun 2027 11:17:36.487             5.741          2483.688
       491   13 Jun 2027 11:17:56.488   13 Jun 2027 11:17:58.642             2.154           454.313
       492   13 Jun 2027 11:18:11.740   13 Jun 2027 11:18:11.740             0.000             0.000
       493   13 Jun 2027 11:18:28.300   13 Jun 2027 11:18:31.456             3.156           913.969
       494   13 Jun 2027 11:18:36.465   13 Jun 2027 11:18:36.723             0.258           129.000
       495   13 Jun 2027 11:18:47.616   13 Jun 2027 11:18:47.616             0.000             0.000
