uniorb/output/strategy_2/Camera/Camera_KinoSat_112004.txt

KinoSat_112004
-------------------------
    Access    *     Start Time (UTCG)     *     Stop Time (UTCG)  *   Duration (s) *   Data (Mbytes)
         1   01 Jun 2027 03:06:25.068   01 Jun 2027 03:07:03.528            38.460         19230.000
         2   01 Jun 2027 03:07:42.902   01 Jun 2027 03:08:35.747            52.845         26422.500
         3   01 Jun 2027 03:08:41.671   01 Jun 2027 03:09:22.474            40.803         20401.500
         4   01 Jun 2027 03:09:35.336   01 Jun 2027 03:10:15.053            39.717         19858.500
         5   01 Jun 2027 03:10:25.407   01 Jun 2027 03:10:42.698            17.291          8645.500
         6   01 Jun 2027 03:14:08.060   01 Jun 2027 03:14:11.468             3.408          1704.000
         7   01 Jun 2027 04:43:39.164   01 Jun 2027 04:43:43.879             4.715          2357.500
         8   01 Jun 2027 04:44:00.277   01 Jun 2027 04:46:27.664           147.387         73693.500
         9   01 Jun 2027 04:46:53.942   01 Jun 2027 04:47:08.617            14.675          7337.500
        10   01 Jun 2027 04:47:37.161   01 Jun 2027 04:47:43.386             6.225          3112.500
        11   01 Jun 2027 04:48:04.631   01 Jun 2027 04:48:09.055             4.424          2212.000
        12   01 Jun 2027 04:49:18.769   01 Jun 2027 04:49:28.540             9.771          4885.500
        13   01 Jun 2027 06:23:22.079   01 Jun 2027 06:25:42.047           139.968         69984.000
        14   01 Jun 2027 06:26:08.875   01 Jun 2027 06:26:34.990            26.115         13057.500
        15   01 Jun 2027 06:27:06.892   01 Jun 2027 06:27:08.363             1.471           735.500
        16   01 Jun 2027 06:28:04.092   01 Jun 2027 06:28:15.290            11.198          5599.000
        17   01 Jun 2027 07:46:28.819   01 Jun 2027 07:47:05.865            37.046         18523.000
        18   01 Jun 2027 07:47:31.040   01 Jun 2027 07:47:44.931            13.891          6945.500
        19   01 Jun 2027 07:47:47.953   01 Jun 2027 07:48:23.539            35.586         17793.000
        20   01 Jun 2027 09:20:18.412   01 Jun 2027 09:21:09.079            50.667         25333.500
        21   01 Jun 2027 09:22:55.620   01 Jun 2027 09:24:19.271            83.651         41825.500
        22   01 Jun 2027 10:55:10.886   01 Jun 2027 10:56:18.785            67.899         33949.500
        23   01 Jun 2027 10:57:45.829   01 Jun 2027 10:57:45.829             0.000             0.000
        24   01 Jun 2027 10:58:26.824   01 Jun 2027 10:58:58.765            31.941         15970.500
        25   01 Jun 2027 11:02:59.464   01 Jun 2027 11:02:59.464             0.000             0.000
        26   02 Jun 2027 03:18:24.893   02 Jun 2027 03:19:38.284            73.391         36695.500
        27   02 Jun 2027 03:20:41.743   02 Jun 2027 03:20:41.743             0.000             0.000
        28   02 Jun 2027 03:20:44.053   02 Jun 2027 03:22:32.584           108.531         54265.500
        29   02 Jun 2027 03:22:58.240   02 Jun 2027 03:23:59.772            61.532         30766.000
        30   02 Jun 2027 03:24:09.904   02 Jun 2027 03:24:36.912            27.008         13504.000
        31   02 Jun 2027 03:25:20.242   02 Jun 2027 03:25:34.766            14.524          7262.000
        32   02 Jun 2027 03:25:45.148   02 Jun 2027 03:26:08.048            22.900         11450.000
        33   02 Jun 2027 04:58:19.212   02 Jun 2027 04:59:46.396            87.184         43592.000
        34   02 Jun 2027 05:00:29.371   02 Jun 2027 05:00:33.708             4.337          2168.500
        35   02 Jun 2027 05:01:29.674   02 Jun 2027 05:01:37.092             7.418          3709.000
        36   02 Jun 2027 06:34:58.086   02 Jun 2027 06:37:45.724           167.638         83819.000
        37   02 Jun 2027 07:58:26.696   02 Jun 2027 08:00:15.857           109.161         54580.500
        38   02 Jun 2027 09:34:27.375   02 Jun 2027 09:35:21.803            54.428         25957.936
        39   02 Jun 2027 09:36:19.152   02 Jun 2027 09:36:25.416             6.264          1735.094
        40   02 Jun 2027 11:08:11.155   02 Jun 2027 11:08:30.672            19.517          7115.031
        41   02 Jun 2027 11:10:46.625   02 Jun 2027 11:10:46.625             0.000             0.000
        42   02 Jun 2027 11:15:07.864   02 Jun 2027 11:15:26.979            19.115          9089.063
        43   02 Jun 2027 11:15:50.052   02 Jun 2027 11:15:51.686             1.634           409.312
        44   02 Jun 2027 11:16:01.996   02 Jun 2027 11:16:03.153             1.157           322.187
        45   02 Jun 2027 11:16:12.284   02 Jun 2027 11:16:13.013             0.729           231.562
        46   02 Jun 2027 11:16:14.138   02 Jun 2027 11:16:22.187             8.049            35.156
        47   02 Jun 2027 11:16:25.934   02 Jun 2027 11:16:28.762             2.828           117.094
        48   03 Jun 2027 03:30:30.393   03 Jun 2027 03:34:18.330           227.937        113968.500
        49   03 Jun 2027 03:34:33.839   03 Jun 2027 03:35:01.982            28.143         14071.500
        50   03 Jun 2027 03:36:39.640   03 Jun 2027 03:36:50.951            11.311          5655.500
        51   03 Jun 2027 03:37:16.361   03 Jun 2027 03:37:32.663            16.302          8151.000
        52   03 Jun 2027 05:08:34.392   03 Jun 2027 05:09:02.532            28.140         14070.000
        53   03 Jun 2027 05:09:05.672   03 Jun 2027 05:10:06.087            60.415         30105.656
        54   03 Jun 2027 05:10:31.817   03 Jun 2027 05:10:32.902             1.085           542.500
        55   03 Jun 2027 05:10:59.378   03 Jun 2027 05:11:01.410             2.032           958.531
        56   03 Jun 2027 05:11:05.258   03 Jun 2027 05:11:10.331             5.073            86.375
        57   03 Jun 2027 05:12:30.162   03 Jun 2027 05:12:31.406             1.244           622.000
        58   03 Jun 2027 05:13:13.377   03 Jun 2027 05:13:23.206             9.829          2839.563
        59   03 Jun 2027 05:13:47.081   03 Jun 2027 05:13:47.812             0.731           365.500
        60   03 Jun 2027 05:13:58.897   03 Jun 2027 05:14:00.428             1.531           604.281
        61   03 Jun 2027 05:14:17.371   03 Jun 2027 05:14:19.240             1.869           529.469
        62   03 Jun 2027 06:46:37.215   03 Jun 2027 06:47:02.931            25.716         11086.469
        63   03 Jun 2027 06:47:23.161   03 Jun 2027 06:47:26.449             3.288           605.531
        64   03 Jun 2027 06:48:10.720   03 Jun 2027 06:48:14.095             3.375           570.781
        65   03 Jun 2027 06:49:51.572   03 Jun 2027 06:49:58.728             7.156          2892.000
        66   03 Jun 2027 06:50:14.923   03 Jun 2027 06:50:14.923             0.000             0.000
        67   03 Jun 2027 06:50:17.800   03 Jun 2027 06:50:21.579             3.779           567.000
        68   03 Jun 2027 08:10:16.790   03 Jun 2027 08:10:34.117            17.327          8540.000
        69   03 Jun 2027 08:12:41.143   03 Jun 2027 08:12:47.990             6.847          3412.313
        70   03 Jun 2027 11:18:52.130   03 Jun 2027 11:19:02.678            10.548          5274.000
        71   03 Jun 2027 11:20:50.414   03 Jun 2027 11:21:33.130            42.716         21356.062
        72   03 Jun 2027 11:22:58.554   03 Jun 2027 11:23:04.403             5.849          2296.000
        73   03 Jun 2027 11:24:04.304   03 Jun 2027 11:24:08.203             3.899          1685.812
        74   03 Jun 2027 11:24:22.754   03 Jun 2027 11:24:24.796             2.042           454.719
        75   03 Jun 2027 11:27:05.695   03 Jun 2027 11:27:16.913            11.218          5028.094
        76   03 Jun 2027 11:28:12.100   03 Jun 2027 11:28:16.045             3.945          1567.656
        77   03 Jun 2027 11:28:41.086   03 Jun 2027 11:28:43.257             2.171           548.344
        78   04 Jun 2027 03:42:33.263   04 Jun 2027 03:45:48.240           194.977         97488.500
        79   04 Jun 2027 03:46:11.326   04 Jun 2027 03:46:19.901             8.575          4287.500
        80   04 Jun 2027 03:46:35.252   04 Jun 2027 03:47:20.155            44.903         22451.500
        81   04 Jun 2027 03:48:20.661   04 Jun 2027 03:48:32.512            11.851          5925.500
        82   04 Jun 2027 03:49:18.935   04 Jun 2027 03:49:27.740             8.805          4402.500
        83   04 Jun 2027 03:49:30.528   04 Jun 2027 03:49:34.621             4.093          2046.500
        84   04 Jun 2027 05:20:42.454   04 Jun 2027 05:21:43.009            60.555         30277.500
        85   04 Jun 2027 05:21:51.526   04 Jun 2027 05:21:57.105             5.579          2789.500
        86   04 Jun 2027 05:22:06.232   04 Jun 2027 05:22:21.191            14.959          7148.812
        87   04 Jun 2027 05:22:33.845   04 Jun 2027 05:22:33.845             0.000             0.000
        88   04 Jun 2027 05:22:48.402   04 Jun 2027 05:22:52.683             4.281           843.375
        89   04 Jun 2027 05:23:26.766   04 Jun 2027 05:23:31.779             5.013           758.563
        90   04 Jun 2027 05:24:15.677   04 Jun 2027 05:24:19.332             3.655          1236.156
        91   04 Jun 2027 05:25:44.132   04 Jun 2027 05:25:47.780             3.648          1824.000
        92   04 Jun 2027 06:59:50.607   04 Jun 2027 07:00:01.848            11.241          5620.500
        93   04 Jun 2027 07:00:32.137   04 Jun 2027 07:00:38.203             6.066          2989.406
        94   04 Jun 2027 07:01:29.734   04 Jun 2027 07:01:29.734             0.000             0.000
        95   04 Jun 2027 07:02:03.828   04 Jun 2027 07:02:08.479             4.651          2137.781
        96   04 Jun 2027 07:02:52.445   04 Jun 2027 07:02:58.214             5.769          1373.938
        97   04 Jun 2027 08:22:24.983   04 Jun 2027 08:22:43.143            18.160          8093.219
        98   04 Jun 2027 08:24:01.299   04 Jun 2027 08:24:06.401             5.102          1017.375
        99   04 Jun 2027 08:25:20.366   04 Jun 2027 08:25:26.455             6.089          2311.406
       100   04 Jun 2027 09:59:09.116   04 Jun 2027 09:59:09.116             0.000             0.000
       101   04 Jun 2027 10:00:11.634   04 Jun 2027 10:00:42.964            31.330         14691.500
       102   04 Jun 2027 11:34:04.367   04 Jun 2027 11:34:18.233            13.866          6933.000
       103   04 Jun 2027 11:34:36.819   04 Jun 2027 11:34:36.819             0.000             0.000
       104   04 Jun 2027 11:40:35.549   04 Jun 2027 11:40:45.059             9.510          4755.000
       105   05 Jun 2027 03:54:30.715   05 Jun 2027 03:57:50.783           200.068        100034.000
       106   05 Jun 2027 03:58:21.346   05 Jun 2027 03:58:22.696             1.350           675.000
       107   05 Jun 2027 03:58:36.025   05 Jun 2027 03:58:59.209            23.184         11592.000
       108   05 Jun 2027 03:59:03.808   05 Jun 2027 03:59:07.172             3.364          1682.000
       109   05 Jun 2027 03:59:18.277   05 Jun 2027 03:59:20.633             2.356          1178.000
       110   05 Jun 2027 04:00:14.917   05 Jun 2027 04:00:16.322             1.405           702.500
       111   05 Jun 2027 04:00:45.507   05 Jun 2027 04:00:48.978             3.471          1735.500
       112   05 Jun 2027 05:32:47.357   05 Jun 2027 05:33:04.340            16.983          8491.500
       113   05 Jun 2027 05:33:50.132   05 Jun 2027 05:35:14.796            84.664         42332.000
       114   05 Jun 2027 05:35:46.453   05 Jun 2027 05:35:46.453             0.000             0.000
       115   05 Jun 2027 05:36:35.696   05 Jun 2027 05:36:39.677             3.981          1990.500
       116   05 Jun 2027 05:36:44.658   05 Jun 2027 05:36:46.837             2.179          1089.500
       117   05 Jun 2027 05:36:52.217   05 Jun 2027 05:37:02.983            10.766          2680.094
       118   05 Jun 2027 05:38:24.474   05 Jun 2027 05:38:32.622             8.148          2362.031
       119   05 Jun 2027 05:41:06.350   05 Jun 2027 05:41:11.563             5.213          1756.938
       120   05 Jun 2027 07:10:59.121   05 Jun 2027 07:11:13.001            13.880          6235.094
       121   05 Jun 2027 07:11:30.166   05 Jun 2027 07:11:31.723             1.557           467.500
       122   05 Jun 2027 07:12:33.648   05 Jun 2027 07:12:40.329             6.681          1528.469
       123   05 Jun 2027 07:14:01.604   05 Jun 2027 07:14:07.051             5.447          2478.188
       124   05 Jun 2027 07:14:16.284   05 Jun 2027 07:14:22.201             5.917           222.937
       125   05 Jun 2027 08:34:26.516   05 Jun 2027 08:34:51.556            25.040         10998.063
       126   05 Jun 2027 08:35:31.487   05 Jun 2027 08:35:34.449             2.962           855.750
       127   05 Jun 2027 08:36:05.203   05 Jun 2027 08:36:10.400             5.197           691.719
       128   05 Jun 2027 10:11:50.622   05 Jun 2027 10:11:50.622             0.000             0.000
       129   05 Jun 2027 10:12:54.751   05 Jun 2027 10:13:26.997            32.246         15947.656
       130   05 Jun 2027 10:13:51.588   05 Jun 2027 10:13:56.570             4.982           145.344
       131   05 Jun 2027 11:48:25.335   05 Jun 2027 11:48:44.496            19.161          9580.500
       132   05 Jun 2027 11:52:27.978   05 Jun 2027 11:52:43.956            15.978          7989.000
       133   06 Jun 2027 04:07:00.747   06 Jun 2027 04:09:53.740           172.993         86496.500
       134   06 Jun 2027 04:10:22.629   06 Jun 2027 04:11:46.596            83.967         41983.500
       135   06 Jun 2027 05:45:52.902   06 Jun 2027 05:47:21.806            88.904         44452.000
       136   06 Jun 2027 05:47:42.292   06 Jun 2027 05:47:58.619            16.327          7847.468
       137   06 Jun 2027 05:49:17.831   06 Jun 2027 05:49:22.034             4.203          2101.500
       138   06 Jun 2027 05:49:59.227   06 Jun 2027 05:50:02.342             3.115          1530.375
       139   06 Jun 2027 05:50:27.740   06 Jun 2027 05:50:34.173             6.433           788.156
       140   06 Jun 2027 05:51:14.068   06 Jun 2027 05:51:18.696             4.628           745.125
       141   06 Jun 2027 05:52:21.249   06 Jun 2027 05:52:27.016             5.767          1692.406
       142   06 Jun 2027 05:52:49.780   06 Jun 2027 05:52:51.607             1.827           711.375
       143   06 Jun 2027 07:12:01.114   06 Jun 2027 07:12:16.078            14.964          7136.656
       144   06 Jun 2027 07:22:55.257   06 Jun 2027 07:23:02.738             7.481          3715.000
       145   06 Jun 2027 07:23:16.830   06 Jun 2027 07:23:19.900             3.070           153.125
       146   06 Jun 2027 07:24:34.955   06 Jun 2027 07:24:40.685             5.730          1894.406
       147   06 Jun 2027 07:26:05.867   06 Jun 2027 07:26:12.670             6.803          2246.219
       148   06 Jun 2027 08:46:15.219   06 Jun 2027 08:46:39.505            24.286         10357.219
       149   06 Jun 2027 08:47:34.036   06 Jun 2027 08:47:39.624             5.588          1037.781
       150   06 Jun 2027 08:49:12.220   06 Jun 2027 08:49:18.019             5.799          2565.031
       151   07 Jun 2027 04:19:15.484   07 Jun 2027 04:23:26.572           251.088        125544.000
       152   07 Jun 2027 04:25:39.287   07 Jun 2027 04:25:40.140             0.853           426.500
       153   07 Jun 2027 05:58:16.813   07 Jun 2027 06:00:01.816           105.003         52501.500
       154   07 Jun 2027 06:01:12.529   07 Jun 2027 06:01:17.663             5.134          2213.031
       155   07 Jun 2027 06:01:46.100   07 Jun 2027 06:01:49.037             2.937           554.625
       156   07 Jun 2027 06:02:26.949   07 Jun 2027 06:02:31.071             4.122           825.438
       157   07 Jun 2027 06:03:17.792   07 Jun 2027 06:03:20.812             3.020          1460.031
       158   07 Jun 2027 06:03:33.695   07 Jun 2027 06:03:34.828             1.133           402.594
       159   07 Jun 2027 06:03:46.889   07 Jun 2027 06:03:50.236             3.347           282.875
       160   07 Jun 2027 06:04:33.080   07 Jun 2027 06:04:35.496             2.416           953.594
       161   07 Jun 2027 06:05:05.546   07 Jun 2027 06:05:08.207             2.661           813.750
       162   07 Jun 2027 07:23:17.401   07 Jun 2027 07:23:33.754            16.353          7573.187
       163   07 Jun 2027 07:24:40.987   07 Jun 2027 07:24:42.974             1.987           993.500
       164   07 Jun 2027 07:34:57.207   07 Jun 2027 07:35:04.237             7.030          2707.406
       165   07 Jun 2027 07:36:09.355   07 Jun 2027 07:36:12.734             3.379          1427.562
       166   07 Jun 2027 08:57:14.111   07 Jun 2027 08:57:38.114            24.003         12001.500
       167   07 Jun 2027 08:57:53.689   07 Jun 2027 08:57:58.972             5.283          2641.500
       168   07 Jun 2027 08:59:10.505   07 Jun 2027 08:59:14.631             4.126          1780.312
       169   07 Jun 2027 09:00:10.227   07 Jun 2027 09:00:12.717             2.490          1059.031
       170   07 Jun 2027 10:32:58.990   07 Jun 2027 10:33:13.751            14.761          7380.500
       171   07 Jun 2027 10:34:56.115   07 Jun 2027 10:35:05.249             9.134          3791.531
       172   07 Jun 2027 10:35:49.826   07 Jun 2027 10:35:56.014             6.188          1188.625
       173   07 Jun 2027 10:38:07.237   07 Jun 2027 10:38:14.501             7.264          3632.000
       174   07 Jun 2027 10:38:21.623   07 Jun 2027 10:38:24.157             2.534           250.000
       175   08 Jun 2027 03:00:00.000   08 Jun 2027 03:00:16.347            16.347          8173.500
       176   08 Jun 2027 03:00:23.246   08 Jun 2027 03:00:38.685            15.439          7719.500
       177   08 Jun 2027 03:01:14.961   08 Jun 2027 03:01:48.400            33.439         16719.500
       178   08 Jun 2027 04:31:33.433   08 Jun 2027 04:31:34.097             0.664           332.000
       179   08 Jun 2027 04:32:21.655   08 Jun 2027 04:35:55.339           213.684        106842.000
       180   08 Jun 2027 06:10:35.662   08 Jun 2027 06:11:55.586            79.924         39962.000
       181   08 Jun 2027 06:12:13.970   08 Jun 2027 06:12:20.216             6.246          2144.750
       182   08 Jun 2027 06:12:49.806   08 Jun 2027 06:12:53.528             3.722           472.000
       183   08 Jun 2027 06:13:26.672   08 Jun 2027 06:13:30.496             3.824           944.219
       184   08 Jun 2027 06:15:18.677   08 Jun 2027 06:15:25.659             6.982          2940.094
       185   08 Jun 2027 06:16:27.869   08 Jun 2027 06:16:30.852             2.983          1491.500
       186   08 Jun 2027 06:17:19.325   08 Jun 2027 06:17:29.754            10.429          1910.531
       187   08 Jun 2027 07:34:38.656   08 Jun 2027 07:34:51.385            12.729          6298.125
       188   08 Jun 2027 07:35:44.244   08 Jun 2027 07:35:44.244             0.000             0.000
       189   08 Jun 2027 07:36:01.073   08 Jun 2027 07:36:07.238             6.165          1469.656
       190   08 Jun 2027 07:36:49.073   08 Jun 2027 07:36:50.772             1.699           849.500
       191   08 Jun 2027 07:46:54.326   08 Jun 2027 07:47:02.039             7.713          2817.000
       192   08 Jun 2027 07:47:19.517   08 Jun 2027 07:47:23.486             3.969           407.750
       193   08 Jun 2027 09:08:53.794   08 Jun 2027 09:09:30.860            37.066         16236.750
       194   08 Jun 2027 09:11:49.409   08 Jun 2027 09:11:58.152             8.743          4266.250
       195   08 Jun 2027 09:14:16.477   08 Jun 2027 09:14:16.477             0.000             0.000
       196   08 Jun 2027 10:43:53.815   08 Jun 2027 10:44:14.034            20.219          9543.094
       197   08 Jun 2027 10:45:56.925   08 Jun 2027 10:46:02.450             5.525          2130.875
       198   09 Jun 2027 03:06:42.609   09 Jun 2027 03:07:20.967            38.358         19179.000
       199   09 Jun 2027 03:07:31.742   09 Jun 2027 03:07:57.661            25.919         12959.500
       200   09 Jun 2027 03:08:14.062   09 Jun 2027 03:08:21.676             7.614          3807.000
       201   09 Jun 2027 03:08:50.567   09 Jun 2027 03:10:32.891           102.324         51162.000
       202   09 Jun 2027 03:13:32.497   09 Jun 2027 03:13:59.697            27.200         13600.000
       203   09 Jun 2027 03:14:25.808   09 Jun 2027 03:14:31.646             5.838          2919.000
       204   09 Jun 2027 04:44:19.499   09 Jun 2027 04:44:44.577            25.078         12539.000
       205   09 Jun 2027 04:44:46.988   09 Jun 2027 04:46:15.748            88.760         44380.000
       206   09 Jun 2027 04:46:52.954   09 Jun 2027 04:46:59.725             6.771          3385.500
       207   09 Jun 2027 04:48:44.811   09 Jun 2027 04:48:45.063             0.252           126.000
       208   09 Jun 2027 04:49:31.158   09 Jun 2027 04:49:46.111            14.953          7239.875
       209   09 Jun 2027 06:22:41.629   09 Jun 2027 06:23:17.412            35.783         17772.625
       210   09 Jun 2027 06:23:35.867   09 Jun 2027 06:23:36.471             0.604           248.531
       211   09 Jun 2027 06:23:38.335   09 Jun 2027 06:23:41.990             3.655            58.250
       212   09 Jun 2027 06:24:32.648   09 Jun 2027 06:24:37.373             4.725          1454.281
       213   09 Jun 2027 06:24:41.935   09 Jun 2027 06:24:44.018             2.083            58.656
       214   09 Jun 2027 06:25:08.431   09 Jun 2027 06:25:08.431             0.000             0.000
       215   09 Jun 2027 06:25:23.732   09 Jun 2027 06:25:29.927             6.195          1241.063
       216   09 Jun 2027 06:25:54.152   09 Jun 2027 06:25:54.858             0.706           353.000
       217   09 Jun 2027 06:26:07.869   09 Jun 2027 06:26:11.774             3.905           756.531
       218   09 Jun 2027 06:26:15.617   09 Jun 2027 06:26:17.094             1.477            91.844
       219   09 Jun 2027 06:26:26.389   09 Jun 2027 06:26:26.389             0.000             0.000
       220   09 Jun 2027 06:26:50.568   09 Jun 2027 06:26:50.568             0.000             0.000
       221   09 Jun 2027 06:27:17.896   09 Jun 2027 06:27:17.896             0.000             0.000
       222   09 Jun 2027 06:27:21.771   09 Jun 2027 06:27:32.903            11.132          1758.813
       223   09 Jun 2027 07:46:46.804   09 Jun 2027 07:46:57.338            10.534          5066.281
       224   09 Jun 2027 07:47:49.315   09 Jun 2027 07:47:53.713             4.398           858.625
       225   09 Jun 2027 09:20:35.612   09 Jun 2027 09:21:22.010            46.398         18324.906
       226   09 Jun 2027 09:23:48.019   09 Jun 2027 09:24:03.699            15.680          4452.031
       227   09 Jun 2027 09:25:27.157   09 Jun 2027 09:25:33.675             6.518          1919.844
       228   09 Jun 2027 10:55:27.820   09 Jun 2027 10:55:48.169            20.349          9630.063
       229   09 Jun 2027 10:56:24.097   09 Jun 2027 10:56:31.344             7.247           627.812
       230   09 Jun 2027 10:58:48.224   09 Jun 2027 10:59:03.255            15.031          4173.375
       231   09 Jun 2027 11:00:27.440   09 Jun 2027 11:00:32.908             5.468          2595.437
       232   09 Jun 2027 11:00:46.938   09 Jun 2027 11:00:58.359            11.421           274.781
       233   09 Jun 2027 11:01:44.689   09 Jun 2027 11:01:49.204             4.515           915.094
       234   09 Jun 2027 11:04:29.371   09 Jun 2027 11:04:39.083             9.712          4849.906
       235   10 Jun 2027 03:18:42.487   10 Jun 2027 03:20:55.605           133.118         66559.000
       236   10 Jun 2027 03:21:30.716   10 Jun 2027 03:22:47.359            76.643         38321.500
       237   10 Jun 2027 03:24:07.141   10 Jun 2027 03:24:19.391            12.250          6125.000
       238   10 Jun 2027 03:24:28.035   10 Jun 2027 03:24:37.857             9.822          4911.000
       239   10 Jun 2027 03:25:10.566   10 Jun 2027 03:25:52.386            41.820         20910.000
       240   10 Jun 2027 04:56:52.516   10 Jun 2027 04:57:44.141            51.625         25812.500
       241   10 Jun 2027 04:57:54.166   10 Jun 2027 04:58:14.866            20.700         10183.220
       242   10 Jun 2027 04:58:26.341   10 Jun 2027 04:58:28.440             2.099           349.469
       243   10 Jun 2027 04:59:23.929   10 Jun 2027 04:59:26.383             2.454          1227.000
       244   10 Jun 2027 05:00:00.599   10 Jun 2027 05:00:02.789             2.190          1095.000
       245   10 Jun 2027 05:00:46.989   10 Jun 2027 05:00:46.989             0.000             0.000
       246   10 Jun 2027 05:01:30.708   10 Jun 2027 05:01:31.062             0.354           177.000
       247   10 Jun 2027 06:35:18.087   10 Jun 2027 06:36:00.974            42.887         20923.156
       248   10 Jun 2027 06:36:26.567   10 Jun 2027 06:36:28.084             1.517           598.562
       249   10 Jun 2027 06:36:54.224   10 Jun 2027 06:36:55.923             1.699           773.094
       250   10 Jun 2027 06:37:16.725   10 Jun 2027 06:37:19.839             3.114           331.625
       251   10 Jun 2027 06:38:19.938   10 Jun 2027 06:38:25.165             5.227          1830.781
       252   10 Jun 2027 06:39:08.921   10 Jun 2027 06:39:13.033             4.112          1101.875
       253   10 Jun 2027 06:39:43.358   10 Jun 2027 06:39:45.693             2.335           689.375
       254   10 Jun 2027 07:58:43.064   10 Jun 2027 07:59:02.474            19.410          8197.938
       255   10 Jun 2027 08:00:04.296   10 Jun 2027 08:00:07.556             3.260          1511.938
       256   10 Jun 2027 09:34:56.341   10 Jun 2027 09:35:20.316            23.975         11987.500
       257   10 Jun 2027 09:36:06.996   10 Jun 2027 09:36:17.836            10.840          4465.937
       258   10 Jun 2027 09:37:13.389   10 Jun 2027 09:37:13.389             0.000             0.000
       259   10 Jun 2027 11:08:29.553   10 Jun 2027 11:08:45.487            15.934          6943.875
       260   10 Jun 2027 11:10:22.835   10 Jun 2027 11:10:26.014             3.179           137.969
       261   10 Jun 2027 11:11:01.166   10 Jun 2027 11:11:03.002             1.836           733.563
       262   10 Jun 2027 11:14:34.309   10 Jun 2027 11:14:48.734            14.425          6363.063
       263   10 Jun 2027 11:15:18.436   10 Jun 2027 11:15:20.641             2.205           770.812
       264   10 Jun 2027 11:17:02.627   10 Jun 2027 11:17:03.621             0.994           497.000
       265   11 Jun 2027 03:30:49.389   11 Jun 2027 03:32:01.739            72.350         36175.000
       266   11 Jun 2027 03:32:31.837   11 Jun 2027 03:35:23.792           171.955         85977.500
       267   11 Jun 2027 03:35:55.864   11 Jun 2027 03:36:43.533            47.669         23834.500
       268   11 Jun 2027 05:08:52.076   11 Jun 2027 05:08:59.759             7.683          3841.500
       269   11 Jun 2027 05:09:07.398   11 Jun 2027 05:10:10.673            63.275         31637.500
       270   11 Jun 2027 05:12:03.256   11 Jun 2027 05:12:12.433             9.177          4368.593
       271   11 Jun 2027 05:13:03.261   11 Jun 2027 05:13:07.048             3.787          1233.031
       272   11 Jun 2027 05:13:42.481   11 Jun 2027 05:13:49.241             6.760          1107.281
       273   11 Jun 2027 05:14:12.730   11 Jun 2027 05:14:14.552             1.822           734.031
       274   11 Jun 2027 05:14:38.176   11 Jun 2027 05:14:41.025             2.849           738.250
       275   11 Jun 2027 06:46:55.358   11 Jun 2027 06:47:18.694            23.336         11668.000
       276   11 Jun 2027 06:48:10.422   11 Jun 2027 06:48:16.227             5.805          2304.906
       277   11 Jun 2027 06:48:48.024   11 Jun 2027 06:48:50.897             2.873           993.656
       278   11 Jun 2027 06:49:26.732   11 Jun 2027 06:49:29.836             3.104          1119.844
       279   11 Jun 2027 06:49:32.010   11 Jun 2027 06:49:32.934             0.924            33.406
       280   11 Jun 2027 06:50:26.281   11 Jun 2027 06:50:30.431             4.150          1082.594
       281   11 Jun 2027 06:50:35.922   11 Jun 2027 06:50:35.922             0.000             0.000
       282   11 Jun 2027 06:50:56.037   11 Jun 2027 06:50:57.749             1.712           800.188
       283   11 Jun 2027 06:51:16.726   11 Jun 2027 06:51:17.004             0.278            24.563
       284   11 Jun 2027 08:10:34.395   11 Jun 2027 08:10:52.830            18.435          8834.656
       285   11 Jun 2027 08:12:05.629   11 Jun 2027 08:12:13.781             8.152          1811.375
       286   11 Jun 2027 08:13:13.346   11 Jun 2027 08:13:13.529             0.183            91.500
       287   11 Jun 2027 09:47:01.608   11 Jun 2027 09:47:25.913            24.305         11294.375
       288   11 Jun 2027 11:19:12.033   11 Jun 2027 11:19:19.740             7.707          3853.500
       289   11 Jun 2027 11:21:13.494   11 Jun 2027 11:21:18.148             4.654          2327.000
       290   11 Jun 2027 11:23:14.366   11 Jun 2027 11:23:36.515            22.149          8581.750
       291   11 Jun 2027 11:24:24.891   11 Jun 2027 11:24:25.584             0.693           167.625
       292   11 Jun 2027 11:27:16.061   11 Jun 2027 11:27:28.580            12.519          4427.937
       293   11 Jun 2027 11:28:29.629   11 Jun 2027 11:28:34.930             5.301          1632.969
       294   11 Jun 2027 11:28:57.066   11 Jun 2027 11:28:57.066             0.000             0.000
       295   11 Jun 2027 11:28:58.523   11 Jun 2027 11:29:00.815             2.292           737.281
       296   12 Jun 2027 03:42:51.435   12 Jun 2027 03:43:36.255            44.820         22410.000
       297   12 Jun 2027 03:43:59.964   12 Jun 2027 03:47:34.541           214.577        107288.500
       298   12 Jun 2027 03:48:42.676   12 Jun 2027 03:49:01.407            18.731          9365.500
       299   12 Jun 2027 03:49:28.087   12 Jun 2027 03:50:00.556            32.469         15409.188
       300   12 Jun 2027 05:21:00.582   12 Jun 2027 05:22:00.627            60.045         30022.500
       301   12 Jun 2027 05:22:09.672   12 Jun 2027 05:22:15.817             6.145          1989.375
       302   12 Jun 2027 05:22:17.541   12 Jun 2027 05:22:22.926             5.385             7.469
       303   12 Jun 2027 05:22:55.931   12 Jun 2027 05:22:58.220             2.289          1031.406
       304   12 Jun 2027 05:23:28.392   12 Jun 2027 05:23:30.634             2.242           788.406
       305   12 Jun 2027 05:23:33.127   12 Jun 2027 05:23:36.049             2.922            59.031
       306   12 Jun 2027 05:24:31.792   12 Jun 2027 05:24:34.885             3.093          1301.063
       307   12 Jun 2027 05:25:33.087   12 Jun 2027 05:25:34.994             1.907           953.500
       308   12 Jun 2027 05:25:36.233   12 Jun 2027 05:25:38.609             2.376           620.937
       309   12 Jun 2027 05:26:16.352   12 Jun 2027 05:26:18.753             2.401          1179.469
       310   12 Jun 2027 05:26:43.781   12 Jun 2027 05:26:49.228             5.447           782.125
       311   12 Jun 2027 06:59:20.405   12 Jun 2027 06:59:31.839            11.434          5717.000
       312   12 Jun 2027 07:00:02.814   12 Jun 2027 07:00:08.290             5.476          2572.906
       313   12 Jun 2027 07:00:23.066   12 Jun 2027 07:00:25.387             2.321           461.750
       314   12 Jun 2027 07:01:29.186   12 Jun 2027 07:01:33.364             4.178          1432.938
       315   12 Jun 2027 07:02:11.752   12 Jun 2027 07:02:16.401             4.649           862.375
       316   12 Jun 2027 07:02:38.151   12 Jun 2027 07:02:42.875             4.724           588.969
       317   12 Jun 2027 08:22:42.902   12 Jun 2027 08:22:56.048            13.146          6573.000
       318   12 Jun 2027 08:24:06.702   12 Jun 2027 08:24:15.713             9.011          2728.750
       319   12 Jun 2027 08:24:23.649   12 Jun 2027 08:24:24.688             1.039           232.844
       320   12 Jun 2027 09:59:11.811   12 Jun 2027 09:59:24.710            12.899          6449.500
       321   12 Jun 2027 11:35:57.165   12 Jun 2027 11:36:43.851            46.686         22545.656
       322   12 Jun 2027 11:37:47.372   12 Jun 2027 11:37:50.172             2.800           895.594
       323   12 Jun 2027 11:40:52.818   12 Jun 2027 11:41:02.584             9.766          4883.000
       324   13 Jun 2027 03:54:49.210   13 Jun 2027 03:58:06.622           197.412         98706.000
       325   13 Jun 2027 03:58:53.898   13 Jun 2027 03:59:19.857            25.959         12979.500
       326   13 Jun 2027 03:59:35.138   13 Jun 2027 03:59:37.157             2.019          1009.500
       327   13 Jun 2027 04:00:40.717   13 Jun 2027 04:01:04.416            23.699         11849.500
       328   13 Jun 2027 04:01:11.220   13 Jun 2027 04:01:24.599            13.379          6689.500
       329   13 Jun 2027 04:01:24.816   13 Jun 2027 04:01:31.229             6.413          3206.500
       330   13 Jun 2027 05:33:05.589   13 Jun 2027 05:33:18.272            12.683          6341.500
       331   13 Jun 2027 05:34:07.806   13 Jun 2027 05:35:14.585            66.779         33234.000
       332   13 Jun 2027 05:36:02.618   13 Jun 2027 05:36:05.673             3.055          1041.125
       333   13 Jun 2027 05:36:19.145   13 Jun 2027 05:36:20.167             1.022           285.938
       334   13 Jun 2027 05:37:25.017   13 Jun 2027 05:37:29.016             3.999          1736.344
       335   13 Jun 2027 05:38:56.221   13 Jun 2027 05:39:02.606             6.385          2664.781
       336   13 Jun 2027 05:41:32.757   13 Jun 2027 05:41:39.889             7.132          3460.813
       337   13 Jun 2027 07:11:16.549   13 Jun 2027 07:11:28.847            12.298          6149.000
       338   13 Jun 2027 07:11:47.237   13 Jun 2027 07:11:50.900             3.663          1308.844
       339   13 Jun 2027 07:12:51.195   13 Jun 2027 07:12:51.195             0.000             0.000
       340   13 Jun 2027 07:13:11.533   13 Jun 2027 07:13:17.124             5.591          2486.531
       341   13 Jun 2027 07:14:04.857   13 Jun 2027 07:14:08.282             3.425          1491.656
       342   13 Jun 2027 07:14:29.200   13 Jun 2027 07:14:30.363             1.163           396.875
       343   13 Jun 2027 07:14:30.810   13 Jun 2027 07:14:31.884             1.074             6.125
       344   13 Jun 2027 08:35:25.713   13 Jun 2027 08:35:47.798            22.085         10533.219
       345   13 Jun 2027 08:35:57.747   13 Jun 2027 08:35:57.747             0.000             0.000
       346   13 Jun 2027 08:36:22.647   13 Jun 2027 08:36:25.632             2.985          1038.594
       347   13 Jun 2027 11:46:24.108   13 Jun 2027 11:46:39.828            15.720          7860.000
       348   13 Jun 2027 11:49:00.401   13 Jun 2027 11:49:16.687            16.286          8143.000
       349   13 Jun 2027 11:52:45.021   13 Jun 2027 11:53:02.958            17.937          8968.500
