uniorb/output/strategy_2/Camera/Camera_KinoSat_111402.txt

KinoSat_111402
-------------------------
    Access    *     Start Time (UTCG)     *     Stop Time (UTCG)  *   Duration (s) *   Data (Mbytes)
         1   01 Jun 2027 03:52:31.757   01 Jun 2027 03:54:21.124           109.367         54683.500
         2   01 Jun 2027 03:54:49.174   01 Jun 2027 03:55:12.502            23.328         11664.000
         3   01 Jun 2027 03:56:23.616   01 Jun 2027 03:57:25.103            61.487         30743.500
         4   01 Jun 2027 03:57:42.865   01 Jun 2027 03:58:13.604            30.739         15369.500
         5   01 Jun 2027 05:16:38.086   01 Jun 2027 05:17:20.155            42.069         21034.500
         6   01 Jun 2027 05:17:20.478   01 Jun 2027 05:17:27.956             7.478          3739.000
         7   01 Jun 2027 06:50:24.435   01 Jun 2027 06:53:14.196           169.761         84880.500
         8   01 Jun 2027 06:55:10.340   01 Jun 2027 06:55:15.538             5.198          2599.000
         9   01 Jun 2027 08:26:24.922   01 Jun 2027 08:29:26.889           181.967         90983.500
        10   01 Jun 2027 08:30:20.241   01 Jun 2027 08:30:20.905             0.664           332.000
        11   01 Jun 2027 08:30:33.921   01 Jun 2027 08:31:06.339            32.418         16209.000
        12   01 Jun 2027 08:34:16.345   01 Jun 2027 08:34:21.576             5.231          2615.500
        13   01 Jun 2027 08:34:31.806   01 Jun 2027 08:34:54.708            22.902         11451.000
        14   01 Jun 2027 10:03:27.530   01 Jun 2027 10:05:04.447            96.917         48458.500
        15   01 Jun 2027 10:07:05.267   01 Jun 2027 10:07:24.172            18.905          9452.500
        16   01 Jun 2027 10:08:56.126   01 Jun 2027 10:09:26.048            29.922         14961.000
        17   01 Jun 2027 11:40:22.314   01 Jun 2027 11:40:41.445            19.131          9565.500
        18   01 Jun 2027 11:40:55.208   01 Jun 2027 11:42:16.730            81.522         40761.000
        19   01 Jun 2027 11:42:21.442   01 Jun 2027 11:42:28.776             7.334          3667.000
        20   01 Jun 2027 11:46:24.518   01 Jun 2027 11:46:33.759             9.241          4620.500
        21   02 Jun 2027 04:05:07.992   02 Jun 2027 04:07:04.341           116.349         58174.500
        22   02 Jun 2027 04:07:26.600   02 Jun 2027 04:08:31.751            65.151         32575.500
        23   02 Jun 2027 04:08:42.933   02 Jun 2027 04:08:48.321             5.388          2694.000
        24   02 Jun 2027 04:09:45.848   02 Jun 2027 04:09:45.848             0.000             0.000
        25   02 Jun 2027 05:28:32.941   02 Jun 2027 05:30:08.184            95.243         47621.500
        26   02 Jun 2027 07:04:52.138   02 Jun 2027 07:07:43.807           171.669         85834.500
        27   02 Jun 2027 08:38:21.838   02 Jun 2027 08:39:48.796            86.958         43479.000
        28   02 Jun 2027 08:40:37.273   02 Jun 2027 08:41:03.874            26.601         12883.437
        29   02 Jun 2027 08:44:42.729   02 Jun 2027 08:44:42.729             0.000             0.000
        30   02 Jun 2027 08:45:50.056   02 Jun 2027 08:46:11.059            21.003          8379.313
        31   02 Jun 2027 08:46:33.582   02 Jun 2027 08:46:36.711             3.129           633.437
        32   02 Jun 2027 10:15:53.623   02 Jun 2027 10:16:12.489            18.866          7685.000
        33   02 Jun 2027 10:17:45.820   02 Jun 2027 10:17:48.455             2.635          1273.594
        34   02 Jun 2027 10:18:32.043   02 Jun 2027 10:18:35.559             3.516          1362.125
        35   02 Jun 2027 10:18:53.712   02 Jun 2027 10:18:56.178             2.466           392.406
        36   02 Jun 2027 10:19:09.172   02 Jun 2027 10:19:13.524             4.352           196.125
        37   02 Jun 2027 10:19:17.583   02 Jun 2027 10:19:18.796             1.213            33.188
        38   02 Jun 2027 10:19:33.502   02 Jun 2027 10:19:34.536             1.034           266.250
        39   02 Jun 2027 10:20:46.234   02 Jun 2027 10:20:50.014             3.780          1890.000
        40   02 Jun 2027 10:21:16.349   02 Jun 2027 10:21:18.652             2.303          1067.719
        41   02 Jun 2027 10:22:02.886   02 Jun 2027 10:22:09.202             6.316          1246.469
        42   02 Jun 2027 10:22:25.266   02 Jun 2027 10:22:28.022             2.756           469.219
        43   02 Jun 2027 11:52:50.024   02 Jun 2027 11:53:11.166            21.142          8610.031
        44   02 Jun 2027 11:54:31.723   02 Jun 2027 11:54:38.195             6.472          2155.687
        45   02 Jun 2027 11:55:02.737   02 Jun 2027 11:55:04.480             1.743           766.938
        46   02 Jun 2027 11:56:04.270   02 Jun 2027 11:56:06.558             2.288          1144.000
        47   02 Jun 2027 11:56:20.127   02 Jun 2027 11:56:21.751             1.624           783.750
        48   02 Jun 2027 11:56:34.391   02 Jun 2027 11:56:37.610             3.219           395.000
        49   02 Jun 2027 11:57:08.285   02 Jun 2027 11:57:11.335             3.050           886.844
        50   02 Jun 2027 11:57:26.331   02 Jun 2027 11:57:27.917             1.586           468.625
        51   02 Jun 2027 11:57:49.214   02 Jun 2027 11:57:52.675             3.461           536.969
        52   02 Jun 2027 11:57:53.614   02 Jun 2027 11:57:54.549             0.935            29.344
        53   02 Jun 2027 11:58:17.429   02 Jun 2027 11:58:19.051             1.622           457.281
        54   03 Jun 2027 04:16:46.618   03 Jun 2027 04:19:39.848           173.230         86615.000
        55   03 Jun 2027 04:19:45.415   03 Jun 2027 04:20:27.548            42.133         21066.500
        56   03 Jun 2027 05:40:24.401   03 Jun 2027 05:41:18.826            54.425         27212.500
        57   03 Jun 2027 07:16:53.801   03 Jun 2027 07:17:53.129            59.328         29664.000
        58   03 Jun 2027 07:18:06.141   03 Jun 2027 07:18:06.141             0.000             0.000
        59   03 Jun 2027 07:19:43.514   03 Jun 2027 07:19:54.452            10.938          3543.250
        60   03 Jun 2027 08:51:01.595   03 Jun 2027 08:51:09.168             7.573          3722.156
        61   03 Jun 2027 08:52:29.452   03 Jun 2027 08:52:34.999             5.547          1603.531
        62   03 Jun 2027 08:53:09.463   03 Jun 2027 08:53:12.134             2.671           764.438
        63   03 Jun 2027 08:53:39.800   03 Jun 2027 08:53:43.107             3.307           663.250
        64   03 Jun 2027 08:54:22.534   03 Jun 2027 08:54:29.330             6.796          1219.688
        65   03 Jun 2027 08:54:44.153   03 Jun 2027 08:54:48.739             4.586           369.563
        66   03 Jun 2027 08:55:29.931   03 Jun 2027 08:55:34.305             4.374          1287.250
        67   03 Jun 2027 08:56:51.157   03 Jun 2027 08:56:55.422             4.265          1926.094
        68   03 Jun 2027 08:56:56.716   03 Jun 2027 08:56:58.238             1.522            40.438
        69   03 Jun 2027 08:57:03.560   03 Jun 2027 08:57:04.839             1.279           166.313
        70   03 Jun 2027 08:58:21.734   03 Jun 2027 08:58:28.113             6.379          1607.875
        71   03 Jun 2027 08:58:34.262   03 Jun 2027 08:58:34.262             0.000             0.000
        72   03 Jun 2027 08:58:48.255   03 Jun 2027 08:58:48.684             0.429           214.500
        73   03 Jun 2027 10:27:59.986   03 Jun 2027 10:28:11.967            11.981          5513.000
        74   03 Jun 2027 10:29:12.786   03 Jun 2027 10:29:15.794             3.008           943.375
        75   03 Jun 2027 10:30:02.785   03 Jun 2027 10:30:09.991             7.206          1090.562
        76   03 Jun 2027 10:30:11.490   03 Jun 2027 10:30:15.930             4.440            46.844
        77   03 Jun 2027 10:30:29.332   03 Jun 2027 10:30:30.019             0.687           326.125
        78   03 Jun 2027 10:30:42.602   03 Jun 2027 10:30:43.405             0.803           209.719
        79   03 Jun 2027 10:31:12.301   03 Jun 2027 10:31:18.140             5.839           821.531
        80   03 Jun 2027 10:31:54.702   03 Jun 2027 10:31:56.245             1.543           446.250
        81   03 Jun 2027 10:32:08.773   03 Jun 2027 10:32:09.967             1.194           391.500
        82   03 Jun 2027 10:32:16.926   03 Jun 2027 10:32:17.545             0.619           143.156
        83   03 Jun 2027 10:32:38.182   03 Jun 2027 10:32:42.989             4.807           644.906
        84   03 Jun 2027 10:33:01.138   03 Jun 2027 10:33:03.550             2.412           567.156
        85   03 Jun 2027 10:34:00.663   03 Jun 2027 10:34:04.587             3.924          1685.719
        86   03 Jun 2027 10:34:34.773   03 Jun 2027 10:34:36.737             1.964           943.312
        87   04 Jun 2027 04:29:12.913   04 Jun 2027 04:29:38.070            25.157         12578.500
        88   04 Jun 2027 04:29:59.892   04 Jun 2027 04:30:27.984            28.092         14046.000
        89   04 Jun 2027 04:30:28.247   04 Jun 2027 04:32:43.923           135.676         67838.000
        90   04 Jun 2027 04:32:50.701   04 Jun 2027 04:33:09.876            19.175          9587.500
        91   04 Jun 2027 05:52:33.508   04 Jun 2027 05:53:35.606            62.098         31049.000
        92   04 Jun 2027 05:55:21.134   04 Jun 2027 05:55:23.969             2.835          1417.500
        93   04 Jun 2027 07:29:04.038   04 Jun 2027 07:29:41.539            37.501         17832.000
        94   04 Jun 2027 07:30:27.728   04 Jun 2027 07:30:35.076             7.348          1377.156
        95   04 Jun 2027 07:31:25.566   04 Jun 2027 07:31:28.616             3.050          1517.594
        96   04 Jun 2027 09:04:14.134   04 Jun 2027 09:04:24.855            10.721          5115.688
        97   04 Jun 2027 09:05:49.982   04 Jun 2027 09:05:52.868             2.886          1192.656
        98   04 Jun 2027 09:06:50.352   04 Jun 2027 09:06:57.849             7.497          1786.469
        99   04 Jun 2027 09:07:09.117   04 Jun 2027 09:07:10.112             0.995            47.500
       100   04 Jun 2027 09:07:35.669   04 Jun 2027 09:07:38.353             2.684           776.781
       101   04 Jun 2027 09:08:19.202   04 Jun 2027 09:08:24.609             5.407          1061.625
       102   04 Jun 2027 09:08:42.318   04 Jun 2027 09:08:44.320             2.002           399.531
       103   04 Jun 2027 09:08:58.885   04 Jun 2027 09:09:08.895            10.010           455.156
       104   04 Jun 2027 09:09:33.092   04 Jun 2027 09:09:37.154             4.062           234.000
       105   04 Jun 2027 09:10:10.963   04 Jun 2027 09:10:12.998             2.035           903.719
       106   04 Jun 2027 09:10:37.335   04 Jun 2027 09:10:40.656             3.321           760.531
       107   04 Jun 2027 10:40:36.281   04 Jun 2027 10:40:47.521            11.240          5591.437
       108   04 Jun 2027 10:41:13.310   04 Jun 2027 10:41:14.752             1.442           312.656
       109   04 Jun 2027 10:41:42.452   04 Jun 2027 10:41:43.994             1.542           117.594
       110   04 Jun 2027 10:42:26.713   04 Jun 2027 10:42:31.074             4.361          1065.094
       111   04 Jun 2027 10:42:36.875   04 Jun 2027 10:42:36.903             0.028            14.000
       112   04 Jun 2027 10:42:47.109   04 Jun 2027 10:42:49.832             2.723           449.000
       113   04 Jun 2027 10:43:48.120   04 Jun 2027 10:43:53.699             5.579          1821.500
       114   04 Jun 2027 10:44:04.968   04 Jun 2027 10:44:07.354             2.386           162.969
       115   04 Jun 2027 10:44:38.213   04 Jun 2027 10:44:40.619             2.406           919.281
       116   04 Jun 2027 10:45:51.311   04 Jun 2027 10:45:54.177             2.866          1221.344
       117   04 Jun 2027 10:46:46.605   04 Jun 2027 10:46:49.652             3.047          1523.500
       118   05 Jun 2027 03:02:56.338   05 Jun 2027 03:03:12.595            16.257          8128.500
       119   05 Jun 2027 03:03:24.621   05 Jun 2027 03:03:36.192            11.571          5785.500
       120   05 Jun 2027 03:03:58.907   05 Jun 2027 03:05:49.201           110.294         55147.000
       121   05 Jun 2027 03:05:58.339   05 Jun 2027 03:06:11.147            12.808          6404.000
       122   05 Jun 2027 03:06:34.520   05 Jun 2027 03:06:35.410             0.890           445.000
       123   05 Jun 2027 03:06:55.440   05 Jun 2027 03:06:58.269             2.829          1414.500
       124   05 Jun 2027 03:07:18.247   05 Jun 2027 03:07:18.247             0.000             0.000
       125   05 Jun 2027 04:41:07.656   05 Jun 2027 04:41:45.333            37.677         18838.500
       126   05 Jun 2027 04:42:15.245   05 Jun 2027 04:43:57.622           102.377         51188.500
       127   05 Jun 2027 06:05:13.506   05 Jun 2027 06:05:30.715            17.209          8604.500
       128   05 Jun 2027 06:06:00.557   05 Jun 2027 06:06:12.321            11.764          2027.469
       129   05 Jun 2027 06:07:21.686   05 Jun 2027 06:07:22.836             1.150           575.000
       130   05 Jun 2027 06:07:26.419   05 Jun 2027 06:07:30.852             4.433          1686.125
       131   05 Jun 2027 07:40:59.105   05 Jun 2027 07:41:10.852            11.747          2876.187
       132   05 Jun 2027 07:42:09.063   05 Jun 2027 07:42:15.230             6.167          1819.094
       133   05 Jun 2027 07:42:37.402   05 Jun 2027 07:42:40.499             3.097           468.250
       134   05 Jun 2027 07:43:05.119   05 Jun 2027 07:43:08.044             2.925           769.375
       135   05 Jun 2027 07:44:11.354   05 Jun 2027 07:44:14.542             3.188          1553.062
       136   05 Jun 2027 07:44:33.167   05 Jun 2027 07:44:34.686             1.519           499.438
       137   05 Jun 2027 09:15:56.343   05 Jun 2027 09:16:05.313             8.970          3752.406
       138   05 Jun 2027 09:17:45.960   05 Jun 2027 09:17:55.411             9.451          2694.719
       139   05 Jun 2027 09:18:21.545   05 Jun 2027 09:18:23.349             1.804           690.469
       140   05 Jun 2027 09:19:09.190   05 Jun 2027 09:19:11.766             2.576           700.344
       141   05 Jun 2027 09:22:33.758   05 Jun 2027 09:22:47.186            13.428          5581.687
       142   05 Jun 2027 10:52:08.869   05 Jun 2027 10:52:24.921            16.052          7730.844
       143   05 Jun 2027 10:53:52.905   05 Jun 2027 10:54:00.192             7.287          2082.406
       144   05 Jun 2027 10:54:19.814   05 Jun 2027 10:54:21.496             1.682            64.844
       145   05 Jun 2027 10:54:39.370   05 Jun 2027 10:54:42.106             2.736           554.531
       146   05 Jun 2027 10:55:11.795   05 Jun 2027 10:55:14.222             2.427           927.781
       147   05 Jun 2027 10:55:19.112   05 Jun 2027 10:55:21.052             1.940           152.813
       148   05 Jun 2027 10:55:53.520   05 Jun 2027 10:55:55.568             2.048           573.437
       149   05 Jun 2027 10:56:15.539   05 Jun 2027 10:56:23.237             7.698           624.094
       150   05 Jun 2027 10:56:47.569   05 Jun 2027 10:56:51.647             4.078           580.969
       151   05 Jun 2027 10:57:16.945   05 Jun 2027 10:57:21.465             4.520           782.281
       152   05 Jun 2027 10:57:50.811   05 Jun 2027 10:57:52.611             1.800           722.781
       153   05 Jun 2027 10:58:04.249   05 Jun 2027 10:58:05.090             0.841           245.156
       154   06 Jun 2027 03:16:01.654   06 Jun 2027 03:18:35.247           153.593         76796.500
       155   06 Jun 2027 03:18:39.556   06 Jun 2027 03:19:04.421            24.865         12432.500
       156   06 Jun 2027 03:20:18.887   06 Jun 2027 03:20:34.381            15.494          7747.000
       157   06 Jun 2027 03:22:11.858   06 Jun 2027 03:22:19.720             7.862          3931.000
       158   06 Jun 2027 03:22:49.249   06 Jun 2027 03:23:03.102            13.853          6926.500
       159   06 Jun 2027 04:42:00.287   06 Jun 2027 04:42:40.138            39.851         19925.500
       160   06 Jun 2027 04:53:03.858   06 Jun 2027 04:54:01.947            58.089         28591.625
       161   06 Jun 2027 04:54:59.836   06 Jun 2027 04:55:04.667             4.831          1167.406
       162   06 Jun 2027 04:56:04.414   06 Jun 2027 04:56:04.414             0.000             0.000
       163   06 Jun 2027 06:16:02.698   06 Jun 2027 06:16:22.438            19.740          9224.625
       164   06 Jun 2027 06:16:37.268   06 Jun 2027 06:16:38.407             1.139            44.281
       165   06 Jun 2027 06:17:22.742   06 Jun 2027 06:17:25.556             2.814           946.750
       166   06 Jun 2027 06:17:32.938   06 Jun 2027 06:17:34.454             1.516           173.031
       167   06 Jun 2027 06:18:01.218   06 Jun 2027 06:18:01.218             0.000             0.000
       168   06 Jun 2027 06:19:25.082   06 Jun 2027 06:19:34.715             9.633          3439.781
       169   06 Jun 2027 07:51:34.935   06 Jun 2027 07:51:42.745             7.810          3905.000
       170   06 Jun 2027 07:52:45.078   06 Jun 2027 07:52:48.568             3.490          1523.656
       171   06 Jun 2027 07:54:10.194   06 Jun 2027 07:54:16.741             6.547          2164.719
       172   06 Jun 2027 07:55:29.253   06 Jun 2027 07:55:33.230             3.977          1981.250
       173   06 Jun 2027 07:56:08.064   06 Jun 2027 07:56:16.256             8.192          1036.906
       174   06 Jun 2027 07:56:59.787   06 Jun 2027 07:57:03.215             3.428          1160.812
       175   06 Jun 2027 09:27:30.060   06 Jun 2027 09:27:39.854             9.794          4218.406
       176   06 Jun 2027 09:28:44.750   06 Jun 2027 09:28:50.725             5.975          1315.250
       177   06 Jun 2027 09:28:51.061   06 Jun 2027 09:28:53.237             2.176            10.500
       178   06 Jun 2027 09:29:45.258   06 Jun 2027 09:29:51.274             6.016           986.375
       179   06 Jun 2027 09:31:03.477   06 Jun 2027 09:31:03.477             0.000             0.000
       180   06 Jun 2027 09:31:37.389   06 Jun 2027 09:31:44.672             7.283          2082.281
       181   06 Jun 2027 09:32:15.252   06 Jun 2027 09:32:17.223             1.971           816.156
       182   06 Jun 2027 09:33:29.277   06 Jun 2027 09:33:34.399             5.122          2251.688
       183   06 Jun 2027 09:34:13.992   06 Jun 2027 09:34:16.542             2.550          1190.625
       184   06 Jun 2027 09:34:36.430   06 Jun 2027 09:34:38.476             2.046           575.937
       185   06 Jun 2027 09:34:41.186   06 Jun 2027 09:34:45.306             4.120            31.375
       186   06 Jun 2027 09:34:52.868   06 Jun 2027 09:34:55.544             2.676           236.313
       187   06 Jun 2027 11:04:30.851   06 Jun 2027 11:04:47.846            16.995          8466.187
       188   06 Jun 2027 11:06:06.273   06 Jun 2027 11:06:13.002             6.729          2322.969
       189   06 Jun 2027 11:06:50.153   06 Jun 2027 11:06:53.985             3.832          1126.969
       190   06 Jun 2027 11:07:15.630   06 Jun 2027 11:07:16.777             1.147           491.156
       191   06 Jun 2027 11:07:33.775   06 Jun 2027 11:07:34.307             0.532           266.000
       192   06 Jun 2027 11:07:42.698   06 Jun 2027 11:07:42.698             0.000             0.000
       193   06 Jun 2027 11:07:53.787   06 Jun 2027 11:07:56.386             2.599           873.937
       194   06 Jun 2027 11:08:05.978   06 Jun 2027 11:08:06.918             0.940            25.875
       195   06 Jun 2027 11:08:22.646   06 Jun 2027 11:08:26.612             3.966           439.906
       196   06 Jun 2027 11:08:43.977   06 Jun 2027 11:08:45.008             1.031           471.469
       197   06 Jun 2027 11:09:03.849   06 Jun 2027 11:09:03.849             0.000             0.000
       198   06 Jun 2027 11:10:07.224   06 Jun 2027 11:10:13.220             5.996          2430.687
       199   06 Jun 2027 11:10:18.601   06 Jun 2027 11:10:21.826             3.225           168.156
       200   07 Jun 2027 03:28:26.014   07 Jun 2027 03:30:55.955           149.941         74970.500
       201   07 Jun 2027 03:31:57.151   07 Jun 2027 03:32:03.754             6.603          3301.500
       202   07 Jun 2027 03:32:12.716   07 Jun 2027 03:32:36.175            23.459         11729.500
       203   07 Jun 2027 03:33:04.400   07 Jun 2027 03:33:48.030            43.630         21815.000
       204   07 Jun 2027 03:34:26.076   07 Jun 2027 03:34:37.713            11.637          5818.500
       205   07 Jun 2027 04:53:23.456   07 Jun 2027 04:54:04.347            40.891         20445.500
       206   07 Jun 2027 05:05:05.902   07 Jun 2027 05:05:44.648            38.746         19189.031
       207   07 Jun 2027 06:27:18.957   07 Jun 2027 06:27:33.230            14.273          6923.813
       208   07 Jun 2027 06:27:49.801   07 Jun 2027 06:27:50.792             0.991           442.094
       209   07 Jun 2027 06:29:20.168   07 Jun 2027 06:29:25.558             5.390          2091.875
       210   07 Jun 2027 06:29:34.926   07 Jun 2027 06:29:34.926             0.000             0.000
       211   07 Jun 2027 06:29:45.104   07 Jun 2027 06:29:47.802             2.698           516.875
       212   07 Jun 2027 06:31:05.891   07 Jun 2027 06:31:13.459             7.568          2440.281
       213   07 Jun 2027 06:31:27.726   07 Jun 2027 06:31:27.726             0.000             0.000
       214   07 Jun 2027 06:31:37.543   07 Jun 2027 06:31:39.395             1.852           390.812
       215   07 Jun 2027 08:02:26.615   07 Jun 2027 08:02:41.278            14.663          4656.813
       216   07 Jun 2027 08:03:37.010   07 Jun 2027 08:03:41.800             4.790          1335.031
       217   07 Jun 2027 08:04:28.375   07 Jun 2027 08:04:30.908             2.533          1095.281
       218   07 Jun 2027 08:06:11.031   07 Jun 2027 08:06:21.877            10.846          2651.531
       219   07 Jun 2027 08:07:35.589   07 Jun 2027 08:07:40.802             5.213          2244.375
       220   07 Jun 2027 08:07:59.160   07 Jun 2027 08:08:00.497             1.337           482.500
       221   07 Jun 2027 08:08:07.206   07 Jun 2027 08:08:07.206             0.000             0.000
       222   07 Jun 2027 08:09:00.624   07 Jun 2027 08:09:04.155             3.531          1765.500
       223   07 Jun 2027 09:39:39.119   07 Jun 2027 09:39:50.171            11.052          3698.500
       224   07 Jun 2027 09:42:56.151   07 Jun 2027 09:43:07.110            10.959          4894.531
       225   07 Jun 2027 09:45:27.447   07 Jun 2027 09:45:36.929             9.482          4385.531
       226   07 Jun 2027 09:46:14.897   07 Jun 2027 09:46:26.270            11.373          1186.500
       227   07 Jun 2027 09:46:46.762   07 Jun 2027 09:46:52.344             5.582           582.562
       228   07 Jun 2027 11:16:36.261   07 Jun 2027 11:16:57.069            20.808          9741.344
       229   07 Jun 2027 11:17:55.419   07 Jun 2027 11:17:59.408             3.989          1823.437
       230   07 Jun 2027 11:18:59.475   07 Jun 2027 11:19:02.870             3.395          1556.500
       231   07 Jun 2027 11:19:29.201   07 Jun 2027 11:19:32.599             3.398           676.344
       232   07 Jun 2027 11:19:56.568   07 Jun 2027 11:19:58.394             1.826           749.031
       233   07 Jun 2027 11:20:21.564   07 Jun 2027 11:20:24.647             3.083           712.406
       234   07 Jun 2027 11:21:03.961   07 Jun 2027 11:21:07.412             3.451          1228.562
       235   07 Jun 2027 11:22:31.595   07 Jun 2027 11:22:35.514             3.919          1959.500
       236   08 Jun 2027 03:40:42.994   08 Jun 2027 03:42:10.315            87.321         43660.500
       237   08 Jun 2027 03:42:23.036   08 Jun 2027 03:42:35.852            12.816          6408.000
       238   08 Jun 2027 03:42:43.376   08 Jun 2027 03:43:22.754            39.378         19689.000
       239   08 Jun 2027 03:43:51.390   08 Jun 2027 03:44:38.064            46.674         23337.000
       240   08 Jun 2027 03:45:02.159   08 Jun 2027 03:45:02.159             0.000             0.000
       241   08 Jun 2027 03:45:49.859   08 Jun 2027 03:46:27.643            37.784         18892.000
       242   08 Jun 2027 03:46:43.754   08 Jun 2027 03:47:27.301            43.547         21773.500
       243   08 Jun 2027 03:47:28.617   08 Jun 2027 03:47:33.523             4.906          2453.000
       244   08 Jun 2027 05:04:50.794   08 Jun 2027 05:05:33.381            42.587         21293.500
       245   08 Jun 2027 05:17:02.758   08 Jun 2027 05:17:25.352            22.594         11268.719
       246   08 Jun 2027 06:39:04.266   08 Jun 2027 06:39:15.834            11.568          4434.313
       247   08 Jun 2027 06:40:16.472   08 Jun 2027 06:40:19.627             3.155          1496.625
       248   08 Jun 2027 06:42:18.418   08 Jun 2027 06:42:23.862             5.444          2450.375
       249   08 Jun 2027 06:43:59.650   08 Jun 2027 06:44:05.973             6.323          2082.938
       250   08 Jun 2027 08:13:56.170   08 Jun 2027 08:14:06.188            10.018          4665.563
       251   08 Jun 2027 08:15:35.350   08 Jun 2027 08:15:40.156             4.806          1625.781
       252   08 Jun 2027 08:15:58.830   08 Jun 2027 08:16:00.220             1.390           563.125
       253   08 Jun 2027 08:18:11.501   08 Jun 2027 08:18:18.395             6.894          3326.812
       254   08 Jun 2027 08:19:35.798   08 Jun 2027 08:19:43.460             7.662          2240.531
       255   08 Jun 2027 08:20:25.625   08 Jun 2027 08:20:28.293             2.668           684.906
       256   08 Jun 2027 08:20:40.774   08 Jun 2027 08:20:41.565             0.791           333.031
       257   08 Jun 2027 08:21:01.662   08 Jun 2027 08:21:03.309             1.647           575.906
       258   08 Jun 2027 08:22:12.271   08 Jun 2027 08:22:16.636             4.365          1264.000
       259   08 Jun 2027 08:22:16.795   08 Jun 2027 08:22:17.557             0.762             4.969
       260   08 Jun 2027 08:22:31.115   08 Jun 2027 08:22:31.488             0.373           120.531
       261   08 Jun 2027 09:51:41.237   08 Jun 2027 09:51:58.793            17.556          5553.500
       262   08 Jun 2027 09:54:46.046   08 Jun 2027 09:54:55.644             9.598          4464.531
       263   08 Jun 2027 09:55:58.532   08 Jun 2027 09:56:01.638             3.106          1282.469
       264   08 Jun 2027 09:57:02.582   08 Jun 2027 09:57:05.023             2.441          1220.500
       265   08 Jun 2027 09:57:09.770   08 Jun 2027 09:57:12.822             3.052           832.344
       266   08 Jun 2027 09:57:21.942   08 Jun 2027 09:57:24.201             2.259           262.750
       267   08 Jun 2027 09:57:45.037   08 Jun 2027 09:57:50.128             5.091           638.406
       268   08 Jun 2027 09:58:16.048   08 Jun 2027 09:58:18.788             2.740           406.875
       269   08 Jun 2027 09:58:24.615   08 Jun 2027 09:58:28.556             3.941            27.156
       270   08 Jun 2027 09:58:39.416   08 Jun 2027 09:58:40.649             1.233           306.375
       271   08 Jun 2027 11:28:28.993   08 Jun 2027 11:28:47.819            18.826          8496.219
       272   08 Jun 2027 11:28:51.409   08 Jun 2027 11:28:57.799             6.390            53.500
       273   08 Jun 2027 11:31:07.613   08 Jun 2027 11:31:14.562             6.949          2882.844
       274   08 Jun 2027 11:31:54.720   08 Jun 2027 11:32:06.558            11.838          1241.906
       275   08 Jun 2027 11:32:40.053   08 Jun 2027 11:32:45.416             5.363          1046.719
       276   08 Jun 2027 11:32:56.695   08 Jun 2027 11:32:57.558             0.863           352.469
       277   08 Jun 2027 11:33:26.374   08 Jun 2027 11:33:32.710             6.336           900.500
       278   08 Jun 2027 11:34:09.830   08 Jun 2027 11:34:12.522             2.692           791.656
       279   09 Jun 2027 03:52:50.121   09 Jun 2027 03:55:29.974           159.853         79926.500
       280   09 Jun 2027 03:56:03.790   09 Jun 2027 03:56:28.270            24.480         12240.000
       281   09 Jun 2027 03:57:39.677   09 Jun 2027 03:58:45.393            65.716         32858.000
       282   09 Jun 2027 05:16:54.185   09 Jun 2027 05:17:35.228            41.043         20521.500
       283   09 Jun 2027 06:52:51.343   09 Jun 2027 06:53:39.610            48.267         23730.656
       284   09 Jun 2027 06:54:20.254   09 Jun 2027 06:54:25.167             4.913          1096.313
       285   09 Jun 2027 06:55:20.576   09 Jun 2027 06:55:24.852             4.276          1526.031
       286   09 Jun 2027 06:55:33.789   09 Jun 2027 06:55:33.789             0.000             0.000
       287   09 Jun 2027 06:55:42.743   09 Jun 2027 06:55:45.267             2.524           509.750
       288   09 Jun 2027 08:26:41.188   09 Jun 2027 08:26:55.122            13.934          6120.875
       289   09 Jun 2027 08:27:22.306   09 Jun 2027 08:27:29.799             7.493           849.500
       290   09 Jun 2027 08:28:04.015   09 Jun 2027 08:28:07.650             3.635           888.313
       291   09 Jun 2027 08:30:11.518   09 Jun 2027 08:30:19.603             8.085          3010.938
       292   09 Jun 2027 08:31:42.186   09 Jun 2027 08:31:42.186             0.000             0.000
       293   09 Jun 2027 08:32:33.942   09 Jun 2027 08:32:43.679             9.737          3969.188
       294   09 Jun 2027 08:33:52.761   09 Jun 2027 08:33:56.951             4.190          1695.594
       295   09 Jun 2027 08:34:33.022   09 Jun 2027 08:34:37.494             4.472           833.188
       296   09 Jun 2027 10:03:44.413   09 Jun 2027 10:04:00.063            15.650          7289.469
       297   09 Jun 2027 10:08:14.661   09 Jun 2027 10:08:31.324            16.663          7054.500
       298   09 Jun 2027 10:08:43.639   09 Jun 2027 10:08:46.766             3.127           350.219
       299   09 Jun 2027 10:09:16.570   09 Jun 2027 10:09:18.512             1.942           931.375
       300   09 Jun 2027 10:09:40.806   09 Jun 2027 10:09:43.141             2.335           696.687
       301   09 Jun 2027 10:10:03.663   09 Jun 2027 10:10:05.546             1.883           557.062
       302   09 Jun 2027 10:10:28.423   09 Jun 2027 10:10:30.715             2.292           617.219
       303   09 Jun 2027 10:10:38.843   09 Jun 2027 10:10:41.028             2.185           254.000
       304   09 Jun 2027 11:40:38.798   09 Jun 2027 11:40:51.214            12.416          6106.437
       305   09 Jun 2027 11:41:12.468   09 Jun 2027 11:41:13.961             1.493           664.187
       306   09 Jun 2027 11:42:10.366   09 Jun 2027 11:42:18.024             7.658           984.094
       307   09 Jun 2027 11:42:36.423   09 Jun 2027 11:42:37.638             1.215           112.000
       308   09 Jun 2027 11:42:54.633   09 Jun 2027 11:42:57.271             2.638           210.000
       309   09 Jun 2027 11:42:58.304   09 Jun 2027 11:42:58.388             0.084            32.281
       310   09 Jun 2027 11:43:12.280   09 Jun 2027 11:43:14.726             2.446           434.125
       311   09 Jun 2027 11:43:29.499   09 Jun 2027 11:43:30.169             0.670           237.187
       312   09 Jun 2027 11:44:11.021   09 Jun 2027 11:44:13.657             2.636          1276.625
       313   09 Jun 2027 11:44:18.256   09 Jun 2027 11:44:20.445             2.189            85.312
       314   09 Jun 2027 11:44:30.586   09 Jun 2027 11:44:35.172             4.586           316.906
       315   09 Jun 2027 11:45:04.933   09 Jun 2027 11:45:09.793             4.860           930.031
       316   09 Jun 2027 11:45:53.352   09 Jun 2027 11:45:55.452             2.100          1040.281
       317   09 Jun 2027 11:46:10.059   09 Jun 2027 11:46:12.838             2.779           456.469
       318   09 Jun 2027 11:46:38.123   09 Jun 2027 11:46:40.373             2.250           790.156
       319   10 Jun 2027 04:05:24.318   10 Jun 2027 04:07:07.053           102.735         51367.500
       320   10 Jun 2027 04:07:38.773   10 Jun 2027 04:08:50.486            71.713         35856.500
       321   10 Jun 2027 04:09:00.653   10 Jun 2027 04:09:28.775            28.122         14061.000
       322   10 Jun 2027 04:09:33.599   10 Jun 2027 04:10:01.630            28.031         14015.500
       323   10 Jun 2027 05:28:48.582   10 Jun 2027 05:29:39.106            50.524         25262.000
       324   10 Jun 2027 05:29:47.855   10 Jun 2027 05:30:01.792            13.937          6968.500
       325   10 Jun 2027 07:05:09.330   10 Jun 2027 07:05:51.227            41.897         20737.469
       326   10 Jun 2027 07:06:29.655   10 Jun 2027 07:06:31.978             2.323          1083.063
       327   10 Jun 2027 07:07:13.334   10 Jun 2027 07:07:16.778             3.444          1046.813
       328   10 Jun 2027 07:07:24.759   10 Jun 2027 07:07:27.861             3.102           249.406
       329   10 Jun 2027 07:08:10.253   10 Jun 2027 07:08:13.515             3.262          1264.937
       330   10 Jun 2027 08:38:39.398   10 Jun 2027 08:38:48.621             9.223          4493.156
       331   10 Jun 2027 08:40:32.766   10 Jun 2027 08:40:37.477             4.711          1177.156
       332   10 Jun 2027 08:41:12.795   10 Jun 2027 08:41:15.341             2.546          1079.906
       333   10 Jun 2027 08:41:59.313   10 Jun 2027 08:42:01.796             2.483           545.969
       334   10 Jun 2027 08:44:06.497   10 Jun 2027 08:44:14.046             7.549          3609.625
       335   10 Jun 2027 08:44:37.962   10 Jun 2027 08:44:39.234             1.272           633.344
       336   10 Jun 2027 08:45:29.160   10 Jun 2027 08:45:39.450            10.290          1000.125
       337   10 Jun 2027 08:45:46.722   10 Jun 2027 08:45:47.962             1.240           227.250
       338   10 Jun 2027 08:45:50.240   10 Jun 2027 08:45:51.507             1.267            71.188
       339   10 Jun 2027 08:47:08.850   10 Jun 2027 08:47:10.458             1.608           804.000
       340   10 Jun 2027 10:16:10.511   10 Jun 2027 10:16:27.763            17.252          6582.000
       341   10 Jun 2027 10:16:56.465   10 Jun 2027 10:16:57.871             1.406           161.281
       342   10 Jun 2027 10:17:11.799   10 Jun 2027 10:17:13.846             2.047           302.094
       343   10 Jun 2027 10:18:01.981   10 Jun 2027 10:18:04.543             2.562          1279.125
       344   10 Jun 2027 10:18:48.223   10 Jun 2027 10:18:50.880             2.657          1279.812
       345   10 Jun 2027 10:19:31.706   10 Jun 2027 10:19:33.535             1.829           685.875
       346   10 Jun 2027 10:20:50.759   10 Jun 2027 10:20:56.287             5.528          1765.906
       347   10 Jun 2027 10:21:18.053   10 Jun 2027 10:21:20.278             2.225           507.188
       348   10 Jun 2027 10:21:40.246   10 Jun 2027 10:21:41.661             1.415           250.813
       349   10 Jun 2027 10:22:26.374   10 Jun 2027 10:22:31.705             5.331          1235.187
       350   10 Jun 2027 10:22:42.686   10 Jun 2027 10:22:42.686             0.000             0.000
       351   10 Jun 2027 11:53:06.338   10 Jun 2027 11:53:28.170            21.832          6999.031
       352   10 Jun 2027 11:54:47.669   10 Jun 2027 11:54:54.248             6.579          2138.437
       353   10 Jun 2027 11:55:43.137   10 Jun 2027 11:55:51.298             8.161          1523.875
       354   10 Jun 2027 11:56:36.244   10 Jun 2027 11:56:40.078             3.834          1404.563
       355   10 Jun 2027 11:57:24.854   10 Jun 2027 11:57:28.122             3.268           882.625
       356   10 Jun 2027 11:58:23.742   10 Jun 2027 11:58:26.897             3.155          1577.500
       357   11 Jun 2027 04:17:03.070   11 Jun 2027 04:19:32.467           149.397         74698.500
       358   11 Jun 2027 04:20:01.117   11 Jun 2027 04:21:10.462            69.345         34672.500
       359   11 Jun 2027 05:40:39.520   11 Jun 2027 05:42:02.821            83.301         41650.500
       360   11 Jun 2027 05:43:07.986   11 Jun 2027 05:43:07.986             0.000             0.000
       361   11 Jun 2027 07:17:11.246   11 Jun 2027 07:17:38.868            27.622         13811.000
       362   11 Jun 2027 07:17:49.261   11 Jun 2027 07:17:54.502             5.241          2243.156
       363   11 Jun 2027 07:18:24.408   11 Jun 2027 07:18:26.387             1.979           818.250
       364   11 Jun 2027 07:19:02.367   11 Jun 2027 07:19:05.809             3.442           580.375
       365   11 Jun 2027 07:20:31.629   11 Jun 2027 07:20:36.441             4.812          2406.000
       366   11 Jun 2027 08:51:38.822   11 Jun 2027 08:51:47.676             8.854          4014.406
       367   11 Jun 2027 08:53:00.559   11 Jun 2027 08:53:03.476             2.917           433.187
       368   11 Jun 2027 08:53:27.336   11 Jun 2027 08:53:29.723             2.387           585.000
       369   11 Jun 2027 08:54:12.366   11 Jun 2027 08:54:17.767             5.401           531.312
       370   11 Jun 2027 08:54:58.068   11 Jun 2027 08:55:00.146             2.078           721.344
       371   11 Jun 2027 08:57:00.159   11 Jun 2027 08:57:06.459             6.300          2843.375
       372   11 Jun 2027 08:57:12.035   11 Jun 2027 08:57:12.742             0.707            23.687
       373   11 Jun 2027 08:57:18.729   11 Jun 2027 08:57:20.445             1.716           187.094
       374   11 Jun 2027 08:58:07.925   11 Jun 2027 08:58:09.129             1.204           602.000
       375   11 Jun 2027 08:58:36.316   11 Jun 2027 08:58:38.530             2.214           886.531
       376   11 Jun 2027 08:59:04.222   11 Jun 2027 08:59:04.908             0.686           343.000
       377   11 Jun 2027 10:28:18.536   11 Jun 2027 10:28:30.980            12.444          5440.719
       378   11 Jun 2027 10:28:58.077   11 Jun 2027 10:29:01.708             3.631           237.406
       379   11 Jun 2027 10:29:24.091   11 Jun 2027 10:29:25.204             1.113           117.313
       380   11 Jun 2027 10:30:35.246   11 Jun 2027 10:30:40.330             5.084          1798.250
       381   11 Jun 2027 10:31:02.034   11 Jun 2027 10:31:04.420             2.386           635.844
       382   11 Jun 2027 10:31:59.990   11 Jun 2027 10:32:04.928             4.938          1591.969
       383   11 Jun 2027 10:32:24.267   11 Jun 2027 10:32:27.003             2.736           352.750
       384   11 Jun 2027 10:32:31.958   11 Jun 2027 10:32:32.535             0.577            89.156
       385   11 Jun 2027 10:32:54.509   11 Jun 2027 10:32:54.509             0.000             0.000
       386   11 Jun 2027 10:33:07.991   11 Jun 2027 10:33:10.225             2.234          1108.000
       387   11 Jun 2027 10:33:28.807   11 Jun 2027 10:33:33.124             4.317           580.688
       388   11 Jun 2027 10:34:29.335   11 Jun 2027 10:34:33.015             3.680          1756.594
       389   11 Jun 2027 10:34:44.354   11 Jun 2027 10:34:48.171             3.817           354.344
       390   11 Jun 2027 10:34:52.817   11 Jun 2027 10:34:54.712             1.895            99.969
       391   12 Jun 2027 04:29:27.669   12 Jun 2027 04:29:55.328            27.659         13829.500
       392   12 Jun 2027 04:30:15.931   12 Jun 2027 04:32:45.854           149.923         74961.500
       393   12 Jun 2027 05:52:49.711   12 Jun 2027 05:53:53.331            63.620         31810.000
       394   12 Jun 2027 05:54:34.618   12 Jun 2027 05:54:34.618             0.000             0.000
       395   12 Jun 2027 05:54:41.180   12 Jun 2027 05:54:41.180             0.000             0.000
       396   12 Jun 2027 05:55:39.240   12 Jun 2027 05:55:41.456             2.216          1108.000
       397   12 Jun 2027 05:55:45.532   12 Jun 2027 05:55:55.475             9.943          4971.500
       398   12 Jun 2027 07:29:20.924   12 Jun 2027 07:30:21.804            60.880         28300.250
       399   12 Jun 2027 07:31:30.073   12 Jun 2027 07:31:36.084             6.011          2025.875
       400   12 Jun 2027 07:31:57.337   12 Jun 2027 07:31:59.117             1.780           642.437
       401   12 Jun 2027 07:32:14.494   12 Jun 2027 07:32:14.494             0.000             0.000
       402   12 Jun 2027 07:32:52.675   12 Jun 2027 07:32:55.390             2.715          1357.500
       403   12 Jun 2027 09:04:30.428   12 Jun 2027 09:04:39.599             9.171          4315.375
       404   12 Jun 2027 09:04:50.541   12 Jun 2027 09:04:50.541             0.000             0.000
       405   12 Jun 2027 09:05:50.458   12 Jun 2027 09:05:55.009             4.551          2174.000
       406   12 Jun 2027 09:06:51.273   12 Jun 2027 09:06:57.730             6.457          1525.219
       407   12 Jun 2027 09:07:22.774   12 Jun 2027 09:07:24.182             1.408           477.594
       408   12 Jun 2027 09:08:31.736   12 Jun 2027 09:08:34.085             2.349          1174.500
       409   12 Jun 2027 09:08:53.053   12 Jun 2027 09:08:56.748             3.695          1494.656
       410   12 Jun 2027 09:09:14.706   12 Jun 2027 09:09:24.696             9.990           470.219
       411   12 Jun 2027 09:10:15.515   12 Jun 2027 09:10:18.176             2.661           945.750
       412   12 Jun 2027 09:11:05.521   12 Jun 2027 09:11:07.340             1.819           909.500
       413   12 Jun 2027 10:40:53.480   12 Jun 2027 10:41:10.082            16.602          6527.062
       414   12 Jun 2027 10:41:57.863   12 Jun 2027 10:42:00.654             2.791           113.719
       415   12 Jun 2027 10:42:45.941   12 Jun 2027 10:42:48.520             2.579          1208.531
       416   12 Jun 2027 10:42:53.480   12 Jun 2027 10:42:55.378             1.898           155.000
       417   12 Jun 2027 10:43:26.573   12 Jun 2027 10:43:27.754             1.181           582.250
       418   12 Jun 2027 10:43:31.329   12 Jun 2027 10:43:31.999             0.670            27.781
       419   12 Jun 2027 10:44:02.932   12 Jun 2027 10:44:04.922             1.990           966.656
       420   12 Jun 2027 10:44:06.739   12 Jun 2027 10:44:08.291             1.552            56.781
       421   12 Jun 2027 10:44:31.833   12 Jun 2027 10:44:33.738             1.905           479.281
       422   12 Jun 2027 10:45:17.327   12 Jun 2027 10:45:27.105             9.778          1066.062
       423   12 Jun 2027 10:45:32.325   12 Jun 2027 10:45:34.289             1.964           163.125
       424   12 Jun 2027 10:46:22.481   12 Jun 2027 10:46:26.555             4.074           919.781
       425   12 Jun 2027 10:46:33.591   12 Jun 2027 10:46:33.591             0.000             0.000
       426   12 Jun 2027 10:46:46.006   12 Jun 2027 10:46:50.770             4.764           607.844
       427   12 Jun 2027 10:46:52.273   12 Jun 2027 10:46:55.821             3.548            46.969
       428   13 Jun 2027 03:03:12.725   13 Jun 2027 03:03:26.770            14.045          7022.500
       429   13 Jun 2027 03:04:15.092   13 Jun 2027 03:06:11.306           116.214         58107.000
       430   13 Jun 2027 03:06:31.283   13 Jun 2027 03:06:31.283             0.000             0.000
       431   13 Jun 2027 03:06:38.498   13 Jun 2027 03:06:46.995             8.497          4248.500
       432   13 Jun 2027 03:07:15.418   13 Jun 2027 03:07:15.418             0.000             0.000
       433   13 Jun 2027 03:08:35.744   13 Jun 2027 03:08:40.277             4.533          2266.500
       434   13 Jun 2027 03:09:16.250   13 Jun 2027 03:09:21.678             5.428          2714.000
       435   13 Jun 2027 03:11:20.907   13 Jun 2027 03:12:05.981            45.074         22537.000
       436   13 Jun 2027 04:41:23.805   13 Jun 2027 04:42:01.884            38.079         19039.500
       437   13 Jun 2027 04:42:31.169   13 Jun 2027 04:44:14.648           103.479         51164.532
       438   13 Jun 2027 06:05:29.628   13 Jun 2027 06:05:50.016            20.388         10194.000
       439   13 Jun 2027 06:06:58.702   13 Jun 2027 06:07:06.145             7.443          2672.125
       440   13 Jun 2027 06:07:14.820   13 Jun 2027 06:07:16.283             1.463           136.875
       441   13 Jun 2027 07:41:14.858   13 Jun 2027 07:41:22.523             7.665          3098.594
       442   13 Jun 2027 07:42:26.591   13 Jun 2027 07:42:33.202             6.611          1880.969
       443   13 Jun 2027 07:42:55.386   13 Jun 2027 07:42:57.147             1.761           261.063
       444   13 Jun 2027 07:43:46.097   13 Jun 2027 07:43:49.643             3.546          1385.531
       445   13 Jun 2027 07:44:28.157   13 Jun 2027 07:44:30.572             2.415          1179.719
       446   13 Jun 2027 09:16:12.497   13 Jun 2027 09:16:21.945             9.448          4670.312
       447   13 Jun 2027 09:18:03.454   13 Jun 2027 09:18:12.080             8.626          2703.969
       448   13 Jun 2027 09:19:05.089   13 Jun 2027 09:19:11.076             5.987          1477.844
       449   13 Jun 2027 09:19:21.525   13 Jun 2027 09:19:21.997             0.472           182.938
       450   13 Jun 2027 09:19:53.275   13 Jun 2027 09:19:55.090             1.815           869.531
       451   13 Jun 2027 09:22:49.483   13 Jun 2027 09:23:00.069            10.586          4353.219
       452   13 Jun 2027 10:52:25.389   13 Jun 2027 10:52:39.417            14.028          6655.844
       453   13 Jun 2027 10:53:03.568   13 Jun 2027 10:53:07.173             3.605           130.250
       454   13 Jun 2027 10:54:08.533   13 Jun 2027 10:54:13.670             5.137          1789.406
       455   13 Jun 2027 10:54:58.386   13 Jun 2027 10:54:59.365             0.979           489.500
       456   13 Jun 2027 10:55:19.395   13 Jun 2027 10:55:27.145             7.750           769.969
       457   13 Jun 2027 10:56:46.955   13 Jun 2027 10:56:54.893             7.938          2436.094
       458   13 Jun 2027 10:57:49.100   13 Jun 2027 10:57:53.867             4.767          1645.406
       459   13 Jun 2027 10:58:04.456   13 Jun 2027 10:58:07.130             2.674           330.906
