uniorb/output/strategy_2/Camera/Camera_KinoSat_111201.txt

KinoSat_111201
-------------------------
    Access    *     Start Time (UTCG)     *     Stop Time (UTCG)  *   Duration (s) *   Data (Mbytes)
         1   01 Jun 2027 03:58:34.346   01 Jun 2027 03:58:58.603            24.257         12128.500
         2   01 Jun 2027 04:10:03.584   01 Jun 2027 04:11:42.361            98.777         49388.500
         3   01 Jun 2027 05:32:42.883   01 Jun 2027 05:33:41.871            58.988         29494.000
         4   01 Jun 2027 05:34:18.598   01 Jun 2027 05:35:37.692            79.094         39547.000
         5   01 Jun 2027 05:35:37.974   01 Jun 2027 05:36:31.718            53.744         26872.000
         6   01 Jun 2027 05:36:37.306   01 Jun 2027 05:36:40.137             2.831          1415.500
         7   01 Jun 2027 05:37:17.567   01 Jun 2027 05:37:17.567             0.000             0.000
         8   01 Jun 2027 07:08:02.981   01 Jun 2027 07:09:01.580            58.599         29299.500
         9   01 Jun 2027 07:09:34.813   01 Jun 2027 07:10:43.073            68.260         34130.000
        10   01 Jun 2027 07:12:26.159   01 Jun 2027 07:12:47.405            21.246         10623.000
        11   01 Jun 2027 07:13:32.795   01 Jun 2027 07:13:42.414             9.619          4809.500
        12   01 Jun 2027 08:44:32.932   01 Jun 2027 08:46:46.867           133.935         66967.500
        13   01 Jun 2027 08:50:25.590   01 Jun 2027 08:50:51.310            25.720         12860.000
        14   01 Jun 2027 08:51:49.945   01 Jun 2027 08:52:02.893            12.948          6474.000
        15   01 Jun 2027 10:21:37.706   01 Jun 2027 10:24:13.785           156.079         78039.500
        16   01 Jun 2027 10:25:12.480   01 Jun 2027 10:25:17.499             5.019          2509.500
        17   01 Jun 2027 10:25:24.640   01 Jun 2027 10:25:37.600            12.960          6480.000
        18   01 Jun 2027 10:25:53.629   01 Jun 2027 10:25:54.008             0.379           189.500
        19   01 Jun 2027 10:26:12.190   01 Jun 2027 10:26:19.789             7.599          3799.500
        20   01 Jun 2027 11:59:31.940   01 Jun 2027 12:00:00.000            28.060         14030.000
        21   02 Jun 2027 04:09:50.462   02 Jun 2027 04:11:03.810            73.348         36674.000
        22   02 Jun 2027 04:22:02.841   02 Jun 2027 04:23:02.786            59.945         29972.500
        23   02 Jun 2027 05:44:18.814   02 Jun 2027 05:45:25.435            66.621         33310.500
        24   02 Jun 2027 05:46:14.357   02 Jun 2027 05:47:05.065            50.708         25354.000
        25   02 Jun 2027 05:47:21.116   02 Jun 2027 05:47:44.093            22.977         11488.500
        26   02 Jun 2027 07:19:12.512   02 Jun 2027 07:21:15.456           122.944         61472.000
        27   02 Jun 2027 07:21:21.910   02 Jun 2027 07:21:37.403            15.493          7746.500
        28   02 Jun 2027 07:22:04.431   02 Jun 2027 07:23:06.847            62.416         31208.000
        29   02 Jun 2027 08:56:46.260   02 Jun 2027 08:58:46.422           120.162         60081.000
        30   02 Jun 2027 09:02:23.199   02 Jun 2027 09:02:23.199             0.000             0.000
        31   02 Jun 2027 09:02:55.461   02 Jun 2027 09:03:14.064            18.603          8392.314
        32   02 Jun 2027 09:03:58.360   02 Jun 2027 09:04:02.201             3.841          1384.250
        33   02 Jun 2027 10:33:28.784   02 Jun 2027 10:33:50.613            21.829         10268.219
        34   02 Jun 2027 10:34:23.501   02 Jun 2027 10:34:33.805            10.304          1027.750
        35   02 Jun 2027 10:34:43.399   02 Jun 2027 10:34:44.362             0.963           295.875
        36   02 Jun 2027 10:34:54.867   02 Jun 2027 10:34:56.381             1.514           204.969
        37   02 Jun 2027 10:35:45.850   02 Jun 2027 10:35:49.091             3.241          1372.969
        38   02 Jun 2027 10:36:38.891   02 Jun 2027 10:36:42.869             3.978          1459.281
        39   02 Jun 2027 10:37:18.396   02 Jun 2027 10:37:22.898             4.502          1110.219
        40   02 Jun 2027 10:37:46.737   02 Jun 2027 10:37:49.786             3.049           667.594
        41   02 Jun 2027 10:38:20.210   02 Jun 2027 10:38:22.396             2.186           875.937
        42   02 Jun 2027 10:38:40.867   02 Jun 2027 10:38:42.830             1.963           575.406
        43   02 Jun 2027 10:38:56.049   02 Jun 2027 10:38:59.918             3.869           413.094
        44   02 Jun 2027 10:39:18.889   02 Jun 2027 10:39:21.325             2.436           592.844
        45   03 Jun 2027 03:00:00.000   03 Jun 2027 03:00:14.780            14.780          7390.000
        46   03 Jun 2027 03:00:18.443   03 Jun 2027 03:00:35.610            17.167          8583.500
        47   03 Jun 2027 03:01:12.072   03 Jun 2027 03:01:44.297            32.225         16112.500
        48   03 Jun 2027 03:03:03.864   03 Jun 2027 03:03:10.109             6.245          3122.500
        49   03 Jun 2027 03:03:34.949   03 Jun 2027 03:03:40.814             5.865          2932.500
        50   03 Jun 2027 03:03:49.916   03 Jun 2027 03:04:01.533            11.617          5808.500
        51   03 Jun 2027 03:04:15.793   03 Jun 2027 03:04:23.617             7.824          3912.000
        52   03 Jun 2027 04:21:56.197   03 Jun 2027 04:23:02.973            66.776         33388.000
        53   03 Jun 2027 04:34:16.620   03 Jun 2027 04:34:37.083            20.463         10231.500
        54   03 Jun 2027 05:55:48.028   03 Jun 2027 05:57:11.236            83.208         41604.000
        55   03 Jun 2027 05:57:48.168   03 Jun 2027 05:58:32.765            44.597         22298.500
        56   03 Jun 2027 05:59:49.650   03 Jun 2027 06:00:18.359            28.709         13615.844
        57   03 Jun 2027 06:01:09.845   03 Jun 2027 06:01:09.845             0.000             0.000
        58   03 Jun 2027 07:30:43.217   03 Jun 2027 07:30:57.810            14.593          6355.969
        59   03 Jun 2027 07:31:07.657   03 Jun 2027 07:31:08.570             0.913            98.063
        60   03 Jun 2027 07:31:41.715   03 Jun 2027 07:31:44.111             2.396          1035.781
        61   03 Jun 2027 07:32:50.171   03 Jun 2027 07:32:54.723             4.552          1866.281
        62   03 Jun 2027 07:33:40.768   03 Jun 2027 07:33:45.379             4.611          1341.781
        63   03 Jun 2027 07:34:56.542   03 Jun 2027 07:35:00.680             4.138          1644.125
        64   03 Jun 2027 07:36:22.866   03 Jun 2027 07:36:27.870             5.004          2227.406
        65   03 Jun 2027 07:36:53.964   03 Jun 2027 07:36:55.690             1.726           669.813
        66   03 Jun 2027 07:37:40.731   03 Jun 2027 07:37:42.462             1.731           740.562
        67   03 Jun 2027 07:37:48.474   03 Jun 2027 07:37:48.639             0.165            70.375
        68   03 Jun 2027 07:38:05.205   03 Jun 2027 07:38:06.663             1.458           365.469
        69   03 Jun 2027 07:39:15.806   03 Jun 2027 07:39:19.980             4.174          1948.156
        70   03 Jun 2027 07:39:40.991   03 Jun 2027 07:39:44.041             3.050           627.844
        71   03 Jun 2027 09:08:40.267   03 Jun 2027 09:08:51.614            11.347          5548.312
        72   03 Jun 2027 09:09:35.431   03 Jun 2027 09:09:40.305             4.874           306.500
        73   03 Jun 2027 09:10:45.262   03 Jun 2027 09:10:45.262             0.000             0.000
        74   03 Jun 2027 09:11:29.412   03 Jun 2027 09:11:36.533             7.121          3409.594
        75   03 Jun 2027 09:12:54.099   03 Jun 2027 09:12:56.529             2.430          1215.000
        76   03 Jun 2027 09:13:09.153   03 Jun 2027 09:13:13.698             4.545          1603.437
        77   03 Jun 2027 09:13:41.128   03 Jun 2027 09:13:43.965             2.837            36.531
        78   03 Jun 2027 09:14:08.031   03 Jun 2027 09:14:09.879             1.848           727.312
        79   03 Jun 2027 09:15:00.213   03 Jun 2027 09:15:01.793             1.580           790.000
        80   03 Jun 2027 10:45:34.633   03 Jun 2027 10:45:43.524             8.891          4445.500
        81   03 Jun 2027 10:46:03.789   03 Jun 2027 10:46:10.826             7.037          3043.406
        82   03 Jun 2027 10:47:06.045   03 Jun 2027 10:47:08.851             2.806           886.000
        83   03 Jun 2027 10:47:53.359   03 Jun 2027 10:47:57.685             4.326           760.875
        84   03 Jun 2027 10:48:35.235   03 Jun 2027 10:48:37.253             2.018           727.813
        85   03 Jun 2027 10:48:44.748   03 Jun 2027 10:48:45.556             0.808           234.219
        86   03 Jun 2027 10:49:11.791   03 Jun 2027 10:49:26.695            14.904           503.562
        87   03 Jun 2027 10:50:01.235   03 Jun 2027 10:50:04.509             3.274          1015.594
        88   03 Jun 2027 10:50:06.722   03 Jun 2027 10:50:07.329             0.607            18.906
        89   03 Jun 2027 10:50:19.936   03 Jun 2027 10:50:21.913             1.977           122.844
        90   03 Jun 2027 10:51:16.205   03 Jun 2027 10:51:20.930             4.725          1116.875
        91   03 Jun 2027 10:51:37.156   03 Jun 2027 10:51:38.992             1.836           507.062
        92   03 Jun 2027 10:51:46.304   03 Jun 2027 10:51:47.262             0.958           145.062
        93   04 Jun 2027 03:10:03.219   04 Jun 2027 03:12:53.863           170.644         85322.000
        94   04 Jun 2027 04:33:52.049   04 Jun 2027 04:34:33.352            41.303         20651.500
        95   04 Jun 2027 04:34:43.400   04 Jun 2027 04:34:47.807             4.407          2203.500
        96   04 Jun 2027 04:35:41.328   04 Jun 2027 04:35:41.328             0.000             0.000
        97   04 Jun 2027 04:35:45.907   04 Jun 2027 04:35:48.824             2.917          1458.500
        98   04 Jun 2027 06:09:51.842   04 Jun 2027 06:11:34.522           102.680         51340.000
        99   04 Jun 2027 06:12:17.166   04 Jun 2027 06:12:17.166             0.000             0.000
       100   04 Jun 2027 06:12:40.857   04 Jun 2027 06:12:49.008             8.151          4075.500
       101   04 Jun 2027 06:13:09.513   04 Jun 2027 06:13:13.606             4.093          1633.438
       102   04 Jun 2027 07:43:36.706   04 Jun 2027 07:43:53.414            16.708          4381.281
       103   04 Jun 2027 07:45:02.124   04 Jun 2027 07:45:03.196             1.072           354.969
       104   04 Jun 2027 07:45:55.412   04 Jun 2027 07:46:01.513             6.101           884.375
       105   04 Jun 2027 07:46:58.624   04 Jun 2027 07:47:01.763             3.139          1564.594
       106   04 Jun 2027 07:47:26.168   04 Jun 2027 07:47:29.038             2.870           610.594
       107   04 Jun 2027 07:47:36.186   04 Jun 2027 07:47:37.964             1.778           223.375
       108   04 Jun 2027 07:48:14.208   04 Jun 2027 07:48:19.913             5.705           831.500
       109   04 Jun 2027 07:49:04.598   04 Jun 2027 07:49:07.114             2.516          1027.062
       110   04 Jun 2027 07:50:09.401   04 Jun 2027 07:50:17.403             8.002          1597.844
       111   04 Jun 2027 07:50:52.205   04 Jun 2027 07:50:56.319             4.114          1054.719
       112   04 Jun 2027 07:52:10.161   04 Jun 2027 07:52:10.994             0.833           416.500
       113   04 Jun 2027 09:21:01.251   04 Jun 2027 09:21:16.540            15.289          6397.312
       114   04 Jun 2027 09:21:40.474   04 Jun 2027 09:21:42.578             2.104           628.313
       115   04 Jun 2027 09:22:43.246   04 Jun 2027 09:22:45.717             2.471           618.844
       116   04 Jun 2027 09:23:10.621   04 Jun 2027 09:23:12.076             1.455           311.313
       117   04 Jun 2027 09:23:52.031   04 Jun 2027 09:23:55.070             3.039          1000.531
       118   04 Jun 2027 09:24:21.024   04 Jun 2027 09:24:22.379             1.355           499.844
       119   04 Jun 2027 09:24:48.097   04 Jun 2027 09:24:51.330             3.233           689.969
       120   04 Jun 2027 09:25:34.134   04 Jun 2027 09:25:39.762             5.628          1282.656
       121   04 Jun 2027 09:25:42.994   04 Jun 2027 09:25:50.411             7.417           101.000
       122   04 Jun 2027 09:26:10.393   04 Jun 2027 09:26:11.640             1.247           447.531
       123   04 Jun 2027 09:26:14.077   04 Jun 2027 09:26:14.829             0.752            76.156
       124   04 Jun 2027 09:27:02.451   04 Jun 2027 09:27:05.656             3.205           818.062
       125   04 Jun 2027 09:27:28.954   04 Jun 2027 09:27:29.020             0.066            33.000
       126   04 Jun 2027 09:27:38.312   04 Jun 2027 09:27:41.429             3.117           773.719
       127   04 Jun 2027 10:58:05.033   04 Jun 2027 10:58:21.022            15.989          7283.719
       128   04 Jun 2027 11:00:07.248   04 Jun 2027 11:00:13.495             6.247          1806.094
       129   04 Jun 2027 11:00:20.959   04 Jun 2027 11:00:23.668             2.709            86.531
       130   04 Jun 2027 11:01:25.405   04 Jun 2027 11:01:31.928             6.523          1664.406
       131   04 Jun 2027 11:01:42.529   04 Jun 2027 11:01:47.805             5.276           331.281
       132   04 Jun 2027 11:01:52.356   04 Jun 2027 11:01:52.566             0.210            42.844
       133   04 Jun 2027 11:02:25.317   04 Jun 2027 11:02:28.955             3.638           971.094
       134   04 Jun 2027 11:03:11.516   04 Jun 2027 11:03:15.008             3.492          1322.437
       135   04 Jun 2027 11:03:25.479   04 Jun 2027 11:03:28.600             3.121           213.219
       136   05 Jun 2027 03:22:22.170   05 Jun 2027 03:25:43.032           200.862        100431.000
       137   05 Jun 2027 03:25:56.586   05 Jun 2027 03:26:06.456             9.870          4935.000
       138   05 Jun 2027 04:45:43.624   05 Jun 2027 04:46:18.567            34.943         17471.500
       139   05 Jun 2027 04:46:46.048   05 Jun 2027 04:47:07.308            21.260         10630.000
       140   05 Jun 2027 06:22:06.248   05 Jun 2027 06:22:56.431            50.183         24527.906
       141   05 Jun 2027 06:23:23.016   05 Jun 2027 06:23:28.525             5.509           830.781
       142   05 Jun 2027 06:23:51.863   05 Jun 2027 06:23:53.238             1.375           473.063
       143   05 Jun 2027 06:24:05.004   05 Jun 2027 06:24:07.215             2.211           367.687
       144   05 Jun 2027 06:24:56.827   05 Jun 2027 06:25:00.894             4.067          1550.375
       145   05 Jun 2027 06:25:32.095   05 Jun 2027 06:25:35.790             3.695           848.344
       146   05 Jun 2027 07:56:10.359   05 Jun 2027 07:56:21.066            10.707          5333.844
       147   05 Jun 2027 07:57:28.586   05 Jun 2027 07:57:33.073             4.487          1218.375
       148   05 Jun 2027 07:57:49.820   05 Jun 2027 07:57:51.151             1.331           311.156
       149   05 Jun 2027 07:59:00.425   05 Jun 2027 07:59:04.430             4.005          1886.969
       150   05 Jun 2027 08:00:01.999   05 Jun 2027 08:00:04.603             2.604           969.812
       151   05 Jun 2027 08:00:35.113   05 Jun 2027 08:00:39.410             4.297           153.969
       152   05 Jun 2027 08:01:08.597   05 Jun 2027 08:01:18.085             9.488           897.594
       153   05 Jun 2027 08:02:37.732   05 Jun 2027 08:02:42.757             5.025          2453.031
       154   05 Jun 2027 08:02:54.272   05 Jun 2027 08:02:55.939             1.667           359.844
       155   05 Jun 2027 08:03:08.184   05 Jun 2027 08:03:09.713             1.529           216.250
       156   05 Jun 2027 08:03:47.355   05 Jun 2027 08:03:48.936             1.581           772.750
       157   05 Jun 2027 08:03:50.394   05 Jun 2027 08:03:50.394             0.000             0.000
       158   05 Jun 2027 08:04:02.744   05 Jun 2027 08:04:04.239             1.495           431.500
       159   05 Jun 2027 09:33:14.888   05 Jun 2027 09:33:31.756            16.868          6437.906
       160   05 Jun 2027 09:33:42.652   05 Jun 2027 09:33:44.261             1.609           253.125
       161   05 Jun 2027 09:34:25.749   05 Jun 2027 09:34:26.149             0.400           173.438
       162   05 Jun 2027 09:35:49.120   05 Jun 2027 09:35:53.822             4.702           997.812
       163   05 Jun 2027 09:36:26.187   05 Jun 2027 09:36:27.765             1.578            55.969
       164   05 Jun 2027 09:37:40.269   05 Jun 2027 09:37:43.738             3.469          1695.219
       165   05 Jun 2027 09:37:51.876   05 Jun 2027 09:37:53.621             1.745           254.313
       166   05 Jun 2027 09:38:06.108   05 Jun 2027 09:38:06.108             0.000             0.000
       167   05 Jun 2027 09:38:14.688   05 Jun 2027 09:38:17.315             2.627           511.594
       168   05 Jun 2027 09:38:30.997   05 Jun 2027 09:38:32.640             1.643           397.469
       169   05 Jun 2027 09:39:33.385   05 Jun 2027 09:39:33.385             0.000             0.000
       170   05 Jun 2027 09:39:50.059   05 Jun 2027 09:39:53.576             3.517          1679.438
       171   05 Jun 2027 09:39:55.176   05 Jun 2027 09:39:57.271             2.095            50.000
       172   05 Jun 2027 11:10:10.703   05 Jun 2027 11:10:28.231            17.528          7663.000
       173   05 Jun 2027 11:10:34.766   05 Jun 2027 11:10:35.241             0.475           204.219
       174   05 Jun 2027 11:12:02.198   05 Jun 2027 11:12:11.279             9.081          1436.437
       175   05 Jun 2027 11:13:02.355   05 Jun 2027 11:13:06.418             4.063          1596.125
       176   05 Jun 2027 11:13:20.294   05 Jun 2027 11:13:21.122             0.828           414.000
       177   05 Jun 2027 11:13:32.777   05 Jun 2027 11:13:32.777             0.000             0.000
       178   05 Jun 2027 11:14:03.811   05 Jun 2027 11:14:04.145             0.334           167.000
       179   05 Jun 2027 11:14:25.376   05 Jun 2027 11:14:34.941             9.565          1850.125
       180   05 Jun 2027 11:15:05.973   05 Jun 2027 11:15:08.944             2.971           956.469
       181   06 Jun 2027 03:34:50.789   06 Jun 2027 03:38:06.962           196.173         98086.500
       182   06 Jun 2027 04:57:47.847   06 Jun 2027 04:58:47.633            59.786         29893.000
       183   06 Jun 2027 06:34:16.859   06 Jun 2027 06:35:10.876            54.017         26521.969
       184   06 Jun 2027 06:35:24.519   06 Jun 2027 06:35:24.519             0.000             0.000
       185   06 Jun 2027 06:36:17.761   06 Jun 2027 06:36:22.102             4.341          1850.844
       186   06 Jun 2027 06:36:40.570   06 Jun 2027 06:36:41.141             0.571           243.375
       187   06 Jun 2027 06:36:55.532   06 Jun 2027 06:36:56.128             0.596           298.000
       188   06 Jun 2027 08:09:22.074   06 Jun 2027 08:09:35.023            12.949          5894.844
       189   06 Jun 2027 08:09:58.623   06 Jun 2027 08:10:00.986             2.363           151.531
       190   06 Jun 2027 08:10:24.828   06 Jun 2027 08:10:28.796             3.968           147.844
       191   06 Jun 2027 08:10:40.737   06 Jun 2027 08:10:41.520             0.783           197.250
       192   06 Jun 2027 08:11:13.685   06 Jun 2027 08:11:16.783             3.098           455.344
       193   06 Jun 2027 08:12:27.738   06 Jun 2027 08:12:31.176             3.438          1430.719
       194   06 Jun 2027 08:13:06.643   06 Jun 2027 08:13:09.272             2.629          1090.500
       195   06 Jun 2027 08:14:25.074   06 Jun 2027 08:14:31.636             6.562          1983.062
       196   06 Jun 2027 08:14:47.275   06 Jun 2027 08:14:48.427             1.152           467.719
       197   06 Jun 2027 08:15:15.090   06 Jun 2027 08:15:18.000             2.910           833.219
       198   06 Jun 2027 08:15:55.483   06 Jun 2027 08:16:00.474             4.991           951.250
       199   06 Jun 2027 09:45:44.215   06 Jun 2027 09:46:01.628            17.413          7678.000
       200   06 Jun 2027 09:47:29.026   06 Jun 2027 09:47:29.758             0.732            15.719
       201   06 Jun 2027 09:47:45.492   06 Jun 2027 09:47:48.394             2.902           438.438
       202   06 Jun 2027 09:47:55.872   06 Jun 2027 09:47:56.135             0.263           108.875
       203   06 Jun 2027 09:47:59.285   06 Jun 2027 09:48:00.486             1.201            39.937
       204   06 Jun 2027 09:48:53.015   06 Jun 2027 09:48:54.732             1.717           813.156
       205   06 Jun 2027 09:50:06.243   06 Jun 2027 09:50:14.167             7.924          2084.625
       206   06 Jun 2027 09:51:04.194   06 Jun 2027 09:51:09.704             5.510          1406.594
       207   06 Jun 2027 09:51:20.796   06 Jun 2027 09:51:26.211             5.415           346.625
       208   06 Jun 2027 09:51:31.137   06 Jun 2027 09:51:31.696             0.559           139.688
       209   06 Jun 2027 09:51:43.379   06 Jun 2027 09:51:47.240             3.861           362.188
       210   06 Jun 2027 11:23:14.083   06 Jun 2027 11:23:26.552            12.469          6049.906
       211   06 Jun 2027 11:23:38.398   06 Jun 2027 11:23:38.398             0.000             0.000
       212   06 Jun 2027 11:24:16.473   06 Jun 2027 11:24:19.843             3.370          1455.156
       213   06 Jun 2027 11:24:47.454   06 Jun 2027 11:24:49.209             1.755           821.875
       214   06 Jun 2027 11:24:58.984   06 Jun 2027 11:25:01.685             2.701           234.250
       215   06 Jun 2027 11:25:35.856   06 Jun 2027 11:25:41.351             5.495           930.469
       216   06 Jun 2027 11:25:56.047   06 Jun 2027 11:25:56.631             0.584           292.000
       217   06 Jun 2027 11:26:36.938   06 Jun 2027 11:26:46.376             9.438          1320.969
       218   06 Jun 2027 11:27:26.156   06 Jun 2027 11:27:26.859             0.703           351.500
       219   07 Jun 2027 03:46:24.558   07 Jun 2027 03:47:01.250            36.692         18346.000
       220   07 Jun 2027 03:47:13.916   07 Jun 2027 03:49:56.240           162.324         81162.000
       221   07 Jun 2027 03:50:00.623   07 Jun 2027 03:50:03.769             3.146          1573.000
       222   07 Jun 2027 05:09:43.746   07 Jun 2027 05:10:36.968            53.222         26611.000
       223   07 Jun 2027 05:10:44.095   07 Jun 2027 05:10:50.929             6.834          3417.000
       224   07 Jun 2027 05:10:55.520   07 Jun 2027 05:11:03.961             8.441          4220.500
       225   07 Jun 2027 06:46:21.432   07 Jun 2027 06:46:50.412            28.980         14490.000
       226   07 Jun 2027 06:47:03.594   07 Jun 2027 06:47:18.991            15.397          7510.344
       227   07 Jun 2027 06:47:59.906   07 Jun 2027 06:48:03.122             3.216          1063.969
       228   07 Jun 2027 06:49:28.007   07 Jun 2027 06:49:34.002             5.995          2395.687
       229   07 Jun 2027 08:21:31.840   07 Jun 2027 08:21:44.781            12.941          4972.406
       230   07 Jun 2027 08:22:59.345   07 Jun 2027 08:23:04.656             5.311          2284.656
       231   07 Jun 2027 08:24:08.424   07 Jun 2027 08:24:12.664             4.240          1705.031
       232   07 Jun 2027 08:24:24.202   07 Jun 2027 08:24:25.808             1.606           180.719
       233   07 Jun 2027 08:25:04.823   07 Jun 2027 08:25:07.152             2.329           962.500
       234   07 Jun 2027 08:25:36.745   07 Jun 2027 08:25:47.881            11.136           924.781
       235   07 Jun 2027 08:26:01.093   07 Jun 2027 08:26:02.199             1.106           354.375
       236   07 Jun 2027 08:26:28.802   07 Jun 2027 08:26:34.338             5.536           792.781
       237   07 Jun 2027 08:27:06.572   07 Jun 2027 08:27:09.359             2.787           825.344
       238   07 Jun 2027 09:57:45.531   07 Jun 2027 09:58:00.372            14.841          7247.906
       239   07 Jun 2027 09:58:35.241   07 Jun 2027 09:58:36.800             1.559           408.156
       240   07 Jun 2027 09:59:40.254   07 Jun 2027 09:59:44.331             4.077          1123.500
       241   07 Jun 2027 10:00:24.233   07 Jun 2027 10:00:26.558             2.325           689.094
       242   07 Jun 2027 10:00:28.786   07 Jun 2027 10:00:29.674             0.888            69.625
       243   07 Jun 2027 10:01:00.941   07 Jun 2027 10:01:05.091             4.150           942.094
       244   07 Jun 2027 10:01:50.821   07 Jun 2027 10:01:54.912             4.091          1429.063
       245   07 Jun 2027 10:02:23.678   07 Jun 2027 10:02:26.213             2.535           579.437
       246   07 Jun 2027 10:02:28.984   07 Jun 2027 10:02:30.902             1.918            86.594
       247   07 Jun 2027 10:03:14.040   07 Jun 2027 10:03:16.800             2.760          1279.312
       248   07 Jun 2027 11:35:19.856   07 Jun 2027 11:35:37.286            17.430          8287.125
       249   07 Jun 2027 11:35:57.208   07 Jun 2027 11:35:59.927             2.719           622.563
       250   07 Jun 2027 11:36:12.566   07 Jun 2027 11:36:12.792             0.226           113.000
       251   07 Jun 2027 11:36:20.801   07 Jun 2027 11:36:21.321             0.520           260.000
       252   07 Jun 2027 11:37:33.592   07 Jun 2027 11:37:37.709             4.117          2058.500
       253   07 Jun 2027 11:38:46.336   07 Jun 2027 11:38:51.477             5.141          2357.406
       254   07 Jun 2027 11:39:20.772   07 Jun 2027 11:39:22.367             1.595           797.500
       255   07 Jun 2027 11:39:44.388   07 Jun 2027 11:39:46.967             2.579           798.250
       256   08 Jun 2027 03:47:31.668   08 Jun 2027 03:47:48.922            17.254          8627.000
       257   08 Jun 2027 03:58:21.299   08 Jun 2027 03:59:03.419            42.120         21060.000
       258   08 Jun 2027 03:59:09.323   08 Jun 2027 04:01:48.362           159.039         79519.500
       259   08 Jun 2027 05:22:19.414   08 Jun 2027 05:23:08.666            49.252         24626.000
       260   08 Jun 2027 05:23:31.460   08 Jun 2027 05:23:39.051             7.591          3795.500
       261   08 Jun 2027 05:24:46.763   08 Jun 2027 05:24:46.763             0.000             0.000
       262   08 Jun 2027 06:58:05.501   08 Jun 2027 06:58:54.680            49.179         22613.562
       263   08 Jun 2027 06:59:41.590   08 Jun 2027 06:59:45.693             4.103          1110.969
       264   08 Jun 2027 07:00:51.052   08 Jun 2027 07:00:51.052             0.000             0.000
       265   08 Jun 2027 07:01:26.247   08 Jun 2027 07:01:29.814             3.567          1783.500
       266   08 Jun 2027 07:02:09.908   08 Jun 2027 07:02:17.142             7.234          1958.094
       267   08 Jun 2027 08:32:55.984   08 Jun 2027 08:33:05.300             9.316          4282.406
       268   08 Jun 2027 08:33:48.212   08 Jun 2027 08:33:52.286             4.074          1065.062
       269   08 Jun 2027 08:34:31.883   08 Jun 2027 08:34:33.463             1.580           573.437
       270   08 Jun 2027 08:34:46.279   08 Jun 2027 08:34:47.727             1.448           400.500
       271   08 Jun 2027 08:35:12.606   08 Jun 2027 08:35:18.110             5.504           732.156
       272   08 Jun 2027 08:35:47.178   08 Jun 2027 08:35:50.653             3.475           879.250
       273   08 Jun 2027 08:36:23.220   08 Jun 2027 08:36:27.108             3.888          1017.719
       274   08 Jun 2027 08:37:01.757   08 Jun 2027 08:37:05.928             4.171           403.719
       275   08 Jun 2027 08:37:38.330   08 Jun 2027 08:37:42.245             3.915           979.062
       276   08 Jun 2027 08:38:27.671   08 Jun 2027 08:38:30.698             3.027          1154.438
       277   08 Jun 2027 08:38:37.883   08 Jun 2027 08:38:38.620             0.737           224.531
       278   08 Jun 2027 08:38:45.595   08 Jun 2027 08:38:51.854             6.259           217.969
       279   08 Jun 2027 08:39:19.491   08 Jun 2027 08:39:21.371             1.880           863.656
       280   08 Jun 2027 08:40:14.018   08 Jun 2027 08:40:16.916             2.898          1352.594
       281   08 Jun 2027 10:09:32.111   08 Jun 2027 10:09:49.375            17.264          8528.531
       282   08 Jun 2027 10:10:02.028   08 Jun 2027 10:10:06.212             4.184           360.062
       283   08 Jun 2027 10:10:41.347   08 Jun 2027 10:10:43.731             2.384           601.094
       284   08 Jun 2027 10:11:48.026   08 Jun 2027 10:11:51.682             3.656           700.156
       285   08 Jun 2027 10:12:04.562   08 Jun 2027 10:12:06.287             1.725            36.688
       286   08 Jun 2027 10:12:42.391   08 Jun 2027 10:12:49.211             6.820           941.031
       287   08 Jun 2027 10:13:26.634   08 Jun 2027 10:13:28.843             2.209          1013.937
       288   08 Jun 2027 10:13:50.752   08 Jun 2027 10:13:55.278             4.526           268.344
       289   08 Jun 2027 10:13:55.324   08 Jun 2027 10:13:55.476             0.152             1.438
       290   08 Jun 2027 10:14:44.577   08 Jun 2027 10:14:50.013             5.436           970.406
       291   08 Jun 2027 10:15:46.300   08 Jun 2027 10:15:51.110             4.810          1758.969
       292   08 Jun 2027 11:47:49.931   08 Jun 2027 11:48:02.689            12.758          6379.000
       293   08 Jun 2027 11:48:09.953   08 Jun 2027 11:48:13.966             4.013           988.875
       294   08 Jun 2027 11:48:48.665   08 Jun 2027 11:48:50.813             2.148          1000.812
       295   08 Jun 2027 11:49:40.112   08 Jun 2027 11:49:44.100             3.988           716.125
       296   08 Jun 2027 11:49:51.463   08 Jun 2027 11:49:54.275             2.812           230.094
       297   08 Jun 2027 11:50:06.576   08 Jun 2027 11:50:08.322             1.746           309.500
       298   08 Jun 2027 11:50:19.359   08 Jun 2027 11:50:22.155             2.796           344.906
       299   08 Jun 2027 11:51:13.916   08 Jun 2027 11:51:27.852            13.936          1397.469
       300   09 Jun 2027 03:58:48.052   09 Jun 2027 04:00:06.061            78.009         39004.500
       301   09 Jun 2027 04:10:19.340   09 Jun 2027 04:11:57.590            98.250         49125.000
       302   09 Jun 2027 05:32:58.497   09 Jun 2027 05:33:57.092            58.595         29297.500
       303   09 Jun 2027 05:34:33.995   09 Jun 2027 05:35:08.328            34.333         17166.500
       304   09 Jun 2027 07:08:15.456   09 Jun 2027 07:09:08.188            52.732         26141.250
       305   09 Jun 2027 07:09:49.621   09 Jun 2027 07:09:54.101             4.480           826.656
       306   09 Jun 2027 07:10:15.332   09 Jun 2027 07:10:17.079             1.747           128.625
       307   09 Jun 2027 07:11:38.327   09 Jun 2027 07:11:38.327             0.000             0.000
       308   09 Jun 2027 07:11:49.702   09 Jun 2027 07:11:49.702             0.000             0.000
       309   09 Jun 2027 07:12:48.330   09 Jun 2027 07:12:57.599             9.269          3961.906
       310   09 Jun 2027 07:13:32.482   09 Jun 2027 07:13:36.915             4.433           943.063
       311   09 Jun 2027 07:14:20.157   09 Jun 2027 07:14:22.846             2.689          1202.781
       312   09 Jun 2027 07:14:24.054   09 Jun 2027 07:14:24.054             0.000             0.000
       313   09 Jun 2027 08:44:50.018   09 Jun 2027 08:45:02.216            12.198          5334.188
       314   09 Jun 2027 08:45:16.709   09 Jun 2027 08:45:19.775             3.066           390.125
       315   09 Jun 2027 08:47:03.728   09 Jun 2027 08:47:12.072             8.344          2333.906
       316   09 Jun 2027 08:47:41.526   09 Jun 2027 08:47:43.515             1.989           920.437
       317   09 Jun 2027 08:47:47.173   09 Jun 2027 08:47:49.670             2.497            93.969
       318   09 Jun 2027 08:48:02.099   09 Jun 2027 08:48:03.753             1.654           121.094
       319   09 Jun 2027 08:48:27.490   09 Jun 2027 08:48:27.490             0.000             0.000
       320   09 Jun 2027 08:49:08.894   09 Jun 2027 08:49:15.908             7.014          1756.375
       321   09 Jun 2027 08:49:27.644   09 Jun 2027 08:49:32.361             4.717           258.625
       322   09 Jun 2027 08:51:29.300   09 Jun 2027 08:51:36.304             7.004          3250.406
       323   09 Jun 2027 08:52:02.936   09 Jun 2027 08:52:05.219             2.283           200.625
       324   09 Jun 2027 08:52:18.520   09 Jun 2027 08:52:19.034             0.514           257.000
       325   09 Jun 2027 10:21:53.358   09 Jun 2027 10:22:13.087            19.729          9076.844
       326   09 Jun 2027 10:23:33.116   09 Jun 2027 10:23:35.895             2.779           416.406
       327   09 Jun 2027 10:24:06.405   09 Jun 2027 10:24:09.095             2.690           324.000
       328   09 Jun 2027 10:24:48.805   09 Jun 2027 10:24:52.993             4.188           696.031
       329   09 Jun 2027 10:24:54.503   09 Jun 2027 10:24:56.635             2.132            47.187
       330   09 Jun 2027 10:25:07.635   09 Jun 2027 10:25:13.527             5.892           343.750
       331   09 Jun 2027 10:25:20.076   09 Jun 2027 10:25:20.905             0.829           148.875
       332   09 Jun 2027 10:25:59.340   09 Jun 2027 10:26:02.759             3.419          1093.750
       333   09 Jun 2027 10:26:47.683   09 Jun 2027 10:26:51.556             3.873          1403.875
       334   09 Jun 2027 10:27:52.502   09 Jun 2027 10:27:58.172             5.670          1677.406
       335   09 Jun 2027 10:28:04.560   09 Jun 2027 10:28:04.815             0.255           127.500
       336   09 Jun 2027 11:59:47.627   09 Jun 2027 11:59:57.877            10.250          5125.000
       337   10 Jun 2027 04:10:05.549   10 Jun 2027 04:11:19.289            73.740         36870.000
       338   10 Jun 2027 04:22:18.565   10 Jun 2027 04:23:17.418            58.853         29426.500
       339   10 Jun 2027 05:44:34.278   10 Jun 2027 05:45:40.567            66.289         33144.500
       340   10 Jun 2027 05:46:29.553   10 Jun 2027 05:47:19.533            49.980         24990.000
       341   10 Jun 2027 05:47:36.495   10 Jun 2027 05:47:36.495             0.000             0.000
       342   10 Jun 2027 05:48:36.605   10 Jun 2027 05:48:52.164            15.559          7779.500
       343   10 Jun 2027 07:19:27.117   10 Jun 2027 07:20:29.913            62.796         30925.125
       344   10 Jun 2027 07:21:42.038   10 Jun 2027 07:21:45.559             3.521          1760.500
       345   10 Jun 2027 07:22:38.884   10 Jun 2027 07:22:44.487             5.603          1941.406
       346   10 Jun 2027 07:23:11.261   10 Jun 2027 07:23:11.261             0.000             0.000
       347   10 Jun 2027 07:23:21.013   10 Jun 2027 07:23:23.078             2.065          1018.656
       348   10 Jun 2027 07:23:51.720   10 Jun 2027 07:23:55.571             3.851           889.031
       349   10 Jun 2027 07:24:44.805   10 Jun 2027 07:24:48.512             3.707          1323.344
       350   10 Jun 2027 07:25:08.581   10 Jun 2027 07:25:11.594             3.013           622.125
       351   10 Jun 2027 07:25:19.891   10 Jun 2027 07:25:23.859             3.968           259.281
       352   10 Jun 2027 07:26:32.725   10 Jun 2027 07:26:37.475             4.750          1862.125
       353   10 Jun 2027 08:57:01.544   10 Jun 2027 08:57:16.565            15.021          7085.719
       354   10 Jun 2027 08:57:52.392   10 Jun 2027 08:57:54.714             2.322          1041.875
       355   10 Jun 2027 08:58:18.908   10 Jun 2027 08:58:23.937             5.029           756.063
       356   10 Jun 2027 08:58:27.721   10 Jun 2027 08:58:32.776             5.055            62.062
       357   10 Jun 2027 08:58:39.027   10 Jun 2027 08:58:46.654             7.627           169.656
       358   10 Jun 2027 08:59:09.785   10 Jun 2027 08:59:13.008             3.223           691.844
       359   10 Jun 2027 08:59:26.088   10 Jun 2027 08:59:27.759             1.671           329.781
       360   10 Jun 2027 08:59:58.456   10 Jun 2027 09:00:03.816             5.360           694.781
       361   10 Jun 2027 09:00:41.333   10 Jun 2027 09:00:47.649             6.316          1172.406
       362   10 Jun 2027 09:01:10.448   10 Jun 2027 09:01:14.934             4.486           662.531
       363   10 Jun 2027 09:01:36.139   10 Jun 2027 09:01:38.836             2.697           605.656
       364   10 Jun 2027 09:02:12.453   10 Jun 2027 09:02:14.105             1.652           620.062
       365   10 Jun 2027 09:03:32.737   10 Jun 2027 09:03:38.648             5.911          1899.875
       366   10 Jun 2027 10:33:44.376   10 Jun 2027 10:34:03.678            19.302          8711.156
       367   10 Jun 2027 10:34:40.389   10 Jun 2027 10:34:48.768             8.379          1082.156
       368   10 Jun 2027 10:34:59.115   10 Jun 2027 10:35:00.889             1.774           250.625
       369   10 Jun 2027 10:35:08.918   10 Jun 2027 10:35:11.278             2.360           156.469
       370   10 Jun 2027 10:36:03.220   10 Jun 2027 10:36:06.938             3.718          1441.531
       371   10 Jun 2027 10:36:54.265   10 Jun 2027 10:36:58.126             3.861          1456.406
       372   10 Jun 2027 10:37:36.834   10 Jun 2027 10:37:44.872             8.038          1202.031
       373   10 Jun 2027 10:37:54.413   10 Jun 2027 10:37:58.202             3.789           298.156
       374   10 Jun 2027 10:38:15.271   10 Jun 2027 10:38:16.493             1.222           533.406
       375   10 Jun 2027 10:38:45.293   10 Jun 2027 10:38:49.286             3.993           900.000
       376   10 Jun 2027 10:39:17.376   10 Jun 2027 10:39:20.619             3.243           617.844
       377   10 Jun 2027 10:40:02.098   10 Jun 2027 10:40:04.717             2.619           999.688
       378   11 Jun 2027 03:00:00.000   11 Jun 2027 03:00:13.438            13.438          6719.000
       379   11 Jun 2027 03:00:29.545   11 Jun 2027 03:01:20.577            51.032         25516.000
       380   11 Jun 2027 03:03:46.837   11 Jun 2027 03:04:37.546            50.709         25354.500
       381   11 Jun 2027 04:22:11.428   11 Jun 2027 04:22:58.785            47.357         23678.500
       382   11 Jun 2027 04:23:18.108   11 Jun 2027 04:23:20.598             2.490          1245.000
       383   11 Jun 2027 04:34:33.346   11 Jun 2027 04:34:52.008            18.662          9331.000
       384   11 Jun 2027 05:56:02.846   11 Jun 2027 05:57:26.006            83.160         41580.000
       385   11 Jun 2027 05:58:04.496   11 Jun 2027 05:58:50.475            45.979         22989.500
       386   11 Jun 2027 05:58:58.164   11 Jun 2027 05:59:04.380             6.216          3108.000
       387   11 Jun 2027 05:59:44.456   11 Jun 2027 06:00:06.632            22.176          9639.375
       388   11 Jun 2027 07:30:57.488   11 Jun 2027 07:31:12.814            15.326          7174.063
       389   11 Jun 2027 07:31:23.855   11 Jun 2027 07:31:24.244             0.389            72.375
       390   11 Jun 2027 07:31:58.393   11 Jun 2027 07:32:03.939             5.546          1013.812
       391   11 Jun 2027 07:33:06.485   11 Jun 2027 07:33:14.150             7.665          1919.781
       392   11 Jun 2027 07:33:16.838   11 Jun 2027 07:33:17.754             0.916            83.875
       393   11 Jun 2027 07:33:43.856   11 Jun 2027 07:33:45.264             1.408           506.875
       394   11 Jun 2027 07:34:20.157   11 Jun 2027 07:34:21.349             1.192           596.000
       395   11 Jun 2027 07:35:15.239   11 Jun 2027 07:35:20.397             5.158          1800.563
       396   11 Jun 2027 07:36:03.175   11 Jun 2027 07:36:03.175             0.000             0.000
       397   11 Jun 2027 07:36:38.466   11 Jun 2027 07:36:44.775             6.309          2188.406
       398   11 Jun 2027 07:37:11.665   11 Jun 2027 07:37:15.292             3.627           724.594
       399   11 Jun 2027 07:37:58.958   11 Jun 2027 07:38:00.537             1.579           762.062
       400   11 Jun 2027 07:38:21.713   11 Jun 2027 07:38:22.904             1.191           414.969
       401   11 Jun 2027 07:39:05.020   11 Jun 2027 07:39:06.798             1.778           889.000
       402   11 Jun 2027 07:39:54.030   11 Jun 2027 07:39:58.374             4.344          1714.031
       403   11 Jun 2027 09:08:55.816   11 Jun 2027 09:09:12.560            16.744          6530.719
       404   11 Jun 2027 09:09:21.130   11 Jun 2027 09:09:31.816            10.686           267.812
       405   11 Jun 2027 09:10:30.285   11 Jun 2027 09:10:33.883             3.598          1494.687
       406   11 Jun 2027 09:10:58.204   11 Jun 2027 09:10:58.677             0.473           236.500
       407   11 Jun 2027 09:11:10.586   11 Jun 2027 09:11:13.207             2.621           846.219
       408   11 Jun 2027 09:11:24.879   11 Jun 2027 09:11:27.236             2.357           306.375
       409   11 Jun 2027 09:11:51.840   11 Jun 2027 09:11:51.840             0.000             0.000
       410   11 Jun 2027 09:13:11.611   11 Jun 2027 09:13:21.165             9.554          2644.094
       411   11 Jun 2027 09:13:43.675   11 Jun 2027 09:13:52.294             8.619           695.125
       412   11 Jun 2027 09:13:56.227   11 Jun 2027 09:13:59.997             3.770             1.969
       413   11 Jun 2027 09:14:24.528   11 Jun 2027 09:14:27.345             2.817           766.594
       414   11 Jun 2027 09:15:13.244   11 Jun 2027 09:15:16.760             3.516          1316.187
       415   11 Jun 2027 09:15:24.212   11 Jun 2027 09:15:28.095             3.883           156.969
       416   11 Jun 2027 09:16:11.287   11 Jun 2027 09:16:12.423             1.136           568.000
       417   11 Jun 2027 10:45:51.508   11 Jun 2027 10:45:57.647             6.139          3069.500
       418   11 Jun 2027 10:46:20.295   11 Jun 2027 10:46:39.906            19.611          4259.594
       419   11 Jun 2027 10:46:57.112   11 Jun 2027 10:46:57.627             0.515           107.156
       420   11 Jun 2027 10:47:42.367   11 Jun 2027 10:47:44.781             2.414           922.187
       421   11 Jun 2027 10:48:10.229   11 Jun 2027 10:48:18.025             7.796           795.250
       422   11 Jun 2027 10:48:50.061   11 Jun 2027 10:48:52.219             2.158           675.781
       423   11 Jun 2027 10:48:57.868   11 Jun 2027 10:48:59.479             1.611           176.531
       424   11 Jun 2027 10:49:46.870   11 Jun 2027 10:49:50.473             3.603          1465.812
       425   11 Jun 2027 10:49:53.642   11 Jun 2027 10:49:54.319             0.677            99.031
       426   11 Jun 2027 10:50:15.045   11 Jun 2027 10:50:16.176             1.131           565.500
       427   11 Jun 2027 10:50:47.947   11 Jun 2027 10:50:50.612             2.665          1020.469
       428   11 Jun 2027 10:52:02.186   11 Jun 2027 10:52:16.323            14.137          1764.594
       429   12 Jun 2027 03:10:19.447   12 Jun 2027 03:13:10.207           170.760         85380.000
       430   12 Jun 2027 03:13:33.245   12 Jun 2027 03:13:44.966            11.721          5860.500
       431   12 Jun 2027 04:34:07.301   12 Jun 2027 04:34:58.936            51.635         25817.500
       432   12 Jun 2027 04:35:56.320   12 Jun 2027 04:35:59.836             3.516          1758.000
       433   12 Jun 2027 06:10:07.675   12 Jun 2027 06:11:38.378            90.703         45351.500
       434   12 Jun 2027 06:12:52.289   12 Jun 2027 06:13:00.894             8.605          3346.188
       435   12 Jun 2027 06:13:01.593   12 Jun 2027 06:13:01.593             0.000             0.000
       436   12 Jun 2027 06:13:06.743   12 Jun 2027 06:13:09.299             2.556           182.781
       437   12 Jun 2027 07:43:51.541   12 Jun 2027 07:44:07.918            16.377          6140.656
       438   12 Jun 2027 07:45:20.114   12 Jun 2027 07:45:21.296             1.182           408.219
       439   12 Jun 2027 07:46:12.139   12 Jun 2027 07:46:16.122             3.983           892.500
       440   12 Jun 2027 07:47:15.632   12 Jun 2027 07:47:20.031             4.399          1575.688
       441   12 Jun 2027 07:47:43.065   12 Jun 2027 07:47:47.850             4.785           620.500
       442   12 Jun 2027 07:48:29.668   12 Jun 2027 07:48:34.309             4.641           744.625
       443   12 Jun 2027 07:48:41.895   12 Jun 2027 07:48:44.443             2.548           237.062
       444   12 Jun 2027 07:49:14.619   12 Jun 2027 07:49:20.349             5.730           842.937
       445   12 Jun 2027 07:49:52.825   12 Jun 2027 07:49:57.384             4.559          1001.469
       446   12 Jun 2027 07:50:44.464   12 Jun 2027 07:50:46.845             2.381          1190.500
       447   12 Jun 2027 07:51:04.751   12 Jun 2027 07:51:06.908             2.157           839.719
       448   12 Jun 2027 07:51:25.365   12 Jun 2027 07:51:25.946             0.581           290.500
       449   12 Jun 2027 07:51:31.866   12 Jun 2027 07:51:32.684             0.818           409.000
       450   12 Jun 2027 07:51:43.787   12 Jun 2027 07:51:44.825             1.038           409.250
       451   12 Jun 2027 07:52:23.559   12 Jun 2027 07:52:25.703             2.144           340.937
       452   12 Jun 2027 09:21:17.284   12 Jun 2027 09:21:35.748            18.464          8197.594
       453   12 Jun 2027 09:22:18.584   12 Jun 2027 09:22:20.923             2.339           848.437
       454   12 Jun 2027 09:23:44.896   12 Jun 2027 09:23:49.115             4.219          1904.969
       455   12 Jun 2027 09:24:19.632   12 Jun 2027 09:24:24.218             4.586           624.906
       456   12 Jun 2027 09:24:41.386   12 Jun 2027 09:24:43.370             1.984           131.406
       457   12 Jun 2027 09:25:01.032   12 Jun 2027 09:25:03.128             2.096           158.875
       458   12 Jun 2027 09:26:24.442   12 Jun 2027 09:26:29.203             4.761          2334.438
       459   12 Jun 2027 09:27:44.557   12 Jun 2027 09:27:49.486             4.929          2354.812
       460   12 Jun 2027 10:58:20.846   12 Jun 2027 10:58:36.782            15.936          7244.281
       461   12 Jun 2027 10:59:26.339   12 Jun 2027 10:59:31.412             5.073           894.031
       462   12 Jun 2027 11:00:11.124   12 Jun 2027 11:00:15.557             4.433          1171.406
       463   12 Jun 2027 11:01:27.724   12 Jun 2027 11:01:32.836             5.112          2255.219
       464   12 Jun 2027 11:02:06.143   12 Jun 2027 11:02:08.442             2.299          1040.844
       465   12 Jun 2027 11:02:19.311   12 Jun 2027 11:02:20.761             1.450           339.656
       466   12 Jun 2027 11:03:38.444   12 Jun 2027 11:03:47.761             9.317          2412.000
       467   12 Jun 2027 11:04:07.760   12 Jun 2027 11:04:11.064             3.304           420.750
       468   13 Jun 2027 03:22:37.819   13 Jun 2027 03:25:58.807           200.988        100494.000
       469   13 Jun 2027 04:45:58.876   13 Jun 2027 04:46:32.987            34.111         17055.500
       470   13 Jun 2027 04:47:01.577   13 Jun 2027 04:47:22.763            21.186         10593.000
       471   13 Jun 2027 06:22:22.430   13 Jun 2027 06:23:24.700            62.270         27875.313
       472   13 Jun 2027 06:24:24.459   13 Jun 2027 06:24:28.711             4.252          1389.625
       473   13 Jun 2027 06:24:44.274   13 Jun 2027 06:24:47.804             3.530           301.219
       474   13 Jun 2027 06:24:49.295   13 Jun 2027 06:24:51.337             2.042            46.594
       475   13 Jun 2027 06:24:59.016   13 Jun 2027 06:24:59.016             0.000             0.000
       476   13 Jun 2027 06:25:09.980   13 Jun 2027 06:25:10.642             0.662           331.000
       477   13 Jun 2027 06:25:46.731   13 Jun 2027 06:25:50.854             4.123          1261.000
       478   13 Jun 2027 07:56:27.502   13 Jun 2027 07:56:35.698             8.196          4077.344
       479   13 Jun 2027 07:57:54.802   13 Jun 2027 07:57:56.072             1.270           378.219
       480   13 Jun 2027 07:58:34.968   13 Jun 2027 07:58:38.609             3.641           942.312
       481   13 Jun 2027 07:59:49.763   13 Jun 2027 07:59:50.799             1.036           518.000
       482   13 Jun 2027 08:00:17.243   13 Jun 2027 08:00:20.252             3.009          1319.437
       483   13 Jun 2027 08:00:42.582   13 Jun 2027 08:00:46.035             3.453           140.500
       484   13 Jun 2027 08:00:52.738   13 Jun 2027 08:00:55.077             2.339           208.781
       485   13 Jun 2027 08:01:42.390   13 Jun 2027 08:01:45.800             3.410          1214.375
       486   13 Jun 2027 08:03:00.647   13 Jun 2027 08:03:05.541             4.894          2209.562
       487   13 Jun 2027 08:03:40.925   13 Jun 2027 08:03:44.099             3.174          1096.750
       488   13 Jun 2027 08:04:02.749   13 Jun 2027 08:04:03.586             0.837           412.375
       489   13 Jun 2027 08:04:21.548   13 Jun 2027 08:04:22.918             1.370           561.313
       490   13 Jun 2027 09:33:29.874   13 Jun 2027 09:33:48.163            18.289          7690.656
       491   13 Jun 2027 09:34:51.432   13 Jun 2027 09:34:52.401             0.969           391.406
       492   13 Jun 2027 09:34:56.698   13 Jun 2027 09:34:58.075             1.377           134.281
       493   13 Jun 2027 09:35:47.328   13 Jun 2027 09:35:50.267             2.939          1121.281
       494   13 Jun 2027 09:35:59.425   13 Jun 2027 09:36:00.490             1.065            77.344
       495   13 Jun 2027 09:36:23.191   13 Jun 2027 09:36:32.214             9.023           559.750
       496   13 Jun 2027 09:36:42.496   13 Jun 2027 09:36:48.540             6.044           321.313
       497   13 Jun 2027 09:37:00.552   13 Jun 2027 09:37:02.453             1.901           142.750
       498   13 Jun 2027 09:37:42.111   13 Jun 2027 09:37:48.272             6.161           973.281
       499   13 Jun 2027 09:37:59.948   13 Jun 2027 09:38:00.175             0.227           113.500
       500   13 Jun 2027 09:38:14.206   13 Jun 2027 09:38:15.264             1.058           441.594
       501   13 Jun 2027 09:38:48.741   13 Jun 2027 09:38:50.767             2.026           766.625
       502   13 Jun 2027 09:40:05.006   13 Jun 2027 09:40:09.639             4.633          1675.969
       503   13 Jun 2027 11:10:27.171   13 Jun 2027 11:10:43.787            16.616          7658.312
       504   13 Jun 2027 11:10:50.894   13 Jun 2027 11:10:51.800             0.906           222.094
       505   13 Jun 2027 11:11:20.208   13 Jun 2027 11:11:24.732             4.524           887.750
       506   13 Jun 2027 11:12:17.886   13 Jun 2027 11:12:20.866             2.980          1109.531
       507   13 Jun 2027 11:13:24.185   13 Jun 2027 11:13:30.824             6.639          1978.719
       508   13 Jun 2027 11:13:50.441   13 Jun 2027 11:13:53.285             2.844            75.625
       509   13 Jun 2027 11:14:36.598   13 Jun 2027 11:14:39.116             2.518           909.188
       510   13 Jun 2027 11:15:21.290   13 Jun 2027 11:15:25.438             4.148          1230.437
