uniorb/output/strategy_2/Camera/Camera_KinoSat_111308.txt

KinoSat_111308
-------------------------
    Access    *     Start Time (UTCG)     *     Stop Time (UTCG)  *   Duration (s) *   Data (Mbytes)
         1   01 Jun 2027 03:00:00.000   01 Jun 2027 03:00:38.579            38.579         19289.500
         2   01 Jun 2027 03:00:44.331   01 Jun 2027 03:00:47.959             3.628          1814.000
         3   01 Jun 2027 03:00:50.541   01 Jun 2027 03:00:57.356             6.815          3407.500
         4   01 Jun 2027 03:02:19.613   01 Jun 2027 03:02:19.613             0.000             0.000
         5   01 Jun 2027 03:02:34.357   01 Jun 2027 03:03:02.562            28.205         14102.500
         6   01 Jun 2027 03:03:50.189   01 Jun 2027 03:04:28.110            37.921         18960.500
         7   01 Jun 2027 03:05:02.934   01 Jun 2027 03:05:42.929            39.995         19997.500
         8   01 Jun 2027 04:23:34.973   01 Jun 2027 04:23:58.611            23.638         11819.000
         9   01 Jun 2027 04:24:36.686   01 Jun 2027 04:24:49.456            12.770          6385.000
        10   01 Jun 2027 04:35:02.807   01 Jun 2027 04:36:41.599            98.792         49396.000
        11   01 Jun 2027 05:57:42.204   01 Jun 2027 05:58:41.194            58.990         29495.000
        12   01 Jun 2027 05:59:17.909   01 Jun 2027 05:59:23.920             6.011          3005.500
        13   01 Jun 2027 05:59:49.449   01 Jun 2027 05:59:49.449             0.000             0.000
        14   01 Jun 2027 06:01:20.489   01 Jun 2027 06:01:34.573            14.084          7042.000
        15   01 Jun 2027 07:33:03.192   01 Jun 2027 07:34:00.476            57.284         28642.000
        16   01 Jun 2027 07:34:34.246   01 Jun 2027 07:36:23.696           109.450         54725.000
        17   01 Jun 2027 07:38:29.263   01 Jun 2027 07:38:57.762            28.499         14249.500
        18   01 Jun 2027 09:09:31.637   01 Jun 2027 09:11:11.042            99.405         49702.500
        19   01 Jun 2027 09:11:44.515   01 Jun 2027 09:11:47.707             3.192          1596.000
        20   01 Jun 2027 09:12:58.265   01 Jun 2027 09:13:12.688            14.423          7211.500
        21   01 Jun 2027 09:15:27.548   01 Jun 2027 09:16:10.896            43.348         21674.000
        22   01 Jun 2027 09:16:14.105   01 Jun 2027 09:16:30.901            16.796          8398.000
        23   01 Jun 2027 10:46:37.213   01 Jun 2027 10:48:10.620            93.407         46703.500
        24   01 Jun 2027 10:50:02.591   01 Jun 2027 10:50:35.956            33.365         16682.500
        25   01 Jun 2027 10:52:15.006   01 Jun 2027 10:52:26.469            11.463          5731.500
        26   01 Jun 2027 10:52:27.823   01 Jun 2027 10:52:36.253             8.430          4215.000
        27   02 Jun 2027 03:10:32.566   02 Jun 2027 03:12:57.765           145.199         72599.500
        28   02 Jun 2027 03:14:19.308   02 Jun 2027 03:14:36.663            17.355          8677.500
        29   02 Jun 2027 03:15:56.897   02 Jun 2027 03:16:00.152             3.255          1627.500
        30   02 Jun 2027 03:16:39.009   02 Jun 2027 03:17:22.856            43.847         21923.500
        31   02 Jun 2027 04:34:49.928   02 Jun 2027 04:35:44.972            55.044         27522.000
        32   02 Jun 2027 04:47:02.098   02 Jun 2027 04:48:02.006            59.908         29954.000
        33   02 Jun 2027 06:09:18.301   02 Jun 2027 06:10:25.037            66.736         33368.000
        34   02 Jun 2027 06:11:43.490   02 Jun 2027 06:11:48.304             4.814          2407.000
        35   02 Jun 2027 06:12:03.958   02 Jun 2027 06:12:12.483             8.525          4262.500
        36   02 Jun 2027 06:13:36.972   02 Jun 2027 06:13:48.775            11.803          5901.500
        37   02 Jun 2027 07:44:12.225   02 Jun 2027 07:46:11.744           119.519         59759.500
        38   02 Jun 2027 07:48:07.754   02 Jun 2027 07:48:12.388             4.634          2317.000
        39   02 Jun 2027 07:49:30.442   02 Jun 2027 07:50:04.399            33.957         16978.500
        40   02 Jun 2027 07:51:12.843   02 Jun 2027 07:51:12.843             0.000             0.000
        41   02 Jun 2027 07:52:14.887   02 Jun 2027 07:52:31.660            16.773          8386.500
        42   02 Jun 2027 09:21:45.714   02 Jun 2027 09:22:43.176            57.462         28731.000
        43   02 Jun 2027 09:22:48.523   02 Jun 2027 09:22:50.771             2.248           866.437
        44   02 Jun 2027 09:23:29.335   02 Jun 2027 09:23:32.977             3.642           786.969
        45   02 Jun 2027 09:25:09.091   02 Jun 2027 09:25:13.262             4.171          2085.500
        46   02 Jun 2027 09:26:00.733   02 Jun 2027 09:26:10.524             9.791          2073.000
        47   02 Jun 2027 09:26:57.553   02 Jun 2027 09:27:01.440             3.887          1388.719
        48   02 Jun 2027 09:28:14.447   02 Jun 2027 09:28:21.113             6.666          2034.781
        49   02 Jun 2027 10:58:28.191   02 Jun 2027 10:58:46.423            18.232          8132.625
        50   02 Jun 2027 11:00:17.686   02 Jun 2027 11:00:22.386             4.700          1356.219
        51   02 Jun 2027 11:01:08.920   02 Jun 2027 11:01:10.562             1.642           638.281
        52   02 Jun 2027 11:02:05.140   02 Jun 2027 11:02:09.633             4.493          1616.937
        53   02 Jun 2027 11:02:33.056   02 Jun 2027 11:02:35.608             2.552           642.750
        54   02 Jun 2027 11:02:45.112   02 Jun 2027 11:02:48.004             2.892           297.000
        55   02 Jun 2027 11:02:53.159   02 Jun 2027 11:02:55.224             2.065           161.094
        56   02 Jun 2027 11:03:22.085   02 Jun 2027 11:03:24.537             2.452           829.000
        57   02 Jun 2027 11:03:54.659   02 Jun 2027 11:04:02.147             7.488           941.313
        58   02 Jun 2027 11:04:35.861   02 Jun 2027 11:04:38.274             2.413           775.938
        59   03 Jun 2027 03:22:36.444   03 Jun 2027 03:26:08.702           212.258        106129.000
        60   03 Jun 2027 03:29:18.529   03 Jun 2027 03:29:18.529             0.000             0.000
        61   03 Jun 2027 04:46:55.822   03 Jun 2027 04:47:36.694            40.872         20436.000
        62   03 Jun 2027 04:59:16.093   03 Jun 2027 04:59:36.290            20.197         10098.500
        63   03 Jun 2027 06:20:47.822   03 Jun 2027 06:21:35.096            47.274         23549.969
        64   03 Jun 2027 06:21:52.587   03 Jun 2027 06:21:54.462             1.875           273.687
        65   03 Jun 2027 06:23:07.055   03 Jun 2027 06:23:09.910             2.855          1427.500
        66   03 Jun 2027 06:23:22.173   03 Jun 2027 06:23:24.076             1.903           574.906
        67   03 Jun 2027 06:23:38.990   03 Jun 2027 06:23:40.691             1.701           235.687
        68   03 Jun 2027 06:23:51.558   03 Jun 2027 06:23:57.076             5.518           339.594
        69   03 Jun 2027 06:25:04.644   03 Jun 2027 06:25:07.470             2.826          1397.656
        70   03 Jun 2027 06:25:34.368   03 Jun 2027 06:25:34.368             0.000             0.000
        71   03 Jun 2027 06:25:39.820   03 Jun 2027 06:25:40.902             1.082           225.312
        72   03 Jun 2027 07:55:42.899   03 Jun 2027 07:55:50.761             7.862          3905.000
        73   03 Jun 2027 07:56:42.466   03 Jun 2027 07:56:45.634             3.168          1244.563
        74   03 Jun 2027 07:58:17.722   03 Jun 2027 07:58:20.931             3.209           973.844
        75   03 Jun 2027 07:58:42.454   03 Jun 2027 07:58:43.200             0.746           209.969
        76   03 Jun 2027 08:00:12.564   03 Jun 2027 08:00:24.405            11.841          2009.562
        77   03 Jun 2027 08:01:33.855   03 Jun 2027 08:01:45.874            12.019          2170.312
        78   03 Jun 2027 08:02:40.191   03 Jun 2027 08:02:43.444             3.253          1594.281
        79   03 Jun 2027 08:02:44.987   03 Jun 2027 08:02:46.596             1.609            25.094
        80   03 Jun 2027 08:02:59.220   03 Jun 2027 08:03:00.710             1.490           353.219
        81   03 Jun 2027 08:03:43.961   03 Jun 2027 08:03:47.451             3.490          1242.625
        82   03 Jun 2027 08:04:36.928   03 Jun 2027 08:04:41.068             4.140          1385.156
        83   03 Jun 2027 09:33:39.765   03 Jun 2027 09:33:54.563            14.798          6391.875
        84   03 Jun 2027 09:34:35.235   03 Jun 2027 09:34:40.110             4.875          1271.000
        85   03 Jun 2027 09:35:10.090   03 Jun 2027 09:35:10.677             0.587           278.813
        86   03 Jun 2027 09:35:36.677   03 Jun 2027 09:35:39.045             2.368           812.500
        87   03 Jun 2027 09:36:03.714   03 Jun 2027 09:36:05.958             2.244           770.281
        88   03 Jun 2027 09:36:57.810   03 Jun 2027 09:36:59.621             1.811           814.594
        89   03 Jun 2027 09:37:19.202   03 Jun 2027 09:37:20.838             1.636           611.906
        90   03 Jun 2027 09:37:48.116   03 Jun 2027 09:37:49.633             1.517           526.594
        91   03 Jun 2027 09:38:11.951   03 Jun 2027 09:38:16.191             4.240           697.438
        92   03 Jun 2027 09:38:41.993   03 Jun 2027 09:38:44.408             2.415           422.250
        93   03 Jun 2027 09:38:54.302   03 Jun 2027 09:38:54.302             0.000             0.000
        94   03 Jun 2027 09:39:04.601   03 Jun 2027 09:39:06.305             1.704           631.031
        95   03 Jun 2027 09:40:27.409   03 Jun 2027 09:40:32.759             5.350          2534.500
        96   03 Jun 2027 11:10:32.031   03 Jun 2027 11:10:35.423             3.392          1696.000
        97   03 Jun 2027 11:10:40.627   03 Jun 2027 11:10:52.445            11.818          4928.187
        98   03 Jun 2027 11:13:11.960   03 Jun 2027 11:13:18.030             6.070          1430.375
        99   03 Jun 2027 11:14:59.289   03 Jun 2027 11:15:07.101             7.812          3080.094
       100   03 Jun 2027 11:16:34.617   03 Jun 2027 11:16:40.915             6.298          2355.188
       101   04 Jun 2027 03:35:02.621   04 Jun 2027 03:38:38.979           216.358        108179.000
       102   04 Jun 2027 03:39:56.934   04 Jun 2027 03:39:56.934             0.000             0.000
       103   04 Jun 2027 04:58:51.993   04 Jun 2027 05:00:02.698            70.705         35352.500
       104   04 Jun 2027 06:34:51.149   04 Jun 2027 06:35:19.582            28.433         13690.344
       105   04 Jun 2027 06:36:20.007   04 Jun 2027 06:36:28.114             8.107          1281.719
       106   04 Jun 2027 06:37:18.488   04 Jun 2027 06:37:22.233             3.745          1512.187
       107   04 Jun 2027 06:37:42.180   04 Jun 2027 06:37:42.180             0.000             0.000
       108   04 Jun 2027 06:37:44.089   04 Jun 2027 06:37:49.604             5.515           418.875
       109   04 Jun 2027 08:08:36.816   04 Jun 2027 08:08:57.103            20.287          5330.094
       110   04 Jun 2027 08:10:20.795   04 Jun 2027 08:10:26.860             6.065           867.500
       111   04 Jun 2027 08:11:00.797   04 Jun 2027 08:11:04.157             3.360           374.875
       112   04 Jun 2027 08:11:59.544   04 Jun 2027 08:12:10.805            11.261          1700.656
       113   04 Jun 2027 08:13:15.546   04 Jun 2027 08:13:20.121             4.575          1978.469
       114   04 Jun 2027 08:13:35.590   04 Jun 2027 08:13:43.933             8.343           291.625
       115   04 Jun 2027 08:14:14.789   04 Jun 2027 08:14:23.964             9.175           945.625
       116   04 Jun 2027 08:14:37.608   04 Jun 2027 08:14:42.150             4.542            88.344
       117   04 Jun 2027 08:15:12.001   04 Jun 2027 08:15:13.095             1.094             4.969
       118   04 Jun 2027 08:15:31.332   04 Jun 2027 08:15:32.828             1.496           569.906
       119   04 Jun 2027 08:16:13.375   04 Jun 2027 08:16:15.482             2.107          1034.969
       120   04 Jun 2027 08:16:31.062   04 Jun 2027 08:16:34.237             3.175           232.844
       121   04 Jun 2027 09:46:00.341   04 Jun 2027 09:46:13.934            13.593          5714.406
       122   04 Jun 2027 09:49:50.487   04 Jun 2027 09:50:02.177            11.690          4686.562
       123   04 Jun 2027 09:50:52.696   04 Jun 2027 09:50:55.882             3.186           619.062
       124   04 Jun 2027 09:51:12.989   04 Jun 2027 09:51:13.939             0.950           475.000
       125   04 Jun 2027 09:52:05.479   04 Jun 2027 09:52:13.996             8.517          1618.594
       126   04 Jun 2027 09:52:42.349   04 Jun 2027 09:52:43.652             1.303           651.500
       127   04 Jun 2027 11:23:04.561   04 Jun 2027 11:23:19.268            14.707          7139.781
       128   04 Jun 2027 11:24:30.472   04 Jun 2027 11:24:35.397             4.925          2184.875
       129   04 Jun 2027 11:24:50.040   04 Jun 2027 11:24:52.299             2.259           408.875
       130   04 Jun 2027 11:24:55.171   04 Jun 2027 11:24:56.733             1.562            82.219
       131   04 Jun 2027 11:25:17.504   04 Jun 2027 11:25:17.843             0.339           169.500
       132   04 Jun 2027 11:25:32.110   04 Jun 2027 11:25:34.546             2.436           557.531
       133   04 Jun 2027 11:26:34.709   04 Jun 2027 11:26:38.346             3.637          1818.500
       134   04 Jun 2027 11:27:10.488   04 Jun 2027 11:27:15.288             4.800          1035.844
       135   04 Jun 2027 11:28:32.385   04 Jun 2027 11:28:35.603             3.218          1609.000
       136   05 Jun 2027 03:47:21.527   05 Jun 2027 03:50:55.708           214.181        107090.500
       137   05 Jun 2027 03:51:31.693   05 Jun 2027 03:51:31.693             0.000             0.000
       138   05 Jun 2027 05:10:43.521   05 Jun 2027 05:11:42.206            58.685         29342.500
       139   05 Jun 2027 06:47:05.569   05 Jun 2027 06:47:52.582            47.013         22548.188
       140   05 Jun 2027 06:48:33.985   05 Jun 2027 06:48:39.258             5.273          1124.656
       141   05 Jun 2027 06:49:06.466   05 Jun 2027 06:49:09.911             3.445           728.000
       142   05 Jun 2027 06:49:58.294   05 Jun 2027 06:50:04.020             5.726          1511.969
       143   05 Jun 2027 08:21:09.579   05 Jun 2027 08:21:19.343             9.764          4636.156
       144   05 Jun 2027 08:22:56.419   05 Jun 2027 08:23:01.113             4.694          1876.719
       145   05 Jun 2027 08:24:01.388   05 Jun 2027 08:24:05.991             4.603          1757.000
       146   05 Jun 2027 08:24:57.175   05 Jun 2027 08:25:02.491             5.316           904.750
       147   05 Jun 2027 08:25:51.568   05 Jun 2027 08:25:51.568             0.000             0.000
       148   05 Jun 2027 08:26:14.905   05 Jun 2027 08:26:20.851             5.946          2238.094
       149   05 Jun 2027 08:26:35.153   05 Jun 2027 08:26:37.882             2.729           420.031
       150   05 Jun 2027 08:27:48.532   05 Jun 2027 08:27:51.511             2.979          1446.906
       151   05 Jun 2027 08:28:31.350   05 Jun 2027 08:28:34.127             2.777          1190.562
       152   05 Jun 2027 08:29:05.700   05 Jun 2027 08:29:07.085             1.385           692.500
       153   05 Jun 2027 09:58:14.154   05 Jun 2027 09:58:29.911            15.757          5858.875
       154   05 Jun 2027 09:59:57.574   05 Jun 2027 10:00:00.393             2.819            60.281
       155   05 Jun 2027 10:00:39.924   05 Jun 2027 10:00:41.531             1.607           176.344
       156   05 Jun 2027 10:00:59.794   05 Jun 2027 10:01:03.317             3.523           502.781
       157   05 Jun 2027 10:02:14.505   05 Jun 2027 10:02:20.899             6.394          2224.625
       158   05 Jun 2027 10:02:57.740   05 Jun 2027 10:02:59.270             1.530           503.500
       159   05 Jun 2027 10:04:17.633   05 Jun 2027 10:04:23.615             5.982          2324.219
       160   05 Jun 2027 10:04:34.935   05 Jun 2027 10:04:38.229             3.294           295.844
       161   05 Jun 2027 11:35:10.159   05 Jun 2027 11:35:24.909            14.750          7230.969
       162   05 Jun 2027 11:36:48.492   05 Jun 2027 11:36:53.428             4.936          2229.250
       163   05 Jun 2027 11:37:20.645   05 Jun 2027 11:37:28.734             8.089           850.531
       164   05 Jun 2027 11:37:46.032   05 Jun 2027 11:37:48.517             2.485           383.062
       165   05 Jun 2027 11:38:31.495   05 Jun 2027 11:38:36.226             4.731          1191.781
       166   05 Jun 2027 11:39:24.026   05 Jun 2027 11:39:27.481             3.455          1390.063
       167   06 Jun 2027 03:59:50.265   06 Jun 2027 04:03:05.500           195.235         97617.500
       168   06 Jun 2027 05:22:47.120   06 Jun 2027 05:23:44.787            57.667         28833.500
       169   06 Jun 2027 05:23:53.361   06 Jun 2027 05:23:53.361             0.000             0.000
       170   06 Jun 2027 06:59:16.249   06 Jun 2027 07:00:12.108            55.859         27417.656
       171   06 Jun 2027 07:00:25.559   06 Jun 2027 07:00:29.458             3.899           420.344
       172   06 Jun 2027 07:01:46.203   06 Jun 2027 07:01:49.582             3.379          1550.219
       173   06 Jun 2027 08:34:21.216   06 Jun 2027 08:34:30.831             9.615          4538.906
       174   06 Jun 2027 08:35:33.547   06 Jun 2027 08:35:33.547             0.000             0.000
       175   06 Jun 2027 08:36:02.899   06 Jun 2027 08:36:09.104             6.205          2279.313
       176   06 Jun 2027 08:37:57.806   06 Jun 2027 08:38:04.011             6.205          2284.687
       177   06 Jun 2027 08:38:31.002   06 Jun 2027 08:38:35.853             4.851           843.469
       178   06 Jun 2027 08:39:18.159   06 Jun 2027 08:39:20.426             2.267           332.594
       179   06 Jun 2027 08:39:25.086   06 Jun 2027 08:39:26.950             1.864            87.969
       180   06 Jun 2027 08:40:46.249   06 Jun 2027 08:40:53.767             7.518          1862.219
       181   06 Jun 2027 10:10:43.204   06 Jun 2027 10:10:57.876            14.672          6203.844
       182   06 Jun 2027 10:12:06.092   06 Jun 2027 10:12:13.394             7.302          1833.344
       183   06 Jun 2027 10:13:28.429   06 Jun 2027 10:13:32.971             4.542          2043.500
       184   06 Jun 2027 10:13:49.390   06 Jun 2027 10:13:50.570             1.180           382.094
       185   06 Jun 2027 10:14:40.166   06 Jun 2027 10:14:47.222             7.056          1289.625
       186   06 Jun 2027 10:15:02.379   06 Jun 2027 10:15:07.437             5.058           473.656
       187   06 Jun 2027 10:15:19.609   06 Jun 2027 10:15:20.629             1.020           380.375
       188   06 Jun 2027 10:16:11.584   06 Jun 2027 10:16:20.119             8.535          1412.844
       189   06 Jun 2027 11:48:13.451   06 Jun 2027 11:48:25.678            12.227          6113.500
       190   06 Jun 2027 11:48:29.400   06 Jun 2027 11:48:30.168             0.768           371.688
       191   06 Jun 2027 11:48:34.841   06 Jun 2027 11:48:38.831             3.990           146.031
       192   06 Jun 2027 11:49:09.443   06 Jun 2027 11:49:12.092             2.649           707.688
       193   06 Jun 2027 11:49:46.088   06 Jun 2027 11:49:47.894             1.806           789.625
       194   06 Jun 2027 11:50:07.103   06 Jun 2027 11:50:09.701             2.598           201.594
       195   06 Jun 2027 11:51:22.462   06 Jun 2027 11:51:26.496             4.034          2017.000
       196   06 Jun 2027 11:52:10.560   06 Jun 2027 11:52:13.891             3.331          1633.781
       197   06 Jun 2027 11:52:38.651   06 Jun 2027 11:52:38.651             0.000             0.000
       198   07 Jun 2027 04:11:23.803   07 Jun 2027 04:12:00.710            36.907         18453.500
       199   07 Jun 2027 04:12:13.352   07 Jun 2027 04:14:46.075           152.723         76361.500
       200   07 Jun 2027 05:34:43.268   07 Jun 2027 05:35:37.841            54.573         27286.500
       201   07 Jun 2027 05:35:47.217   07 Jun 2027 05:36:00.767            13.550          6775.000
       202   07 Jun 2027 07:11:21.046   07 Jun 2027 07:12:24.038            62.992         29286.624
       203   07 Jun 2027 07:13:16.143   07 Jun 2027 07:13:19.061             2.918          1459.000
       204   07 Jun 2027 07:13:21.213   07 Jun 2027 07:13:24.307             3.094           236.531
       205   07 Jun 2027 07:13:56.306   07 Jun 2027 07:13:56.339             0.033            16.500
       206   07 Jun 2027 07:14:00.442   07 Jun 2027 07:14:02.045             1.603           713.875
       207   07 Jun 2027 08:46:31.458   07 Jun 2027 08:46:42.953            11.495          5412.750
       208   07 Jun 2027 08:46:45.806   07 Jun 2027 08:46:47.148             1.342            48.562
       209   07 Jun 2027 08:47:03.712   07 Jun 2027 08:47:04.053             0.341            80.906
       210   07 Jun 2027 08:47:28.382   07 Jun 2027 08:47:29.724             1.342           157.719
       211   07 Jun 2027 08:47:54.292   07 Jun 2027 08:47:55.470             1.178           422.375
       212   07 Jun 2027 08:48:04.020   07 Jun 2027 08:48:06.848             2.828            71.937
       213   07 Jun 2027 08:49:25.627   07 Jun 2027 08:49:31.896             6.269          2065.312
       214   07 Jun 2027 08:50:32.773   07 Jun 2027 08:50:36.658             3.885          1827.312
       215   07 Jun 2027 08:51:02.731   07 Jun 2027 08:51:09.422             6.691           793.750
       216   07 Jun 2027 08:51:54.898   07 Jun 2027 08:51:58.524             3.626          1193.406
       217   07 Jun 2027 08:52:30.322   07 Jun 2027 08:52:30.796             0.474           237.000
       218   07 Jun 2027 08:52:42.736   07 Jun 2027 08:52:45.202             2.466          1116.250
       219   07 Jun 2027 10:22:45.733   07 Jun 2027 10:22:58.702            12.969          6322.125
       220   07 Jun 2027 10:23:28.897   07 Jun 2027 10:23:30.888             1.991           870.437
       221   07 Jun 2027 10:24:41.788   07 Jun 2027 10:24:46.458             4.670          2046.156
       222   07 Jun 2027 10:26:06.686   07 Jun 2027 10:26:15.124             8.438          1990.750
       223   07 Jun 2027 10:26:36.861   07 Jun 2027 10:26:37.246             0.385           192.500
       224   07 Jun 2027 10:26:53.863   07 Jun 2027 10:26:59.608             5.745          1006.062
       225   07 Jun 2027 10:27:15.968   07 Jun 2027 10:27:20.680             4.712           294.688
       226   07 Jun 2027 10:27:55.535   07 Jun 2027 10:28:02.129             6.594           756.125
       227   08 Jun 2027 04:12:32.087   08 Jun 2027 04:12:47.747            15.660          7830.000
       228   08 Jun 2027 04:23:20.734   08 Jun 2027 04:26:47.830           207.096        103548.000
       229   08 Jun 2027 05:47:19.205   08 Jun 2027 05:47:49.462            30.257         15128.500
       230   08 Jun 2027 05:47:59.349   08 Jun 2027 05:48:05.355             6.006          3003.000
       231   08 Jun 2027 07:23:04.851   08 Jun 2027 07:24:00.824            55.973         27954.219
       232   08 Jun 2027 07:24:17.421   08 Jun 2027 07:24:21.458             4.037           323.781
       233   08 Jun 2027 07:25:14.479   08 Jun 2027 07:25:14.479             0.000             0.000
       234   08 Jun 2027 07:25:54.149   08 Jun 2027 07:26:00.140             5.991          2688.469
       235   08 Jun 2027 07:26:16.659   08 Jun 2027 07:26:19.613             2.954           502.094
       236   08 Jun 2027 08:57:55.725   08 Jun 2027 08:58:05.247             9.522          4132.312
       237   08 Jun 2027 09:00:04.698   08 Jun 2027 09:00:11.658             6.960          3030.750
       238   08 Jun 2027 09:01:20.736   08 Jun 2027 09:01:24.470             3.734          1555.250
       239   08 Jun 2027 09:02:21.619   08 Jun 2027 09:02:28.525             6.906          1525.531
       240   08 Jun 2027 09:02:53.397   08 Jun 2027 09:02:55.092             1.695           550.219
       241   08 Jun 2027 09:03:25.256   08 Jun 2027 09:03:27.468             2.212           748.906
       242   08 Jun 2027 09:03:35.245   08 Jun 2027 09:03:39.087             3.842           229.250
       243   08 Jun 2027 09:03:55.266   08 Jun 2027 09:03:57.237             1.971           429.656
       244   08 Jun 2027 09:04:43.765   08 Jun 2027 09:04:49.110             5.345          1000.281
       245   08 Jun 2027 10:34:31.619   08 Jun 2027 10:34:47.521            15.902          6549.500
       246   08 Jun 2027 10:35:07.594   08 Jun 2027 10:35:09.674             2.080            95.281
       247   08 Jun 2027 10:35:42.454   08 Jun 2027 10:35:44.925             2.471           842.937
       248   08 Jun 2027 10:36:38.576   08 Jun 2027 10:36:41.984             3.408          1475.000
       249   08 Jun 2027 10:37:14.002   08 Jun 2027 10:37:15.767             1.765           880.594
       250   08 Jun 2027 10:37:43.766   08 Jun 2027 10:37:45.240             1.474           392.094
       251   08 Jun 2027 10:38:56.825   08 Jun 2027 10:39:03.094             6.269          2150.250
       252   08 Jun 2027 10:39:12.932   08 Jun 2027 10:39:14.395             1.463           186.438
       253   08 Jun 2027 10:40:31.582   08 Jun 2027 10:40:39.615             8.033          2083.094
       254   08 Jun 2027 10:40:53.220   08 Jun 2027 10:40:55.395             2.175           362.250
       255   09 Jun 2027 03:00:00.000   09 Jun 2027 03:00:17.823            17.823          8911.500
       256   09 Jun 2027 03:00:41.759   09 Jun 2027 03:00:57.501            15.742          7871.000
       257   09 Jun 2027 03:01:02.303   09 Jun 2027 03:01:23.640            21.337         10668.500
       258   09 Jun 2027 03:02:05.680   09 Jun 2027 03:02:19.860            14.180          7090.000
       259   09 Jun 2027 03:02:31.121   09 Jun 2027 03:02:34.627             3.506          1753.000
       260   09 Jun 2027 03:03:27.197   09 Jun 2027 03:04:05.862            38.665         19332.500
       261   09 Jun 2027 03:04:42.643   09 Jun 2027 03:04:45.161             2.518          1259.000
       262   09 Jun 2027 03:05:04.223   09 Jun 2027 03:05:07.616             3.393          1696.500
       263   09 Jun 2027 03:05:12.071   09 Jun 2027 03:05:59.637            47.566         23783.000
       264   09 Jun 2027 04:23:48.617   09 Jun 2027 04:24:37.835            49.218         24609.000
       265   09 Jun 2027 04:24:52.363   09 Jun 2027 04:25:05.628            13.265          6632.500
       266   09 Jun 2027 04:35:18.879   09 Jun 2027 04:36:27.078            68.199         34099.500
       267   09 Jun 2027 04:36:54.705   09 Jun 2027 04:36:57.026             2.321          1160.500
       268   09 Jun 2027 05:57:58.098   09 Jun 2027 05:58:51.409            53.311         26401.188
       269   09 Jun 2027 05:59:51.485   09 Jun 2027 05:59:54.030             2.545          1257.125
       270   09 Jun 2027 06:00:02.520   09 Jun 2027 06:00:05.109             2.589           210.313
       271   09 Jun 2027 06:01:35.231   09 Jun 2027 06:01:35.231             0.000             0.000
       272   09 Jun 2027 07:33:15.663   09 Jun 2027 07:33:31.248            15.585          6051.469
       273   09 Jun 2027 07:34:00.476   09 Jun 2027 07:34:01.204             0.728           364.000
       274   09 Jun 2027 07:34:06.585   09 Jun 2027 07:34:06.585             0.000             0.000
       275   09 Jun 2027 07:34:49.603   09 Jun 2027 07:34:53.926             4.323          1576.781
       276   09 Jun 2027 07:36:02.341   09 Jun 2027 07:36:06.378             4.037          1986.219
       277   09 Jun 2027 07:36:40.437   09 Jun 2027 07:36:41.401             0.964           482.000
       278   09 Jun 2027 07:37:49.878   09 Jun 2027 07:37:57.571             7.693          2614.688
       279   09 Jun 2027 07:38:08.485   09 Jun 2027 07:38:10.633             2.148           241.344
       280   09 Jun 2027 07:38:27.200   09 Jun 2027 07:38:29.674             2.474           403.562
       281   09 Jun 2027 07:39:18.834   09 Jun 2027 07:39:23.016             4.182          1430.437
       282   09 Jun 2027 09:09:49.087   09 Jun 2027 09:09:58.614             9.527          4170.563
       283   09 Jun 2027 09:10:08.056   09 Jun 2027 09:10:09.069             1.013           134.594
       284   09 Jun 2027 09:10:44.656   09 Jun 2027 09:10:51.736             7.080          1112.094
       285   09 Jun 2027 09:12:06.698   09 Jun 2027 09:12:08.895             2.197          1053.844
       286   09 Jun 2027 09:12:35.363   09 Jun 2027 09:12:39.437             4.074           304.063
       287   09 Jun 2027 09:13:10.638   09 Jun 2027 09:13:13.177             2.539           749.750
       288   09 Jun 2027 09:13:24.119   09 Jun 2027 09:13:25.236             1.117           341.938
       289   09 Jun 2027 09:14:24.563   09 Jun 2027 09:14:27.705             3.142          1571.000
       290   09 Jun 2027 09:15:14.653   09 Jun 2027 09:15:21.180             6.527          1627.250
       291   09 Jun 2027 09:15:45.340   09 Jun 2027 09:15:47.684             2.344           755.000
       292   09 Jun 2027 09:16:30.367   09 Jun 2027 09:16:32.675             2.308           792.437
       293   09 Jun 2027 10:46:52.884   09 Jun 2027 10:47:09.400            16.516          7397.656
       294   09 Jun 2027 10:48:57.107   09 Jun 2027 10:49:02.879             5.772          1331.594
       295   09 Jun 2027 10:49:40.175   09 Jun 2027 10:49:42.113             1.938           969.000
       296   09 Jun 2027 10:49:49.721   09 Jun 2027 10:49:52.336             2.615           434.250
       297   09 Jun 2027 10:50:40.190   09 Jun 2027 10:50:43.379             3.189          1423.375
       298   09 Jun 2027 10:51:08.783   09 Jun 2027 10:51:10.482             1.699           716.031
       299   09 Jun 2027 10:51:52.172   09 Jun 2027 10:51:59.208             7.036          1302.812
       300   10 Jun 2027 03:10:48.879   10 Jun 2027 03:13:14.715           145.836         72918.000
       301   10 Jun 2027 03:14:02.430   10 Jun 2027 03:14:08.644             6.214          3107.000
       302   10 Jun 2027 03:14:34.289   10 Jun 2027 03:14:36.075             1.786           893.000
       303   10 Jun 2027 03:14:52.737   10 Jun 2027 03:14:59.424             6.687          3343.500
       304   10 Jun 2027 03:16:02.759   10 Jun 2027 03:16:12.520             9.761          4880.500
       305   10 Jun 2027 03:16:32.985   10 Jun 2027 03:16:53.691            20.706         10353.000
       306   10 Jun 2027 04:35:05.576   10 Jun 2027 04:35:29.911            24.335         12167.500
       307   10 Jun 2027 04:36:38.124   10 Jun 2027 04:36:41.669             3.545          1772.500
       308   10 Jun 2027 04:37:13.387   10 Jun 2027 04:37:15.572             2.185          1092.500
       309   10 Jun 2027 04:47:18.114   10 Jun 2027 04:48:16.832            58.718         29359.000
       310   10 Jun 2027 06:09:33.947   10 Jun 2027 06:10:26.470            52.523         25141.219
       311   10 Jun 2027 06:10:30.593   10 Jun 2027 06:10:32.111             1.518            88.656
       312   10 Jun 2027 06:11:29.346   10 Jun 2027 06:11:33.180             3.834          1474.344
       313   10 Jun 2027 06:12:36.075   10 Jun 2027 06:12:42.926             6.851          1965.469
       314   10 Jun 2027 06:14:32.220   10 Jun 2027 06:14:37.840             5.620          2772.406
       315   10 Jun 2027 07:44:27.038   10 Jun 2027 07:44:36.553             9.515          4079.125
       316   10 Jun 2027 07:45:03.281   10 Jun 2027 07:45:10.516             7.235           820.875
       317   10 Jun 2027 07:45:43.602   10 Jun 2027 07:45:53.385             9.783          1011.281
       318   10 Jun 2027 07:46:08.001   10 Jun 2027 07:46:11.411             3.410           120.437
       319   10 Jun 2027 07:48:29.564   10 Jun 2027 07:48:38.155             8.591          4222.125
       320   10 Jun 2027 07:49:50.258   10 Jun 2027 07:49:57.819             7.561          2204.094
       321   10 Jun 2027 07:50:39.682   10 Jun 2027 07:50:39.682             0.000             0.000
       322   10 Jun 2027 07:51:01.888   10 Jun 2027 07:51:02.915             1.027           513.500
       323   10 Jun 2027 07:51:07.766   10 Jun 2027 07:51:10.819             3.053          1446.938
       324   10 Jun 2027 07:52:49.977   10 Jun 2027 07:52:57.253             7.276          2743.156
       325   10 Jun 2027 09:22:01.300   10 Jun 2027 09:22:10.495             9.195          4468.406
       326   10 Jun 2027 09:22:47.801   10 Jun 2027 09:22:51.738             3.937          1165.812
       327   10 Jun 2027 09:24:11.371   10 Jun 2027 09:24:12.879             1.508           418.406
       328   10 Jun 2027 09:24:44.162   10 Jun 2027 09:24:46.316             2.154           557.031
       329   10 Jun 2027 09:25:12.568   10 Jun 2027 09:25:14.464             1.896           797.031
       330   10 Jun 2027 09:25:25.684   10 Jun 2027 09:25:29.834             4.150            54.219
       331   10 Jun 2027 09:26:16.412   10 Jun 2027 09:26:25.713             9.301          1455.562
       332   10 Jun 2027 09:27:15.092   10 Jun 2027 09:27:18.048             2.956          1465.594
       333   10 Jun 2027 09:28:30.067   10 Jun 2027 09:28:35.691             5.624          2040.688
       334   10 Jun 2027 09:29:06.508   10 Jun 2027 09:29:14.176             7.668           963.031
       335   10 Jun 2027 09:29:17.093   10 Jun 2027 09:29:17.702             0.609            91.156
       336   10 Jun 2027 10:58:44.095   10 Jun 2027 10:58:58.997            14.902          6419.875
       337   10 Jun 2027 10:59:25.983   10 Jun 2027 10:59:27.455             1.472           706.219
       338   10 Jun 2027 11:00:33.369   10 Jun 2027 11:00:38.081             4.712          1390.969
       339   10 Jun 2027 11:00:43.035   10 Jun 2027 11:00:45.528             2.493            19.969
       340   10 Jun 2027 11:01:09.164   10 Jun 2027 11:01:11.152             1.988           738.625
       341   10 Jun 2027 11:02:52.577   10 Jun 2027 11:02:57.637             5.060          2530.000
       342   10 Jun 2027 11:04:03.285   10 Jun 2027 11:04:11.629             8.344          2094.281
       343   10 Jun 2027 11:05:01.961   10 Jun 2027 11:05:09.468             7.507          1503.437
       344   10 Jun 2027 11:05:20.066   10 Jun 2027 11:05:21.955             1.889           126.375
       345   11 Jun 2027 03:22:53.442   11 Jun 2027 03:26:00.870           187.428         93714.000
       346   11 Jun 2027 03:28:17.508   11 Jun 2027 03:28:22.555             5.047          2523.500
       347   11 Jun 2027 03:28:51.734   11 Jun 2027 03:29:20.299            28.565         14282.500
       348   11 Jun 2027 03:29:44.751   11 Jun 2027 03:29:47.068             2.317          1158.500
       349   11 Jun 2027 04:47:11.243   11 Jun 2027 04:47:52.519            41.276         20638.000
       350   11 Jun 2027 04:59:33.260   11 Jun 2027 04:59:51.368            18.108          9054.000
       351   11 Jun 2027 06:21:02.742   11 Jun 2027 06:21:46.414            43.672         21517.563
       352   11 Jun 2027 06:23:03.822   11 Jun 2027 06:23:08.966             5.144          2077.875
       353   11 Jun 2027 06:24:02.888   11 Jun 2027 06:24:08.993             6.105          1231.750
       354   11 Jun 2027 06:24:35.643   11 Jun 2027 06:24:37.871             2.228           832.813
       355   11 Jun 2027 06:25:04.338   11 Jun 2027 06:25:06.198             1.860           827.094
       356   11 Jun 2027 06:26:14.400   11 Jun 2027 06:26:14.400             0.000             0.000
       357   11 Jun 2027 06:26:33.926   11 Jun 2027 06:26:40.067             6.141          2642.781
       358   11 Jun 2027 07:55:57.464   11 Jun 2027 07:56:08.537            11.073          4752.000
       359   11 Jun 2027 07:56:24.792   11 Jun 2027 07:56:27.612             2.820           183.281
       360   11 Jun 2027 07:58:08.008   11 Jun 2027 07:58:16.692             8.684          2143.469
       361   11 Jun 2027 07:58:35.447   11 Jun 2027 07:58:37.308             1.861           278.500
       362   11 Jun 2027 07:58:59.444   11 Jun 2027 07:59:01.140             1.696           221.500
       363   11 Jun 2027 08:00:29.703   11 Jun 2027 08:00:40.413            10.710          1964.031
       364   11 Jun 2027 08:01:50.096   11 Jun 2027 08:02:00.627            10.531          2144.406
       365   11 Jun 2027 08:02:57.098   11 Jun 2027 08:02:59.755             2.657          1328.500
       366   11 Jun 2027 08:03:20.569   11 Jun 2027 08:03:22.721             2.152           882.812
       367   11 Jun 2027 08:03:32.271   11 Jun 2027 08:03:37.414             5.143           130.437
       368   11 Jun 2027 08:03:49.230   11 Jun 2027 08:03:53.957             4.727           269.656
       369   11 Jun 2027 08:04:36.060   11 Jun 2027 08:04:36.060             0.000             0.000
       370   11 Jun 2027 09:33:55.467   11 Jun 2027 09:34:11.313            15.846          6594.281
       371   11 Jun 2027 09:34:53.537   11 Jun 2027 09:34:59.286             5.749          1319.500
       372   11 Jun 2027 09:35:25.673   11 Jun 2027 09:35:26.901             1.228           251.406
       373   11 Jun 2027 09:36:07.586   11 Jun 2027 09:36:08.915             1.329           664.500
       374   11 Jun 2027 09:36:47.767   11 Jun 2027 09:36:51.445             3.678          1499.156
       375   11 Jun 2027 09:38:07.409   11 Jun 2027 09:38:15.712             8.303          2320.813
       376   11 Jun 2027 09:38:30.924   11 Jun 2027 09:38:34.041             3.117           378.875
       377   11 Jun 2027 09:39:17.726   11 Jun 2027 09:39:21.278             3.552          1013.938
       378   11 Jun 2027 09:39:39.926   11 Jun 2027 09:39:41.969             2.043           582.750
       379   11 Jun 2027 09:40:30.887   11 Jun 2027 09:40:34.057             3.170          1220.656
       380   11 Jun 2027 09:40:51.581   11 Jun 2027 09:40:55.300             3.719           547.625
       381   11 Jun 2027 11:10:50.528   11 Jun 2027 11:11:12.087            21.559          9038.531
       382   11 Jun 2027 11:12:25.175   11 Jun 2027 11:12:31.997             6.822           911.312
       383   11 Jun 2027 11:13:28.077   11 Jun 2027 11:13:34.680             6.603          1338.688
       384   11 Jun 2027 11:15:16.475   11 Jun 2027 11:15:24.538             8.063          3045.188
       385   11 Jun 2027 11:16:05.651   11 Jun 2027 11:16:12.412             6.761          1284.781
       386   11 Jun 2027 11:16:31.282   11 Jun 2027 11:16:32.054             0.772           189.625
       387   11 Jun 2027 11:16:55.231   11 Jun 2027 11:16:57.145             1.914           694.219
       388   12 Jun 2027 03:35:19.018   12 Jun 2027 03:38:57.327           218.309        109154.500
       389   12 Jun 2027 03:40:11.437   12 Jun 2027 03:40:11.437             0.000             0.000
       390   12 Jun 2027 04:59:07.057   12 Jun 2027 05:00:05.676            58.619         29309.500
       391   12 Jun 2027 06:35:07.271   12 Jun 2027 06:35:35.530            28.259         13885.438
       392   12 Jun 2027 06:36:12.224   12 Jun 2027 06:36:13.922             1.698           511.094
       393   12 Jun 2027 06:36:45.912   12 Jun 2027 06:36:48.943             3.031           782.344
       394   12 Jun 2027 06:37:26.185   12 Jun 2027 06:37:30.040             3.855           299.531
       395   12 Jun 2027 06:38:22.280   12 Jun 2027 06:38:24.885             2.605          1302.500
       396   12 Jun 2027 08:08:51.337   12 Jun 2027 08:09:12.122            20.785          5578.844
       397   12 Jun 2027 08:10:37.715   12 Jun 2027 08:10:43.684             5.969           877.812
       398   12 Jun 2027 08:12:16.854   12 Jun 2027 08:12:26.949            10.095          1951.719
       399   12 Jun 2027 08:13:31.222   12 Jun 2027 08:13:40.870             9.648          1934.188
       400   12 Jun 2027 08:14:51.873   12 Jun 2027 08:14:57.195             5.322          1955.687
       401   12 Jun 2027 08:15:28.212   12 Jun 2027 08:15:29.526             1.314            38.187
       402   12 Jun 2027 08:15:50.292   12 Jun 2027 08:15:51.490             1.198           569.469
       403   12 Jun 2027 08:16:28.054   12 Jun 2027 08:16:30.997             2.943          1025.125
       404   12 Jun 2027 09:46:16.866   12 Jun 2027 09:46:29.007            12.141          5313.125
       405   12 Jun 2027 09:48:03.515   12 Jun 2027 09:48:07.135             3.620           515.594
       406   12 Jun 2027 09:48:48.727   12 Jun 2027 09:48:59.635            10.908          1213.812
       407   12 Jun 2027 09:49:16.361   12 Jun 2027 09:49:16.750             0.389            78.563
       408   12 Jun 2027 09:50:45.606   12 Jun 2027 09:50:48.843             3.237          1618.500
       409   12 Jun 2027 09:50:49.375   12 Jun 2027 09:50:51.756             2.381           652.094
       410   12 Jun 2027 09:51:18.337   12 Jun 2027 09:51:20.913             2.576           820.281
       411   12 Jun 2027 09:51:31.314   12 Jun 2027 09:51:33.212             1.898           275.344
       412   12 Jun 2027 09:51:50.273   12 Jun 2027 09:51:51.158             0.885           125.125
       413   12 Jun 2027 09:52:18.798   12 Jun 2027 09:52:29.443            10.645           858.469
       414   12 Jun 2027 09:53:07.354   12 Jun 2027 09:53:10.065             2.711          1158.562
       415   12 Jun 2027 11:23:20.406   12 Jun 2027 11:23:35.038            14.632          7316.000
       416   12 Jun 2027 11:24:46.539   12 Jun 2027 11:24:50.997             4.458          2229.000
       417   12 Jun 2027 11:25:04.486   12 Jun 2027 11:25:07.300             2.814           795.063
       418   12 Jun 2027 11:25:13.414   12 Jun 2027 11:25:13.437             0.023            11.500
       419   12 Jun 2027 11:25:46.771   12 Jun 2027 11:25:49.460             2.689          1137.750
       420   12 Jun 2027 11:26:50.575   12 Jun 2027 11:26:55.766             5.191          1832.594
       421   12 Jun 2027 11:27:23.135   12 Jun 2027 11:27:24.422             1.287           528.000
       422   12 Jun 2027 11:28:08.630   12 Jun 2027 11:28:12.575             3.945          1355.406
       423   12 Jun 2027 11:28:35.089   12 Jun 2027 11:28:37.161             2.072           525.875
       424   12 Jun 2027 11:29:10.282   12 Jun 2027 11:29:10.827             0.545           272.500
       425   13 Jun 2027 03:47:37.445   13 Jun 2027 03:50:05.186           147.741         73870.500
       426   13 Jun 2027 03:50:25.166   13 Jun 2027 03:51:18.195            53.029         26514.500
       427   13 Jun 2027 05:10:58.646   13 Jun 2027 05:12:08.080            69.434         34717.000
       428   13 Jun 2027 05:12:15.440   13 Jun 2027 05:12:19.494             4.054          2027.000
       429   13 Jun 2027 06:47:21.951   13 Jun 2027 06:48:10.047            48.096         23531.250
       430   13 Jun 2027 06:48:41.286   13 Jun 2027 06:48:44.832             3.546           795.375
       431   13 Jun 2027 06:48:59.080   13 Jun 2027 06:49:03.928             4.848           294.406
       432   13 Jun 2027 06:50:14.527   13 Jun 2027 06:50:18.691             4.164          2061.937
       433   13 Jun 2027 08:21:26.485   13 Jun 2027 08:21:38.073            11.588          5257.125
       434   13 Jun 2027 08:22:14.586   13 Jun 2027 08:22:16.370             1.784           152.594
       435   13 Jun 2027 08:23:20.532   13 Jun 2027 08:23:21.191             0.659           281.219
       436   13 Jun 2027 08:24:12.082   13 Jun 2027 08:24:16.123             4.041          1279.812
       437   13 Jun 2027 08:24:52.669   13 Jun 2027 08:24:52.669             0.000             0.000
       438   13 Jun 2027 08:25:09.649   13 Jun 2027 08:25:18.243             8.594          1592.906
       439   13 Jun 2027 08:26:12.609   13 Jun 2027 08:26:16.550             3.941          1684.344
       440   13 Jun 2027 08:26:36.553   13 Jun 2027 08:26:38.486             1.933           387.312
       441   13 Jun 2027 08:26:48.986   13 Jun 2027 08:26:50.380             1.394           328.125
       442   13 Jun 2027 08:27:22.520   13 Jun 2027 08:27:24.763             2.243          1004.375
       443   13 Jun 2027 08:27:43.069   13 Jun 2027 08:27:44.013             0.944           405.563
       444   13 Jun 2027 08:28:10.549   13 Jun 2027 08:28:11.226             0.677           232.125
       445   13 Jun 2027 08:28:35.944   13 Jun 2027 08:28:35.944             0.000             0.000
       446   13 Jun 2027 08:28:53.695   13 Jun 2027 08:28:57.515             3.820          1327.156
       447   13 Jun 2027 08:29:21.438   13 Jun 2027 08:29:24.118             2.680           671.000
       448   13 Jun 2027 09:58:29.862   13 Jun 2027 09:58:45.022            15.160          5683.906
       449   13 Jun 2027 10:00:49.926   13 Jun 2027 10:00:53.540             3.614          1231.906
       450   13 Jun 2027 10:01:24.508   13 Jun 2027 10:01:25.975             1.467           588.500
       451   13 Jun 2027 10:02:27.979   13 Jun 2027 10:02:31.734             3.755          1776.625
       452   13 Jun 2027 10:02:58.701   13 Jun 2027 10:03:02.326             3.625           348.500
       453   13 Jun 2027 10:04:32.916   13 Jun 2027 10:04:35.464             2.548          1274.000
       454   13 Jun 2027 10:05:03.197   13 Jun 2027 10:05:08.667             5.470          1926.375
       455   13 Jun 2027 10:05:12.709   13 Jun 2027 10:05:12.894             0.185            39.719
       456   13 Jun 2027 11:35:26.495   13 Jun 2027 11:35:42.698            16.203          8101.500
       457   13 Jun 2027 11:36:36.300   13 Jun 2027 11:36:40.352             4.052          2001.969
       458   13 Jun 2027 11:36:48.169   13 Jun 2027 11:36:48.674             0.505           232.063
       459   13 Jun 2027 11:37:36.597   13 Jun 2027 11:37:44.932             8.335          1497.594
       460   13 Jun 2027 11:37:48.435   13 Jun 2027 11:37:50.438             2.003           100.969
       461   13 Jun 2027 11:39:44.316   13 Jun 2027 11:39:53.200             8.884          3546.656
