uniorb/output/strategy_2/Camera/Camera_KinoSat_111203.txt

KinoSat_111203
-------------------------
    Access    *     Start Time (UTCG)     *     Stop Time (UTCG)  *   Duration (s) *   Data (Mbytes)
         1   01 Jun 2027 03:50:59.828   01 Jun 2027 03:51:36.543            36.715         18357.500
         2   01 Jun 2027 03:52:05.285   01 Jun 2027 03:54:22.736           137.451         68725.500
         3   01 Jun 2027 05:15:05.176   01 Jun 2027 05:16:30.320            85.144         42572.000
         4   01 Jun 2027 06:50:50.826   01 Jun 2027 06:53:32.272           161.446         80723.000
         5   01 Jun 2027 06:54:10.347   01 Jun 2027 06:54:19.374             9.027          4513.500
         6   01 Jun 2027 08:25:48.436   01 Jun 2027 08:28:18.780           150.344         75172.000
         7   01 Jun 2027 08:28:47.015   01 Jun 2027 08:28:57.827            10.812          5406.000
         8   01 Jun 2027 08:30:09.460   01 Jun 2027 08:30:33.921            24.461         12230.500
         9   01 Jun 2027 08:31:05.452   01 Jun 2027 08:31:18.894            13.442          6721.000
        10   01 Jun 2027 08:32:25.075   01 Jun 2027 08:32:44.283            19.208          9604.000
        11   01 Jun 2027 10:02:00.555   01 Jun 2027 10:04:27.355           146.800         73400.000
        12   01 Jun 2027 10:06:51.900   01 Jun 2027 10:07:05.267            13.367          6683.500
        13   01 Jun 2027 11:40:00.965   01 Jun 2027 11:41:52.061           111.096         55548.000
        14   01 Jun 2027 11:42:28.776   01 Jun 2027 11:42:30.331             1.555           777.500
        15   02 Jun 2027 03:51:52.424   02 Jun 2027 03:52:31.136            38.712         19356.000
        16   02 Jun 2027 04:02:55.560   02 Jun 2027 04:04:39.414           103.854         51927.000
        17   02 Jun 2027 04:04:47.289   02 Jun 2027 04:06:15.522            88.233         44116.500
        18   02 Jun 2027 05:25:54.902   02 Jun 2027 05:26:20.837            25.935         12967.500
        19   02 Jun 2027 05:26:53.033   02 Jun 2027 05:27:20.187            27.154         13577.000
        20   02 Jun 2027 07:01:26.843   02 Jun 2027 07:01:32.873             6.030          3015.000
        21   02 Jun 2027 07:02:36.472   02 Jun 2027 07:04:30.717           114.245         57122.500
        22   02 Jun 2027 07:05:30.477   02 Jun 2027 07:06:04.452            33.975         16987.500
        23   02 Jun 2027 07:06:47.402   02 Jun 2027 07:06:47.538             0.136            68.000
        24   02 Jun 2027 08:37:22.221   02 Jun 2027 08:39:15.083           112.862         56431.000
        25   02 Jun 2027 08:39:48.796   02 Jun 2027 08:40:15.259            26.463         13231.500
        26   02 Jun 2027 08:42:14.658   02 Jun 2027 08:42:27.730            13.072          5093.844
        27   02 Jun 2027 08:42:50.749   02 Jun 2027 08:42:53.718             2.969           655.375
        28   02 Jun 2027 08:43:20.224   02 Jun 2027 08:43:23.267             3.043           535.187
        29   02 Jun 2027 08:43:50.763   02 Jun 2027 08:43:56.787             6.024           828.813
        30   02 Jun 2027 08:44:23.041   02 Jun 2027 08:44:26.728             3.687           629.344
        31   02 Jun 2027 08:44:50.447   02 Jun 2027 08:44:50.545             0.098            49.000
        32   02 Jun 2027 10:14:21.835   02 Jun 2027 10:14:43.448            21.613          9744.688
        33   02 Jun 2027 10:16:14.642   02 Jun 2027 10:16:18.311             3.669           316.594
        34   02 Jun 2027 10:16:36.438   02 Jun 2027 10:16:36.921             0.483            23.000
        35   02 Jun 2027 10:17:20.298   02 Jun 2027 10:17:22.487             2.189          1011.188
        36   02 Jun 2027 10:18:17.564   02 Jun 2027 10:18:22.909             5.345          1593.437
        37   02 Jun 2027 10:19:02.896   02 Jun 2027 10:19:08.981             6.085          1249.594
        38   02 Jun 2027 10:19:37.922   02 Jun 2027 10:19:40.368             2.446           898.437
        39   02 Jun 2027 10:20:18.664   02 Jun 2027 10:20:21.874             3.210           982.469
        40   02 Jun 2027 11:52:22.830   02 Jun 2027 11:52:36.221            13.391          6695.500
        41   02 Jun 2027 11:52:40.879   02 Jun 2027 11:52:43.813             2.934          1467.000
        42   02 Jun 2027 11:53:22.512   02 Jun 2027 11:53:23.379             0.867           433.500
        43   02 Jun 2027 11:53:53.518   02 Jun 2027 11:53:57.036             3.518          1759.000
        44   02 Jun 2027 11:54:00.377   02 Jun 2027 11:54:02.976             2.599           431.750
        45   02 Jun 2027 11:54:28.798   02 Jun 2027 11:54:31.046             2.248           806.938
        46   02 Jun 2027 11:54:38.195   02 Jun 2027 11:54:39.102             0.907           223.406
        47   02 Jun 2027 11:55:45.795   02 Jun 2027 11:55:51.106             5.311          1978.188
        48   02 Jun 2027 11:56:08.642   02 Jun 2027 11:56:11.496             2.854           548.000
        49   03 Jun 2027 04:03:15.001   03 Jun 2027 04:03:27.246            12.245          6122.500
        50   03 Jun 2027 04:03:35.751   03 Jun 2027 04:04:33.759            58.008         29004.000
        51   03 Jun 2027 04:14:56.732   03 Jun 2027 04:16:17.454            80.722         40361.000
        52   03 Jun 2027 05:37:11.121   03 Jun 2027 05:38:25.772            74.651         37325.500
        53   03 Jun 2027 05:39:10.858   03 Jun 2027 05:40:03.021            52.163         26081.500
        54   03 Jun 2027 05:41:32.751   03 Jun 2027 05:41:45.804            13.053          6526.500
        55   03 Jun 2027 07:12:19.071   03 Jun 2027 07:12:56.010            36.939         18412.407
        56   03 Jun 2027 07:13:10.642   03 Jun 2027 07:13:11.706             1.064           252.344
        57   03 Jun 2027 07:14:20.448   03 Jun 2027 07:14:24.469             4.021          1663.500
        58   03 Jun 2027 07:16:02.560   03 Jun 2027 07:16:02.560             0.000             0.000
        59   03 Jun 2027 07:16:36.713   03 Jun 2027 07:16:44.216             7.503          3286.281
        60   03 Jun 2027 07:17:31.642   03 Jun 2027 07:17:34.351             2.709           266.312
        61   03 Jun 2027 07:18:08.363   03 Jun 2027 07:18:11.694             3.331           870.531
        62   03 Jun 2027 07:18:50.087   03 Jun 2027 07:18:51.895             1.808           706.219
        63   03 Jun 2027 07:19:12.796   03 Jun 2027 07:19:15.352             2.556           541.625
        64   03 Jun 2027 08:49:30.166   03 Jun 2027 08:49:44.392            14.226          3802.531
        65   03 Jun 2027 08:50:23.928   03 Jun 2027 08:50:28.463             4.535          1018.000
        66   03 Jun 2027 08:50:50.785   03 Jun 2027 08:50:52.317             1.532           259.844
        67   03 Jun 2027 08:50:55.286   03 Jun 2027 08:50:55.395             0.109            12.563
        68   03 Jun 2027 08:51:01.884   03 Jun 2027 08:51:06.493             4.609           202.781
        69   03 Jun 2027 08:51:17.243   03 Jun 2027 08:51:18.166             0.923           124.313
        70   03 Jun 2027 08:52:59.888   03 Jun 2027 08:53:05.582             5.694          1978.313
        71   03 Jun 2027 08:53:43.504   03 Jun 2027 08:53:50.776             7.272          1063.781
        72   03 Jun 2027 08:54:02.925   03 Jun 2027 08:54:04.273             1.348           254.812
        73   03 Jun 2027 08:54:48.739   03 Jun 2027 08:54:50.418             1.679           818.906
        74   03 Jun 2027 08:54:58.778   03 Jun 2027 08:55:02.598             3.820           176.812
        75   03 Jun 2027 08:55:53.079   03 Jun 2027 08:55:58.517             5.438          1415.375
        76   03 Jun 2027 08:56:43.628   03 Jun 2027 08:56:48.014             4.386          1162.875
        77   03 Jun 2027 08:56:51.885   03 Jun 2027 08:56:53.663             1.778            35.312
        78   03 Jun 2027 10:26:27.474   03 Jun 2027 10:26:44.003            16.529          8003.937
        79   03 Jun 2027 10:27:22.739   03 Jun 2027 10:27:26.473             3.734          1139.813
        80   03 Jun 2027 10:27:58.619   03 Jun 2027 10:27:59.689             1.070           339.375
        81   03 Jun 2027 10:28:15.599   03 Jun 2027 10:28:17.018             1.419           470.344
        82   03 Jun 2027 10:28:41.506   03 Jun 2027 10:28:44.621             3.115           584.719
        83   03 Jun 2027 10:29:09.380   03 Jun 2027 10:29:10.088             0.708           149.531
        84   03 Jun 2027 10:29:27.887   03 Jun 2027 10:29:27.976             0.089            44.500
        85   03 Jun 2027 10:29:30.291   03 Jun 2027 10:29:33.458             3.167           499.750
        86   03 Jun 2027 10:29:39.998   03 Jun 2027 10:29:39.998             0.000             0.000
        87   03 Jun 2027 10:29:46.746   03 Jun 2027 10:29:52.412             5.666           415.250
        88   03 Jun 2027 10:30:36.422   03 Jun 2027 10:30:42.602             6.180          1232.594
        89   03 Jun 2027 10:30:54.934   03 Jun 2027 10:30:57.879             2.945           385.375
        90   03 Jun 2027 10:31:40.422   03 Jun 2027 10:31:45.705             5.283           878.781
        91   03 Jun 2027 10:31:56.245   03 Jun 2027 10:31:58.966             2.721           329.375
        92   03 Jun 2027 10:32:29.258   03 Jun 2027 10:32:30.546             1.288           644.000
        93   04 Jun 2027 04:14:41.449   04 Jun 2027 04:16:29.504           108.055         54027.500
        94   04 Jun 2027 04:16:37.435   04 Jun 2027 04:16:47.553            10.118          5059.000
        95   04 Jun 2027 04:26:53.754   04 Jun 2027 04:27:33.440            39.686         19843.000
        96   04 Jun 2027 05:48:56.053   04 Jun 2027 05:50:14.866            78.813         39406.500
        97   04 Jun 2027 05:50:59.222   04 Jun 2027 05:51:32.976            33.754         16877.000
        98   04 Jun 2027 05:53:28.295   04 Jun 2027 05:53:43.335            15.040          7520.000
        99   04 Jun 2027 05:54:02.304   04 Jun 2027 05:54:11.204             8.900          4450.000
       100   04 Jun 2027 07:23:48.422   04 Jun 2027 07:24:25.936            37.514         17332.970
       101   04 Jun 2027 07:25:45.257   04 Jun 2027 07:25:45.257             0.000             0.000
       102   04 Jun 2027 07:26:16.498   04 Jun 2027 07:26:17.846             1.348           674.000
       103   04 Jun 2027 07:26:59.490   04 Jun 2027 07:27:04.562             5.072          2076.750
       104   04 Jun 2027 07:27:41.450   04 Jun 2027 07:27:43.979             2.529           732.969
       105   04 Jun 2027 07:28:12.436   04 Jun 2027 07:28:14.205             1.769           807.844
       106   04 Jun 2027 07:29:17.984   04 Jun 2027 07:29:22.819             4.835          1307.219
       107   04 Jun 2027 07:29:43.659   04 Jun 2027 07:29:45.318             1.659           617.781
       108   04 Jun 2027 07:31:11.801   04 Jun 2027 07:31:21.089             9.288          2003.281
       109   04 Jun 2027 07:32:34.497   04 Jun 2027 07:32:36.329             1.832           916.000
       110   04 Jun 2027 09:01:31.585   04 Jun 2027 09:01:44.262            12.677          5982.375
       111   04 Jun 2027 09:02:28.131   04 Jun 2027 09:02:31.092             2.961          1078.500
       112   04 Jun 2027 09:03:15.369   04 Jun 2027 09:03:18.968             3.599           964.469
       113   04 Jun 2027 09:03:42.727   04 Jun 2027 09:03:44.769             2.042           564.219
       114   04 Jun 2027 09:03:52.296   04 Jun 2027 09:03:53.345             1.049           131.500
       115   04 Jun 2027 09:04:35.125   04 Jun 2027 09:04:35.960             0.835           365.438
       116   04 Jun 2027 09:05:50.820   04 Jun 2027 09:06:04.408            13.588          2339.375
       117   04 Jun 2027 09:06:14.325   04 Jun 2027 09:06:18.005             3.680             5.000
       118   04 Jun 2027 09:07:11.057   04 Jun 2027 09:07:13.221             2.164          1082.000
       119   04 Jun 2027 09:07:32.643   04 Jun 2027 09:07:35.669             3.026          1182.812
       120   04 Jun 2027 09:07:36.866   04 Jun 2027 09:07:38.353             1.487            37.406
       121   04 Jun 2027 09:07:50.762   04 Jun 2027 09:08:01.206            10.444           387.781
       122   04 Jun 2027 09:08:45.343   04 Jun 2027 09:08:48.584             3.241          1030.094
       123   04 Jun 2027 09:08:50.528   04 Jun 2027 09:08:50.786             0.258            38.969
       124   04 Jun 2027 10:38:19.786   04 Jun 2027 10:38:35.684            15.898          7949.000
       125   04 Jun 2027 10:38:41.642   04 Jun 2027 10:38:44.573             2.931           771.531
       126   04 Jun 2027 10:39:53.069   04 Jun 2027 10:39:56.889             3.820           816.000
       127   04 Jun 2027 10:41:03.305   04 Jun 2027 10:41:09.728             6.423          2075.500
       128   04 Jun 2027 10:41:14.752   04 Jun 2027 10:41:16.682             1.930           123.656
       129   04 Jun 2027 10:42:16.728   04 Jun 2027 10:42:20.417             3.689          1844.500
       130   04 Jun 2027 10:42:31.074   04 Jun 2027 10:42:32.120             1.046           360.656
       131   04 Jun 2027 10:42:51.820   04 Jun 2027 10:42:53.664             1.844           615.625
       132   04 Jun 2027 10:43:39.726   04 Jun 2027 10:43:46.237             6.511          1004.937
       133   04 Jun 2027 10:44:08.796   04 Jun 2027 10:44:10.807             2.011           704.531
       134   04 Jun 2027 10:44:27.982   04 Jun 2027 10:44:33.681             5.699           536.719
       135   04 Jun 2027 10:44:34.681   04 Jun 2027 10:44:35.509             0.828            31.250
       136   04 Jun 2027 10:44:50.000   04 Jun 2027 10:44:52.198             2.198           452.844
       137   05 Jun 2027 03:02:38.720   05 Jun 2027 03:04:35.379           116.659         58329.500
       138   05 Jun 2027 03:05:49.201   05 Jun 2027 03:06:34.520            45.319         22659.500
       139   05 Jun 2027 03:07:18.247   05 Jun 2027 03:07:56.079            37.832         18916.000
       140   05 Jun 2027 04:26:45.396   05 Jun 2027 04:27:28.979            43.583         21791.500
       141   05 Jun 2027 04:27:31.180   05 Jun 2027 04:27:56.712            25.532         12766.000
       142   05 Jun 2027 06:00:31.550   05 Jun 2027 06:02:04.664            93.114         46557.000
       143   05 Jun 2027 06:02:21.730   05 Jun 2027 06:02:24.786             3.056          1528.000
       144   05 Jun 2027 06:03:14.538   05 Jun 2027 06:03:18.148             3.610          1805.000
       145   05 Jun 2027 06:03:40.769   05 Jun 2027 06:03:43.524             2.755          1377.500
       146   05 Jun 2027 06:04:09.344   05 Jun 2027 06:04:11.775             2.431           930.844
       147   05 Jun 2027 06:05:33.152   05 Jun 2027 06:05:38.660             5.508          2543.031
       148   05 Jun 2027 06:06:00.557   05 Jun 2027 06:06:00.557             0.000             0.000
       149   05 Jun 2027 07:36:32.285   05 Jun 2027 07:36:50.921            18.636          5216.312
       150   05 Jun 2027 07:38:00.295   05 Jun 2027 07:38:01.483             1.188           266.594
       151   05 Jun 2027 07:39:09.649   05 Jun 2027 07:39:13.750             4.101          1425.156
       152   05 Jun 2027 07:39:48.815   05 Jun 2027 07:39:52.216             3.401           948.781
       153   05 Jun 2027 07:40:37.498   05 Jun 2027 07:40:37.498             0.000             0.000
       154   05 Jun 2027 07:41:10.852   05 Jun 2027 07:41:16.245             5.393          2124.344
       155   05 Jun 2027 07:41:46.710   05 Jun 2027 07:41:47.841             1.131           565.500
       156   05 Jun 2027 07:42:00.845   05 Jun 2027 07:42:03.275             2.430           566.938
       157   05 Jun 2027 07:42:30.284   05 Jun 2027 07:42:37.133             6.849           720.719
       158   05 Jun 2027 07:43:05.119   05 Jun 2027 07:43:08.044             2.925           769.375
       159   05 Jun 2027 07:44:15.153   05 Jun 2027 07:44:19.338             4.185          1705.313
       160   05 Jun 2027 09:13:35.076   05 Jun 2027 09:13:55.601            20.525          7473.312
       161   05 Jun 2027 09:14:48.772   05 Jun 2027 09:14:51.680             2.908           999.250
       162   05 Jun 2027 09:15:58.636   05 Jun 2027 09:16:03.532             4.896          1949.031
       163   05 Jun 2027 09:17:02.756   05 Jun 2027 09:17:06.255             3.499          1534.719
       164   05 Jun 2027 09:17:29.639   05 Jun 2027 09:17:38.381             8.742           617.875
       165   05 Jun 2027 09:17:47.079   05 Jun 2027 09:17:47.444             0.365           178.031
       166   05 Jun 2027 09:19:11.766   05 Jun 2027 09:19:18.660             6.894          1573.656
       167   05 Jun 2027 09:20:24.160   05 Jun 2027 09:20:28.237             4.077          1603.844
       168   05 Jun 2027 09:20:29.025   05 Jun 2027 09:20:31.917             2.892            24.625
       169   05 Jun 2027 10:50:29.945   05 Jun 2027 10:50:38.883             8.938          4469.000
       170   05 Jun 2027 10:50:47.269   05 Jun 2027 10:50:55.170             7.901          3746.813
       171   05 Jun 2027 10:52:43.971   05 Jun 2027 10:52:53.223             9.252          2601.250
       172   05 Jun 2027 10:54:21.625   05 Jun 2027 10:54:28.473             6.848          2530.156
       173   05 Jun 2027 10:54:52.812   05 Jun 2027 10:54:59.372             6.560           760.594
       174   05 Jun 2027 10:55:16.154   05 Jun 2027 10:55:18.861             2.707           423.781
       175   05 Jun 2027 10:56:31.829   05 Jun 2027 10:56:39.580             7.751          2272.406
       176   06 Jun 2027 03:15:15.463   06 Jun 2027 03:18:19.619           184.156         92078.000
       177   06 Jun 2027 04:38:40.232   06 Jun 2027 04:39:35.579            55.347         27673.500
       178   06 Jun 2027 04:39:40.087   06 Jun 2027 04:39:57.830            17.743          8871.500
       179   06 Jun 2027 06:14:59.711   06 Jun 2027 06:16:00.168            60.457         28608.281
       180   06 Jun 2027 06:16:52.446   06 Jun 2027 06:16:57.014             4.568          1218.469
       181   06 Jun 2027 06:17:27.401   06 Jun 2027 06:17:30.289             2.888           755.906
       182   06 Jun 2027 06:18:01.218   06 Jun 2027 06:18:06.230             5.012           883.750
       183   06 Jun 2027 07:48:29.520   06 Jun 2027 07:48:40.062            10.542          4924.375
       184   06 Jun 2027 07:49:39.063   06 Jun 2027 07:49:42.121             3.058           985.812
       185   06 Jun 2027 07:50:31.417   06 Jun 2027 07:50:34.707             3.290          1137.625
       186   06 Jun 2027 07:50:56.229   06 Jun 2027 07:50:58.038             1.809            85.406
       187   06 Jun 2027 07:51:50.781   06 Jun 2027 07:51:54.480             3.699          1486.219
       188   06 Jun 2027 07:52:40.816   06 Jun 2027 07:52:43.755             2.939          1204.781
       189   06 Jun 2027 07:53:30.139   06 Jun 2027 07:53:33.731             3.592          1023.469
       190   06 Jun 2027 07:54:04.358   06 Jun 2027 07:54:09.833             5.475           908.031
       191   06 Jun 2027 07:55:13.558   06 Jun 2027 07:55:17.668             4.110          1980.125
       192   06 Jun 2027 07:55:32.386   06 Jun 2027 07:55:32.763             0.377            97.906
       193   06 Jun 2027 07:56:00.157   06 Jun 2027 07:56:02.944             2.787           841.469
       194   06 Jun 2027 07:56:37.446   06 Jun 2027 07:56:40.890             3.444          1078.187
       195   06 Jun 2027 07:56:44.488   06 Jun 2027 07:56:45.210             0.722            41.469
       196   06 Jun 2027 09:26:00.941   06 Jun 2027 09:26:18.119            17.178          5866.531
       197   06 Jun 2027 09:26:56.278   06 Jun 2027 09:27:00.921             4.643           421.469
       198   06 Jun 2027 09:27:27.197   06 Jun 2027 09:27:28.876             1.679           719.094
       199   06 Jun 2027 09:27:49.416   06 Jun 2027 09:27:52.686             3.270           495.281
       200   06 Jun 2027 09:28:02.662   06 Jun 2027 09:28:02.963             0.301           114.625
       201   06 Jun 2027 09:29:35.847   06 Jun 2027 09:29:41.413             5.566          2307.000
       202   06 Jun 2027 09:30:43.724   06 Jun 2027 09:30:50.189             6.465          1827.063
       203   06 Jun 2027 09:31:49.135   06 Jun 2027 09:31:54.172             5.037          1354.000
       204   06 Jun 2027 09:32:18.585   06 Jun 2027 09:32:21.523             2.938           302.750
       205   06 Jun 2027 11:02:57.444   06 Jun 2027 11:03:18.642            21.198          7458.500
       206   06 Jun 2027 11:04:23.045   06 Jun 2027 11:04:24.150             1.105           552.500
       207   06 Jun 2027 11:04:30.363   06 Jun 2027 11:04:30.851             0.488           212.156
       208   06 Jun 2027 11:04:51.938   06 Jun 2027 11:04:52.765             0.827           261.688
       209   06 Jun 2027 11:05:25.986   06 Jun 2027 11:05:29.747             3.761           918.906
       210   06 Jun 2027 11:06:01.857   06 Jun 2027 11:06:04.114             2.257           768.625
       211   06 Jun 2027 11:06:10.779   06 Jun 2027 11:06:13.002             2.223           140.813
       212   06 Jun 2027 11:06:33.402   06 Jun 2027 11:06:37.544             4.142           637.500
       213   06 Jun 2027 11:06:44.444   06 Jun 2027 11:06:46.936             2.492            32.656
       214   06 Jun 2027 11:07:00.259   06 Jun 2027 11:07:07.172             6.913           416.344
       215   06 Jun 2027 11:07:15.400   06 Jun 2027 11:07:15.400             0.000             0.000
       216   06 Jun 2027 11:07:34.307   06 Jun 2027 11:07:39.729             5.422           807.375
       217   06 Jun 2027 11:08:28.890   06 Jun 2027 11:08:38.099             9.209          1536.281
       218   07 Jun 2027 03:26:53.903   07 Jun 2027 03:30:34.930           221.027        110513.500
       219   07 Jun 2027 04:50:31.021   07 Jun 2027 04:51:38.174            67.153         33576.500
       220   07 Jun 2027 04:51:42.512   07 Jun 2027 04:51:55.251            12.739          4793.469
       221   07 Jun 2027 06:27:01.924   07 Jun 2027 06:27:21.613            19.689          9732.469
       222   07 Jun 2027 06:27:48.057   07 Jun 2027 06:27:49.801             1.744           437.562
       223   07 Jun 2027 06:28:50.654   07 Jun 2027 06:28:54.926             4.272          1901.656
       224   07 Jun 2027 06:29:36.777   07 Jun 2027 06:29:41.939             5.162          1088.750
       225   07 Jun 2027 06:29:59.305   07 Jun 2027 06:30:03.309             4.004           542.687
       226   07 Jun 2027 08:01:09.137   07 Jun 2027 08:01:24.083            14.946          6009.750
       227   07 Jun 2027 08:02:03.616   07 Jun 2027 08:02:07.711             4.095           691.656
       228   07 Jun 2027 08:02:52.244   07 Jun 2027 08:02:53.555             1.311           586.531
       229   07 Jun 2027 08:03:07.575   07 Jun 2027 08:03:08.344             0.769           378.031
       230   07 Jun 2027 08:03:52.450   07 Jun 2027 08:03:56.130             3.680          1243.187
       231   07 Jun 2027 08:05:20.495   07 Jun 2027 08:05:26.358             5.863          1656.125
       232   07 Jun 2027 08:05:52.372   07 Jun 2027 08:05:52.372             0.000             0.000
       233   07 Jun 2027 08:06:23.769   07 Jun 2027 08:06:30.153             6.384          1616.688
       234   07 Jun 2027 08:06:39.530   07 Jun 2027 08:06:44.611             5.081            19.500
       235   07 Jun 2027 08:07:21.830   07 Jun 2027 08:07:23.704             1.874           792.687
       236   07 Jun 2027 08:08:06.170   07 Jun 2027 08:08:11.102             4.932          1286.094
       237   07 Jun 2027 08:08:33.435   07 Jun 2027 08:08:35.365             1.930           260.656
       238   07 Jun 2027 08:08:55.118   07 Jun 2027 08:08:55.814             0.696           348.000
       239   07 Jun 2027 09:38:07.364   07 Jun 2027 09:38:23.038            15.674          7243.656
       240   07 Jun 2027 09:39:22.463   07 Jun 2027 09:39:25.513             3.050          1005.750
       241   07 Jun 2027 09:39:36.426   07 Jun 2027 09:39:39.119             2.693           341.031
       242   07 Jun 2027 09:40:34.501   07 Jun 2027 09:40:34.656             0.155            77.500
       243   07 Jun 2027 09:40:52.286   07 Jun 2027 09:40:55.748             3.462          1147.250
       244   07 Jun 2027 09:41:36.752   07 Jun 2027 09:41:41.657             4.905           625.094
       245   07 Jun 2027 09:42:03.186   07 Jun 2027 09:42:04.850             1.664           484.437
       246   07 Jun 2027 09:42:44.790   07 Jun 2027 09:42:49.222             4.432          1171.062
       247   07 Jun 2027 09:43:00.250   07 Jun 2027 09:43:03.796             3.546           116.375
       248   07 Jun 2027 09:43:16.210   07 Jun 2027 09:43:17.155             0.945           338.625
       249   07 Jun 2027 09:44:12.771   07 Jun 2027 09:44:16.730             3.959          1613.375
       250   07 Jun 2027 09:44:44.557   07 Jun 2027 09:44:46.305             1.748           869.594
       251   07 Jun 2027 11:15:47.745   07 Jun 2027 11:16:05.042            17.297          7502.375
       252   07 Jun 2027 11:17:49.661   07 Jun 2027 11:17:55.419             5.758          2879.000
       253   07 Jun 2027 11:18:15.488   07 Jun 2027 11:18:22.983             7.495           819.875
       254   07 Jun 2027 11:18:55.306   07 Jun 2027 11:18:57.467             2.161          1010.094
       255   07 Jun 2027 11:19:21.699   07 Jun 2027 11:19:22.511             0.812           406.000
       256   07 Jun 2027 11:19:46.290   07 Jun 2027 11:19:51.239             4.949          1094.344
       257   08 Jun 2027 03:39:21.579   08 Jun 2027 03:39:44.626            23.047         11523.500
       258   08 Jun 2027 03:40:07.110   08 Jun 2027 03:42:01.216           114.106         57053.000
       259   08 Jun 2027 03:42:07.845   08 Jun 2027 03:42:36.750            28.905         14452.500
       260   08 Jun 2027 05:02:40.627   08 Jun 2027 05:04:20.246            99.619         49809.500
       261   08 Jun 2027 06:39:11.355   08 Jun 2027 06:39:52.831            41.476         18802.125
       262   08 Jun 2027 06:40:26.077   08 Jun 2027 06:40:27.206             1.129           300.156
       263   08 Jun 2027 06:41:08.629   08 Jun 2027 06:41:10.841             2.212           829.438
       264   08 Jun 2027 06:42:18.418   08 Jun 2027 06:42:23.862             5.444          1937.594
       265   08 Jun 2027 06:42:44.937   08 Jun 2027 06:42:45.876             0.939           209.562
       266   08 Jun 2027 08:14:21.341   08 Jun 2027 08:14:31.298             9.957          4890.906
       267   08 Jun 2027 08:15:19.497   08 Jun 2027 08:15:22.058             2.561          1171.063
       268   08 Jun 2027 08:15:49.819   08 Jun 2027 08:15:53.760             3.941           452.156
       269   08 Jun 2027 08:16:37.906   08 Jun 2027 08:16:41.519             3.613          1379.562
       270   08 Jun 2027 08:17:43.790   08 Jun 2027 08:17:48.248             4.458          1535.344
       271   08 Jun 2027 08:18:12.651   08 Jun 2027 08:18:18.395             5.744           713.531
       272   08 Jun 2027 08:19:35.798   08 Jun 2027 08:19:43.460             7.662          2240.531
       273   08 Jun 2027 08:20:18.354   08 Jun 2027 08:20:19.606             1.252           530.875
       274   08 Jun 2027 08:20:25.068   08 Jun 2027 08:20:25.625             0.557            24.844
       275   08 Jun 2027 08:20:48.812   08 Jun 2027 08:20:51.764             2.952           584.219
       276   08 Jun 2027 09:50:43.560   08 Jun 2027 09:51:01.337            17.777          8852.969
       277   08 Jun 2027 09:51:22.628   08 Jun 2027 09:51:23.233             0.605           243.781
       278   08 Jun 2027 09:52:38.326   08 Jun 2027 09:52:41.710             3.384           802.125
       279   08 Jun 2027 09:53:22.243   08 Jun 2027 09:53:27.387             5.144           957.187
       280   08 Jun 2027 09:53:53.428   08 Jun 2027 09:53:54.804             1.376           688.000
       281   08 Jun 2027 09:54:17.341   08 Jun 2027 09:54:17.341             0.000             0.000
       282   08 Jun 2027 09:54:26.241   08 Jun 2027 09:54:30.882             4.641          1108.188
       283   08 Jun 2027 09:54:38.660   08 Jun 2027 09:54:39.124             0.464           210.500
       284   08 Jun 2027 09:55:09.365   08 Jun 2027 09:55:17.220             7.855           945.031
       285   08 Jun 2027 09:56:18.482   08 Jun 2027 09:56:22.507             4.025          1914.437
       286   08 Jun 2027 09:56:26.371   08 Jun 2027 09:56:27.122             0.751           112.469
       287   08 Jun 2027 09:56:39.863   08 Jun 2027 09:56:41.421             1.558           345.813
       288   08 Jun 2027 11:28:00.183   08 Jun 2027 11:28:16.852            16.669          6696.375
       289   08 Jun 2027 11:29:05.743   08 Jun 2027 11:29:09.317             3.574          1400.937
       290   08 Jun 2027 11:29:12.866   08 Jun 2027 11:29:12.866             0.000             0.000
       291   08 Jun 2027 11:29:38.542   08 Jun 2027 11:29:42.586             4.044           886.375
       292   08 Jun 2027 11:29:45.299   08 Jun 2027 11:29:47.271             1.972            84.781
       293   08 Jun 2027 11:29:50.402   08 Jun 2027 11:30:03.168            12.766            97.844
       294   08 Jun 2027 11:30:34.118   08 Jun 2027 11:30:36.024             1.906           948.406
       295   08 Jun 2027 11:31:17.657   08 Jun 2027 11:31:23.319             5.662          1301.031
       296   08 Jun 2027 11:32:06.558   08 Jun 2027 11:32:07.616             1.058           529.000
       297   09 Jun 2027 03:51:15.209   09 Jun 2027 03:51:52.328            37.119         18559.500
       298   09 Jun 2027 03:52:21.731   09 Jun 2027 03:54:48.781           147.050         73525.000
       299   09 Jun 2027 05:15:20.561   09 Jun 2027 05:16:33.955            73.394         36697.000
       300   09 Jun 2027 05:17:35.228   09 Jun 2027 05:17:35.228             0.000             0.000
       301   09 Jun 2027 06:51:06.091   09 Jun 2027 06:51:59.066            52.975         26283.688
       302   09 Jun 2027 06:52:46.017   09 Jun 2027 06:52:51.343             5.326           884.125
       303   09 Jun 2027 06:53:32.009   09 Jun 2027 06:53:35.287             3.278           977.312
       304   09 Jun 2027 06:53:51.711   09 Jun 2027 06:53:53.355             1.644           426.594
       305   09 Jun 2027 06:54:31.743   09 Jun 2027 06:54:32.654             0.911           414.906
       306   09 Jun 2027 08:26:03.399   09 Jun 2027 08:26:09.112             5.713          2856.500
       307   09 Jun 2027 08:26:55.122   09 Jun 2027 08:27:02.223             7.101          2488.594
       308   09 Jun 2027 08:27:55.832   09 Jun 2027 08:27:58.995             3.163          1554.875
       309   09 Jun 2027 08:28:39.970   09 Jun 2027 08:28:46.261             6.291          1189.688
       310   09 Jun 2027 08:29:57.253   09 Jun 2027 08:30:02.607             5.354          2063.281
       311   09 Jun 2027 08:30:44.392   09 Jun 2027 08:30:48.641             4.249           999.344
       312   09 Jun 2027 08:31:03.477   09 Jun 2027 08:31:05.021             1.544           374.062
       313   09 Jun 2027 08:32:07.919   09 Jun 2027 08:32:11.028             3.109          1488.719
       314   09 Jun 2027 08:32:15.718   09 Jun 2027 08:32:25.358             9.640           109.375
       315   09 Jun 2027 08:32:36.720   09 Jun 2027 08:32:38.099             1.379           355.063
       316   09 Jun 2027 08:33:04.366   09 Jun 2027 08:33:05.099             0.733           153.750
       317   09 Jun 2027 10:02:15.942   09 Jun 2027 10:02:34.591            18.649          7906.125
       318   09 Jun 2027 10:03:04.793   09 Jun 2027 10:03:05.758             0.965           464.375
       319   09 Jun 2027 10:03:29.251   09 Jun 2027 10:03:31.211             1.960           541.469
       320   09 Jun 2027 10:05:02.886   09 Jun 2027 10:05:04.757             1.871           935.500
       321   09 Jun 2027 10:05:29.202   09 Jun 2027 10:05:31.060             1.858           881.125
       322   09 Jun 2027 10:05:49.098   09 Jun 2027 10:05:49.406             0.308           154.000
       323   09 Jun 2027 10:06:32.790   09 Jun 2027 10:06:40.143             7.353          1765.438
       324   09 Jun 2027 10:06:56.307   09 Jun 2027 10:07:02.609             6.302           490.656
       325   09 Jun 2027 10:08:03.805   09 Jun 2027 10:08:09.731             5.926          1912.375
       326   09 Jun 2027 10:08:32.432   09 Jun 2027 10:08:33.676             1.244           378.094
       327   09 Jun 2027 11:40:17.126   09 Jun 2027 11:40:31.897            14.771          6457.063
       328   09 Jun 2027 11:40:38.897   09 Jun 2027 11:40:43.600             4.703           205.656
       329   09 Jun 2027 11:41:07.182   09 Jun 2027 11:41:08.628             1.446           688.281
       330   09 Jun 2027 11:41:38.875   09 Jun 2027 11:41:41.866             2.991           945.219
       331   09 Jun 2027 11:42:47.913   09 Jun 2027 11:42:52.736             4.823          2063.969
       332   09 Jun 2027 11:43:30.169   09 Jun 2027 11:43:32.739             2.570          1110.500
       333   09 Jun 2027 11:44:15.526   09 Jun 2027 11:44:18.191             2.665          1110.906
       334   10 Jun 2027 03:52:06.428   10 Jun 2027 03:52:47.643            41.215         20607.500
       335   10 Jun 2027 04:03:11.132   10 Jun 2027 04:04:54.599           103.467         51733.500
       336   10 Jun 2027 04:05:05.239   10 Jun 2027 04:06:30.526            85.287         42643.500
       337   10 Jun 2027 05:26:09.466   10 Jun 2027 05:26:35.638            26.172         13086.000
       338   10 Jun 2027 05:27:45.017   10 Jun 2027 05:27:51.159             6.142          3071.000
       339   10 Jun 2027 05:29:39.106   10 Jun 2027 05:29:45.200             6.094          3047.000
       340   10 Jun 2027 05:30:01.792   10 Jun 2027 05:30:01.792             0.000             0.000
       341   10 Jun 2027 07:01:41.831   10 Jun 2027 07:01:49.970             8.139          4069.500
       342   10 Jun 2027 07:02:52.079   10 Jun 2027 07:03:48.153            56.074         27851.687
       343   10 Jun 2027 07:04:04.232   10 Jun 2027 07:04:09.982             5.750           177.406
       344   10 Jun 2027 07:04:56.724   10 Jun 2027 07:04:56.724             0.000             0.000
       345   10 Jun 2027 07:05:42.597   10 Jun 2027 07:05:50.176             7.579          2620.500
       346   10 Jun 2027 07:05:59.009   10 Jun 2027 07:06:01.246             2.237           276.031
       347   10 Jun 2027 07:06:22.030   10 Jun 2027 07:06:26.730             4.700           632.781
       348   10 Jun 2027 07:06:39.836   10 Jun 2027 07:06:42.656             2.820           318.156
       349   10 Jun 2027 08:37:37.035   10 Jun 2027 08:37:44.497             7.462          3462.125
       350   10 Jun 2027 08:38:39.743   10 Jun 2027 08:38:43.169             3.426          1030.500
       351   10 Jun 2027 08:39:16.883   10 Jun 2027 08:39:18.246             1.363           102.313
       352   10 Jun 2027 08:39:29.455   10 Jun 2027 08:39:31.657             2.202           110.094
       353   10 Jun 2027 08:40:04.041   10 Jun 2027 08:40:08.403             4.362           927.969
       354   10 Jun 2027 08:41:41.842   10 Jun 2027 08:41:48.835             6.993          2158.625
       355   10 Jun 2027 08:42:32.323   10 Jun 2027 08:42:36.029             3.706          1031.562
       356   10 Jun 2027 08:43:05.353   10 Jun 2027 08:43:07.963             2.610           569.938
       357   10 Jun 2027 08:43:34.811   10 Jun 2027 08:43:37.149             2.338           512.781
       358   10 Jun 2027 08:44:07.808   10 Jun 2027 08:44:12.188             4.380           873.094
       359   10 Jun 2027 08:44:34.791   10 Jun 2027 08:44:36.191             1.400           592.719
       360   10 Jun 2027 08:45:05.057   10 Jun 2027 08:45:07.030             1.973           194.531
       361   10 Jun 2027 10:14:37.925   10 Jun 2027 10:14:55.963            18.038          8979.656
       362   10 Jun 2027 10:16:29.742   10 Jun 2027 10:16:30.929             1.187           333.063
       363   10 Jun 2027 10:17:02.132   10 Jun 2027 10:17:04.246             2.114           975.094
       364   10 Jun 2027 10:17:21.049   10 Jun 2027 10:17:23.329             2.280           192.344
       365   10 Jun 2027 10:17:51.851   10 Jun 2027 10:17:55.710             3.859           707.438
       366   10 Jun 2027 10:18:12.382   10 Jun 2027 10:18:15.540             3.158           325.031
       367   10 Jun 2027 10:18:34.042   10 Jun 2027 10:18:37.794             3.752             4.156
       368   10 Jun 2027 10:19:18.679   10 Jun 2027 10:19:25.967             7.288          1277.656
       369   10 Jun 2027 10:19:54.250   10 Jun 2027 10:19:56.553             2.303           883.844
       370   10 Jun 2027 11:52:38.513   10 Jun 2027 11:52:52.942            14.429          7214.500
       371   10 Jun 2027 11:54:15.663   10 Jun 2027 11:54:22.638             6.975          3442.937
       372   10 Jun 2027 11:54:54.373   10 Jun 2027 11:54:57.770             3.397           691.031
       373   10 Jun 2027 11:55:32.835   10 Jun 2027 11:55:40.211             7.376          1028.469
       374   10 Jun 2027 11:55:51.298   10 Jun 2027 11:55:52.891             1.593           332.813
       375   10 Jun 2027 11:56:07.394   10 Jun 2027 11:56:12.991             5.597           210.500
       376   10 Jun 2027 11:56:27.400   10 Jun 2027 11:56:29.467             2.067           343.594
       377   11 Jun 2027 04:03:30.278   11 Jun 2027 04:04:09.545            39.267         19633.500
       378   11 Jun 2027 04:04:23.356   11 Jun 2027 04:04:58.792            35.436         17718.000
       379   11 Jun 2027 04:15:12.620   11 Jun 2027 04:16:32.829            80.209         40104.500
       380   11 Jun 2027 05:37:25.840   11 Jun 2027 05:38:39.584            73.744         36872.000
       381   11 Jun 2027 05:39:27.230   11 Jun 2027 05:40:17.516            50.286         25143.000
       382   11 Jun 2027 05:41:41.818   11 Jun 2027 05:42:00.596            18.778          9389.000
       383   11 Jun 2027 07:12:33.558   11 Jun 2027 07:12:57.145            23.587         11437.719
       384   11 Jun 2027 07:13:17.319   11 Jun 2027 07:13:18.720             1.401           630.437
       385   11 Jun 2027 07:13:42.335   11 Jun 2027 07:13:43.718             1.383           566.813
       386   11 Jun 2027 07:14:04.384   11 Jun 2027 07:14:07.742             3.358           574.000
       387   11 Jun 2027 07:15:31.671   11 Jun 2027 07:15:37.440             5.769          1891.938
       388   11 Jun 2027 07:16:01.186   11 Jun 2027 07:16:01.186             0.000             0.000
       389   11 Jun 2027 07:16:28.982   11 Jun 2027 07:16:30.614             1.632           816.000
       390   11 Jun 2027 07:17:39.725   11 Jun 2027 07:17:48.098             8.373          2616.031
       391   11 Jun 2027 07:18:11.058   11 Jun 2027 07:18:13.738             2.680           681.156
       392   11 Jun 2027 07:18:30.097   11 Jun 2027 07:18:31.754             1.657           419.656
       393   11 Jun 2027 07:19:02.367   11 Jun 2027 07:19:02.367             0.000             0.000
       394   11 Jun 2027 07:19:05.809   11 Jun 2027 07:19:07.530             1.721           687.937
       395   11 Jun 2027 07:19:09.758   11 Jun 2027 07:19:10.224             0.466            69.625
       396   11 Jun 2027 07:20:30.787   11 Jun 2027 07:20:31.629             0.842           421.000
       397   11 Jun 2027 08:49:46.095   11 Jun 2027 08:49:54.721             8.626          4138.531
       398   11 Jun 2027 08:50:41.613   11 Jun 2027 08:50:43.997             2.384          1011.188
       399   11 Jun 2027 08:51:24.249   11 Jun 2027 08:51:27.963             3.714           403.000
       400   11 Jun 2027 08:51:32.487   11 Jun 2027 08:51:34.111             1.624           115.563
       401   11 Jun 2027 08:52:29.465   11 Jun 2027 08:52:31.978             2.513           632.250
       402   11 Jun 2027 08:53:00.559   11 Jun 2027 08:53:03.476             2.917           433.187
       403   11 Jun 2027 08:53:27.336   11 Jun 2027 08:53:29.723             2.387           585.000
       404   11 Jun 2027 08:53:55.364   11 Jun 2027 08:53:58.015             2.651           689.438
       405   11 Jun 2027 08:55:32.455   11 Jun 2027 08:55:40.466             8.011          2855.750
       406   11 Jun 2027 08:56:00.573   11 Jun 2027 08:56:04.252             3.679           588.500
       407   11 Jun 2027 08:56:55.373   11 Jun 2027 08:56:55.373             0.000             0.000
       408   11 Jun 2027 08:57:11.231   11 Jun 2027 08:57:11.868             0.637           318.500
       409   11 Jun 2027 10:26:43.162   11 Jun 2027 10:27:00.550            17.388          7725.438
       410   11 Jun 2027 10:28:03.315   11 Jun 2027 10:28:09.521             6.206           730.625
       411   11 Jun 2027 10:29:20.651   11 Jun 2027 10:29:23.682             3.031          1515.500
       412   11 Jun 2027 10:30:24.775   11 Jun 2027 10:30:31.009             6.234          2445.250
       413   11 Jun 2027 10:30:32.360   11 Jun 2027 10:30:35.246             2.886            42.219
       414   11 Jun 2027 10:30:44.361   11 Jun 2027 10:30:46.486             2.125           284.844
       415   11 Jun 2027 10:31:42.390   11 Jun 2027 10:31:45.810             3.420          1575.844
       416   11 Jun 2027 10:32:29.105   11 Jun 2027 10:32:31.958             2.853          1095.938
       417   12 Jun 2027 04:14:57.858   12 Jun 2027 04:15:45.633            47.775         23887.500
       418   12 Jun 2027 04:15:46.399   12 Jun 2027 04:15:53.563             7.164          3582.000
       419   12 Jun 2027 04:15:54.894   12 Jun 2027 04:16:16.170            21.276         10638.000
       420   12 Jun 2027 04:17:02.453   12 Jun 2027 04:17:03.597             1.144           572.000
       421   12 Jun 2027 04:27:09.464   12 Jun 2027 04:27:48.677            39.213         19606.500
       422   12 Jun 2027 05:49:11.147   12 Jun 2027 05:50:32.048            80.901         40450.500
       423   12 Jun 2027 05:51:14.465   12 Jun 2027 05:51:57.457            42.992         21496.000
       424   12 Jun 2027 05:52:04.934   12 Jun 2027 05:52:27.035            22.101         11050.500
       425   12 Jun 2027 07:24:03.107   12 Jun 2027 07:24:59.057            55.950         27850.781
       426   12 Jun 2027 07:26:08.151   12 Jun 2027 07:26:11.253             3.102           659.969
       427   12 Jun 2027 07:27:17.677   12 Jun 2027 07:27:26.143             8.466          1419.625
       428   12 Jun 2027 07:27:55.420   12 Jun 2027 07:27:59.094             3.674           838.938
       429   12 Jun 2027 07:29:39.855   12 Jun 2027 07:29:47.383             7.528          3007.219
       430   12 Jun 2027 07:30:43.622   12 Jun 2027 07:30:49.812             6.190          1320.531
       431   12 Jun 2027 07:31:24.289   12 Jun 2027 07:31:26.364             2.075          1007.250
       432   12 Jun 2027 07:32:22.413   12 Jun 2027 07:32:25.802             3.389          1642.125
       433   12 Jun 2027 07:32:45.562   12 Jun 2027 07:32:46.696             1.134           387.063
       434   12 Jun 2027 09:01:48.117   12 Jun 2027 09:01:58.967            10.850          5425.000
       435   12 Jun 2027 09:02:27.804   12 Jun 2027 09:02:28.634             0.830           415.000
       436   12 Jun 2027 09:02:43.487   12 Jun 2027 09:02:46.028             2.541          1270.500
       437   12 Jun 2027 09:03:54.197   12 Jun 2027 09:03:59.439             5.242          2426.906
       438   12 Jun 2027 09:04:07.171   12 Jun 2027 09:04:08.377             1.206           147.719
       439   12 Jun 2027 09:05:08.257   12 Jun 2027 09:05:15.948             7.691           983.000
       440   12 Jun 2027 09:05:26.504   12 Jun 2027 09:05:28.767             2.263           156.531
       441   12 Jun 2027 09:06:02.466   12 Jun 2027 09:06:05.469             3.003           375.250
       442   12 Jun 2027 09:06:08.233   12 Jun 2027 09:06:09.091             0.858            86.375
       443   12 Jun 2027 09:06:33.401   12 Jun 2027 09:06:34.757             1.356            89.812
       444   12 Jun 2027 09:07:29.568   12 Jun 2027 09:07:29.568             0.000             0.000
       445   12 Jun 2027 09:07:50.801   12 Jun 2027 09:07:57.602             6.801          1860.250
       446   12 Jun 2027 09:08:46.562   12 Jun 2027 09:08:52.999             6.437          1530.000
       447   12 Jun 2027 09:08:59.659   12 Jun 2027 09:09:00.609             0.950            90.969
       448   12 Jun 2027 09:09:05.160   12 Jun 2027 09:09:06.014             0.854           142.219
       449   12 Jun 2027 10:38:35.869   12 Jun 2027 10:38:50.870            15.001          7344.562
       450   12 Jun 2027 10:38:58.296   12 Jun 2027 10:38:59.337             1.041           232.063
       451   12 Jun 2027 10:39:05.182   12 Jun 2027 10:39:10.209             5.027             3.125
       452   12 Jun 2027 10:40:10.441   12 Jun 2027 10:40:13.462             3.021           882.187
       453   12 Jun 2027 10:41:19.182   12 Jun 2027 10:41:24.429             5.247          2053.750
       454   12 Jun 2027 10:41:44.242   12 Jun 2027 10:41:45.908             1.666           540.188
       455   12 Jun 2027 10:41:56.555   12 Jun 2027 10:41:57.512             0.957            88.437
       456   12 Jun 2027 10:42:48.066   12 Jun 2027 10:42:51.545             3.479          1579.813
       457   12 Jun 2027 10:43:07.941   12 Jun 2027 10:43:18.224            10.283           392.594
       458   12 Jun 2027 10:43:54.396   12 Jun 2027 10:43:58.709             4.313           972.656
       459   12 Jun 2027 10:44:48.837   12 Jun 2027 10:44:53.674             4.837          1443.719
       460   13 Jun 2027 03:02:54.940   13 Jun 2027 03:04:14.712            79.772         39886.000
       461   13 Jun 2027 03:04:52.270   13 Jun 2027 03:05:32.664            40.394         20197.000
       462   13 Jun 2027 03:06:11.306   13 Jun 2027 03:06:25.731            14.425          7212.500
       463   13 Jun 2027 03:06:31.283   13 Jun 2027 03:06:38.498             7.215          3607.500
       464   13 Jun 2027 03:06:46.995   13 Jun 2027 03:06:48.777             1.782           891.000
       465   13 Jun 2027 03:07:05.146   13 Jun 2027 03:07:15.418            10.272          5136.000
       466   13 Jun 2027 04:27:00.974   13 Jun 2027 04:27:43.639            42.665         21332.500
       467   13 Jun 2027 04:27:45.686   13 Jun 2027 04:27:48.414             2.728          1364.000
       468   13 Jun 2027 04:28:52.344   13 Jun 2027 04:29:04.594            12.250          6125.000
       469   13 Jun 2027 06:02:58.122   13 Jun 2027 06:05:00.903           122.781         61390.500
       470   13 Jun 2027 06:05:50.016   13 Jun 2027 06:05:54.572             4.556          2278.000
       471   13 Jun 2027 07:36:47.994   13 Jun 2027 07:37:06.844            18.850          5783.344
       472   13 Jun 2027 07:37:50.958   13 Jun 2027 07:37:51.381             0.423           194.875
       473   13 Jun 2027 07:38:09.758   13 Jun 2027 07:38:10.561             0.803           366.594
       474   13 Jun 2027 07:38:23.748   13 Jun 2027 07:38:25.873             2.125           221.062
       475   13 Jun 2027 07:38:40.528   13 Jun 2027 07:38:42.082             1.554           193.000
       476   13 Jun 2027 07:39:28.021   13 Jun 2027 07:39:32.733             4.712          1435.594
       477   13 Jun 2027 07:40:05.830   13 Jun 2027 07:40:12.833             7.003           969.781
       478   13 Jun 2027 07:40:55.631   13 Jun 2027 07:40:58.630             2.999          1122.781
       479   13 Jun 2027 07:42:03.586   13 Jun 2027 07:42:04.402             0.816           408.000
       480   13 Jun 2027 07:42:23.293   13 Jun 2027 07:42:26.591             3.298          1012.531
       481   13 Jun 2027 07:43:01.760   13 Jun 2027 07:43:01.760             0.000             0.000
       482   13 Jun 2027 07:43:46.097   13 Jun 2027 07:43:50.406             4.309          2154.500
       483   13 Jun 2027 07:44:28.157   13 Jun 2027 07:44:31.647             3.490          1509.781
       484   13 Jun 2027 07:44:49.257   13 Jun 2027 07:44:52.462             3.205           550.312
       485   13 Jun 2027 07:45:10.181   13 Jun 2027 07:45:11.321             1.140           321.812
       486   13 Jun 2027 09:13:51.188   13 Jun 2027 09:14:04.318            13.130          6071.156
       487   13 Jun 2027 09:14:53.087   13 Jun 2027 09:14:56.348             3.261           544.187
       488   13 Jun 2027 09:15:13.905   13 Jun 2027 09:15:15.526             1.621           321.750
       489   13 Jun 2027 09:15:59.314   13 Jun 2027 09:15:59.858             0.544           214.344
       490   13 Jun 2027 09:16:37.675   13 Jun 2027 09:16:39.683             2.008           751.406
       491   13 Jun 2027 09:17:07.895   13 Jun 2027 09:17:10.688             2.793           881.625
       492   13 Jun 2027 09:17:44.889   13 Jun 2027 09:17:51.492             6.603           588.844
       493   13 Jun 2027 09:18:01.867   13 Jun 2027 09:18:03.454             1.587           171.875
       494   13 Jun 2027 09:18:17.798   13 Jun 2027 09:18:19.447             1.649           448.250
       495   13 Jun 2027 09:18:54.070   13 Jun 2027 09:18:57.124             3.054           510.625
       496   13 Jun 2027 09:19:15.855   13 Jun 2027 09:19:16.680             0.825           336.437
       497   13 Jun 2027 09:19:21.997   13 Jun 2027 09:19:24.833             2.836           166.156
       498   13 Jun 2027 09:19:48.168   13 Jun 2027 09:19:51.858             3.690           484.906
       499   13 Jun 2027 09:20:13.803   13 Jun 2027 09:20:15.460             1.657           390.594
       500   13 Jun 2027 09:20:47.201   13 Jun 2027 09:20:49.286             2.085           991.906
       501   13 Jun 2027 09:20:56.384   13 Jun 2027 09:20:59.321             2.937           150.406
       502   13 Jun 2027 10:50:45.585   13 Jun 2027 10:50:59.808            14.223          7111.500
       503   13 Jun 2027 10:51:19.254   13 Jun 2027 10:51:21.765             2.511           880.969
       504   13 Jun 2027 10:51:47.478   13 Jun 2027 10:51:50.516             3.038           723.156
       505   13 Jun 2027 10:52:30.166   13 Jun 2027 10:52:33.929             3.763           961.594
       506   13 Jun 2027 10:53:02.194   13 Jun 2027 10:53:03.568             1.374           687.000
       507   13 Jun 2027 10:53:11.272   13 Jun 2027 10:53:12.491             1.219           348.937
       508   13 Jun 2027 10:53:42.977   13 Jun 2027 10:53:45.970             2.993           828.250
       509   13 Jun 2027 10:53:50.912   13 Jun 2027 10:53:55.171             4.259           154.438
       510   13 Jun 2027 10:54:32.082   13 Jun 2027 10:54:34.955             2.873          1153.469
       511   13 Jun 2027 10:54:40.377   13 Jun 2027 10:54:41.439             1.062           152.750
       512   13 Jun 2027 10:55:07.545   13 Jun 2027 10:55:10.142             2.597           733.875
       513   13 Jun 2027 10:55:29.000   13 Jun 2027 10:55:32.790             3.790            44.219
       514   13 Jun 2027 10:56:32.660   13 Jun 2027 10:56:39.455             6.795          1870.938
       515   13 Jun 2027 10:57:02.943   13 Jun 2027 10:57:06.728             3.785           531.563
