uniorb/output/strategy_2/Camera/Camera_KinoSat_110509.txt

KinoSat_110509
-------------------------
    Access    *     Start Time (UTCG)     *     Stop Time (UTCG)  *   Duration (s) *   Data (Mbytes)
         1   01 Jun 2027 03:10:15.087   01 Jun 2027 03:10:20.492             5.405          2702.500
         2   01 Jun 2027 03:10:53.744   01 Jun 2027 03:10:54.378             0.634           317.000
         3   01 Jun 2027 03:11:02.121   01 Jun 2027 03:11:04.285             2.164          1082.000
         4   01 Jun 2027 03:11:34.269   01 Jun 2027 03:11:38.048             3.779          1889.500
         5   01 Jun 2027 03:12:14.092   01 Jun 2027 03:12:20.037             5.945          2972.500
         6   01 Jun 2027 03:12:47.740   01 Jun 2027 03:13:00.954            13.214          6607.000
         7   01 Jun 2027 04:45:25.089   01 Jun 2027 04:45:39.123            14.034          7017.000
         8   01 Jun 2027 04:46:38.281   01 Jun 2027 04:46:41.539             3.258          1629.000
         9   01 Jun 2027 04:47:04.276   01 Jun 2027 04:47:05.873             1.597           798.500
        10   01 Jun 2027 04:47:15.917   01 Jun 2027 04:47:18.040             2.123          1061.500
        11   01 Jun 2027 04:47:27.123   01 Jun 2027 04:47:35.908             8.785          4392.500
        12   01 Jun 2027 04:48:18.692   01 Jun 2027 04:48:27.006             8.314          4157.000
        13   01 Jun 2027 04:49:45.213   01 Jun 2027 04:49:51.333             6.120          3060.000
        14   01 Jun 2027 04:50:30.214   01 Jun 2027 04:50:35.350             5.136          2568.000
        15   01 Jun 2027 04:51:16.091   01 Jun 2027 04:51:19.735             3.644          1822.000
        16   01 Jun 2027 04:51:27.671   01 Jun 2027 04:51:29.991             2.320          1160.000
        17   01 Jun 2027 04:51:56.027   01 Jun 2027 04:52:01.120             5.093          2546.500
        18   01 Jun 2027 06:21:50.600   01 Jun 2027 06:22:01.331            10.731          5365.500
        19   01 Jun 2027 06:22:47.328   01 Jun 2027 06:22:54.263             6.935          3467.500
        20   01 Jun 2027 06:23:31.559   01 Jun 2027 06:23:41.126             9.567          4783.500
        21   01 Jun 2027 06:24:24.561   01 Jun 2027 06:24:27.212             2.651          1325.500
        22   01 Jun 2027 06:24:48.567   01 Jun 2027 06:24:55.526             6.959          3479.500
        23   01 Jun 2027 06:25:42.047   01 Jun 2027 06:25:44.937             2.890          1445.000
        24   01 Jun 2027 06:25:57.706   01 Jun 2027 06:26:02.298             4.592          2296.000
        25   01 Jun 2027 06:26:37.166   01 Jun 2027 06:26:51.813            14.647          7323.500
        26   01 Jun 2027 07:59:05.030   01 Jun 2027 07:59:15.178            10.148          5074.000
        27   01 Jun 2027 08:00:46.512   01 Jun 2027 08:00:46.569             0.057            28.500
        28   01 Jun 2027 08:00:47.357   01 Jun 2027 08:00:47.438             0.081            40.500
        29   01 Jun 2027 08:01:14.218   01 Jun 2027 08:01:24.327            10.109          5054.500
        30   01 Jun 2027 08:02:09.963   01 Jun 2027 08:02:11.641             1.678           839.000
        31   01 Jun 2027 08:02:43.559   01 Jun 2027 08:02:44.042             0.483           241.500
        32   01 Jun 2027 08:03:27.657   01 Jun 2027 08:03:37.459             9.802          4901.000
        33   01 Jun 2027 09:35:19.551   01 Jun 2027 09:35:24.728             5.177          2588.500
        34   01 Jun 2027 09:35:57.397   01 Jun 2027 09:36:06.681             9.284          4642.000
        35   01 Jun 2027 09:37:31.763   01 Jun 2027 09:37:32.130             0.367           183.500
        36   01 Jun 2027 09:37:50.805   01 Jun 2027 09:37:57.215             6.410          3205.000
        37   01 Jun 2027 09:38:48.789   01 Jun 2027 09:39:08.323            19.534          9767.000
        38   02 Jun 2027 03:22:08.037   02 Jun 2027 03:22:12.481             4.444          2222.000
        39   02 Jun 2027 03:22:34.283   02 Jun 2027 03:22:35.880             1.597           798.500
        40   02 Jun 2027 03:22:50.996   02 Jun 2027 03:22:53.600             2.604          1302.000
        41   02 Jun 2027 03:23:05.709   02 Jun 2027 03:23:16.097            10.388          5194.000
        42   02 Jun 2027 03:23:59.772   02 Jun 2027 03:24:00.478             0.706           353.000
        43   02 Jun 2027 03:24:03.875   02 Jun 2027 03:24:09.904             6.029          3014.500
        44   02 Jun 2027 03:24:36.912   02 Jun 2027 03:24:47.977            11.065          5532.500
        45   02 Jun 2027 03:26:00.168   02 Jun 2027 03:26:08.077             7.909          3954.500
        46   02 Jun 2027 04:57:04.235   02 Jun 2027 04:57:07.721             3.486          1743.000
        47   02 Jun 2027 04:57:50.572   02 Jun 2027 04:57:56.271             5.699          2849.500
        48   02 Jun 2027 04:58:40.802   02 Jun 2027 04:58:44.129             3.327          1663.500
        49   02 Jun 2027 04:59:22.677   02 Jun 2027 04:59:39.976            17.299          8649.500
        50   02 Jun 2027 05:01:04.974   02 Jun 2027 05:01:13.212             8.238          4119.000
        51   02 Jun 2027 05:02:08.039   02 Jun 2027 05:02:19.455            11.416          5708.000
        52   02 Jun 2027 05:03:18.017   02 Jun 2027 05:03:25.189             7.172          3586.000
        53   02 Jun 2027 05:03:56.893   02 Jun 2027 05:04:07.552            10.659          5329.500
        54   02 Jun 2027 06:33:22.807   02 Jun 2027 06:33:59.452            36.645         18322.500
        55   02 Jun 2027 06:36:39.564   02 Jun 2027 06:36:41.785             2.221          1110.500
        56   02 Jun 2027 06:37:07.158   02 Jun 2027 06:37:07.872             0.714           357.000
        57   02 Jun 2027 06:37:48.691   02 Jun 2027 06:37:52.521             3.830          1915.000
        58   02 Jun 2027 06:38:17.616   02 Jun 2027 06:38:23.761             6.145          3072.500
        59   02 Jun 2027 06:39:42.485   02 Jun 2027 06:39:47.601             5.116          2558.000
        60   02 Jun 2027 08:11:38.311   02 Jun 2027 08:11:40.245             1.934           967.000
        61   02 Jun 2027 08:12:02.065   02 Jun 2027 08:12:09.309             7.244          3622.000
        62   02 Jun 2027 08:12:57.180   02 Jun 2027 08:13:03.963             6.783          3391.500
        63   02 Jun 2027 08:14:38.814   02 Jun 2027 08:14:39.316             0.502           251.000
        64   02 Jun 2027 08:15:01.519   02 Jun 2027 08:15:06.693             5.174          2587.000
        65   02 Jun 2027 09:46:58.432   02 Jun 2027 09:46:58.636             0.204           102.000
        66   02 Jun 2027 09:47:06.150   02 Jun 2027 09:47:14.146             7.996          3998.000
        67   02 Jun 2027 09:47:52.926   02 Jun 2027 09:48:02.237             9.311          4655.500
        68   02 Jun 2027 09:49:12.147   02 Jun 2027 09:49:22.928            10.781          5390.500
        69   02 Jun 2027 09:50:06.807   02 Jun 2027 09:50:11.499             4.692          2346.000
        70   02 Jun 2027 09:50:42.161   02 Jun 2027 09:50:53.512            11.351          5675.500
        71   02 Jun 2027 09:51:30.844   02 Jun 2027 09:51:35.992             5.148          2574.000
        72   02 Jun 2027 09:51:49.069   02 Jun 2027 09:52:03.883            14.814          7407.000
        73   03 Jun 2027 03:32:26.698   03 Jun 2027 03:32:34.220             7.522          3761.000
        74   03 Jun 2027 03:33:51.856   03 Jun 2027 03:33:54.690             2.834          1417.000
        75   03 Jun 2027 03:34:13.250   03 Jun 2027 03:34:13.514             0.264           132.000
        76   03 Jun 2027 03:34:37.067   03 Jun 2027 03:34:44.390             7.323          3661.500
        77   03 Jun 2027 03:35:20.651   03 Jun 2027 03:35:22.918             2.267          1133.500
        78   03 Jun 2027 03:35:53.400   03 Jun 2027 03:35:59.215             5.815          2907.500
        79   03 Jun 2027 03:36:10.026   03 Jun 2027 03:36:10.294             0.268           134.000
        80   03 Jun 2027 03:37:04.938   03 Jun 2027 03:37:06.029             1.091           545.500
        81   03 Jun 2027 03:37:17.369   03 Jun 2027 03:37:28.523            11.154          5577.000
        82   03 Jun 2027 05:08:37.543   03 Jun 2027 05:08:39.902             2.359          1179.500
        83   03 Jun 2027 05:08:51.024   03 Jun 2027 05:08:54.756             3.732          1866.000
        84   03 Jun 2027 05:09:18.646   03 Jun 2027 05:09:47.921            29.275         14637.500
        85   03 Jun 2027 05:11:41.275   03 Jun 2027 05:11:48.086             6.811          3405.500
        86   03 Jun 2027 05:12:27.069   03 Jun 2027 05:12:30.162             3.093          1546.500
        87   03 Jun 2027 05:13:31.042   03 Jun 2027 05:13:41.948            10.906          5453.000
        88   03 Jun 2027 05:14:35.239   03 Jun 2027 05:14:39.142             3.903          1951.500
        89   03 Jun 2027 05:14:59.828   03 Jun 2027 05:15:05.856             6.028          3014.000
        90   03 Jun 2027 05:15:56.663   03 Jun 2027 05:16:03.660             6.997          3498.500
        91   03 Jun 2027 06:45:42.041   03 Jun 2027 06:46:03.407            21.366         10683.000
        92   03 Jun 2027 06:47:13.075   03 Jun 2027 06:47:22.669             9.594          4797.000
        93   03 Jun 2027 06:48:27.868   03 Jun 2027 06:48:29.783             1.915           957.500
        94   03 Jun 2027 06:48:54.523   03 Jun 2027 06:49:04.136             9.613          4806.500
        95   03 Jun 2027 06:49:54.808   03 Jun 2027 06:49:55.202             0.394           197.000
        96   03 Jun 2027 06:49:56.474   03 Jun 2027 06:49:59.656             3.182          1591.000
        97   03 Jun 2027 06:50:14.923   03 Jun 2027 06:50:17.800             2.877          1438.500
        98   03 Jun 2027 06:50:41.156   03 Jun 2027 06:50:43.534             2.378          1189.000
        99   03 Jun 2027 08:23:41.200   03 Jun 2027 08:23:51.845            10.645          5322.500
       100   03 Jun 2027 08:24:47.199   03 Jun 2027 08:24:48.966             1.767           883.500
       101   03 Jun 2027 08:25:21.694   03 Jun 2027 08:25:27.964             6.270          3135.000
       102   03 Jun 2027 08:25:56.386   03 Jun 2027 08:25:59.183             2.797          1398.500
       103   03 Jun 2027 08:26:20.745   03 Jun 2027 08:26:28.431             7.686          3843.000
       104   03 Jun 2027 08:27:03.606   03 Jun 2027 08:27:08.502             4.896          2448.000
       105   03 Jun 2027 09:56:50.267   03 Jun 2027 09:57:20.843            30.576         15288.000
       106   03 Jun 2027 09:59:39.505   03 Jun 2027 09:59:43.021             3.516          1758.000
       107   03 Jun 2027 10:00:46.031   03 Jun 2027 10:00:46.796             0.765           382.500
       108   03 Jun 2027 10:01:09.971   03 Jun 2027 10:01:10.194             0.223           111.500
       109   03 Jun 2027 10:01:21.124   03 Jun 2027 10:01:27.626             6.502          3251.000
       110   03 Jun 2027 10:02:06.252   03 Jun 2027 10:02:06.637             0.385           192.500
       111   03 Jun 2027 10:02:25.747   03 Jun 2027 10:02:45.384            19.637          9818.500
       112   03 Jun 2027 10:03:09.394   03 Jun 2027 10:03:20.336            10.942          5471.000
       113   04 Jun 2027 03:43:33.316   04 Jun 2027 03:43:44.890            11.574          5787.000
       114   04 Jun 2027 03:44:44.277   04 Jun 2027 03:44:51.971             7.694          3847.000
       115   04 Jun 2027 03:45:36.330   04 Jun 2027 03:45:44.070             7.740          3870.000
       116   04 Jun 2027 03:45:58.081   04 Jun 2027 03:45:58.081             0.000             0.000
       117   04 Jun 2027 03:46:59.410   04 Jun 2027 03:47:04.959             5.549          2774.500
       118   04 Jun 2027 03:48:46.250   04 Jun 2027 03:48:47.625             1.375           687.500
       119   04 Jun 2027 03:49:11.858   04 Jun 2027 03:49:12.081             0.223           111.500
       120   04 Jun 2027 03:49:17.938   04 Jun 2027 03:49:24.345             6.407          3203.500
       121   04 Jun 2027 03:50:04.655   04 Jun 2027 03:50:11.978             7.323          3661.500
       122   04 Jun 2027 03:51:27.868   04 Jun 2027 03:51:28.863             0.995           497.500
       123   04 Jun 2027 03:51:32.515   04 Jun 2027 03:51:34.873             2.358          1179.000
       124   04 Jun 2027 03:51:39.043   04 Jun 2027 03:51:42.163             3.120          1560.000
       125   04 Jun 2027 05:20:54.897   04 Jun 2027 05:20:55.005             0.108            54.000
       126   04 Jun 2027 05:21:03.587   04 Jun 2027 05:21:14.138            10.551          5275.500
       127   04 Jun 2027 05:21:57.105   04 Jun 2027 05:22:06.232             9.127          4563.500
       128   04 Jun 2027 05:22:48.114   04 Jun 2027 05:22:49.950             1.836           918.000
       129   04 Jun 2027 05:23:08.473   04 Jun 2027 05:23:13.660             5.187          2593.500
       130   04 Jun 2027 05:23:41.323   04 Jun 2027 05:24:03.552            22.229         11114.500
       131   04 Jun 2027 05:26:39.206   04 Jun 2027 05:26:40.644             1.438           719.000
       132   04 Jun 2027 05:27:12.233   04 Jun 2027 05:27:24.282            12.049          6024.500
       133   04 Jun 2027 06:57:43.677   04 Jun 2027 06:57:57.944            14.267          7133.500
       134   04 Jun 2027 06:59:47.348   04 Jun 2027 07:00:04.159            16.811          8405.500
       135   04 Jun 2027 07:00:41.750   04 Jun 2027 07:00:51.264             9.514          4757.000
       136   04 Jun 2027 07:02:00.962   04 Jun 2027 07:02:03.409             2.447          1223.500
       137   04 Jun 2027 07:02:30.618   04 Jun 2027 07:02:36.267             5.649          2824.500
       138   04 Jun 2027 07:03:59.855   04 Jun 2027 07:04:01.002             1.147           573.500
       139   04 Jun 2027 08:35:40.710   04 Jun 2027 08:35:40.759             0.049            24.500
       140   04 Jun 2027 08:35:56.968   04 Jun 2027 08:35:57.556             0.588           294.000
       141   04 Jun 2027 08:37:09.654   04 Jun 2027 08:37:13.645             3.991          1995.500
       142   04 Jun 2027 08:37:40.745   04 Jun 2027 08:37:43.633             2.888          1444.000
       143   04 Jun 2027 08:38:13.674   04 Jun 2027 08:38:16.487             2.813          1406.500
       144   04 Jun 2027 08:38:33.508   04 Jun 2027 08:38:38.303             4.795          2397.500
       145   04 Jun 2027 08:39:02.838   04 Jun 2027 08:39:08.983             6.145          3072.500
       146   04 Jun 2027 08:39:24.189   04 Jun 2027 08:39:24.189             0.000             0.000
       147   04 Jun 2027 10:09:17.399   04 Jun 2027 10:09:35.617            18.218          9109.000
       148   04 Jun 2027 10:11:00.593   04 Jun 2027 10:11:02.660             2.067          1033.500
       149   04 Jun 2027 10:11:45.924   04 Jun 2027 10:11:55.806             9.882          4941.000
       150   04 Jun 2027 10:12:43.967   04 Jun 2027 10:12:47.142             3.175          1587.500
       151   04 Jun 2027 10:13:10.320   04 Jun 2027 10:13:11.303             0.983           491.500
       152   04 Jun 2027 10:13:17.127   04 Jun 2027 10:13:19.082             1.955           977.500
       153   04 Jun 2027 10:13:33.994   04 Jun 2027 10:13:43.236             9.242          4621.000
       154   04 Jun 2027 10:15:22.642   04 Jun 2027 10:15:27.922             5.280          2640.000
       155   04 Jun 2027 10:15:59.868   04 Jun 2027 10:15:59.908             0.040            20.000
       156   04 Jun 2027 10:16:21.305   04 Jun 2027 10:16:24.202             2.897          1448.500
       157   04 Jun 2027 10:16:39.575   04 Jun 2027 10:16:40.429             0.854           427.000
       158   05 Jun 2027 03:55:01.513   05 Jun 2027 03:55:14.185            12.672          6336.000
       159   05 Jun 2027 03:56:43.783   05 Jun 2027 03:56:46.337             2.554          1277.000
       160   05 Jun 2027 03:56:59.843   05 Jun 2027 03:57:06.847             7.004          3502.000
       161   05 Jun 2027 03:58:00.751   05 Jun 2027 03:58:14.908            14.157          7078.500
       162   05 Jun 2027 04:00:02.854   05 Jun 2027 04:00:03.602             0.748           374.000
       163   05 Jun 2027 04:00:16.322   05 Jun 2027 04:00:21.777             5.455          2727.500
       164   05 Jun 2027 04:00:50.955   05 Jun 2027 04:01:01.689            10.734          5367.000
       165   05 Jun 2027 04:02:28.184   05 Jun 2027 04:02:28.671             0.487           243.500
       166   05 Jun 2027 04:02:36.369   05 Jun 2027 04:02:40.856             4.487          2243.500
       167   05 Jun 2027 04:03:20.526   05 Jun 2027 04:03:20.785             0.259           129.500
       168   05 Jun 2027 04:03:33.261   05 Jun 2027 04:03:36.383             3.122          1561.000
       169   05 Jun 2027 04:03:55.658   05 Jun 2027 04:04:03.249             7.591          3795.500
       170   05 Jun 2027 05:32:50.244   05 Jun 2027 05:32:52.793             2.549          1274.500
       171   05 Jun 2027 05:33:03.963   05 Jun 2027 05:33:16.636            12.673          6336.500
       172   05 Jun 2027 05:34:26.876   05 Jun 2027 05:34:32.697             5.821          2910.500
       173   05 Jun 2027 05:35:14.732   05 Jun 2027 05:35:23.437             8.705          4352.500
       174   05 Jun 2027 05:36:41.470   05 Jun 2027 05:36:44.658             3.188          1594.000
       175   05 Jun 2027 05:36:50.504   05 Jun 2027 05:36:52.217             1.713           856.500
       176   05 Jun 2027 05:37:16.702   05 Jun 2027 05:37:25.298             8.596          4298.000
       177   05 Jun 2027 05:38:15.921   05 Jun 2027 05:38:20.793             4.872          2436.000
       178   05 Jun 2027 05:38:59.641   05 Jun 2027 05:39:19.773            20.132         10066.000
       179   05 Jun 2027 05:40:10.470   05 Jun 2027 05:40:10.470             0.000             0.000
       180   05 Jun 2027 07:09:34.650   05 Jun 2027 07:09:48.536            13.886          6943.000
       181   05 Jun 2027 07:10:51.730   05 Jun 2027 07:10:56.058             4.328          2164.000
       182   05 Jun 2027 07:11:15.206   05 Jun 2027 07:11:20.250             5.044          2522.000
       183   05 Jun 2027 07:11:56.034   05 Jun 2027 07:12:04.122             8.088          4044.000
       184   05 Jun 2027 07:12:56.525   05 Jun 2027 07:13:02.427             5.902          2951.000
       185   05 Jun 2027 07:13:50.285   05 Jun 2027 07:13:52.158             1.873           936.500
       186   05 Jun 2027 07:14:09.150   05 Jun 2027 07:14:09.633             0.483           241.500
       187   05 Jun 2027 07:14:29.029   05 Jun 2027 07:14:31.806             2.777          1388.500
       188   05 Jun 2027 07:15:22.278   05 Jun 2027 07:15:24.334             2.056          1028.000
       189   05 Jun 2027 07:15:49.955   05 Jun 2027 07:15:53.776             3.821          1910.500
       190   05 Jun 2027 08:47:42.236   05 Jun 2027 08:47:44.611             2.375          1187.500
       191   05 Jun 2027 08:47:56.385   05 Jun 2027 08:48:12.179            15.794          7897.000
       192   05 Jun 2027 08:49:45.184   05 Jun 2027 08:49:45.442             0.258           129.000
       193   05 Jun 2027 08:50:06.827   05 Jun 2027 08:50:13.395             6.568          3284.000
       194   05 Jun 2027 08:50:43.723   05 Jun 2027 08:50:56.178            12.455          6227.500
       195   05 Jun 2027 10:21:33.287   05 Jun 2027 10:21:43.811            10.524          5262.000
       196   05 Jun 2027 10:22:26.998   05 Jun 2027 10:22:28.043             1.045           522.500
       197   05 Jun 2027 10:23:09.211   05 Jun 2027 10:23:25.711            16.500          8250.000
       198   05 Jun 2027 10:25:18.522   05 Jun 2027 10:25:20.491             1.969           984.500
       199   05 Jun 2027 10:26:12.182   05 Jun 2027 10:26:16.752             4.570          2285.000
       200   05 Jun 2027 10:26:52.708   05 Jun 2027 10:26:57.881             5.173          2586.500
       201   05 Jun 2027 10:27:34.350   05 Jun 2027 10:27:34.438             0.088            44.000
       202   05 Jun 2027 10:27:38.333   05 Jun 2027 10:27:44.128             5.795          2897.500
       203   06 Jun 2027 04:07:49.951   06 Jun 2027 04:07:51.260             1.309           654.500
       204   06 Jun 2027 04:08:48.730   06 Jun 2027 04:08:55.702             6.972          3486.000
       205   06 Jun 2027 04:09:09.213   06 Jun 2027 04:09:09.213             0.000             0.000
       206   06 Jun 2027 04:09:42.999   06 Jun 2027 04:09:46.052             3.053          1526.500
       207   06 Jun 2027 04:10:33.815   06 Jun 2027 04:10:45.618            11.803          5901.500
       208   06 Jun 2027 04:12:05.624   06 Jun 2027 04:12:08.679             3.055          1527.500
       209   06 Jun 2027 04:12:25.504   06 Jun 2027 04:12:28.977             3.473          1736.500
       210   06 Jun 2027 04:13:06.396   06 Jun 2027 04:13:09.172             2.776          1388.000
       211   06 Jun 2027 04:13:28.073   06 Jun 2027 04:13:31.154             3.081          1540.500
       212   06 Jun 2027 04:14:11.226   06 Jun 2027 04:14:21.865            10.639          5319.500
       213   06 Jun 2027 04:15:02.608   06 Jun 2027 04:15:05.313             2.705          1352.500
       214   06 Jun 2027 04:15:29.856   06 Jun 2027 04:15:34.405             4.549          2274.500
       215   06 Jun 2027 04:16:00.185   06 Jun 2027 04:16:06.744             6.559          3279.500
       216   06 Jun 2027 04:16:09.325   06 Jun 2027 04:16:12.715             3.390          1695.000
       217   06 Jun 2027 05:44:56.648   06 Jun 2027 05:45:06.462             9.814          4907.000
       218   06 Jun 2027 05:45:43.561   06 Jun 2027 05:45:50.841             7.280          3640.000
       219   06 Jun 2027 05:46:49.016   06 Jun 2027 05:46:53.443             4.427          2213.500
       220   06 Jun 2027 05:47:12.301   06 Jun 2027 05:47:13.559             1.258           629.000
       221   06 Jun 2027 05:47:28.807   06 Jun 2027 05:47:42.292            13.485          6742.500
       222   06 Jun 2027 05:48:43.390   06 Jun 2027 05:48:44.109             0.719           359.500
       223   06 Jun 2027 05:48:51.752   06 Jun 2027 05:48:55.472             3.720          1860.000
       224   06 Jun 2027 05:49:20.326   06 Jun 2027 05:49:23.791             3.465          1732.500
       225   06 Jun 2027 05:49:38.362   06 Jun 2027 05:49:46.819             8.457          4228.500
       226   06 Jun 2027 05:49:59.227   06 Jun 2027 05:49:59.227             0.000             0.000
       227   06 Jun 2027 05:50:24.850   06 Jun 2027 05:50:44.163            19.313          9656.500
       228   06 Jun 2027 05:51:44.868   06 Jun 2027 05:51:46.769             1.901           950.500
       229   06 Jun 2027 07:21:59.092   06 Jun 2027 07:22:05.096             6.004          3002.000
       230   06 Jun 2027 07:22:58.184   06 Jun 2027 07:22:59.067             0.883           441.500
       231   06 Jun 2027 07:23:45.276   06 Jun 2027 07:23:51.613             6.337          3168.500
       232   06 Jun 2027 07:24:34.955   06 Jun 2027 07:24:41.200             6.245          3122.500
       233   06 Jun 2027 07:25:22.495   06 Jun 2027 07:25:40.024            17.529          8764.500
       234   06 Jun 2027 07:27:16.692   06 Jun 2027 07:27:17.057             0.365           182.500
       235   06 Jun 2027 07:27:19.996   06 Jun 2027 07:27:21.704             1.708           854.000
       236   06 Jun 2027 07:27:39.130   06 Jun 2027 07:27:39.879             0.749           374.500
       237   06 Jun 2027 07:27:44.644   06 Jun 2027 07:27:47.091             2.447          1223.500
       238   06 Jun 2027 08:58:56.370   06 Jun 2027 08:59:02.447             6.077          3038.500
       239   06 Jun 2027 08:59:38.128   06 Jun 2027 08:59:39.683             1.555           777.500
       240   06 Jun 2027 09:00:09.997   06 Jun 2027 09:00:16.639             6.642          3321.000
       241   06 Jun 2027 09:00:52.679   06 Jun 2027 09:00:55.859             3.180          1590.000
       242   06 Jun 2027 09:01:20.704   06 Jun 2027 09:01:27.949             7.245          3622.500
       243   06 Jun 2027 09:02:27.053   06 Jun 2027 09:02:27.767             0.714           357.000
       244   06 Jun 2027 09:02:30.823   06 Jun 2027 09:02:31.838             1.015           507.500
       245   06 Jun 2027 09:02:43.391   06 Jun 2027 09:02:47.180             3.789          1894.500
       246   06 Jun 2027 09:03:14.468   06 Jun 2027 09:03:28.567            14.099          7049.500
       247   06 Jun 2027 10:34:00.009   06 Jun 2027 10:34:18.521            18.512          9256.000
       248   06 Jun 2027 10:35:41.236   06 Jun 2027 10:35:42.887             1.651           825.500
       249   06 Jun 2027 10:36:40.615   06 Jun 2027 10:36:46.260             5.645          2822.500
       250   06 Jun 2027 10:37:14.308   06 Jun 2027 10:37:39.927            25.619         12809.500
       251   07 Jun 2027 04:19:48.678   07 Jun 2027 04:19:52.006             3.328          1664.000
       252   07 Jun 2027 04:20:31.777   07 Jun 2027 04:20:33.953             2.176          1088.000
       253   07 Jun 2027 04:20:51.380   07 Jun 2027 04:21:01.976            10.596          5298.000
       254   07 Jun 2027 04:22:04.862   07 Jun 2027 04:22:22.347            17.485          8742.500
       255   07 Jun 2027 04:23:43.439   07 Jun 2027 04:23:48.553             5.114          2557.000
       256   07 Jun 2027 04:24:22.611   07 Jun 2027 04:24:35.920            13.309          6654.500
       257   07 Jun 2027 04:26:17.928   07 Jun 2027 04:26:17.994             0.066            33.000
       258   07 Jun 2027 04:26:21.394   07 Jun 2027 04:26:24.415             3.021          1510.500
       259   07 Jun 2027 04:26:35.169   07 Jun 2027 04:26:40.600             5.431          2715.500
       260   07 Jun 2027 04:27:08.916   07 Jun 2027 04:27:16.759             7.843          3921.500
       261   07 Jun 2027 04:27:17.949   07 Jun 2027 04:27:25.149             7.200          3600.000
       262   07 Jun 2027 05:57:22.505   07 Jun 2027 05:57:28.225             5.720          2860.000
       263   07 Jun 2027 05:58:09.038   07 Jun 2027 05:58:31.768            22.730         11365.000
       264   07 Jun 2027 06:00:04.545   07 Jun 2027 06:00:17.637            13.092          6546.000
       265   07 Jun 2027 06:01:28.352   07 Jun 2027 06:01:32.291             3.939          1969.500
       266   07 Jun 2027 06:02:10.088   07 Jun 2027 06:02:23.572            13.484          6742.000
       267   07 Jun 2027 06:03:37.837   07 Jun 2027 06:03:46.889             9.052          4526.000
       268   07 Jun 2027 07:34:16.791   07 Jun 2027 07:34:44.784            27.993         13996.500
       269   07 Jun 2027 07:36:00.553   07 Jun 2027 07:36:03.758             3.205          1602.500
       270   07 Jun 2027 07:36:59.215   07 Jun 2027 07:36:59.737             0.522           261.000
       271   07 Jun 2027 07:37:03.517   07 Jun 2027 07:37:07.154             3.637          1818.500
       272   07 Jun 2027 07:37:27.541   07 Jun 2027 07:37:29.754             2.213          1106.500
       273   07 Jun 2027 07:37:53.396   07 Jun 2027 07:37:55.897             2.501          1250.500
       274   07 Jun 2027 07:38:22.264   07 Jun 2027 07:38:26.236             3.972          1986.000
       275   07 Jun 2027 07:39:09.797   07 Jun 2027 07:39:16.422             6.625          3312.500
       276   07 Jun 2027 07:39:42.944   07 Jun 2027 07:39:43.288             0.344           172.000
       277   07 Jun 2027 09:11:10.060   07 Jun 2027 09:11:10.613             0.553           276.500
       278   07 Jun 2027 09:11:55.484   07 Jun 2027 09:11:58.685             3.201          1600.500
       279   07 Jun 2027 09:12:23.489   07 Jun 2027 09:12:29.084             5.595          2797.500
       280   07 Jun 2027 09:13:48.094   07 Jun 2027 09:13:48.647             0.553           276.500
       281   07 Jun 2027 09:14:24.270   07 Jun 2027 09:14:24.294             0.024            12.000
       282   07 Jun 2027 09:14:30.737   07 Jun 2027 09:14:40.003             9.266          4633.000
       283   07 Jun 2027 10:48:49.826   07 Jun 2027 10:48:52.051             2.225          1112.500
       284   07 Jun 2027 10:49:37.817   07 Jun 2027 10:49:38.241             0.424           212.000
       285   07 Jun 2027 10:49:46.530   07 Jun 2027 10:50:08.538            22.008         11004.000
       286   08 Jun 2027 03:00:00.000   08 Jun 2027 03:00:15.486            15.486          7743.000
       287   08 Jun 2027 03:01:04.530   08 Jun 2027 03:01:04.530             0.000             0.000
       288   08 Jun 2027 03:01:22.929   08 Jun 2027 03:01:37.140            14.211          7105.500
       289   08 Jun 2027 04:33:17.360   08 Jun 2027 04:33:20.888             3.528          1764.000
       290   08 Jun 2027 04:33:46.368   08 Jun 2027 04:33:59.601            13.233          6616.500
       291   08 Jun 2027 04:34:56.346   08 Jun 2027 04:35:08.743            12.397          6198.500
       292   08 Jun 2027 04:36:19.837   08 Jun 2027 04:36:21.193             1.356           678.000
       293   08 Jun 2027 04:36:46.981   08 Jun 2027 04:36:53.570             6.589          3294.500
       294   08 Jun 2027 04:37:35.132   08 Jun 2027 04:37:42.298             7.166          3583.000
       295   08 Jun 2027 04:38:16.774   08 Jun 2027 04:38:25.126             8.352          4176.000
       296   08 Jun 2027 04:39:18.554   08 Jun 2027 04:39:20.358             1.804           902.000
       297   08 Jun 2027 04:39:31.574   08 Jun 2027 04:39:41.972            10.398          5199.000
       298   08 Jun 2027 04:40:01.562   08 Jun 2027 04:40:08.290             6.728          3364.000
       299   08 Jun 2027 06:09:29.897   08 Jun 2027 06:09:41.692            11.795          5897.500
       300   08 Jun 2027 06:11:29.686   08 Jun 2027 06:11:43.958            14.272          7136.000
       301   08 Jun 2027 06:12:42.059   08 Jun 2027 06:12:43.918             1.859           929.500
       302   08 Jun 2027 06:13:06.170   08 Jun 2027 06:13:12.317             6.147          3073.500
       303   08 Jun 2027 06:13:44.594   08 Jun 2027 06:14:00.360            15.766          7883.000
       304   08 Jun 2027 06:15:27.477   08 Jun 2027 06:15:28.419             0.942           471.000
       305   08 Jun 2027 06:15:47.764   08 Jun 2027 06:15:55.569             7.805          3902.500
       306   08 Jun 2027 07:47:13.359   08 Jun 2027 07:47:19.517             6.158          3079.000
       307   08 Jun 2027 07:47:58.540   08 Jun 2027 07:48:01.538             2.998          1499.000
       308   08 Jun 2027 07:48:36.819   08 Jun 2027 07:48:37.143             0.324           162.000
       309   08 Jun 2027 07:48:55.285   08 Jun 2027 07:48:57.727             2.442          1221.000
       310   08 Jun 2027 07:49:14.824   08 Jun 2027 07:49:24.427             9.603          4801.500
       311   08 Jun 2027 07:50:13.491   08 Jun 2027 07:50:18.102             4.611          2305.500
       312   08 Jun 2027 07:50:36.859   08 Jun 2027 07:50:41.706             4.847          2423.500
       313   08 Jun 2027 07:51:24.981   08 Jun 2027 07:51:36.243            11.262          5631.000
       314   08 Jun 2027 09:23:19.622   08 Jun 2027 09:23:22.870             3.248          1624.000
       315   08 Jun 2027 09:23:48.593   08 Jun 2027 09:23:59.821            11.228          5614.000
       316   08 Jun 2027 09:24:48.517   08 Jun 2027 09:24:53.524             5.007          2503.500
       317   08 Jun 2027 09:25:42.286   08 Jun 2027 09:25:47.906             5.620          2810.000
       318   08 Jun 2027 09:26:19.710   08 Jun 2027 09:26:22.955             3.245          1622.500
       319   08 Jun 2027 09:26:44.151   08 Jun 2027 09:26:44.902             0.751           375.500
       320   08 Jun 2027 09:27:09.982   08 Jun 2027 09:27:21.972            11.990          5995.000
       321   09 Jun 2027 03:10:29.682   09 Jun 2027 03:10:35.289             5.607          2803.500
       322   09 Jun 2027 03:11:08.644   09 Jun 2027 03:11:10.425             1.781           890.500
       323   09 Jun 2027 03:11:19.778   09 Jun 2027 03:11:24.082             4.304          2152.000
       324   09 Jun 2027 03:12:05.294   09 Jun 2027 03:12:17.147            11.853          5926.500
       325   09 Jun 2027 03:13:05.642   09 Jun 2027 03:13:15.679            10.037          5018.500
       326   09 Jun 2027 03:13:59.697   09 Jun 2027 03:14:01.350             1.653           826.500
       327   09 Jun 2027 04:45:39.765   09 Jun 2027 04:45:41.576             1.811           905.500
       328   09 Jun 2027 04:46:45.557   09 Jun 2027 04:46:53.813             8.256          4128.000
       329   09 Jun 2027 04:47:33.464   09 Jun 2027 04:47:42.178             8.714          4357.000
       330   09 Jun 2027 04:48:23.626   09 Jun 2027 04:48:42.818            19.192          9596.000
       331   09 Jun 2027 04:49:54.106   09 Jun 2027 04:50:02.836             8.730          4365.000
       332   09 Jun 2027 04:50:44.728   09 Jun 2027 04:50:46.025             1.297           648.500
       333   09 Jun 2027 04:50:59.802   09 Jun 2027 04:51:10.348            10.546          5273.000
       334   09 Jun 2027 04:51:53.677   09 Jun 2027 04:51:58.151             4.474          2237.000
       335   09 Jun 2027 04:52:11.763   09 Jun 2027 04:52:11.763             0.000             0.000
       336   09 Jun 2027 06:22:04.801   09 Jun 2027 06:22:16.813            12.012          6006.000
       337   09 Jun 2027 06:23:02.569   09 Jun 2027 06:23:08.854             6.285          3142.500
       338   09 Jun 2027 06:23:59.198   09 Jun 2027 06:24:01.175             1.977           988.500
       339   09 Jun 2027 06:24:40.058   09 Jun 2027 06:24:41.935             1.877           938.500
       340   09 Jun 2027 06:25:03.284   09 Jun 2027 06:25:09.988             6.704          3352.000
       341   09 Jun 2027 06:25:58.778   09 Jun 2027 06:26:07.869             9.091          4545.500
       342   09 Jun 2027 06:26:51.563   09 Jun 2027 06:27:06.298            14.735          7367.500
       343   09 Jun 2027 07:59:19.860   09 Jun 2027 07:59:29.720             9.860          4930.000
       344   09 Jun 2027 08:01:01.347   09 Jun 2027 08:01:01.993             0.646           323.000
       345   09 Jun 2027 08:01:29.163   09 Jun 2027 08:01:38.925             9.762          4881.000
       346   09 Jun 2027 08:02:58.214   09 Jun 2027 08:02:58.568             0.354           177.000
       347   09 Jun 2027 08:03:33.602   09 Jun 2027 08:03:41.837             8.235          4117.500
       348   09 Jun 2027 09:35:34.234   09 Jun 2027 09:35:39.314             5.080          2540.000
       349   09 Jun 2027 09:36:12.492   09 Jun 2027 09:36:23.705            11.213          5606.500
       350   09 Jun 2027 09:37:48.067   09 Jun 2027 09:37:48.404             0.337           168.500
       351   09 Jun 2027 09:38:27.870   09 Jun 2027 09:38:35.918             8.048          4024.000
       352   09 Jun 2027 09:39:30.134   09 Jun 2027 09:39:31.773             1.639           819.500
       353   09 Jun 2027 09:40:02.008   09 Jun 2027 09:40:02.477             0.469           234.500
       354   09 Jun 2027 09:40:13.273   09 Jun 2027 09:40:16.058             2.785          1392.500
       355   10 Jun 2027 03:22:22.544   10 Jun 2027 03:22:27.071             4.527          2263.500
       356   10 Jun 2027 03:22:49.838   10 Jun 2027 03:22:51.890             2.052          1026.000
       357   10 Jun 2027 03:23:05.470   10 Jun 2027 03:23:08.571             3.101          1550.500
       358   10 Jun 2027 03:23:21.194   10 Jun 2027 03:23:30.807             9.613          4806.500
       359   10 Jun 2027 03:24:16.168   10 Jun 2027 03:24:16.312             0.144            72.000
       360   10 Jun 2027 03:24:19.391   10 Jun 2027 03:24:27.082             7.691          3845.500
       361   10 Jun 2027 03:25:19.853   10 Jun 2027 03:25:22.409             2.556          1278.000
       362   10 Jun 2027 03:25:37.581   10 Jun 2027 03:25:42.796             5.215          2607.500
       363   10 Jun 2027 03:26:07.031   10 Jun 2027 03:26:15.911             8.880          4440.000
       364   10 Jun 2027 04:57:18.657   10 Jun 2027 04:57:20.522             1.865           932.500
       365   10 Jun 2027 04:57:35.159   10 Jun 2027 04:58:04.901            29.742         14871.000
       366   10 Jun 2027 05:00:49.043   10 Jun 2027 05:01:00.659            11.616          5808.000
       367   10 Jun 2027 05:01:48.500   10 Jun 2027 05:01:52.421             3.921          1960.500
       368   10 Jun 2027 05:02:06.461   10 Jun 2027 05:02:08.723             2.262          1131.000
       369   10 Jun 2027 05:02:34.531   10 Jun 2027 05:02:43.249             8.718          4359.000
       370   10 Jun 2027 05:03:45.385   10 Jun 2027 05:03:45.477             0.092            46.000
       371   10 Jun 2027 05:03:46.316   10 Jun 2027 05:03:54.975             8.659          4329.500
       372   10 Jun 2027 05:04:20.806   10 Jun 2027 05:04:23.648             2.842          1421.000
       373   10 Jun 2027 06:33:37.600   10 Jun 2027 06:33:44.525             6.925          3462.500
       374   10 Jun 2027 06:34:21.026   10 Jun 2027 06:34:38.324            17.298          8649.000
       375   10 Jun 2027 06:35:51.176   10 Jun 2027 06:36:00.974             9.798          4899.000
       376   10 Jun 2027 06:36:56.729   10 Jun 2027 06:36:57.166             0.437           218.500
       377   10 Jun 2027 06:37:08.844   10 Jun 2027 06:37:13.056             4.212          2106.000
       378   10 Jun 2027 06:37:37.912   10 Jun 2027 06:37:55.847            17.935          8967.500
       379   10 Jun 2027 06:39:08.921   10 Jun 2027 06:39:09.198             0.277           138.500
       380   10 Jun 2027 06:39:51.763   10 Jun 2027 06:39:54.909             3.146          1573.000
       381   10 Jun 2027 08:11:52.860   10 Jun 2027 08:11:53.207             0.347           173.500
       382   10 Jun 2027 08:12:36.573   10 Jun 2027 08:12:37.143             0.570           285.000
       383   10 Jun 2027 08:12:40.136   10 Jun 2027 08:12:49.161             9.025          4512.500
       384   10 Jun 2027 08:13:37.390   10 Jun 2027 08:13:56.052            18.662          9331.000
       385   10 Jun 2027 08:15:17.060   10 Jun 2027 08:15:23.485             6.425          3212.500
       386   10 Jun 2027 09:47:13.092   10 Jun 2027 09:47:29.588            16.496          8248.000
       387   10 Jun 2027 09:48:54.603   10 Jun 2027 09:48:59.088             4.485          2242.500
       388   10 Jun 2027 09:49:23.409   10 Jun 2027 09:49:26.505             3.096          1548.000
       389   10 Jun 2027 09:49:53.932   10 Jun 2027 09:49:54.388             0.456           228.000
       390   10 Jun 2027 09:50:14.066   10 Jun 2027 09:50:21.525             7.459          3729.500
       391   10 Jun 2027 09:51:18.640   10 Jun 2027 09:51:24.507             5.867          2933.500
       392   10 Jun 2027 09:51:54.719   10 Jun 2027 09:51:58.417             3.698          1849.000
       393   10 Jun 2027 09:52:18.881   10 Jun 2027 09:52:20.432             1.551           775.500
       394   10 Jun 2027 09:52:41.118   10 Jun 2027 09:52:44.128             3.010          1505.000
       395   11 Jun 2027 03:32:41.218   11 Jun 2027 03:32:50.349             9.131          4565.500
       396   11 Jun 2027 03:34:06.504   11 Jun 2027 03:34:09.182             2.678          1339.000
       397   11 Jun 2027 03:34:27.937   11 Jun 2027 03:34:29.385             1.448           724.000
       398   11 Jun 2027 03:34:52.621   11 Jun 2027 03:34:59.473             6.852          3426.000
       399   11 Jun 2027 03:35:35.664   11 Jun 2027 03:35:37.615             1.951           975.500
       400   11 Jun 2027 03:36:08.909   11 Jun 2027 03:36:19.593            10.684          5342.000
       401   11 Jun 2027 03:37:04.490   11 Jun 2027 03:37:08.763             4.273          2136.500
       402   11 Jun 2027 03:37:49.052   11 Jun 2027 03:37:55.979             6.927          3463.500
       403   11 Jun 2027 05:08:52.003   11 Jun 2027 05:08:52.164             0.161            80.500
       404   11 Jun 2027 05:09:03.196   11 Jun 2027 05:09:05.802             2.606          1303.000
       405   11 Jun 2027 05:09:27.860   11 Jun 2027 05:09:32.771             4.911          2455.500
       406   11 Jun 2027 05:10:21.123   11 Jun 2027 05:10:36.534            15.411          7705.500
       407   11 Jun 2027 05:11:52.629   11 Jun 2027 05:11:55.892             3.263          1631.500
       408   11 Jun 2027 05:12:23.804   11 Jun 2027 05:12:30.758             6.954          3477.000
       409   11 Jun 2027 05:12:38.232   11 Jun 2027 05:12:44.865             6.633          3316.500
       410   11 Jun 2027 05:13:49.241   11 Jun 2027 05:13:57.237             7.996          3998.000
       411   11 Jun 2027 05:14:52.034   11 Jun 2027 05:14:54.389             2.355          1177.500
       412   11 Jun 2027 05:15:14.846   11 Jun 2027 05:15:23.224             8.378          4189.000
       413   11 Jun 2027 05:16:13.423   11 Jun 2027 05:16:24.385            10.962          5481.000
       414   11 Jun 2027 06:45:56.917   11 Jun 2027 06:46:18.564            21.647         10823.500
       415   11 Jun 2027 06:47:48.485   11 Jun 2027 06:47:55.621             7.136          3568.000
       416   11 Jun 2027 06:48:29.636   11 Jun 2027 06:48:42.596            12.960          6480.000
       417   11 Jun 2027 06:49:18.893   11 Jun 2027 06:49:19.485             0.592           296.000
       418   11 Jun 2027 06:49:51.638   11 Jun 2027 06:49:54.053             2.415          1207.500
       419   11 Jun 2027 06:50:09.796   11 Jun 2027 06:50:14.211             4.415          2207.500
       420   11 Jun 2027 06:50:35.922   11 Jun 2027 06:50:36.471             0.549           274.500
       421   11 Jun 2027 06:50:38.250   11 Jun 2027 06:50:39.627             1.377           688.500
       422   11 Jun 2027 06:51:01.369   11 Jun 2027 06:51:01.465             0.096            48.000
       423   11 Jun 2027 06:51:49.055   11 Jun 2027 06:51:56.448             7.393          3696.500
       424   11 Jun 2027 08:23:55.910   11 Jun 2027 08:24:08.847            12.937          6468.500
       425   11 Jun 2027 08:25:03.952   11 Jun 2027 08:25:05.796             1.844           922.000
       426   11 Jun 2027 08:25:36.302   11 Jun 2027 08:25:45.520             9.218          4609.000
       427   11 Jun 2027 08:26:10.476   11 Jun 2027 08:26:13.854             3.378          1689.000
       428   11 Jun 2027 08:27:23.352   11 Jun 2027 08:27:29.903             6.551          3275.500
       429   11 Jun 2027 09:57:04.717   11 Jun 2027 09:57:30.882            26.165         13082.500
       430   11 Jun 2027 09:57:36.837   11 Jun 2027 09:57:54.403            17.566          8783.000
       431   11 Jun 2027 10:01:51.055   11 Jun 2027 10:01:56.339             5.284          2642.000
       432   11 Jun 2027 10:02:32.392   11 Jun 2027 10:02:40.456             8.064          4032.000
       433   11 Jun 2027 10:03:24.230   11 Jun 2027 10:03:35.460            11.230          5615.000
       434   11 Jun 2027 10:04:40.360   11 Jun 2027 10:04:41.788             1.428           714.000
       435   12 Jun 2027 03:43:47.679   12 Jun 2027 03:43:59.964            12.285          6142.500
       436   12 Jun 2027 03:45:00.708   12 Jun 2027 03:45:06.698             5.990          2995.000
       437   12 Jun 2027 03:45:50.851   12 Jun 2027 03:45:59.915             9.064          4532.000
       438   12 Jun 2027 03:47:14.537   12 Jun 2027 03:47:24.150             9.613          4806.500
       439   12 Jun 2027 03:48:06.207   12 Jun 2027 03:48:14.725             8.518          4259.000
       440   12 Jun 2027 03:49:02.405   12 Jun 2027 03:49:08.939             6.534          3267.000
       441   12 Jun 2027 03:49:43.619   12 Jun 2027 03:49:49.251             5.632          2816.000
       442   12 Jun 2027 03:49:56.440   12 Jun 2027 03:50:01.039             4.599          2299.500
       443   12 Jun 2027 03:51:42.366   12 Jun 2027 03:51:43.791             1.425           712.500
       444   12 Jun 2027 05:21:09.961   12 Jun 2027 05:21:12.839             2.878          1439.000
       445   12 Jun 2027 05:22:04.986   12 Jun 2027 05:22:12.637             7.651          3825.500
       446   12 Jun 2027 05:23:03.163   12 Jun 2027 05:23:07.069             3.906          1953.000
       447   12 Jun 2027 05:23:23.558   12 Jun 2027 05:23:28.367             4.809          2404.500
       448   12 Jun 2027 05:23:53.446   12 Jun 2027 05:23:55.944             2.498          1249.000
       449   12 Jun 2027 05:24:24.031   12 Jun 2027 05:24:31.792             7.761          3880.500
       450   12 Jun 2027 05:25:38.609   12 Jun 2027 05:25:47.898             9.289          4644.500
       451   12 Jun 2027 05:26:55.130   12 Jun 2027 05:26:55.880             0.750           375.000
       452   12 Jun 2027 05:27:00.856   12 Jun 2027 05:27:16.814            15.958          7979.000
       453   12 Jun 2027 05:28:02.543   12 Jun 2027 05:28:13.453            10.910          5455.000
       454   12 Jun 2027 06:57:58.368   12 Jun 2027 06:58:12.606            14.238          7119.000
       455   12 Jun 2027 07:00:01.984   12 Jun 2027 07:00:18.873            16.889          8444.500
       456   12 Jun 2027 07:01:30.827   12 Jun 2027 07:01:38.822             7.995          3997.500
       457   12 Jun 2027 07:02:17.152   12 Jun 2027 07:02:18.379             1.227           613.500
       458   12 Jun 2027 07:02:45.198   12 Jun 2027 07:02:51.209             6.011          3005.500
       459   12 Jun 2027 07:03:13.810   12 Jun 2027 07:03:22.926             9.116          4558.000
       460   12 Jun 2027 07:04:12.206   12 Jun 2027 07:04:14.378             2.172          1086.000
       461   12 Jun 2027 07:04:23.617   12 Jun 2027 07:04:26.642             3.025          1512.500
       462   12 Jun 2027 08:35:55.503   12 Jun 2027 08:35:55.626             0.123            61.500
       463   12 Jun 2027 08:36:13.037   12 Jun 2027 08:36:17.429             4.392          2196.000
       464   12 Jun 2027 08:36:43.225   12 Jun 2027 08:36:46.769             3.544          1772.000
       465   12 Jun 2027 08:38:21.090   12 Jun 2027 08:38:24.070             2.980          1490.000
       466   12 Jun 2027 08:38:36.102   12 Jun 2027 08:38:38.253             2.151          1075.500
       467   12 Jun 2027 08:39:02.173   12 Jun 2027 08:39:05.482             3.309          1654.500
       468   12 Jun 2027 08:39:24.812   12 Jun 2027 08:39:27.996             3.184          1592.000
       469   12 Jun 2027 08:39:42.311   12 Jun 2027 08:39:44.638             2.327          1163.500
       470   12 Jun 2027 08:39:49.798   12 Jun 2027 08:39:54.446             4.648          2324.000
       471   12 Jun 2027 10:09:32.185   12 Jun 2027 10:09:56.355            24.170         12085.000
       472   12 Jun 2027 10:11:33.198   12 Jun 2027 10:11:54.667            21.469         10734.500
       473   12 Jun 2027 10:13:25.087   12 Jun 2027 10:13:25.936             0.849           424.500
       474   12 Jun 2027 10:13:33.120   12 Jun 2027 10:13:34.189             1.069           534.500
       475   12 Jun 2027 10:13:50.333   12 Jun 2027 10:13:58.265             7.932          3966.000
       476   12 Jun 2027 10:15:38.134   12 Jun 2027 10:15:42.409             4.275          2137.500
       477   12 Jun 2027 10:16:00.724   12 Jun 2027 10:16:03.365             2.641          1320.500
       478   12 Jun 2027 10:16:28.030   12 Jun 2027 10:16:31.313             3.283          1641.500
       479   12 Jun 2027 10:16:54.201   12 Jun 2027 10:16:59.749             5.548          2774.000
       480   13 Jun 2027 03:55:15.881   13 Jun 2027 03:55:29.542            13.661          6830.500
       481   13 Jun 2027 03:56:57.543   13 Jun 2027 03:57:02.781             5.238          2619.000
       482   13 Jun 2027 03:57:21.906   13 Jun 2027 03:57:21.906             0.000             0.000
       483   13 Jun 2027 03:57:28.738   13 Jun 2027 03:57:33.027             4.289          2144.500
       484   13 Jun 2027 03:57:55.184   13 Jun 2027 03:58:00.387             5.203          2601.500
       485   13 Jun 2027 03:58:43.668   13 Jun 2027 03:58:50.953             7.285          3642.500
       486   13 Jun 2027 03:59:22.027   13 Jun 2027 03:59:25.615             3.588          1794.000
       487   13 Jun 2027 03:59:48.692   13 Jun 2027 04:00:04.657            15.965          7982.500
       488   13 Jun 2027 04:01:42.887   13 Jun 2027 04:01:43.490             0.603           301.500
       489   13 Jun 2027 04:01:51.362   13 Jun 2027 04:01:54.654             3.292          1646.000
       490   13 Jun 2027 04:02:28.505   13 Jun 2027 04:02:41.924            13.419          6709.500
       491   13 Jun 2027 04:03:36.652   13 Jun 2027 04:03:47.478            10.826          5413.000
       492   13 Jun 2027 05:33:04.856   13 Jun 2027 05:33:09.245             4.389          2194.500
       493   13 Jun 2027 05:33:32.544   13 Jun 2027 05:33:34.119             1.575           787.500
       494   13 Jun 2027 05:34:40.852   13 Jun 2027 05:34:47.380             6.528          3264.000
       495   13 Jun 2027 05:35:29.378   13 Jun 2027 05:35:30.012             0.634           317.000
       496   13 Jun 2027 05:35:35.020   13 Jun 2027 05:35:37.945             2.925          1462.500
       497   13 Jun 2027 05:35:59.928   13 Jun 2027 05:36:00.714             0.786           393.000
       498   13 Jun 2027 05:36:57.585   13 Jun 2027 05:36:59.359             1.774           887.000
       499   13 Jun 2027 05:37:18.986   13 Jun 2027 05:37:20.423             1.437           718.500
       500   13 Jun 2027 05:37:21.834   13 Jun 2027 05:37:24.281             2.447          1223.500
       501   13 Jun 2027 05:37:57.436   13 Jun 2027 05:38:11.749            14.313          7156.500
       502   13 Jun 2027 05:39:09.468   13 Jun 2027 05:39:14.145             4.677          2338.500
       503   13 Jun 2027 05:39:35.524   13 Jun 2027 05:39:38.653             3.129          1564.500
       504   13 Jun 2027 05:39:58.774   13 Jun 2027 05:40:10.978            12.204          6102.000
       505   13 Jun 2027 07:09:49.246   13 Jun 2027 07:10:02.989            13.743          6871.500
       506   13 Jun 2027 07:11:09.020   13 Jun 2027 07:11:10.909             1.889           944.500
       507   13 Jun 2027 07:11:22.860   13 Jun 2027 07:11:27.993             5.133          2566.500
       508   13 Jun 2027 07:11:51.935   13 Jun 2027 07:12:01.056             9.121          4560.500
       509   13 Jun 2027 07:12:48.105   13 Jun 2027 07:12:51.195             3.090          1545.000
       510   13 Jun 2027 07:13:11.533   13 Jun 2027 07:13:17.124             5.591          2795.500
       511   13 Jun 2027 07:13:39.650   13 Jun 2027 07:13:46.598             6.948          3474.000
       512   13 Jun 2027 07:14:24.061   13 Jun 2027 07:14:24.589             0.528           264.000
       513   13 Jun 2027 07:14:43.644   13 Jun 2027 07:14:45.431             1.787           893.500
       514   13 Jun 2027 07:15:38.562   13 Jun 2027 07:15:38.947             0.385           192.500
       515   13 Jun 2027 07:15:41.800   13 Jun 2027 07:15:44.557             2.757          1378.500
       516   13 Jun 2027 07:15:49.640   13 Jun 2027 07:15:53.224             3.584          1792.000
       517   13 Jun 2027 07:16:09.491   13 Jun 2027 07:16:16.606             7.115          3557.500
       518   13 Jun 2027 08:47:57.151   13 Jun 2027 08:47:59.845             2.694          1347.000
       519   13 Jun 2027 08:48:37.351   13 Jun 2027 08:48:42.532             5.181          2590.500
       520   13 Jun 2027 08:50:00.215   13 Jun 2027 08:50:05.870             5.655          2827.500
       521   13 Jun 2027 08:50:44.319   13 Jun 2027 08:50:47.690             3.371          1685.500
       522   13 Jun 2027 08:51:37.740   13 Jun 2027 08:51:41.829             4.089          2044.500
       523   13 Jun 2027 10:21:48.048   13 Jun 2027 10:21:58.445            10.397          5198.500
       524   13 Jun 2027 10:22:42.830   13 Jun 2027 10:22:57.618            14.788          7394.000
       525   13 Jun 2027 10:24:03.123   13 Jun 2027 10:24:38.050            34.927         17463.500
       526   13 Jun 2027 10:27:14.393   13 Jun 2027 10:27:26.223            11.830          5915.000
