uniorb/output/strategy_2/Camera/Camera_KinoSat_111205.txt

KinoSat_111205
-------------------------
    Access    *     Start Time (UTCG)     *     Stop Time (UTCG)  *   Duration (s) *   Data (Mbytes)
         1   01 Jun 2027 03:32:07.300   01 Jun 2027 03:35:37.292           209.992        104996.000
         2   01 Jun 2027 04:55:04.276   01 Jun 2027 04:56:14.753            70.477         35238.500
         3   01 Jun 2027 04:57:18.073   01 Jun 2027 04:57:18.073             0.000             0.000
         4   01 Jun 2027 06:31:37.943   01 Jun 2027 06:34:10.797           152.854         76427.000
         5   01 Jun 2027 08:06:46.825   01 Jun 2027 08:09:54.802           187.977         93988.500
         6   01 Jun 2027 08:13:28.464   01 Jun 2027 08:13:34.152             5.688          2844.000
         7   01 Jun 2027 09:43:06.792   01 Jun 2027 09:45:17.851           131.059         65529.500
         8   01 Jun 2027 09:45:21.766   01 Jun 2027 09:45:43.266            21.500         10750.000
         9   01 Jun 2027 09:46:05.680   01 Jun 2027 09:46:24.847            19.167          9583.500
        10   01 Jun 2027 11:20:41.453   01 Jun 2027 11:22:06.632            85.179         42589.500
        11   01 Jun 2027 11:22:43.147   01 Jun 2027 11:22:57.640            14.493          7246.500
        12   02 Jun 2027 03:43:52.875   02 Jun 2027 03:44:26.417            33.542         16771.000
        13   02 Jun 2027 03:44:41.303   02 Jun 2027 03:47:14.133           152.830         76415.000
        14   02 Jun 2027 03:47:34.711   02 Jun 2027 03:47:41.231             6.520          3260.000
        15   02 Jun 2027 05:07:13.439   02 Jun 2027 05:08:32.356            78.917         39458.500
        16   02 Jun 2027 06:43:48.561   02 Jun 2027 06:46:39.817           171.256         85628.000
        17   02 Jun 2027 06:46:48.296   02 Jun 2027 06:46:51.974             3.678          1839.000
        18   02 Jun 2027 08:18:58.613   02 Jun 2027 08:20:48.009           109.396         53681.720
        19   02 Jun 2027 08:20:53.626   02 Jun 2027 08:20:54.770             1.144           175.531
        20   02 Jun 2027 08:21:46.891   02 Jun 2027 08:21:46.891             0.000             0.000
        21   02 Jun 2027 08:21:51.539   02 Jun 2027 08:21:54.175             2.636          1079.812
        22   02 Jun 2027 08:22:29.773   02 Jun 2027 08:22:31.497             1.724           633.344
        23   02 Jun 2027 08:25:12.124   02 Jun 2027 08:25:12.124             0.000             0.000
        24   02 Jun 2027 08:25:21.443   02 Jun 2027 08:25:29.216             7.773          3886.500
        25   02 Jun 2027 09:55:19.522   02 Jun 2027 09:55:33.768            14.246          6957.906
        26   02 Jun 2027 09:56:58.848   02 Jun 2027 09:57:02.435             3.587           963.781
        27   02 Jun 2027 09:57:10.651   02 Jun 2027 09:57:13.792             3.141           256.750
        28   02 Jun 2027 09:57:54.332   02 Jun 2027 09:57:57.125             2.793           812.781
        29   02 Jun 2027 09:58:31.857   02 Jun 2027 09:58:35.587             3.730          1085.375
        30   02 Jun 2027 09:58:47.105   02 Jun 2027 09:58:47.105             0.000             0.000
        31   02 Jun 2027 09:59:28.712   02 Jun 2027 09:59:31.656             2.944          1389.219
        32   02 Jun 2027 09:59:49.896   02 Jun 2027 09:59:51.070             1.174           570.000
        33   02 Jun 2027 10:00:27.676   02 Jun 2027 10:00:30.262             2.586          1054.375
        34   02 Jun 2027 11:32:36.356   02 Jun 2027 11:32:54.205            17.849          8432.781
        35   02 Jun 2027 11:33:29.706   02 Jun 2027 11:33:34.612             4.906          1041.625
        36   02 Jun 2027 11:33:46.709   02 Jun 2027 11:33:48.451             1.742           253.344
        37   02 Jun 2027 11:34:07.717   02 Jun 2027 11:34:09.768             2.051           407.031
        38   02 Jun 2027 11:34:42.969   02 Jun 2027 11:34:47.575             4.606          1009.375
        39   02 Jun 2027 11:35:33.573   02 Jun 2027 11:35:39.008             5.435          1176.938
        40   02 Jun 2027 11:35:55.734   02 Jun 2027 11:35:56.967             1.233           522.687
        41   02 Jun 2027 11:36:55.027   02 Jun 2027 11:37:01.531             6.504          1786.250
        42   03 Jun 2027 03:55:49.527   03 Jun 2027 03:56:29.367            39.840         19920.000
        43   03 Jun 2027 03:56:48.403   03 Jun 2027 03:59:24.777           156.374         78187.000
        44   03 Jun 2027 05:19:46.324   03 Jun 2027 05:21:07.729            81.405         40702.500
        45   03 Jun 2027 05:21:58.377   03 Jun 2027 05:22:12.521            14.144          7072.000
        46   03 Jun 2027 06:55:36.529   03 Jun 2027 06:56:06.764            30.235         14836.906
        47   03 Jun 2027 06:56:39.199   03 Jun 2027 06:56:42.879             3.680           645.281
        48   03 Jun 2027 06:57:09.448   03 Jun 2027 06:57:12.626             3.178           682.188
        49   03 Jun 2027 06:58:54.907   03 Jun 2027 06:58:57.699             2.792          1396.000
        50   03 Jun 2027 08:30:29.585   03 Jun 2027 08:30:39.460             9.875          4800.688
        51   03 Jun 2027 08:31:13.922   03 Jun 2027 08:31:15.260             1.338           429.469
        52   03 Jun 2027 08:31:47.292   03 Jun 2027 08:31:50.208             2.916            34.750
        53   03 Jun 2027 08:32:39.488   03 Jun 2027 08:32:41.386             1.898           698.625
        54   03 Jun 2027 08:33:08.491   03 Jun 2027 08:33:12.521             4.030           666.625
        55   03 Jun 2027 08:33:34.153   03 Jun 2027 08:33:37.037             2.884           676.000
        56   03 Jun 2027 08:33:46.980   03 Jun 2027 08:33:46.980             0.000             0.000
        57   03 Jun 2027 08:34:32.018   03 Jun 2027 08:34:36.195             4.177          1718.156
        58   03 Jun 2027 08:34:48.389   03 Jun 2027 08:34:49.916             1.527           204.000
        59   03 Jun 2027 08:36:09.874   03 Jun 2027 08:36:13.769             3.895          1947.500
        60   03 Jun 2027 08:36:45.951   03 Jun 2027 08:36:46.866             0.915           457.500
        61   03 Jun 2027 08:36:58.761   03 Jun 2027 08:37:00.927             2.166          1070.500
        62   03 Jun 2027 10:06:58.132   03 Jun 2027 10:07:16.172            18.040          7713.469
        63   03 Jun 2027 10:08:59.110   03 Jun 2027 10:09:05.116             6.006          1665.313
        64   03 Jun 2027 10:09:36.836   03 Jun 2027 10:09:40.431             3.595           986.594
        65   03 Jun 2027 10:10:16.724   03 Jun 2027 10:10:19.559             2.835          1074.625
        66   03 Jun 2027 10:10:45.563   03 Jun 2027 10:10:46.949             1.386           693.000
        67   03 Jun 2027 10:11:35.847   03 Jun 2027 10:11:40.608             4.761          1583.812
        68   03 Jun 2027 10:12:05.284   03 Jun 2027 10:12:12.814             7.530           750.781
        69   03 Jun 2027 10:12:21.797   03 Jun 2027 10:12:23.535             1.738           280.719
        70   03 Jun 2027 10:13:11.506   03 Jun 2027 10:13:16.443             4.937          1321.219
        71   03 Jun 2027 11:45:15.930   03 Jun 2027 11:45:28.483            12.553          5618.312
        72   03 Jun 2027 11:45:49.273   03 Jun 2027 11:45:51.833             2.560           506.844
        73   03 Jun 2027 11:47:23.133   03 Jun 2027 11:47:30.657             7.524          2745.531
        74   03 Jun 2027 11:48:19.342   03 Jun 2027 11:48:26.414             7.072          1521.406
        75   03 Jun 2027 11:48:43.292   03 Jun 2027 11:48:52.404             9.112           499.844
        76   04 Jun 2027 03:56:25.467   04 Jun 2027 03:57:31.280            65.813         32906.500
        77   04 Jun 2027 04:07:45.643   04 Jun 2027 04:09:26.400           100.757         50378.500
        78   04 Jun 2027 04:10:25.928   04 Jun 2027 04:10:29.754             3.826          1913.000
        79   04 Jun 2027 05:30:20.831   04 Jun 2027 05:31:25.094            64.263         32131.500
        80   04 Jun 2027 05:31:56.039   04 Jun 2027 05:32:35.192            39.153         19576.500
        81   04 Jun 2027 07:05:52.582   04 Jun 2027 07:06:43.351            50.769         25384.500
        82   04 Jun 2027 07:08:08.751   04 Jun 2027 07:08:17.737             8.986          2658.688
        83   04 Jun 2027 07:09:21.239   04 Jun 2027 07:09:25.081             3.842          1904.344
        84   04 Jun 2027 07:10:02.688   04 Jun 2027 07:10:07.605             4.917          1038.031
        85   04 Jun 2027 07:10:30.118   04 Jun 2027 07:10:31.934             1.816           484.969
        86   04 Jun 2027 07:10:56.661   04 Jun 2027 07:10:58.397             1.736           772.719
        87   04 Jun 2027 07:11:50.847   04 Jun 2027 07:11:54.435             3.588          1277.812
        88   04 Jun 2027 08:42:11.769   04 Jun 2027 08:42:20.342             8.573          3876.188
        89   04 Jun 2027 08:43:14.140   04 Jun 2027 08:43:19.827             5.687          1147.594
        90   04 Jun 2027 08:43:55.305   04 Jun 2027 08:43:57.232             1.927           365.125
        91   04 Jun 2027 08:44:40.728   04 Jun 2027 08:44:43.422             2.694          1187.188
        92   04 Jun 2027 08:45:11.106   04 Jun 2027 08:45:11.278             0.172            64.344
        93   04 Jun 2027 08:45:25.575   04 Jun 2027 08:45:26.791             1.216           162.187
        94   04 Jun 2027 08:46:33.988   04 Jun 2027 08:46:33.988             0.000             0.000
        95   04 Jun 2027 08:46:45.386   04 Jun 2027 08:46:51.937             6.551          2018.344
        96   04 Jun 2027 08:47:02.421   04 Jun 2027 08:47:05.955             3.534           327.625
        97   04 Jun 2027 08:48:19.844   04 Jun 2027 08:48:26.175             6.331          2212.844
        98   04 Jun 2027 08:49:24.636   04 Jun 2027 08:49:26.711             2.075          1037.500
        99   04 Jun 2027 08:49:34.311   04 Jun 2027 08:49:37.473             3.162           922.687
       100   04 Jun 2027 10:19:18.695   04 Jun 2027 10:19:39.811            21.116          8929.500
       101   04 Jun 2027 10:20:54.050   04 Jun 2027 10:20:56.629             2.579           630.531
       102   04 Jun 2027 10:21:16.127   04 Jun 2027 10:21:16.997             0.870           283.719
       103   04 Jun 2027 10:21:20.044   04 Jun 2027 10:21:21.758             1.714            95.219
       104   04 Jun 2027 10:21:56.238   04 Jun 2027 10:21:57.715             1.477           132.438
       105   04 Jun 2027 10:22:00.947   04 Jun 2027 10:22:01.843             0.896            32.125
       106   04 Jun 2027 10:22:46.312   04 Jun 2027 10:22:50.267             3.955          1008.719
       107   04 Jun 2027 10:22:56.709   04 Jun 2027 10:22:58.316             1.607           148.688
       108   04 Jun 2027 10:23:46.937   04 Jun 2027 10:23:49.585             2.648          1180.813
       109   04 Jun 2027 10:24:06.460   04 Jun 2027 10:24:08.316             1.856           245.188
       110   04 Jun 2027 10:25:17.132   04 Jun 2027 10:25:18.301             1.169           584.500
       111   04 Jun 2027 10:25:34.743   04 Jun 2027 10:25:37.845             3.102          1551.000
       112   04 Jun 2027 11:57:14.018   04 Jun 2027 11:57:22.197             8.179          4089.500
       113   04 Jun 2027 11:57:47.311   04 Jun 2027 11:57:53.318             6.007          2611.438
       114   04 Jun 2027 11:59:08.035   04 Jun 2027 11:59:12.098             4.063          2031.500
       115   04 Jun 2027 11:59:38.621   04 Jun 2027 11:59:40.744             2.123          1061.500
       116   05 Jun 2027 04:08:04.780   05 Jun 2027 04:09:39.611            94.831         47415.500
       117   05 Jun 2027 04:19:48.767   05 Jun 2027 04:20:48.162            59.395         29697.500
       118   05 Jun 2027 05:42:03.831   05 Jun 2027 05:43:09.766            65.935         32967.500
       119   05 Jun 2027 05:43:59.452   05 Jun 2027 05:44:49.350            49.898         24949.000
       120   05 Jun 2027 05:46:25.407   05 Jun 2027 05:46:33.402             7.995          3997.500
       121   05 Jun 2027 07:17:01.244   05 Jun 2027 07:17:49.143            47.899         23613.313
       122   05 Jun 2027 07:18:10.589   05 Jun 2027 07:18:13.733             3.144           670.187
       123   05 Jun 2027 07:18:38.709   05 Jun 2027 07:18:38.709             0.000             0.000
       124   05 Jun 2027 07:19:06.956   05 Jun 2027 07:19:09.687             2.731          1272.656
       125   05 Jun 2027 07:20:06.304   05 Jun 2027 07:20:14.740             8.436          1769.281
       126   05 Jun 2027 07:20:36.543   05 Jun 2027 07:20:40.098             3.555           596.937
       127   05 Jun 2027 07:20:51.044   05 Jun 2027 07:20:52.829             1.785           135.219
       128   05 Jun 2027 07:21:27.835   05 Jun 2027 07:21:27.835             0.000             0.000
       129   05 Jun 2027 07:22:12.409   05 Jun 2027 07:22:18.387             5.978          2446.063
       130   05 Jun 2027 07:22:20.395   05 Jun 2027 07:22:20.866             0.471            62.750
       131   05 Jun 2027 07:23:12.522   05 Jun 2027 07:23:16.935             4.413          1224.969
       132   05 Jun 2027 07:23:32.083   05 Jun 2027 07:23:33.404             1.321           214.281
       133   05 Jun 2027 07:23:45.052   05 Jun 2027 07:23:46.931             1.879           364.000
       134   05 Jun 2027 07:24:59.692   05 Jun 2027 07:25:04.488             4.796          1231.969
       135   05 Jun 2027 08:54:30.175   05 Jun 2027 08:54:43.868            13.693          3704.937
       136   05 Jun 2027 08:55:16.856   05 Jun 2027 08:55:21.291             4.435          1030.875
       137   05 Jun 2027 08:55:29.070   05 Jun 2027 08:55:30.466             1.396            33.656
       138   05 Jun 2027 08:57:01.003   05 Jun 2027 08:57:07.271             6.268          1471.938
       139   05 Jun 2027 08:57:24.056   05 Jun 2027 08:57:27.177             3.121           524.531
       140   05 Jun 2027 08:57:58.266   05 Jun 2027 08:58:00.068             1.802           805.156
       141   05 Jun 2027 08:58:59.926   05 Jun 2027 08:59:04.362             4.436          1652.125
       142   05 Jun 2027 08:59:21.018   05 Jun 2027 08:59:22.944             1.926           506.906
       143   05 Jun 2027 09:00:01.301   05 Jun 2027 09:00:03.704             2.403          1198.656
       144   05 Jun 2027 09:00:20.358   05 Jun 2027 09:00:20.358             0.000             0.000
       145   05 Jun 2027 09:00:39.311   05 Jun 2027 09:00:41.720             2.409          1112.719
       146   05 Jun 2027 09:01:02.803   05 Jun 2027 09:01:03.951             1.148           334.844
       147   05 Jun 2027 09:01:26.569   05 Jun 2027 09:01:28.119             1.550           706.813
       148   05 Jun 2027 09:01:45.188   05 Jun 2027 09:01:46.529             1.341           533.406
       149   05 Jun 2027 09:01:48.070   05 Jun 2027 09:01:48.546             0.476            48.156
       150   05 Jun 2027 10:31:14.774   05 Jun 2027 10:31:29.933            15.159          7066.969
       151   05 Jun 2027 10:31:49.759   05 Jun 2027 10:31:53.631             3.872           482.812
       152   05 Jun 2027 10:32:49.323   05 Jun 2027 10:32:52.967             3.644          1622.844
       153   05 Jun 2027 10:33:13.766   05 Jun 2027 10:33:15.868             2.102           150.906
       154   05 Jun 2027 10:33:34.178   05 Jun 2027 10:33:35.034             0.856           211.281
       155   05 Jun 2027 10:33:43.953   05 Jun 2027 10:33:45.603             1.650           248.062
       156   05 Jun 2027 10:34:09.146   05 Jun 2027 10:34:10.602             1.456           688.906
       157   05 Jun 2027 10:34:24.998   05 Jun 2027 10:34:27.288             2.290           126.000
       158   05 Jun 2027 10:34:34.336   05 Jun 2027 10:34:39.964             5.628            80.469
       159   05 Jun 2027 10:35:25.731   05 Jun 2027 10:35:28.180             2.449          1162.563
       160   05 Jun 2027 10:35:30.893   05 Jun 2027 10:35:31.360             0.467            74.063
       161   05 Jun 2027 10:35:34.756   05 Jun 2027 10:35:35.323             0.567           106.125
       162   05 Jun 2027 10:35:42.289   05 Jun 2027 10:35:45.726             3.437           198.437
       163   05 Jun 2027 10:37:22.880   05 Jun 2027 10:37:27.495             4.615          2307.500
       164   05 Jun 2027 10:37:31.927   05 Jun 2027 10:37:32.378             0.451           193.438
       165   06 Jun 2027 03:00:00.000   06 Jun 2027 03:00:08.366             8.366          4183.000
       166   06 Jun 2027 03:00:45.425   06 Jun 2027 03:00:51.422             5.997          2998.500
       167   06 Jun 2027 03:01:19.001   06 Jun 2027 03:01:47.754            28.753         14376.500
       168   06 Jun 2027 04:19:38.192   06 Jun 2027 04:21:24.961           106.769         53384.500
       169   06 Jun 2027 04:31:54.348   06 Jun 2027 04:32:21.819            27.471         13735.500
       170   06 Jun 2027 05:53:36.131   06 Jun 2027 05:54:55.966            79.835         39917.500
       171   06 Jun 2027 05:55:44.791   06 Jun 2027 05:56:23.501            38.710         19355.000
       172   06 Jun 2027 05:56:24.624   06 Jun 2027 05:56:33.036             8.412          4206.000
       173   06 Jun 2027 05:58:20.505   06 Jun 2027 05:58:28.875             8.370          4185.000
       174   06 Jun 2027 07:28:29.532   06 Jun 2027 07:29:03.881            34.349         14957.250
       175   06 Jun 2027 07:30:32.527   06 Jun 2027 07:30:36.188             3.661          1780.031
       176   06 Jun 2027 07:30:44.520   06 Jun 2027 07:30:44.520             0.000             0.000
       177   06 Jun 2027 07:31:54.934   06 Jun 2027 07:32:02.209             7.275          2274.469
       178   06 Jun 2027 07:32:38.913   06 Jun 2027 07:32:44.419             5.506          1128.875
       179   06 Jun 2027 07:34:06.534   06 Jun 2027 07:34:14.594             8.060          2255.969
       180   06 Jun 2027 07:34:36.433   06 Jun 2027 07:34:38.481             2.048           669.969
       181   06 Jun 2027 07:35:53.846   06 Jun 2027 07:35:57.566             3.720          1713.406
       182   06 Jun 2027 07:36:12.243   06 Jun 2027 07:36:14.744             2.501           458.656
       183   06 Jun 2027 07:36:24.229   06 Jun 2027 07:36:25.107             0.878           176.344
       184   06 Jun 2027 07:36:59.183   06 Jun 2027 07:37:01.446             2.263          1064.875
       185   06 Jun 2027 09:06:23.552   06 Jun 2027 09:06:35.529            11.977          5767.437
       186   06 Jun 2027 09:08:28.267   06 Jun 2027 09:08:32.453             4.186          2066.500
       187   06 Jun 2027 09:08:45.464   06 Jun 2027 09:08:47.201             1.737           406.594
       188   06 Jun 2027 09:09:21.329   06 Jun 2027 09:09:25.425             4.096           254.844
       189   06 Jun 2027 09:10:04.056   06 Jun 2027 09:10:05.478             1.422           638.719
       190   06 Jun 2027 09:10:39.145   06 Jun 2027 09:10:40.853             1.708           148.563
       191   06 Jun 2027 09:10:54.033   06 Jun 2027 09:10:55.463             1.430           405.594
       192   06 Jun 2027 09:12:03.033   06 Jun 2027 09:12:05.281             2.248          1035.437
       193   06 Jun 2027 09:12:30.703   06 Jun 2027 09:12:32.097             1.394           151.563
       194   06 Jun 2027 09:13:14.997   06 Jun 2027 09:13:17.681             2.684          1025.156
       195   06 Jun 2027 09:13:40.355   06 Jun 2027 09:13:44.299             3.944           646.250
       196   06 Jun 2027 10:43:30.654   06 Jun 2027 10:43:47.281            16.627          8068.781
       197   06 Jun 2027 10:43:54.579   06 Jun 2027 10:44:09.538            14.959           124.000
       198   06 Jun 2027 10:44:19.851   06 Jun 2027 10:44:20.580             0.729           309.969
       199   06 Jun 2027 10:45:34.053   06 Jun 2027 10:45:34.934             0.881           440.500
       200   06 Jun 2027 10:46:35.073   06 Jun 2027 10:46:46.928            11.855          3598.437
       201   06 Jun 2027 10:47:05.533   06 Jun 2027 10:47:08.120             2.587           481.250
       202   06 Jun 2027 10:47:22.768   06 Jun 2027 10:47:23.865             1.097           386.000
       203   06 Jun 2027 10:47:54.637   06 Jun 2027 10:47:57.833             3.196           961.625
       204   06 Jun 2027 10:48:25.105   06 Jun 2027 10:48:27.864             2.759           720.406
       205   06 Jun 2027 10:48:40.905   06 Jun 2027 10:48:41.742             0.837           407.531
       206   06 Jun 2027 10:49:07.667   06 Jun 2027 10:49:10.298             2.631           676.344
       207   06 Jun 2027 10:49:49.945   06 Jun 2027 10:49:51.717             1.772           886.000
       208   07 Jun 2027 03:07:40.211   07 Jun 2027 03:10:02.326           142.115         71057.500
       209   07 Jun 2027 03:10:52.011   07 Jun 2027 03:11:13.182            21.171         10585.500
       210   07 Jun 2027 04:31:34.056   07 Jun 2027 04:32:30.228            56.172         28086.000
       211   07 Jun 2027 04:33:18.824   07 Jun 2027 04:33:24.923             6.099          3049.500
       212   07 Jun 2027 06:07:34.838   07 Jun 2027 06:09:19.509           104.671         52335.500
       213   07 Jun 2027 06:10:02.151   07 Jun 2027 06:10:15.996            13.845          3879.000
       214   07 Jun 2027 07:41:22.541   07 Jun 2027 07:41:37.695            15.154          6534.313
       215   07 Jun 2027 07:42:43.080   07 Jun 2027 07:42:44.672             1.592           463.188
       216   07 Jun 2027 07:43:34.917   07 Jun 2027 07:43:37.033             2.116           982.594
       217   07 Jun 2027 07:44:06.043   07 Jun 2027 07:44:12.232             6.189           804.563
       218   07 Jun 2027 07:44:41.035   07 Jun 2027 07:44:41.789             0.754           177.406
       219   07 Jun 2027 07:45:30.226   07 Jun 2027 07:45:33.339             3.113          1130.094
       220   07 Jun 2027 07:46:50.780   07 Jun 2027 07:46:57.333             6.553          1139.625
       221   07 Jun 2027 07:47:58.501   07 Jun 2027 07:48:02.098             3.597          1795.625
       222   07 Jun 2027 07:48:21.999   07 Jun 2027 07:48:25.532             3.533           511.187
       223   07 Jun 2027 07:48:30.555   07 Jun 2027 07:48:31.426             0.871           155.344
       224   07 Jun 2027 07:49:04.421   07 Jun 2027 07:49:05.151             0.730           365.000
       225   07 Jun 2027 07:49:09.252   07 Jun 2027 07:49:13.046             3.794           794.250
       226   07 Jun 2027 09:18:31.689   07 Jun 2027 09:18:43.094            11.405          5622.719
       227   07 Jun 2027 09:19:15.668   07 Jun 2027 09:19:16.637             0.969           318.812
       228   07 Jun 2027 09:20:26.406   07 Jun 2027 09:20:30.145             3.739          1282.156
       229   07 Jun 2027 09:20:56.771   07 Jun 2027 09:20:59.387             2.616           234.625
       230   07 Jun 2027 09:21:04.667   07 Jun 2027 09:21:06.027             1.360           130.156
       231   07 Jun 2027 09:21:10.463   07 Jun 2027 09:21:14.236             3.773           138.625
       232   07 Jun 2027 09:22:00.963   07 Jun 2027 09:22:02.722             1.759           537.719
       233   07 Jun 2027 09:22:50.585   07 Jun 2027 09:22:55.990             5.405          1344.406
       234   07 Jun 2027 09:23:31.204   07 Jun 2027 09:23:35.727             4.523           878.094
       235   07 Jun 2027 09:23:55.198   07 Jun 2027 09:23:55.198             0.000             0.000
       236   07 Jun 2027 09:23:57.713   07 Jun 2027 09:23:59.140             1.427           519.562
       237   07 Jun 2027 09:25:00.343   07 Jun 2027 09:25:05.319             4.976          1839.687
       238   07 Jun 2027 10:55:46.231   07 Jun 2027 10:56:01.004            14.773          7359.844
       239   07 Jun 2027 10:57:34.986   07 Jun 2027 10:57:40.060             5.074          2338.781
       240   07 Jun 2027 10:58:11.201   07 Jun 2027 10:58:13.716             2.515           814.438
       241   07 Jun 2027 10:59:09.553   07 Jun 2027 10:59:14.110             4.557          1731.656
       242   07 Jun 2027 10:59:42.576   07 Jun 2027 10:59:44.209             1.633           758.344
       243   07 Jun 2027 11:00:33.286   07 Jun 2027 11:00:36.910             3.624          1533.656
       244   07 Jun 2027 11:01:03.251   07 Jun 2027 11:01:04.753             1.502           722.625
       245   07 Jun 2027 11:01:20.841   07 Jun 2027 11:01:23.480             2.639           502.750
       246   08 Jun 2027 03:20:05.142   08 Jun 2027 03:23:24.972           199.830         99915.000
       247   08 Jun 2027 04:43:27.044   08 Jun 2027 04:44:03.691            36.647         18323.500
       248   08 Jun 2027 04:44:32.440   08 Jun 2027 04:44:32.440             0.000             0.000
       249   08 Jun 2027 06:19:47.758   08 Jun 2027 06:21:00.608            72.850         36395.375
       250   08 Jun 2027 06:21:52.479   08 Jun 2027 06:22:01.448             8.969          1468.344
       251   08 Jun 2027 06:22:23.593   08 Jun 2027 06:22:23.593             0.000             0.000
       252   08 Jun 2027 06:22:24.979   08 Jun 2027 06:22:26.353             1.374           503.563
       253   08 Jun 2027 07:53:48.359   08 Jun 2027 07:53:58.619            10.260          4982.563
       254   08 Jun 2027 07:55:20.728   08 Jun 2027 07:55:20.928             0.200            72.312
       255   08 Jun 2027 07:56:42.887   08 Jun 2027 07:56:48.471             5.584          2072.969
       256   08 Jun 2027 07:57:46.931   08 Jun 2027 07:57:53.821             6.890          1606.406
       257   08 Jun 2027 07:58:33.017   08 Jun 2027 07:58:35.868             2.851          1145.969
       258   08 Jun 2027 07:59:58.703   08 Jun 2027 08:00:04.005             5.302          2588.594
       259   08 Jun 2027 08:00:14.809   08 Jun 2027 08:00:15.802             0.993           337.625
       260   08 Jun 2027 08:00:31.365   08 Jun 2027 08:00:33.778             2.413           187.031
       261   08 Jun 2027 08:00:47.660   08 Jun 2027 08:00:49.379             1.719           254.562
       262   08 Jun 2027 08:01:35.391   08 Jun 2027 08:01:38.955             3.564          1406.750
       263   08 Jun 2027 09:30:56.955   08 Jun 2027 09:31:15.607            18.652          7418.750
       264   08 Jun 2027 09:32:02.254   08 Jun 2027 09:32:08.028             5.774           622.750
       265   08 Jun 2027 09:32:20.808   08 Jun 2027 09:32:21.080             0.272            27.750
       266   08 Jun 2027 09:32:38.290   08 Jun 2027 09:32:42.466             4.176           517.531
       267   08 Jun 2027 09:33:24.901   08 Jun 2027 09:33:29.489             4.588           886.844
       268   08 Jun 2027 09:34:04.553   08 Jun 2027 09:34:09.321             4.768           848.906
       269   08 Jun 2027 09:35:22.379   08 Jun 2027 09:35:28.808             6.429          2283.062
       270   08 Jun 2027 09:35:43.053   08 Jun 2027 09:35:47.631             4.578           445.156
       271   08 Jun 2027 09:36:15.265   08 Jun 2027 09:36:17.462             2.197           749.125
       272   08 Jun 2027 09:37:02.073   08 Jun 2027 09:37:05.504             3.431          1228.906
       273   08 Jun 2027 09:37:32.670   08 Jun 2027 09:37:35.034             2.364           839.031
       274   08 Jun 2027 11:07:55.418   08 Jun 2027 11:08:13.752            18.334          8064.000
       275   08 Jun 2027 11:08:57.420   08 Jun 2027 11:09:08.678            11.258          1003.969
       276   08 Jun 2027 11:09:12.423   08 Jun 2027 11:09:13.035             0.612            72.281
       277   08 Jun 2027 11:09:37.452   08 Jun 2027 11:09:45.277             7.825           700.500
       278   08 Jun 2027 11:10:52.789   08 Jun 2027 11:10:57.652             4.863          2102.719
       279   08 Jun 2027 11:11:10.174   08 Jun 2027 11:11:11.659             1.485           391.313
       280   08 Jun 2027 11:11:45.445   08 Jun 2027 11:11:45.805             0.360           180.000
       281   08 Jun 2027 11:12:08.066   08 Jun 2027 11:12:09.196             1.130           565.000
       282   08 Jun 2027 11:12:10.310   08 Jun 2027 11:12:12.371             2.061           920.719
       283   08 Jun 2027 11:12:53.422   08 Jun 2027 11:12:59.015             5.593          1025.906
       284   08 Jun 2027 11:13:07.619   08 Jun 2027 11:13:08.485             0.866           161.844
       285   09 Jun 2027 03:32:23.177   09 Jun 2027 03:35:49.721           206.544        103272.000
       286   09 Jun 2027 04:55:23.854   09 Jun 2027 04:56:30.280            66.426         33213.000
       287   09 Jun 2027 06:31:53.757   09 Jun 2027 06:32:32.877            39.120         18991.937
       288   09 Jun 2027 06:33:39.218   09 Jun 2027 06:33:43.987             4.769          1774.156
       289   09 Jun 2027 06:33:48.582   09 Jun 2027 06:33:49.958             1.376            79.094
       290   09 Jun 2027 06:35:08.825   09 Jun 2027 06:35:08.825             0.000             0.000
       291   09 Jun 2027 08:07:02.554   09 Jun 2027 08:07:13.565            11.011          4916.812
       292   09 Jun 2027 08:08:11.010   09 Jun 2027 08:08:12.700             1.690           845.000
       293   09 Jun 2027 08:08:15.027   09 Jun 2027 08:08:17.675             2.648           423.344
       294   09 Jun 2027 08:09:14.000   09 Jun 2027 08:09:17.441             3.441          1604.719
       295   09 Jun 2027 08:10:17.273   09 Jun 2027 08:10:22.016             4.743          1703.594
       296   09 Jun 2027 08:11:15.043   09 Jun 2027 08:11:15.043             0.000             0.000
       297   09 Jun 2027 08:12:27.052   09 Jun 2027 08:12:34.252             7.200          3190.813
       298   09 Jun 2027 08:13:34.819   09 Jun 2027 08:13:34.889             0.070            35.000
       299   09 Jun 2027 08:13:37.324   09 Jun 2027 08:13:37.324             0.000             0.000
       300   09 Jun 2027 08:13:43.903   09 Jun 2027 08:13:48.766             4.863          1626.687
       301   09 Jun 2027 09:43:22.942   09 Jun 2027 09:43:38.667            15.725          6967.313
       302   09 Jun 2027 09:44:01.548   09 Jun 2027 09:44:06.094             4.546           327.812
       303   09 Jun 2027 09:44:09.680   09 Jun 2027 09:44:14.789             5.109            82.781
       304   09 Jun 2027 09:45:09.315   09 Jun 2027 09:45:12.327             3.012            28.187
       305   09 Jun 2027 09:45:17.879   09 Jun 2027 09:45:22.069             4.190           110.438
       306   09 Jun 2027 09:45:39.465   09 Jun 2027 09:45:39.804             0.339            92.187
       307   09 Jun 2027 09:45:43.867   09 Jun 2027 09:45:46.632             2.765            93.719
       308   09 Jun 2027 09:45:58.378   09 Jun 2027 09:46:00.276             1.898           367.063
       309   09 Jun 2027 09:46:39.232   09 Jun 2027 09:46:49.176             9.944           945.563
       310   09 Jun 2027 09:47:08.784   09 Jun 2027 09:47:11.834             3.050           612.750
       311   09 Jun 2027 09:47:24.176   09 Jun 2027 09:47:27.246             3.070           247.938
       312   09 Jun 2027 09:48:01.433   09 Jun 2027 09:48:04.335             2.902          1068.344
       313   09 Jun 2027 09:48:09.431   09 Jun 2027 09:48:10.969             1.538           159.250
       314   09 Jun 2027 09:49:08.513   09 Jun 2027 09:49:12.998             4.485          1798.250
       315   09 Jun 2027 09:49:31.232   09 Jun 2027 09:49:33.924             2.692           569.813
       316   09 Jun 2027 11:20:56.979   09 Jun 2027 11:21:12.023            15.044          6870.969
       317   09 Jun 2027 11:21:18.942   09 Jun 2027 11:21:21.053             2.111           216.219
       318   09 Jun 2027 11:21:28.114   09 Jun 2027 11:21:32.603             4.489           208.906
       319   09 Jun 2027 11:21:50.416   09 Jun 2027 11:21:53.421             3.005           556.656
       320   09 Jun 2027 11:22:04.815   09 Jun 2027 11:22:08.280             3.465           170.469
       321   09 Jun 2027 11:22:29.249   09 Jun 2027 11:22:31.255             2.006           655.281
       322   09 Jun 2027 11:23:33.745   09 Jun 2027 11:23:37.982             4.237          1740.969
       323   09 Jun 2027 11:24:17.361   09 Jun 2027 11:24:19.808             2.447          1223.500
       324   09 Jun 2027 11:24:44.311   09 Jun 2027 11:24:44.311             0.000             0.000
       325   09 Jun 2027 11:24:52.965   09 Jun 2027 11:24:55.903             2.938          1043.250
       326   09 Jun 2027 11:25:13.536   09 Jun 2027 11:25:15.023             1.487           221.469
       327   10 Jun 2027 03:44:08.129   10 Jun 2027 03:44:42.488            34.359         17179.500
       328   10 Jun 2027 03:44:56.735   10 Jun 2027 03:47:28.614           151.879         75939.500
       329   10 Jun 2027 05:07:28.443   10 Jun 2027 05:08:50.657            82.214         41107.000
       330   10 Jun 2027 06:44:04.200   10 Jun 2027 06:44:52.974            48.774         23142.906
       331   10 Jun 2027 06:45:55.437   10 Jun 2027 06:46:00.532             5.095          1470.281
       332   10 Jun 2027 06:46:17.007   10 Jun 2027 06:46:19.766             2.759           375.063
       333   10 Jun 2027 06:46:41.278   10 Jun 2027 06:46:41.278             0.000             0.000
       334   10 Jun 2027 06:46:55.429   10 Jun 2027 06:47:00.641             5.212           842.656
       335   10 Jun 2027 08:19:14.467   10 Jun 2027 08:19:25.591            11.124          3931.406
       336   10 Jun 2027 08:19:33.285   10 Jun 2027 08:19:33.335             0.050            25.000
       337   10 Jun 2027 08:20:09.846   10 Jun 2027 08:20:10.411             0.565           282.500
       338   10 Jun 2027 08:20:17.268   10 Jun 2027 08:20:22.293             5.025          1118.813
       339   10 Jun 2027 08:20:55.712   10 Jun 2027 08:20:58.669             2.957           915.281
       340   10 Jun 2027 08:21:34.351   10 Jun 2027 08:21:38.043             3.692          1067.469
       341   10 Jun 2027 08:22:07.321   10 Jun 2027 08:22:07.602             0.281           116.156
       342   10 Jun 2027 08:22:47.410   10 Jun 2027 08:22:59.217            11.807           742.375
       343   10 Jun 2027 08:23:16.633   10 Jun 2027 08:23:19.515             2.882           544.250
       344   10 Jun 2027 08:23:52.379   10 Jun 2027 08:23:54.086             1.707           783.781
       345   10 Jun 2027 08:24:54.080   10 Jun 2027 08:24:58.147             4.067          1391.187
       346   10 Jun 2027 08:25:28.108   10 Jun 2027 08:25:30.256             2.148           744.219
       347   10 Jun 2027 09:55:34.350   10 Jun 2027 09:55:47.460            13.110          6131.500
       348   10 Jun 2027 09:57:13.444   10 Jun 2027 09:57:17.058             3.614           968.031
       349   10 Jun 2027 09:57:52.631   10 Jun 2027 09:57:54.970             2.339          1039.344
       350   10 Jun 2027 09:58:12.415   10 Jun 2027 09:58:14.722             2.307           545.156
       351   10 Jun 2027 09:59:43.231   10 Jun 2027 09:59:53.255            10.024          2631.656
       352   10 Jun 2027 10:00:10.810   10 Jun 2027 10:00:13.896             3.086           548.594
       353   10 Jun 2027 10:00:56.535   10 Jun 2027 10:01:00.511             3.976          1332.469
       354   10 Jun 2027 10:01:07.085   10 Jun 2027 10:01:10.311             3.226           138.531
       355   10 Jun 2027 10:01:26.782   10 Jun 2027 10:01:27.374             0.592           296.000
       356   10 Jun 2027 11:33:00.769   10 Jun 2027 11:33:17.422            16.653          7593.125
       357   10 Jun 2027 11:33:25.771   10 Jun 2027 11:33:26.245             0.474           205.906
       358   10 Jun 2027 11:33:32.324   10 Jun 2027 11:33:34.555             2.231            83.750
       359   10 Jun 2027 11:33:59.327   10 Jun 2027 11:33:59.327             0.000             0.000
       360   10 Jun 2027 11:34:29.558   10 Jun 2027 11:34:32.260             2.702          1351.000
       361   10 Jun 2027 11:34:36.026   10 Jun 2027 11:34:37.523             1.497           165.531
       362   10 Jun 2027 11:36:26.751   10 Jun 2027 11:36:33.978             7.227          3115.938
       363   10 Jun 2027 11:37:07.920   10 Jun 2027 11:37:10.508             2.588          1060.687
       364   10 Jun 2027 11:37:25.458   10 Jun 2027 11:37:29.947             4.489           467.188
       365   11 Jun 2027 03:45:20.766   11 Jun 2027 03:45:23.208             2.442          1221.000
       366   11 Jun 2027 03:56:05.016   11 Jun 2027 03:56:45.216            40.200         20100.000
       367   11 Jun 2027 03:57:02.903   11 Jun 2027 03:59:40.568           157.665         78832.500
       368   11 Jun 2027 05:20:02.363   11 Jun 2027 05:21:10.267            67.904         33952.000
       369   11 Jun 2027 06:55:50.923   11 Jun 2027 06:56:35.104            44.181         21995.406
       370   11 Jun 2027 06:56:48.308   11 Jun 2027 06:56:54.028             5.720           102.469
       371   11 Jun 2027 06:57:06.473   11 Jun 2027 06:57:08.404             1.931           114.031
       372   11 Jun 2027 06:57:48.963   11 Jun 2027 06:57:53.404             4.441          1231.656
       373   11 Jun 2027 06:58:29.729   11 Jun 2027 06:58:30.492             0.763           381.500
       374   11 Jun 2027 06:59:12.491   11 Jun 2027 06:59:14.208             1.717           858.500
       375   11 Jun 2027 06:59:51.255   11 Jun 2027 06:59:56.031             4.776          2353.656
       376   11 Jun 2027 08:30:43.805   11 Jun 2027 08:30:54.083            10.278          4263.000
       377   11 Jun 2027 08:31:14.968   11 Jun 2027 08:31:19.408             4.440           568.937
       378   11 Jun 2027 08:32:46.279   11 Jun 2027 08:32:51.629             5.350          2343.594
       379   11 Jun 2027 08:33:13.821   11 Jun 2027 08:33:15.145             1.324           598.125
       380   11 Jun 2027 08:33:29.424   11 Jun 2027 08:33:32.523             3.099           162.750
       381   11 Jun 2027 08:34:49.630   11 Jun 2027 08:34:53.616             3.986          1897.062
       382   11 Jun 2027 08:35:03.017   11 Jun 2027 08:35:04.974             1.957           144.812
       383   11 Jun 2027 08:36:26.378   11 Jun 2027 08:36:35.056             8.678          2065.594
       384   11 Jun 2027 08:37:27.279   11 Jun 2027 08:37:31.568             4.289          1631.969
       385   11 Jun 2027 10:07:14.111   11 Jun 2027 10:07:30.815            16.704          8259.187
       386   11 Jun 2027 10:08:56.707   11 Jun 2027 10:09:05.738             9.031          1073.156
       387   11 Jun 2027 10:09:21.028   11 Jun 2027 10:09:24.454             3.426           477.813
       388   11 Jun 2027 10:09:42.661   11 Jun 2027 10:09:46.335             3.674           417.344
       389   11 Jun 2027 10:10:32.782   11 Jun 2027 10:10:34.619             1.837           648.938
       390   11 Jun 2027 10:10:50.763   11 Jun 2027 10:10:53.232             2.469           442.375
       391   11 Jun 2027 10:11:34.985   11 Jun 2027 10:11:44.088             9.103          1137.500
       392   11 Jun 2027 10:12:04.252   11 Jun 2027 10:12:15.113            10.861           517.156
       393   11 Jun 2027 10:12:21.323   11 Jun 2027 10:12:28.214             6.891           194.063
       394   11 Jun 2027 10:12:36.883   11 Jun 2027 10:12:38.224             1.341           270.906
       395   11 Jun 2027 10:13:28.679   11 Jun 2027 10:13:35.016             6.337          1350.813
       396   11 Jun 2027 11:45:32.061   11 Jun 2027 11:45:47.260            15.199          7572.750
       397   11 Jun 2027 11:46:39.603   11 Jun 2027 11:46:43.648             4.045          1623.875
       398   11 Jun 2027 11:47:10.330   11 Jun 2027 11:47:10.330             0.000             0.000
       399   11 Jun 2027 11:47:43.942   11 Jun 2027 11:47:48.596             4.654          1428.875
       400   11 Jun 2027 11:48:35.520   11 Jun 2027 11:48:41.394             5.874          1466.375
       401   11 Jun 2027 11:49:13.783   11 Jun 2027 11:49:19.725             5.942           941.906
       402   12 Jun 2027 03:56:39.264   12 Jun 2027 03:57:47.378            68.114         34057.000
       403   12 Jun 2027 04:08:01.337   12 Jun 2027 04:09:41.904           100.567         50283.500
       404   12 Jun 2027 05:30:37.034   12 Jun 2027 05:31:40.242            63.208         31604.000
       405   12 Jun 2027 05:31:53.757   12 Jun 2027 05:32:28.672            34.915         17457.500
       406   12 Jun 2027 05:33:39.505   12 Jun 2027 05:33:39.505             0.000             0.000
       407   12 Jun 2027 05:34:53.433   12 Jun 2027 05:35:07.390            13.957          6978.500
       408   12 Jun 2027 07:06:07.801   12 Jun 2027 07:06:52.675            44.874         20619.938
       409   12 Jun 2027 07:08:24.110   12 Jun 2027 07:08:34.583            10.473          2857.344
       410   12 Jun 2027 07:09:21.360   12 Jun 2027 07:09:26.108             4.748          1016.750
       411   12 Jun 2027 07:10:26.956   12 Jun 2027 07:10:30.561             3.605          1596.625
       412   12 Jun 2027 07:10:49.756   12 Jun 2027 07:10:49.756             0.000             0.000
       413   12 Jun 2027 07:11:14.228   12 Jun 2027 07:11:17.138             2.910          1364.594
       414   12 Jun 2027 07:11:59.953   12 Jun 2027 07:12:01.125             1.172           586.000
       415   12 Jun 2027 08:42:27.963   12 Jun 2027 08:42:42.140            14.177          4450.219
       416   12 Jun 2027 08:42:59.375   12 Jun 2027 08:43:00.334             0.959           233.969
       417   12 Jun 2027 08:44:10.505   12 Jun 2027 08:44:11.564             1.059           366.187
       418   12 Jun 2027 08:44:56.011   12 Jun 2027 08:44:58.642             2.631          1179.313
       419   12 Jun 2027 08:46:03.794   12 Jun 2027 08:46:06.655             2.861          1204.344
       420   12 Jun 2027 08:46:51.573   12 Jun 2027 08:46:51.573             0.000             0.000
       421   12 Jun 2027 08:47:26.780   12 Jun 2027 08:47:32.477             5.697          2503.906
       422   12 Jun 2027 08:47:58.059   12 Jun 2027 08:48:00.105             2.046           548.906
       423   12 Jun 2027 08:48:08.024   12 Jun 2027 08:48:08.024             0.000             0.000
       424   12 Jun 2027 08:48:11.554   12 Jun 2027 08:48:13.715             2.161           188.000
       425   12 Jun 2027 08:49:11.467   12 Jun 2027 08:49:17.334             5.867          1804.750
       426   12 Jun 2027 10:19:34.034   12 Jun 2027 10:19:55.839            21.805          7620.813
       427   12 Jun 2027 10:20:28.516   12 Jun 2027 10:20:32.973             4.457          1003.813
       428   12 Jun 2027 10:21:08.611   12 Jun 2027 10:21:11.984             3.373           603.875
       429   12 Jun 2027 10:21:53.375   12 Jun 2027 10:21:56.176             2.801           691.719
       430   12 Jun 2027 10:22:29.433   12 Jun 2027 10:22:32.084             2.651           805.375
       431   12 Jun 2027 10:23:25.691   12 Jun 2027 10:23:34.267             8.576          1675.219
       432   12 Jun 2027 10:23:49.180   12 Jun 2027 10:23:51.430             2.250           466.031
       433   12 Jun 2027 10:24:13.866   12 Jun 2027 10:24:16.202             2.336           692.344
       434   12 Jun 2027 10:25:33.248   12 Jun 2027 10:25:38.025             4.777          2388.500
       435   12 Jun 2027 10:25:40.330   12 Jun 2027 10:25:41.000             0.670            19.187
       436   12 Jun 2027 11:57:29.542   12 Jun 2027 11:57:44.279            14.737          7126.719
       437   12 Jun 2027 11:58:28.635   12 Jun 2027 11:58:33.988             5.353          1192.312
       438   12 Jun 2027 11:59:33.864   12 Jun 2027 11:59:38.525             4.661          1871.125
       439   12 Jun 2027 11:59:54.135   12 Jun 2027 11:59:54.826             0.691           345.500
       440   13 Jun 2027 04:08:20.553   13 Jun 2027 04:09:54.890            94.337         47168.500
       441   13 Jun 2027 04:20:04.762   13 Jun 2027 04:21:03.433            58.671         29335.500
       442   13 Jun 2027 05:42:19.045   13 Jun 2027 05:43:25.244            66.199         33099.500
       443   13 Jun 2027 05:44:12.804   13 Jun 2027 05:44:46.975            34.171         17085.500
       444   13 Jun 2027 05:45:03.824   13 Jun 2027 05:45:03.824             0.000             0.000
       445   13 Jun 2027 05:45:17.369   13 Jun 2027 05:45:42.793            25.424         12712.000
       446   13 Jun 2027 07:17:15.398   13 Jun 2027 07:18:03.208            47.810         23895.156
       447   13 Jun 2027 07:18:26.759   13 Jun 2027 07:18:29.540             2.781           715.531
       448   13 Jun 2027 07:19:24.805   13 Jun 2027 07:19:26.115             1.310           655.000
       449   13 Jun 2027 07:20:21.626   13 Jun 2027 07:20:31.838            10.212          2346.437
       450   13 Jun 2027 07:20:53.590   13 Jun 2027 07:20:55.208             1.618           621.219
       451   13 Jun 2027 07:21:34.065   13 Jun 2027 07:21:36.851             2.786          1000.938
       452   13 Jun 2027 07:22:28.122   13 Jun 2027 07:22:28.122             0.000             0.000
       453   13 Jun 2027 07:23:11.819   13 Jun 2027 07:23:15.850             4.031          2015.500
       454   13 Jun 2027 07:24:13.283   13 Jun 2027 07:24:18.443             5.160          2471.031
       455   13 Jun 2027 07:25:23.966   13 Jun 2027 07:25:30.287             6.321          1713.094
       456   13 Jun 2027 08:54:45.432   13 Jun 2027 08:54:53.700             8.268          3940.812
       457   13 Jun 2027 08:57:35.567   13 Jun 2027 08:57:46.311            10.744          4806.562
       458   13 Jun 2027 08:58:16.138   13 Jun 2027 08:58:18.579             2.441           879.156
       459   13 Jun 2027 08:59:00.319   13 Jun 2027 08:59:03.608             3.289          1204.750
       460   13 Jun 2027 08:59:17.075   13 Jun 2027 08:59:19.708             2.633           420.844
       461   13 Jun 2027 09:00:22.706   13 Jun 2027 09:00:22.706             0.000             0.000
       462   13 Jun 2027 09:00:40.845   13 Jun 2027 09:00:45.182             4.337          2026.500
       463   13 Jun 2027 09:01:06.700   13 Jun 2027 09:01:12.300             5.600           543.750
       464   13 Jun 2027 09:01:25.617   13 Jun 2027 09:01:30.095             4.478           416.156
       465   13 Jun 2027 10:31:30.186   13 Jun 2027 10:31:44.605            14.419          7113.781
       466   13 Jun 2027 10:32:45.614   13 Jun 2027 10:32:47.829             2.215           390.188
       467   13 Jun 2027 10:33:44.793   13 Jun 2027 10:33:48.515             3.722          1780.125
       468   13 Jun 2027 10:34:30.461   13 Jun 2027 10:34:35.785             5.324          1275.500
       469   13 Jun 2027 10:34:47.405   13 Jun 2027 10:34:49.531             2.126           357.969
       470   13 Jun 2027 10:35:03.163   13 Jun 2027 10:35:03.163             0.000             0.000
       471   13 Jun 2027 10:35:41.281   13 Jun 2027 10:35:44.666             3.385          1589.875
       472   13 Jun 2027 10:35:45.591   13 Jun 2027 10:35:47.477             1.886            28.906
       473   13 Jun 2027 10:35:51.227   13 Jun 2027 10:35:52.080             0.853           117.187
       474   13 Jun 2027 10:35:59.842   13 Jun 2027 10:36:00.344             0.502           242.563
       475   13 Jun 2027 10:36:43.987   13 Jun 2027 10:36:50.231             6.244          1363.844
       476   13 Jun 2027 10:37:47.881   13 Jun 2027 10:37:52.392             4.511          1801.562
