uniorb/output/strategy_2/Camera/Camera_KinoSat_110202.txt

KinoSat_110202
-------------------------
    Access    *     Start Time (UTCG)     *     Stop Time (UTCG)  *   Duration (s) *   Data (Mbytes)
         1   01 Jun 2027 03:00:00.000   01 Jun 2027 03:00:01.643             1.643           821.500
         2   01 Jun 2027 03:00:09.650   01 Jun 2027 03:00:13.544             3.894          1947.000
         3   01 Jun 2027 03:00:44.031   01 Jun 2027 03:00:44.331             0.300           150.000
         4   01 Jun 2027 03:00:47.959   01 Jun 2027 03:00:50.541             2.582          1291.000
         5   01 Jun 2027 03:01:09.280   01 Jun 2027 03:01:14.388             5.108          2554.000
         6   01 Jun 2027 04:30:52.365   01 Jun 2027 04:30:53.167             0.802           401.000
         7   01 Jun 2027 04:31:11.317   01 Jun 2027 04:31:14.438             3.121          1560.500
         8   01 Jun 2027 04:32:18.998   01 Jun 2027 04:32:21.543             2.545          1272.500
         9   01 Jun 2027 04:32:34.500   01 Jun 2027 04:32:35.868             1.368           684.000
        10   01 Jun 2027 04:32:45.499   01 Jun 2027 04:32:59.301            13.802          6901.000
        11   01 Jun 2027 04:34:16.554   01 Jun 2027 04:34:17.115             0.561           280.500
        12   01 Jun 2027 04:34:23.372   01 Jun 2027 04:34:25.771             2.399          1199.500
        13   01 Jun 2027 04:35:26.008   01 Jun 2027 04:35:29.865             3.857          1928.500
        14   01 Jun 2027 04:36:04.842   01 Jun 2027 04:36:07.151             2.309          1154.500
        15   01 Jun 2027 04:36:34.856   01 Jun 2027 04:36:40.207             5.351          2675.500
        16   01 Jun 2027 06:08:25.908   01 Jun 2027 06:08:27.868             1.960           980.000
        17   01 Jun 2027 06:08:40.735   01 Jun 2027 06:08:51.614            10.879          5439.500
        18   01 Jun 2027 06:10:04.811   01 Jun 2027 06:10:05.663             0.852           426.000
        19   01 Jun 2027 06:10:22.152   01 Jun 2027 06:10:26.338             4.186          2093.000
        20   01 Jun 2027 06:11:30.213   01 Jun 2027 06:11:39.638             9.425          4712.500
        21   01 Jun 2027 06:12:21.691   01 Jun 2027 06:12:25.388             3.697          1848.500
        22   01 Jun 2027 06:12:50.019   01 Jun 2027 06:12:51.052             1.033           516.500
        23   01 Jun 2027 07:44:27.213   01 Jun 2027 07:44:31.976             4.763          2381.500
        24   01 Jun 2027 07:45:16.773   01 Jun 2027 07:45:18.032             1.259           629.500
        25   01 Jun 2027 07:45:31.224   01 Jun 2027 07:45:31.433             0.209           104.500
        26   01 Jun 2027 07:46:25.640   01 Jun 2027 07:46:29.446             3.806          1903.000
        27   01 Jun 2027 07:46:33.379   01 Jun 2027 07:46:39.836             6.457          3228.500
        28   01 Jun 2027 07:47:19.580   01 Jun 2027 07:47:20.890             1.310           655.000
        29   01 Jun 2027 07:47:29.561   01 Jun 2027 07:47:38.397             8.836          4418.000
        30   01 Jun 2027 07:48:28.415   01 Jun 2027 07:48:39.057            10.642          5321.000
        31   01 Jun 2027 07:48:43.178   01 Jun 2027 07:48:48.662             5.484          2742.000
        32   02 Jun 2027 03:06:02.329   02 Jun 2027 03:06:16.342            14.013          7006.500
        33   02 Jun 2027 03:07:51.752   02 Jun 2027 03:07:56.348             4.596          2298.000
        34   02 Jun 2027 03:08:35.208   02 Jun 2027 03:08:42.791             7.583          3791.500
        35   02 Jun 2027 03:10:35.836   02 Jun 2027 03:10:42.472             6.636          3318.000
        36   02 Jun 2027 03:11:16.434   02 Jun 2027 03:11:19.415             2.981          1490.500
        37   02 Jun 2027 03:11:55.017   02 Jun 2027 03:12:10.492            15.475          7737.500
        38   02 Jun 2027 04:42:38.183   02 Jun 2027 04:42:53.101            14.918          7459.000
        39   02 Jun 2027 04:43:32.369   02 Jun 2027 04:43:38.410             6.041          3020.500
        40   02 Jun 2027 04:44:38.418   02 Jun 2027 04:44:45.031             6.613          3306.500
        41   02 Jun 2027 04:45:14.518   02 Jun 2027 04:45:38.010            23.492         11746.000
        42   02 Jun 2027 04:47:17.845   02 Jun 2027 04:47:24.876             7.031          3515.500
        43   02 Jun 2027 04:48:33.241   02 Jun 2027 04:48:53.787            20.546         10273.000
        44   02 Jun 2027 06:20:55.869   02 Jun 2027 06:20:58.424             2.555          1277.500
        45   02 Jun 2027 06:21:28.916   02 Jun 2027 06:21:32.755             3.839          1919.500
        46   02 Jun 2027 06:22:20.047   02 Jun 2027 06:22:25.198             5.151          2575.500
        47   02 Jun 2027 06:22:46.716   02 Jun 2027 06:22:47.352             0.636           318.000
        48   02 Jun 2027 06:23:20.538   02 Jun 2027 06:23:21.995             1.457           728.500
        49   02 Jun 2027 06:23:30.399   02 Jun 2027 06:23:35.366             4.967          2483.500
        50   02 Jun 2027 06:24:23.651   02 Jun 2027 06:24:27.035             3.384          1692.000
        51   02 Jun 2027 06:24:41.574   02 Jun 2027 06:24:50.705             9.131          4565.500
        52   02 Jun 2027 07:54:16.424   02 Jun 2027 07:54:24.141             7.717          3858.500
        53   02 Jun 2027 07:56:15.721   02 Jun 2027 07:56:25.858            10.137          5068.500
        54   02 Jun 2027 07:57:13.170   02 Jun 2027 07:57:14.750             1.580           790.000
        55   02 Jun 2027 07:57:57.390   02 Jun 2027 07:58:13.906            16.516          8258.000
        56   02 Jun 2027 07:59:19.873   02 Jun 2027 07:59:20.293             0.420           210.000
        57   02 Jun 2027 07:59:28.214   02 Jun 2027 07:59:29.139             0.925           462.500
        58   02 Jun 2027 07:59:59.001   02 Jun 2027 08:00:02.978             3.977          1988.500
        59   02 Jun 2027 08:01:18.607   02 Jun 2027 08:01:25.545             6.938          3469.000
        60   03 Jun 2027 03:17:55.228   03 Jun 2027 03:17:57.024             1.796           898.000
        61   03 Jun 2027 03:18:08.284   03 Jun 2027 03:18:16.351             8.067          4033.500
        62   03 Jun 2027 03:19:01.845   03 Jun 2027 03:19:05.605             3.760          1880.000
        63   03 Jun 2027 03:19:21.908   03 Jun 2027 03:19:25.148             3.240          1620.000
        64   03 Jun 2027 03:20:30.609   03 Jun 2027 03:20:44.789            14.180          7090.000
        65   03 Jun 2027 03:21:56.838   03 Jun 2027 03:21:58.126             1.288           644.000
        66   03 Jun 2027 03:22:03.489   03 Jun 2027 03:22:05.185             1.696           848.000
        67   03 Jun 2027 03:22:53.991   03 Jun 2027 03:23:04.788            10.797          5398.500
        68   03 Jun 2027 03:24:08.438   03 Jun 2027 03:24:18.335             9.897          4948.500
        69   03 Jun 2027 03:24:48.446   03 Jun 2027 03:24:49.517             1.071           535.500
        70   03 Jun 2027 04:54:59.271   03 Jun 2027 04:55:05.395             6.124          3062.000
        71   03 Jun 2027 04:55:33.395   03 Jun 2027 04:55:34.264             0.869           434.500
        72   03 Jun 2027 04:56:05.327   03 Jun 2027 04:56:07.088             1.761           880.500
        73   03 Jun 2027 04:56:39.448   03 Jun 2027 04:56:53.912            14.464          7232.000
        74   03 Jun 2027 04:57:57.689   03 Jun 2027 04:58:00.906             3.217          1608.500
        75   03 Jun 2027 04:58:20.235   03 Jun 2027 04:58:22.803             2.568          1284.000
        76   03 Jun 2027 04:58:41.211   03 Jun 2027 04:58:44.335             3.124          1562.000
        77   03 Jun 2027 04:59:10.535   03 Jun 2027 04:59:19.975             9.440          4720.000
        78   03 Jun 2027 05:00:22.426   03 Jun 2027 05:00:24.092             1.666           833.000
        79   03 Jun 2027 06:32:53.551   03 Jun 2027 06:32:58.060             4.509          2254.500
        80   03 Jun 2027 06:33:40.752   03 Jun 2027 06:33:41.061             0.309           154.500
        81   03 Jun 2027 06:34:06.576   03 Jun 2027 06:34:08.319             1.743           871.500
        82   03 Jun 2027 06:34:33.402   03 Jun 2027 06:34:36.824             3.422          1711.000
        83   03 Jun 2027 06:34:51.203   03 Jun 2027 06:35:02.546            11.343          5671.500
        84   03 Jun 2027 06:36:10.132   03 Jun 2027 06:36:20.647            10.515          5257.500
        85   03 Jun 2027 08:06:06.052   03 Jun 2027 08:06:46.626            40.574         20287.000
        86   03 Jun 2027 08:10:29.544   03 Jun 2027 08:10:34.117             4.573          2286.500
        87   03 Jun 2027 08:11:22.290   03 Jun 2027 08:11:26.355             4.065          2032.500
        88   03 Jun 2027 08:11:44.746   03 Jun 2027 08:11:50.694             5.948          2974.000
        89   03 Jun 2027 08:12:46.627   03 Jun 2027 08:12:46.974             0.347           173.500
        90   03 Jun 2027 08:13:01.369   03 Jun 2027 08:13:09.767             8.398          4199.000
        91   04 Jun 2027 03:30:07.678   04 Jun 2027 03:30:09.865             2.187          1093.500
        92   04 Jun 2027 03:30:33.737   04 Jun 2027 03:30:37.126             3.389          1694.500
        93   04 Jun 2027 03:31:01.507   04 Jun 2027 03:31:05.620             4.113          2056.500
        94   04 Jun 2027 03:31:54.988   04 Jun 2027 03:31:58.731             3.743          1871.500
        95   04 Jun 2027 03:32:24.444   04 Jun 2027 03:32:29.280             4.836          2418.000
        96   04 Jun 2027 03:32:49.415   04 Jun 2027 03:32:51.280             1.865           932.500
        97   04 Jun 2027 03:33:09.524   04 Jun 2027 03:33:12.415             2.891          1445.500
        98   04 Jun 2027 03:34:04.622   04 Jun 2027 03:34:10.149             5.527          2763.500
        99   04 Jun 2027 03:34:42.847   04 Jun 2027 03:34:44.675             1.828           914.000
       100   04 Jun 2027 03:34:56.842   04 Jun 2027 03:34:58.593             1.751           875.500
       101   04 Jun 2027 03:35:50.012   04 Jun 2027 03:36:05.860            15.848          7924.000
       102   04 Jun 2027 05:06:50.365   04 Jun 2027 05:07:01.758            11.393          5696.500
       103   04 Jun 2027 05:09:00.237   04 Jun 2027 05:09:15.047            14.810          7405.000
       104   04 Jun 2027 05:10:14.768   04 Jun 2027 05:10:16.257             1.489           744.500
       105   04 Jun 2027 05:10:56.190   04 Jun 2027 05:10:56.894             0.704           352.000
       106   04 Jun 2027 05:11:09.334   04 Jun 2027 05:11:15.696             6.362          3181.000
       107   04 Jun 2027 05:11:35.007   04 Jun 2027 05:11:37.311             2.304          1152.000
       108   04 Jun 2027 05:12:06.292   04 Jun 2027 05:12:09.626             3.334          1667.000
       109   04 Jun 2027 05:12:56.126   04 Jun 2027 05:12:57.929             1.803           901.500
       110   04 Jun 2027 05:13:13.968   04 Jun 2027 05:13:18.983             5.015          2507.500
       111   04 Jun 2027 06:44:53.391   04 Jun 2027 06:44:56.401             3.010          1505.000
       112   04 Jun 2027 06:45:04.067   04 Jun 2027 06:45:08.900             4.833          2416.500
       113   04 Jun 2027 06:45:57.428   04 Jun 2027 06:45:57.449             0.021            10.500
       114   04 Jun 2027 06:46:26.744   04 Jun 2027 06:46:29.620             2.876          1438.000
       115   04 Jun 2027 06:46:41.375   04 Jun 2027 06:46:45.593             4.218          2109.000
       116   04 Jun 2027 06:47:05.032   04 Jun 2027 06:47:05.114             0.082            41.000
       117   04 Jun 2027 06:48:06.139   04 Jun 2027 06:48:24.804            18.665          9332.500
       118   04 Jun 2027 08:18:31.120   04 Jun 2027 08:18:57.770            26.650         13325.000
       119   04 Jun 2027 08:20:38.344   04 Jun 2027 08:20:49.714            11.370          5685.000
       120   04 Jun 2027 08:22:29.334   04 Jun 2027 08:22:35.403             6.069          3034.500
       121   04 Jun 2027 08:23:16.646   04 Jun 2027 08:23:31.679            15.033          7516.500
       122   04 Jun 2027 08:25:05.840   04 Jun 2027 08:25:05.917             0.077            38.500
       123   05 Jun 2027 03:42:01.619   05 Jun 2027 03:42:05.739             4.120          2060.000
       124   05 Jun 2027 03:42:29.693   05 Jun 2027 03:42:30.624             0.931           465.500
       125   05 Jun 2027 03:42:55.629   05 Jun 2027 03:43:08.283            12.654          6327.000
       126   05 Jun 2027 03:43:43.694   05 Jun 2027 03:44:09.969            26.275         13137.500
       127   05 Jun 2027 03:46:17.580   05 Jun 2027 03:46:22.684             5.104          2552.000
       128   05 Jun 2027 03:46:44.595   05 Jun 2027 03:46:48.925             4.330          2165.000
       129   05 Jun 2027 03:47:15.695   05 Jun 2027 03:47:18.807             3.112          1556.000
       130   05 Jun 2027 03:47:47.178   05 Jun 2027 03:48:02.726            15.548          7774.000
       131   05 Jun 2027 03:49:12.232   05 Jun 2027 03:49:15.247             3.015          1507.500
       132   05 Jun 2027 03:49:18.682   05 Jun 2027 03:49:30.007            11.325          5662.500
       133   05 Jun 2027 05:18:56.257   05 Jun 2027 05:19:00.199             3.942          1971.000
       134   05 Jun 2027 05:19:16.957   05 Jun 2027 05:19:41.325            24.368         12184.000
       135   05 Jun 2027 05:21:28.515   05 Jun 2027 05:21:36.491             7.976          3988.000
       136   05 Jun 2027 05:22:21.233   05 Jun 2027 05:22:24.898             3.665          1832.500
       137   05 Jun 2027 05:22:44.566   05 Jun 2027 05:22:44.890             0.324           162.000
       138   05 Jun 2027 05:23:08.903   05 Jun 2027 05:23:09.836             0.933           466.500
       139   05 Jun 2027 05:23:26.895   05 Jun 2027 05:23:37.332            10.437          5218.500
       140   05 Jun 2027 05:24:37.081   05 Jun 2027 05:24:44.528             7.447          3723.500
       141   05 Jun 2027 05:25:11.765   05 Jun 2027 05:25:11.765             0.000             0.000
       142   05 Jun 2027 06:56:39.612   05 Jun 2027 06:56:43.181             3.569          1784.500
       143   05 Jun 2027 06:57:10.206   05 Jun 2027 06:57:15.685             5.479          2739.500
       144   05 Jun 2027 06:58:04.410   05 Jun 2027 06:58:15.514            11.104          5552.000
       145   05 Jun 2027 06:59:15.265   05 Jun 2027 06:59:17.960             2.695          1347.500
       146   05 Jun 2027 06:59:20.714   05 Jun 2027 06:59:20.721             0.007             3.500
       147   05 Jun 2027 06:59:36.520   05 Jun 2027 06:59:39.538             3.018          1509.000
       148   05 Jun 2027 07:00:26.617   05 Jun 2027 07:00:36.020             9.403          4701.500
       149   05 Jun 2027 08:30:54.263   05 Jun 2027 08:30:56.562             2.299          1149.500
       150   05 Jun 2027 08:31:07.229   05 Jun 2027 08:31:24.214            16.985          8492.500
       151   05 Jun 2027 08:32:52.366   05 Jun 2027 08:33:08.257            15.891          7945.500
       152   05 Jun 2027 08:34:12.541   05 Jun 2027 08:34:25.596            13.055          6527.500
       153   05 Jun 2027 08:35:19.122   05 Jun 2027 08:35:29.624            10.502          5251.000
       154   06 Jun 2027 03:54:22.653   06 Jun 2027 03:54:29.423             6.770          3385.000
       155   06 Jun 2027 03:54:36.183   06 Jun 2027 03:54:42.317             6.134          3067.000
       156   06 Jun 2027 03:56:28.245   06 Jun 2027 03:56:28.506             0.261           130.500
       157   06 Jun 2027 03:56:54.798   06 Jun 2027 03:56:57.332             2.534          1267.000
       158   06 Jun 2027 03:57:14.773   06 Jun 2027 03:57:14.992             0.219           109.500
       159   06 Jun 2027 03:57:18.534   06 Jun 2027 03:57:25.134             6.600          3300.000
       160   06 Jun 2027 03:58:17.772   06 Jun 2027 03:58:19.612             1.840           920.000
       161   06 Jun 2027 03:58:38.553   06 Jun 2027 03:58:43.666             5.113          2556.500
       162   06 Jun 2027 03:59:04.272   06 Jun 2027 03:59:07.531             3.259          1629.500
       163   06 Jun 2027 04:00:08.540   06 Jun 2027 04:00:17.083             8.543          4271.500
       164   06 Jun 2027 04:01:02.938   06 Jun 2027 04:01:06.557             3.619          1809.500
       165   06 Jun 2027 05:31:26.291   06 Jun 2027 05:31:28.525             2.234          1117.000
       166   06 Jun 2027 05:31:48.191   06 Jun 2027 05:31:53.395             5.204          2602.000
       167   06 Jun 2027 05:32:05.389   06 Jun 2027 05:32:29.118            23.729         11864.500
       168   06 Jun 2027 05:34:23.550   06 Jun 2027 05:34:28.737             5.187          2593.500
       169   06 Jun 2027 05:35:22.203   06 Jun 2027 05:35:24.081             1.878           939.000
       170   06 Jun 2027 05:35:42.489   06 Jun 2027 05:35:43.696             1.207           603.500
       171   06 Jun 2027 05:35:52.761   06 Jun 2027 05:35:55.581             2.820          1410.000
       172   06 Jun 2027 05:36:28.003   06 Jun 2027 05:36:28.628             0.625           312.500
       173   06 Jun 2027 05:36:32.436   06 Jun 2027 05:36:34.155             1.719           859.500
       174   06 Jun 2027 05:36:56.691   06 Jun 2027 05:37:01.646             4.955          2477.500
       175   06 Jun 2027 07:08:11.282   06 Jun 2027 07:08:20.205             8.923          4461.500
       176   06 Jun 2027 07:09:11.270   06 Jun 2027 07:09:34.626            23.356         11678.000
       177   06 Jun 2027 07:11:35.103   06 Jun 2027 07:11:37.083             1.980           990.000
       178   06 Jun 2027 07:11:58.411   06 Jun 2027 07:12:06.197             7.786          3893.000
       179   06 Jun 2027 07:12:44.749   06 Jun 2027 07:12:54.516             9.767          4883.500
       180   06 Jun 2027 08:43:27.630   06 Jun 2027 08:43:32.482             4.852          2426.000
       181   06 Jun 2027 08:45:08.841   06 Jun 2027 08:45:09.606             0.765           382.500
       182   06 Jun 2027 08:46:07.094   06 Jun 2027 08:46:27.214            20.120         10060.000
       183   07 Jun 2027 04:06:36.054   07 Jun 2027 04:07:02.774            26.720         13360.000
       184   07 Jun 2027 04:08:55.793   07 Jun 2027 04:08:56.378             0.585           292.500
       185   07 Jun 2027 04:09:14.823   07 Jun 2027 04:09:21.288             6.465          3232.500
       186   07 Jun 2027 04:09:58.139   07 Jun 2027 04:10:15.487            17.348          8674.000
       187   07 Jun 2027 04:11:54.665   07 Jun 2027 04:11:58.245             3.580          1790.000
       188   07 Jun 2027 04:11:59.053   07 Jun 2027 04:12:02.182             3.129          1564.500
       189   07 Jun 2027 04:13:17.196   07 Jun 2027 04:13:18.022             0.826           413.000
       190   07 Jun 2027 05:43:31.939   07 Jun 2027 05:43:40.566             8.627          4313.500
       191   07 Jun 2027 05:43:53.179   07 Jun 2027 05:44:06.052            12.873          6436.500
       192   07 Jun 2027 05:45:20.096   07 Jun 2027 05:45:25.120             5.024          2512.000
       193   07 Jun 2027 05:45:46.448   07 Jun 2027 05:45:49.954             3.506          1753.000
       194   07 Jun 2027 05:46:32.736   07 Jun 2027 05:46:33.069             0.333           166.500
       195   07 Jun 2027 05:46:38.078   07 Jun 2027 05:46:46.700             8.622          4311.000
       196   07 Jun 2027 05:47:49.373   07 Jun 2027 05:48:00.085            10.712          5356.000
       197   07 Jun 2027 07:20:18.387   07 Jun 2027 07:20:36.422            18.035          9017.500
       198   07 Jun 2027 07:21:52.418   07 Jun 2027 07:21:58.156             5.738          2869.000
       199   07 Jun 2027 07:22:39.050   07 Jun 2027 07:22:46.391             7.341          3670.500
       200   07 Jun 2027 07:23:34.982   07 Jun 2027 07:23:53.335            18.353          9176.500
       201   07 Jun 2027 07:24:44.125   07 Jun 2027 07:24:47.916             3.791          1895.500
       202   07 Jun 2027 08:58:30.925   07 Jun 2027 08:58:40.284             9.359          4679.500
       203   07 Jun 2027 08:59:23.286   07 Jun 2027 08:59:26.928             3.642          1821.000
       204   08 Jun 2027 04:19:05.448   08 Jun 2027 04:19:23.193            17.745          8872.500
       205   08 Jun 2027 04:20:50.989   08 Jun 2027 04:20:56.983             5.994          2997.000
       206   08 Jun 2027 04:21:48.273   08 Jun 2027 04:21:48.656             0.383           191.500
       207   08 Jun 2027 04:22:20.603   08 Jun 2027 04:22:23.459             2.856          1428.000
       208   08 Jun 2027 04:22:58.776   08 Jun 2027 04:23:01.769             2.993          1496.500
       209   08 Jun 2027 04:23:17.953   08 Jun 2027 04:23:18.012             0.059            29.500
       210   08 Jun 2027 04:24:19.635   08 Jun 2027 04:24:20.847             1.212           606.000
       211   08 Jun 2027 04:24:49.473   08 Jun 2027 04:25:01.657            12.184          6092.000
       212   08 Jun 2027 05:56:34.623   08 Jun 2027 05:56:35.542             0.919           459.500
       213   08 Jun 2027 05:57:11.706   08 Jun 2027 05:57:18.800             7.094          3547.000
       214   08 Jun 2027 05:58:35.077   08 Jun 2027 05:58:36.042             0.965           482.500
       215   08 Jun 2027 05:58:41.441   08 Jun 2027 05:58:49.464             8.023          4011.500
       216   08 Jun 2027 05:59:25.593   08 Jun 2027 05:59:27.356             1.763           881.500
       217   08 Jun 2027 05:59:38.890   08 Jun 2027 05:59:39.600             0.710           355.000
       218   08 Jun 2027 06:00:01.556   08 Jun 2027 06:00:04.697             3.141          1570.500
       219   08 Jun 2027 06:00:33.547   08 Jun 2027 06:00:39.593             6.046          3023.000
       220   08 Jun 2027 07:32:40.051   08 Jun 2027 07:32:42.599             2.548          1274.000
       221   08 Jun 2027 07:33:04.370   08 Jun 2027 07:33:12.581             8.211          4105.500
       222   08 Jun 2027 07:33:22.576   08 Jun 2027 07:33:29.381             6.805          3402.500
       223   08 Jun 2027 07:34:47.202   08 Jun 2027 07:34:48.464             1.262           631.000
       224   08 Jun 2027 07:35:10.133   08 Jun 2027 07:35:12.025             1.892           946.000
       225   08 Jun 2027 07:36:00.170   08 Jun 2027 07:36:07.888             7.718          3859.000
       226   08 Jun 2027 07:36:37.531   08 Jun 2027 07:36:37.531             0.000             0.000
       227   08 Jun 2027 07:36:54.145   08 Jun 2027 07:36:54.396             0.251           125.500
       228   09 Jun 2027 03:00:00.000   09 Jun 2027 03:00:00.795             0.795           397.500
       229   09 Jun 2027 03:00:53.212   09 Jun 2027 03:00:54.526             1.314           657.000
       230   09 Jun 2027 03:01:01.654   09 Jun 2027 03:01:02.303             0.649           324.500
       231   09 Jun 2027 04:31:06.408   09 Jun 2027 04:31:08.117             1.709           854.500
       232   09 Jun 2027 04:31:29.242   09 Jun 2027 04:31:51.913            22.671         11335.500
       233   09 Jun 2027 04:33:40.013   09 Jun 2027 04:33:56.613            16.600          8300.000
       234   09 Jun 2027 04:35:25.049   09 Jun 2027 04:35:31.312             6.263          3131.500
       235   09 Jun 2027 04:37:06.614   09 Jun 2027 04:37:06.840             0.226           113.000
       236   09 Jun 2027 06:08:40.822   09 Jun 2027 06:08:41.022             0.200           100.000
       237   09 Jun 2027 06:08:57.927   09 Jun 2027 06:09:06.272             8.345          4172.500
       238   09 Jun 2027 06:09:46.811   09 Jun 2027 06:09:47.866             1.055           527.500
       239   09 Jun 2027 06:10:43.718   09 Jun 2027 06:10:44.893             1.175           587.500
       240   09 Jun 2027 06:10:50.504   09 Jun 2027 06:10:50.945             0.441           220.500
       241   09 Jun 2027 06:11:08.838   09 Jun 2027 06:11:12.863             4.025          2012.500
       242   09 Jun 2027 06:12:11.940   09 Jun 2027 06:12:19.106             7.166          3583.000
       243   09 Jun 2027 06:12:23.637   09 Jun 2027 06:12:28.028             4.391          2195.500
       244   09 Jun 2027 07:44:42.158   09 Jun 2027 07:44:47.128             4.970          2485.000
       245   09 Jun 2027 07:45:33.181   09 Jun 2027 07:45:42.332             9.151          4575.500
       246   09 Jun 2027 07:46:45.314   09 Jun 2027 07:46:48.239             2.925          1462.500
       247   09 Jun 2027 07:47:21.721   09 Jun 2027 07:47:25.857             4.136          2068.000
       248   09 Jun 2027 07:48:36.271   09 Jun 2027 07:48:38.453             2.182          1091.000
       249   09 Jun 2027 07:49:31.951   09 Jun 2027 07:49:37.754             5.803          2901.500
       250   10 Jun 2027 03:06:16.885   10 Jun 2027 03:06:31.923            15.038          7519.000
       251   10 Jun 2027 03:08:07.981   10 Jun 2027 03:08:10.847             2.866          1433.000
       252   10 Jun 2027 03:08:49.868   10 Jun 2027 03:08:57.821             7.953          3976.500
       253   10 Jun 2027 03:10:50.286   10 Jun 2027 03:10:57.031             6.745          3372.500
       254   10 Jun 2027 03:11:32.295   10 Jun 2027 03:11:35.524             3.229          1614.500
       255   10 Jun 2027 03:12:13.806   10 Jun 2027 03:12:27.889            14.083          7041.500
       256   10 Jun 2027 03:13:03.192   10 Jun 2027 03:13:03.363             0.171            85.500
       257   10 Jun 2027 03:13:35.093   10 Jun 2027 03:13:39.615             4.522          2261.000
       258   10 Jun 2027 04:42:52.978   10 Jun 2027 04:43:08.109            15.131          7565.500
       259   10 Jun 2027 04:43:52.299   10 Jun 2027 04:43:55.869             3.570          1785.000
       260   10 Jun 2027 04:44:26.499   10 Jun 2027 04:44:30.236             3.737          1868.500
       261   10 Jun 2027 04:44:53.147   10 Jun 2027 04:44:59.884             6.737          3368.500
       262   10 Jun 2027 04:45:30.996   10 Jun 2027 04:45:53.700            22.704         11352.000
       263   10 Jun 2027 04:46:06.538   10 Jun 2027 04:46:06.832             0.294           147.000
       264   10 Jun 2027 04:47:36.274   10 Jun 2027 04:47:39.635             3.361          1680.500
       265   10 Jun 2027 04:48:05.760   10 Jun 2027 04:48:18.766            13.006          6503.000
       266   10 Jun 2027 04:49:10.814   10 Jun 2027 04:49:10.907             0.093            46.500
       267   10 Jun 2027 06:21:10.824   10 Jun 2027 06:21:13.269             2.445          1222.500
       268   10 Jun 2027 06:22:01.510   10 Jun 2027 06:22:09.403             7.893          3946.500
       269   10 Jun 2027 06:22:49.515   10 Jun 2027 06:22:54.033             4.518          2259.000
       270   10 Jun 2027 06:23:36.205   10 Jun 2027 06:23:38.272             2.067          1033.500
       271   10 Jun 2027 06:23:44.690   10 Jun 2027 06:23:47.486             2.796          1398.000
       272   10 Jun 2027 06:24:03.722   10 Jun 2027 06:24:25.179            21.457         10728.500
       273   10 Jun 2027 07:54:30.886   10 Jun 2027 07:54:40.061             9.175          4587.500
       274   10 Jun 2027 07:56:30.503   10 Jun 2027 07:56:40.915            10.412          5206.000
       275   10 Jun 2027 07:57:28.422   10 Jun 2027 07:57:29.247             0.825           412.500
       276   10 Jun 2027 07:58:42.597   10 Jun 2027 07:58:42.725             0.128            64.000
       277   10 Jun 2027 07:58:49.468   10 Jun 2027 07:58:53.728             4.260          2130.000
       278   10 Jun 2027 07:59:14.605   10 Jun 2027 07:59:18.953             4.348          2174.000
       279   10 Jun 2027 07:59:43.003   10 Jun 2027 07:59:44.689             1.686           843.000
       280   10 Jun 2027 07:59:48.843   10 Jun 2027 07:59:52.021             3.178          1589.000
       281   10 Jun 2027 08:00:11.401   10 Jun 2027 08:00:13.046             1.645           822.500
       282   10 Jun 2027 08:00:30.442   10 Jun 2027 08:00:35.255             4.813          2406.500
       283   10 Jun 2027 08:01:02.844   10 Jun 2027 08:01:07.526             4.682          2341.000
       284   10 Jun 2027 08:01:30.632   10 Jun 2027 08:01:33.336             2.704          1352.000
       285   11 Jun 2027 03:18:10.627   11 Jun 2027 03:18:22.515            11.888          5944.000
       286   11 Jun 2027 03:19:18.539   11 Jun 2027 03:19:21.148             2.609          1304.500
       287   11 Jun 2027 03:19:37.205   11 Jun 2027 03:19:39.685             2.480          1240.000
       288   11 Jun 2027 03:20:45.249   11 Jun 2027 03:20:59.805            14.556          7278.000
       289   11 Jun 2027 03:22:10.928   11 Jun 2027 03:22:12.718             1.790           895.000
       290   11 Jun 2027 03:22:25.675   11 Jun 2027 03:22:32.351             6.676          3338.000
       291   11 Jun 2027 03:23:01.296   11 Jun 2027 03:23:03.036             1.740           870.000
       292   11 Jun 2027 03:23:30.420   11 Jun 2027 03:23:32.267             1.847           923.500
       293   11 Jun 2027 03:23:48.989   11 Jun 2027 03:23:53.914             4.925          2462.500
       294   11 Jun 2027 03:24:24.298   11 Jun 2027 03:24:36.268            11.970          5985.000
       295   11 Jun 2027 04:55:14.107   11 Jun 2027 04:55:31.793            17.686          8843.000
       296   11 Jun 2027 04:57:01.543   11 Jun 2027 04:57:06.280             4.737          2368.500
       297   11 Jun 2027 04:57:42.175   11 Jun 2027 04:57:42.593             0.418           209.000
       298   11 Jun 2027 04:58:04.588   11 Jun 2027 04:58:11.885             7.297          3648.500
       299   11 Jun 2027 04:58:44.835   11 Jun 2027 04:58:51.983             7.148          3574.000
       300   11 Jun 2027 04:59:21.384   11 Jun 2027 04:59:21.567             0.183            91.500
       301   11 Jun 2027 04:59:24.161   11 Jun 2027 04:59:25.069             0.908           454.000
       302   11 Jun 2027 04:59:34.744   11 Jun 2027 04:59:41.206             6.462          3231.000
       303   11 Jun 2027 05:00:31.409   11 Jun 2027 05:00:32.137             0.728           364.000
       304   11 Jun 2027 05:00:41.287   11 Jun 2027 05:01:04.886            23.599         11799.500
       305   11 Jun 2027 05:01:07.878   11 Jun 2027 05:01:12.887             5.009          2504.500
       306   11 Jun 2027 06:33:08.381   11 Jun 2027 06:33:09.703             1.322           661.000
       307   11 Jun 2027 06:33:32.399   11 Jun 2027 06:33:37.903             5.504          2752.000
       308   11 Jun 2027 06:34:37.509   11 Jun 2027 06:34:44.413             6.904          3452.000
       309   11 Jun 2027 06:35:18.745   11 Jun 2027 06:35:19.063             0.318           159.000
       310   11 Jun 2027 06:35:35.910   11 Jun 2027 06:35:41.058             5.148          2574.000
       311   11 Jun 2027 06:36:25.021   11 Jun 2027 06:36:34.876             9.855          4927.500
       312   11 Jun 2027 08:06:21.243   11 Jun 2027 08:07:01.442            40.199         20099.500
       313   11 Jun 2027 08:10:47.957   11 Jun 2027 08:10:50.877             2.920          1460.000
       314   11 Jun 2027 08:11:07.542   11 Jun 2027 08:11:15.515             7.973          3986.500
       315   11 Jun 2027 08:11:48.876   11 Jun 2027 08:11:50.294             1.418           709.000
       316   11 Jun 2027 08:12:07.508   11 Jun 2027 08:12:13.781             6.273          3136.500
       317   11 Jun 2027 08:13:00.703   11 Jun 2027 08:13:01.611             0.908           454.000
       318   11 Jun 2027 08:13:16.168   11 Jun 2027 08:13:22.839             6.671          3335.500
       319   11 Jun 2027 08:13:46.580   11 Jun 2027 08:14:12.424            25.844         12922.000
       320   12 Jun 2027 03:30:22.312   12 Jun 2027 03:30:25.398             3.086          1543.000
       321   12 Jun 2027 03:30:51.100   12 Jun 2027 03:30:51.741             0.641           320.500
       322   12 Jun 2027 03:31:09.690   12 Jun 2027 03:31:11.682             1.992           996.000
       323   12 Jun 2027 03:31:22.050   12 Jun 2027 03:31:40.011            17.961          8980.500
       324   12 Jun 2027 03:32:57.765   12 Jun 2027 03:33:00.977             3.212          1606.000
       325   12 Jun 2027 03:33:26.054   12 Jun 2027 03:33:26.488             0.434           217.000
       326   12 Jun 2027 03:33:50.201   12 Jun 2027 03:33:59.903             9.702          4851.000
       327   12 Jun 2027 03:34:57.084   12 Jun 2027 03:35:01.547             4.463          2231.500
       328   12 Jun 2027 03:35:42.332   12 Jun 2027 03:35:42.839             0.507           253.500
       329   12 Jun 2027 03:35:56.573   12 Jun 2027 03:36:06.399             9.826          4913.000
       330   12 Jun 2027 03:37:03.859   12 Jun 2027 03:37:16.791            12.932          6466.000
       331   12 Jun 2027 05:07:05.146   12 Jun 2027 05:07:16.895            11.749          5874.500
       332   12 Jun 2027 05:07:42.145   12 Jun 2027 05:07:43.089             0.944           472.000
       333   12 Jun 2027 05:08:18.074   12 Jun 2027 05:08:54.287            36.213         18106.500
       334   12 Jun 2027 05:11:21.046   12 Jun 2027 05:11:23.323             2.277          1138.500
       335   12 Jun 2027 05:12:11.344   12 Jun 2027 05:12:24.150            12.806          6403.000
       336   12 Jun 2027 05:13:33.294   12 Jun 2027 05:13:37.365             4.071          2035.500
       337   12 Jun 2027 06:45:08.215   12 Jun 2027 06:45:10.989             2.774          1387.000
       338   12 Jun 2027 06:45:13.017   12 Jun 2027 06:45:23.807            10.790          5395.000
       339   12 Jun 2027 06:46:39.228   12 Jun 2027 06:46:42.982             3.754          1877.000
       340   12 Jun 2027 06:47:00.430   12 Jun 2027 06:47:02.886             2.456          1228.000
       341   12 Jun 2027 06:47:27.822   12 Jun 2027 06:47:28.779             0.957           478.500
       342   12 Jun 2027 06:48:19.927   12 Jun 2027 06:48:21.054             1.127           563.500
       343   12 Jun 2027 06:48:39.358   12 Jun 2027 06:48:42.943             3.585          1792.500
       344   12 Jun 2027 08:18:49.184   12 Jun 2027 08:18:49.692             0.508           254.000
       345   12 Jun 2027 08:19:07.574   12 Jun 2027 08:19:09.850             2.276          1138.000
       346   12 Jun 2027 08:20:15.686   12 Jun 2027 08:20:28.065            12.379          6189.500
       347   12 Jun 2027 08:21:29.383   12 Jun 2027 08:21:33.888             4.505          2252.500
       348   12 Jun 2027 08:22:34.342   12 Jun 2027 08:22:38.914             4.572          2286.000
       349   12 Jun 2027 08:23:16.132   12 Jun 2027 08:23:28.292            12.160          6080.000
       350   12 Jun 2027 08:24:24.688   12 Jun 2027 08:24:25.721             1.033           516.500
       351   12 Jun 2027 08:25:20.346   12 Jun 2027 08:25:20.670             0.324           162.000
       352   13 Jun 2027 03:42:16.402   13 Jun 2027 03:42:21.246             4.844          2422.000
       353   13 Jun 2027 03:42:44.317   13 Jun 2027 03:42:45.411             1.094           547.000
       354   13 Jun 2027 03:43:10.334   13 Jun 2027 03:43:26.052            15.718          7859.000
       355   13 Jun 2027 03:44:43.305   13 Jun 2027 03:44:50.772             7.467          3733.500
       356   13 Jun 2027 03:45:27.486   13 Jun 2027 03:45:27.793             0.307           153.500
       357   13 Jun 2027 03:45:30.921   13 Jun 2027 03:45:32.170             1.249           624.500
       358   13 Jun 2027 03:46:24.486   13 Jun 2027 03:46:24.941             0.455           227.500
       359   13 Jun 2027 03:46:29.253   13 Jun 2027 03:46:32.343             3.090          1545.000
       360   13 Jun 2027 03:46:50.357   13 Jun 2027 03:46:51.304             0.947           473.500
       361   13 Jun 2027 03:47:26.732   13 Jun 2027 03:47:30.779             4.047          2023.500
       362   13 Jun 2027 03:48:18.530   13 Jun 2027 03:48:20.631             2.101          1050.500
       363   13 Jun 2027 03:49:01.234   13 Jun 2027 03:49:07.084             5.850          2925.000
       364   13 Jun 2027 03:49:14.421   13 Jun 2027 03:49:18.267             3.846          1923.000
       365   13 Jun 2027 05:19:11.489   13 Jun 2027 05:19:14.294             2.805          1402.500
       366   13 Jun 2027 05:19:37.690   13 Jun 2027 05:19:55.972            18.282          9141.000
       367   13 Jun 2027 05:21:09.377   13 Jun 2027 05:21:15.678             6.301          3150.500
       368   13 Jun 2027 05:21:54.972   13 Jun 2027 05:21:54.977             0.005             2.500
       369   13 Jun 2027 05:22:08.662   13 Jun 2027 05:22:27.153            18.491          9245.500
       370   13 Jun 2027 05:24:06.265   13 Jun 2027 05:24:12.790             6.525          3262.500
       371   13 Jun 2027 05:24:51.757   13 Jun 2027 05:24:53.983             2.226          1113.000
       372   13 Jun 2027 05:25:16.242   13 Jun 2027 05:25:16.958             0.716           358.000
       373   13 Jun 2027 05:25:26.536   13 Jun 2027 05:25:33.573             7.037          3518.500
       374   13 Jun 2027 06:56:54.244   13 Jun 2027 06:56:56.866             2.622          1311.000
       375   13 Jun 2027 06:57:13.409   13 Jun 2027 06:57:17.503             4.094          2047.000
       376   13 Jun 2027 06:57:46.799   13 Jun 2027 06:57:50.573             3.774          1887.000
       377   13 Jun 2027 06:58:09.288   13 Jun 2027 06:58:19.097             9.809          4904.500
       378   13 Jun 2027 06:59:09.662   13 Jun 2027 06:59:10.981             1.319           659.500
       379   13 Jun 2027 06:59:26.629   13 Jun 2027 06:59:30.065             3.436          1718.000
       380   13 Jun 2027 07:00:06.358   13 Jun 2027 07:00:15.360             9.002          4501.000
       381   13 Jun 2027 07:01:08.323   13 Jun 2027 07:01:11.066             2.743          1371.500
       382   13 Jun 2027 08:31:09.504   13 Jun 2027 08:31:11.410             1.906           953.000
       383   13 Jun 2027 08:31:21.998   13 Jun 2027 08:31:38.889            16.891          8445.500
       384   13 Jun 2027 08:33:09.379   13 Jun 2027 08:33:22.762            13.383          6691.500
       385   13 Jun 2027 08:34:29.996   13 Jun 2027 08:34:40.450            10.454          5227.000
       386   13 Jun 2027 08:35:34.744   13 Jun 2027 08:35:44.249             9.505          4752.500
