uniorb/output/strategy_2/Camera/Camera_KinoSat_111407.txt

KinoSat_111407
-------------------------
    Access    *     Start Time (UTCG)     *     Stop Time (UTCG)  *   Duration (s) *   Data (Mbytes)
         1   01 Jun 2027 03:02:48.219   01 Jun 2027 03:03:05.541            17.322          8661.000
         2   01 Jun 2027 03:03:50.857   01 Jun 2027 03:05:27.290            96.433         48216.500
         3   01 Jun 2027 03:05:39.879   01 Jun 2027 03:05:50.583            10.704          5352.000
         4   01 Jun 2027 03:06:49.693   01 Jun 2027 03:07:00.245            10.552          5276.000
         5   01 Jun 2027 03:07:58.939   01 Jun 2027 03:08:08.183             9.244          4622.000
         6   01 Jun 2027 03:08:49.739   01 Jun 2027 03:08:51.439             1.700           850.000
         7   01 Jun 2027 03:10:25.885   01 Jun 2027 03:10:31.622             5.737          2868.500
         8   01 Jun 2027 04:40:59.677   01 Jun 2027 04:41:37.064            37.387         18693.500
         9   01 Jun 2027 04:42:07.225   01 Jun 2027 04:44:10.988           123.763         61881.500
        10   01 Jun 2027 06:05:05.673   01 Jun 2027 06:06:46.818           101.145         50572.500
        11   01 Jun 2027 06:07:05.911   01 Jun 2027 06:07:13.754             7.843          3921.500
        12   01 Jun 2027 07:40:51.268   01 Jun 2027 07:41:36.444            45.176         22588.000
        13   01 Jun 2027 07:42:58.949   01 Jun 2027 07:43:48.036            49.087         24543.500
        14   01 Jun 2027 07:43:56.831   01 Jun 2027 07:44:09.949            13.118          6559.000
        15   01 Jun 2027 09:15:48.713   01 Jun 2027 09:18:37.631           168.918         84459.000
        16   01 Jun 2027 09:22:25.887   01 Jun 2027 09:22:44.779            18.892          9446.000
        17   01 Jun 2027 09:22:46.516   01 Jun 2027 09:22:49.438             2.922          1461.000
        18   01 Jun 2027 10:52:00.956   01 Jun 2027 10:54:09.981           129.025         64512.500
        19   01 Jun 2027 10:55:03.896   01 Jun 2027 10:55:07.832             3.936          1968.000
        20   01 Jun 2027 10:57:42.434   01 Jun 2027 10:57:48.569             6.135          3067.500
        21   02 Jun 2027 03:15:53.453   02 Jun 2027 03:18:26.835           153.382         76691.000
        22   02 Jun 2027 03:19:57.485   02 Jun 2027 03:20:02.190             4.705          2352.500
        23   02 Jun 2027 03:20:26.187   02 Jun 2027 03:20:35.040             8.853          4426.500
        24   02 Jun 2027 03:22:04.544   02 Jun 2027 03:22:32.712            28.168         14084.000
        25   02 Jun 2027 03:22:51.423   02 Jun 2027 03:22:55.018             3.595          1797.500
        26   02 Jun 2027 03:23:23.071   02 Jun 2027 03:23:37.888            14.817          7408.500
        27   02 Jun 2027 04:41:53.305   02 Jun 2027 04:42:13.701            20.396         10198.000
        28   02 Jun 2027 04:52:55.790   02 Jun 2027 04:54:20.858            85.068         42534.000
        29   02 Jun 2027 04:54:22.812   02 Jun 2027 04:54:34.066            11.254          5627.000
        30   02 Jun 2027 04:55:55.949   02 Jun 2027 04:56:15.234            19.285          9642.500
        31   02 Jun 2027 06:15:55.329   02 Jun 2027 06:16:43.862            48.533         24266.500
        32   02 Jun 2027 06:17:14.245   02 Jun 2027 06:17:24.891            10.646          5323.000
        33   02 Jun 2027 06:17:53.334   02 Jun 2027 06:18:05.918            12.584          6292.000
        34   02 Jun 2027 07:51:27.273   02 Jun 2027 07:51:33.593             6.320          3160.000
        35   02 Jun 2027 07:52:36.993   02 Jun 2027 07:55:03.628           146.635         73317.500
        36   02 Jun 2027 09:27:22.387   02 Jun 2027 09:28:14.447            52.060         26030.000
        37   02 Jun 2027 09:28:43.277   02 Jun 2027 09:28:48.297             5.020          2368.094
        38   02 Jun 2027 09:29:05.620   02 Jun 2027 09:29:08.576             2.956           124.094
        39   02 Jun 2027 09:29:27.112   02 Jun 2027 09:29:31.752             4.640           374.344
        40   02 Jun 2027 09:30:55.565   02 Jun 2027 09:30:55.565             0.000             0.000
        41   02 Jun 2027 09:31:28.338   02 Jun 2027 09:31:38.381            10.043          3618.187
        42   02 Jun 2027 09:32:07.418   02 Jun 2027 09:32:08.098             0.680           340.000
        43   02 Jun 2027 09:34:14.762   02 Jun 2027 09:34:27.218            12.456          4410.438
        44   02 Jun 2027 09:34:45.241   02 Jun 2027 09:34:45.241             0.000             0.000
        45   02 Jun 2027 11:04:22.451   02 Jun 2027 11:04:42.183            19.732          9031.094
        46   02 Jun 2027 11:06:05.734   02 Jun 2027 11:06:15.766            10.032          2407.063
        47   02 Jun 2027 11:06:26.556   02 Jun 2027 11:06:29.364             2.808           337.188
        48   02 Jun 2027 11:06:36.404   02 Jun 2027 11:06:39.077             2.673            15.969
        49   02 Jun 2027 11:06:50.964   02 Jun 2027 11:06:51.763             0.799           371.469
        50   02 Jun 2027 11:07:07.675   02 Jun 2027 11:07:08.480             0.805           402.500
        51   02 Jun 2027 11:07:25.257   02 Jun 2027 11:07:25.933             0.676           338.000
        52   02 Jun 2027 11:07:35.152   02 Jun 2027 11:07:35.152             0.000             0.000
        53   02 Jun 2027 11:07:46.434   02 Jun 2027 11:07:48.878             2.444           911.688
        54   02 Jun 2027 11:08:09.017   02 Jun 2027 11:08:11.155             2.138           352.594
        55   02 Jun 2027 11:08:59.356   02 Jun 2027 11:09:02.159             2.803          1385.938
        56   02 Jun 2027 11:09:50.353   02 Jun 2027 11:09:55.135             4.782          1426.500
        57   02 Jun 2027 11:10:02.351   02 Jun 2027 11:10:05.551             3.200           225.500
        58   02 Jun 2027 11:10:27.141   02 Jun 2027 11:10:29.822             2.681           674.687
        59   03 Jun 2027 03:28:17.280   03 Jun 2027 03:29:54.178            96.898         48449.000
        60   03 Jun 2027 03:30:03.969   03 Jun 2027 03:30:54.534            50.565         25282.500
        61   03 Jun 2027 03:31:20.764   03 Jun 2027 03:31:27.038             6.274          3137.000
        62   03 Jun 2027 03:31:58.498   03 Jun 2027 03:32:05.428             6.930          3465.000
        63   03 Jun 2027 03:32:18.959   03 Jun 2027 03:32:27.980             9.021          4510.500
        64   03 Jun 2027 03:32:55.656   03 Jun 2027 03:33:40.046            44.390         22195.000
        65   03 Jun 2027 03:34:18.330   03 Jun 2027 03:34:33.839            15.509          7754.500
        66   03 Jun 2027 03:35:06.774   03 Jun 2027 03:35:11.137             4.363          2181.500
        67   03 Jun 2027 04:53:15.633   03 Jun 2027 04:53:34.072            18.439          9219.500
        68   03 Jun 2027 04:53:44.002   03 Jun 2027 04:53:56.970            12.968          6484.000
        69   03 Jun 2027 05:04:57.586   03 Jun 2027 05:05:54.775            57.189         28594.500
        70   03 Jun 2027 05:05:56.322   03 Jun 2027 05:05:58.618             2.296           642.125
        71   03 Jun 2027 06:27:11.485   03 Jun 2027 06:27:24.814            13.329          6273.500
        72   03 Jun 2027 06:27:39.754   03 Jun 2027 06:27:41.248             1.494           416.500
        73   03 Jun 2027 06:29:11.511   03 Jun 2027 06:29:15.424             3.913          1924.562
        74   03 Jun 2027 06:29:26.891   03 Jun 2027 06:29:26.891             0.000             0.000
        75   03 Jun 2027 06:29:56.429   03 Jun 2027 06:29:58.981             2.552          1100.375
        76   03 Jun 2027 06:30:58.451   03 Jun 2027 06:31:03.066             4.615          1584.094
        77   03 Jun 2027 06:31:29.164   03 Jun 2027 06:31:29.164             0.000             0.000
        78   03 Jun 2027 08:02:19.074   03 Jun 2027 08:02:27.574             8.500          3946.281
        79   03 Jun 2027 08:03:27.628   03 Jun 2027 08:03:27.628             0.000             0.000
        80   03 Jun 2027 08:04:20.561   03 Jun 2027 08:04:28.392             7.831          2113.000
        81   03 Jun 2027 08:05:02.861   03 Jun 2027 08:05:07.867             5.006           810.406
        82   03 Jun 2027 08:05:43.539   03 Jun 2027 08:05:45.824             2.285           967.844
        83   03 Jun 2027 08:07:26.690   03 Jun 2027 08:07:32.511             5.821          2637.563
        84   03 Jun 2027 08:07:51.653   03 Jun 2027 08:07:52.997             1.344           472.219
        85   03 Jun 2027 08:08:51.246   03 Jun 2027 08:08:55.536             4.290          1820.281
        86   03 Jun 2027 09:39:30.757   03 Jun 2027 09:39:42.513            11.756          4118.156
        87   03 Jun 2027 09:40:40.646   03 Jun 2027 09:40:44.469             3.823          1143.875
        88   03 Jun 2027 09:42:48.140   03 Jun 2027 09:42:52.713             4.573          2197.719
        89   03 Jun 2027 09:43:03.599   03 Jun 2027 09:43:05.390             1.791           340.188
        90   03 Jun 2027 09:44:05.216   03 Jun 2027 09:44:08.985             3.769          1648.219
        91   03 Jun 2027 09:44:36.140   03 Jun 2027 09:44:38.674             2.534           848.594
        92   03 Jun 2027 09:44:45.204   03 Jun 2027 09:44:46.287             1.083           204.063
        93   03 Jun 2027 09:45:19.930   03 Jun 2027 09:45:21.800             1.870           884.313
        94   03 Jun 2027 09:46:06.880   03 Jun 2027 09:46:18.682            11.802          1164.844
        95   03 Jun 2027 11:16:28.127   03 Jun 2027 11:16:42.964            14.837          7418.500
        96   03 Jun 2027 11:17:22.151   03 Jun 2027 11:17:29.552             7.401          2212.000
        97   03 Jun 2027 11:17:47.911   03 Jun 2027 11:17:52.161             4.250           449.188
        98   03 Jun 2027 11:18:50.103   03 Jun 2027 11:18:55.388             5.285          1528.438
        99   03 Jun 2027 11:20:09.078   03 Jun 2027 11:20:14.135             5.057          2178.906
       100   03 Jun 2027 11:21:58.263   03 Jun 2027 11:22:09.580            11.317          3254.000
       101   03 Jun 2027 11:22:14.072   03 Jun 2027 11:22:15.871             1.799           120.844
       102   03 Jun 2027 11:22:32.257   03 Jun 2027 11:22:33.304             1.047           265.781
       103   04 Jun 2027 03:40:35.839   04 Jun 2027 03:42:28.436           112.597         56298.500
       104   04 Jun 2027 03:42:52.449   04 Jun 2027 03:43:15.140            22.691         11345.500
       105   04 Jun 2027 03:43:42.981   04 Jun 2027 03:43:47.918             4.937          2468.500
       106   04 Jun 2027 03:44:36.874   04 Jun 2027 03:44:53.365            16.491          8245.500
       107   04 Jun 2027 03:45:42.568   04 Jun 2027 03:47:20.063            97.495         48747.500
       108   04 Jun 2027 03:47:20.155   04 Jun 2027 03:47:21.024             0.869           434.500
       109   04 Jun 2027 05:04:42.168   04 Jun 2027 05:05:25.314            43.146         21573.000
       110   04 Jun 2027 05:16:54.443   04 Jun 2027 05:17:29.499            35.056         16753.812
       111   04 Jun 2027 06:38:56.482   04 Jun 2027 06:39:08.545            12.063          4535.875
       112   04 Jun 2027 06:40:07.991   04 Jun 2027 06:40:11.064             3.073          1469.094
       113   04 Jun 2027 06:41:00.765   04 Jun 2027 06:41:03.517             2.752          1036.469
       114   04 Jun 2027 06:41:38.900   04 Jun 2027 06:41:44.855             5.955           975.313
       115   04 Jun 2027 06:43:15.694   04 Jun 2027 06:43:21.532             5.838          2300.094
       116   04 Jun 2027 06:43:33.636   04 Jun 2027 06:43:37.549             3.913           378.250
       117   04 Jun 2027 08:13:48.725   04 Jun 2027 08:13:59.160            10.435          5146.750
       118   04 Jun 2027 08:15:26.795   04 Jun 2027 08:15:31.332             4.537          1537.094
       119   04 Jun 2027 08:15:50.495   04 Jun 2027 08:15:51.972             1.477           598.844
       120   04 Jun 2027 08:15:59.593   04 Jun 2027 08:16:00.993             1.400           206.844
       121   04 Jun 2027 08:18:02.779   04 Jun 2027 08:18:09.549             6.770          3283.250
       122   04 Jun 2027 08:19:27.516   04 Jun 2027 08:19:35.847             8.331          2251.750
       123   04 Jun 2027 08:20:11.325   04 Jun 2027 08:20:13.291             1.966           546.906
       124   04 Jun 2027 08:21:04.419   04 Jun 2027 08:21:09.255             4.836          1510.000
       125   04 Jun 2027 08:21:33.275   04 Jun 2027 08:21:35.313             2.038           679.281
       126   04 Jun 2027 08:22:07.940   04 Jun 2027 08:22:07.940             0.000             0.000
       127   04 Jun 2027 09:51:32.492   04 Jun 2027 09:51:44.151            11.659          5264.094
       128   04 Jun 2027 09:54:38.129   04 Jun 2027 09:54:47.385             9.256          4504.156
       129   04 Jun 2027 09:55:09.046   04 Jun 2027 09:55:12.188             3.142           676.906
       130   04 Jun 2027 09:55:39.866   04 Jun 2027 09:55:40.108             0.242            72.250
       131   04 Jun 2027 09:55:53.993   04 Jun 2027 09:55:56.950             2.957           108.094
       132   04 Jun 2027 09:56:21.227   04 Jun 2027 09:56:22.325             1.098           327.844
       133   04 Jun 2027 09:57:37.636   04 Jun 2027 09:57:42.232             4.596          2234.562
       134   04 Jun 2027 09:58:25.645   04 Jun 2027 09:58:30.835             5.190          1164.844
       135   04 Jun 2027 11:28:20.601   04 Jun 2027 11:28:35.127            14.526          7263.000
       136   04 Jun 2027 11:28:48.718   04 Jun 2027 11:28:53.093             4.375          1451.094
       137   04 Jun 2027 11:29:59.810   04 Jun 2027 11:30:00.454             0.644           322.000
       138   04 Jun 2027 11:30:05.350   04 Jun 2027 11:30:07.560             2.210           872.594
       139   04 Jun 2027 11:30:28.527   04 Jun 2027 11:30:32.084             3.557           273.563
       140   04 Jun 2027 11:31:09.414   04 Jun 2027 11:31:15.746             6.332           956.687
       141   04 Jun 2027 11:31:59.184   04 Jun 2027 11:32:04.730             5.546          1357.437
       142   04 Jun 2027 11:32:32.335   04 Jun 2027 11:32:37.484             5.149           700.594
       143   04 Jun 2027 11:32:48.712   04 Jun 2027 11:32:51.010             2.298           334.250
       144   04 Jun 2027 11:34:06.574   04 Jun 2027 11:34:13.730             7.156          2361.375
       145   04 Jun 2027 11:34:39.008   04 Jun 2027 11:34:40.822             1.814           625.469
       146   05 Jun 2027 03:52:41.020   05 Jun 2027 03:54:51.182           130.162         65081.000
       147   05 Jun 2027 03:56:18.822   05 Jun 2027 03:56:31.817            12.995          6497.500
       148   05 Jun 2027 03:56:37.128   05 Jun 2027 03:57:32.392            55.264         27632.000
       149   05 Jun 2027 03:57:34.767   05 Jun 2027 03:57:34.767             0.000             0.000
       150   05 Jun 2027 03:58:21.346   05 Jun 2027 03:58:21.346             0.000             0.000
       151   05 Jun 2027 03:58:36.887   05 Jun 2027 03:58:41.282             4.395          2197.500
       152   05 Jun 2027 05:16:46.130   05 Jun 2027 05:17:46.336            60.206         30103.000
       153   05 Jun 2027 06:52:43.583   05 Jun 2027 06:53:37.242            53.659         26829.500
       154   05 Jun 2027 06:54:11.461   05 Jun 2027 06:54:17.758             6.297          1787.375
       155   05 Jun 2027 06:55:13.025   05 Jun 2027 06:55:17.612             4.587          1535.281
       156   05 Jun 2027 06:55:34.377   05 Jun 2027 06:55:37.088             2.711           499.781
       157   05 Jun 2027 06:56:01.278   05 Jun 2027 06:56:07.008             5.730           424.031
       158   05 Jun 2027 08:26:32.986   05 Jun 2027 08:26:47.575            14.589          3724.094
       159   05 Jun 2027 08:27:39.859   05 Jun 2027 08:27:42.613             2.754           367.188
       160   05 Jun 2027 08:27:53.252   05 Jun 2027 08:27:53.867             0.615           220.125
       161   05 Jun 2027 08:28:28.053   05 Jun 2027 08:28:30.543             2.490           988.063
       162   05 Jun 2027 08:30:02.818   05 Jun 2027 08:30:07.298             4.480          2153.781
       163   05 Jun 2027 08:31:27.156   05 Jun 2027 08:31:32.136             4.980          2155.094
       164   05 Jun 2027 08:32:54.158   05 Jun 2027 08:32:59.495             5.337          2552.938
       165   05 Jun 2027 08:33:06.291   05 Jun 2027 08:33:06.985             0.694           212.375
       166   05 Jun 2027 08:33:35.156   05 Jun 2027 08:33:36.899             1.743           871.500
       167   05 Jun 2027 10:03:35.969   05 Jun 2027 10:03:52.414            16.445          7619.469
       168   05 Jun 2027 10:04:14.277   05 Jun 2027 10:04:17.633             3.356           520.469
       169   05 Jun 2027 10:04:25.468   05 Jun 2027 10:04:30.944             5.476           244.844
       170   05 Jun 2027 10:05:12.464   05 Jun 2027 10:05:14.689             2.225           527.844
       171   05 Jun 2027 10:05:37.023   05 Jun 2027 10:05:38.240             1.217           494.344
       172   05 Jun 2027 10:06:07.355   05 Jun 2027 10:06:14.545             7.190           871.906
       173   05 Jun 2027 10:06:33.090   05 Jun 2027 10:06:33.780             0.690           264.594
       174   05 Jun 2027 10:06:59.287   05 Jun 2027 10:07:03.534             4.247           733.313
       175   05 Jun 2027 10:07:44.329   05 Jun 2027 10:07:46.735             2.406           424.469
       176   05 Jun 2027 10:10:01.382   05 Jun 2027 10:10:11.273             9.891          4207.719
       177   05 Jun 2027 11:40:30.674   05 Jun 2027 11:40:43.128            12.454          6227.000
       178   05 Jun 2027 11:41:03.841   05 Jun 2027 11:41:07.014             3.173          1428.563
       179   05 Jun 2027 11:42:21.898   05 Jun 2027 11:42:28.933             7.035          2317.438
       180   05 Jun 2027 11:42:29.800   05 Jun 2027 11:42:33.120             3.320            27.094
       181   05 Jun 2027 11:42:48.859   05 Jun 2027 11:42:50.935             2.076           383.625
       182   05 Jun 2027 11:43:25.412   05 Jun 2027 11:43:27.508             2.096           665.969
       183   05 Jun 2027 11:44:08.141   05 Jun 2027 11:44:10.744             2.603          1139.969
       184   05 Jun 2027 11:44:53.261   05 Jun 2027 11:44:54.179             0.918           459.000
       185   05 Jun 2027 11:45:19.274   05 Jun 2027 11:45:30.276            11.002          1653.875
       186   05 Jun 2027 11:45:50.630   05 Jun 2027 11:45:50.630             0.000             0.000
       187   05 Jun 2027 11:45:57.011   05 Jun 2027 11:45:58.884             1.873           675.437
       188   05 Jun 2027 11:46:32.447   05 Jun 2027 11:46:35.225             2.778           975.656
       189   06 Jun 2027 04:05:16.113   06 Jun 2027 04:07:31.407           135.294         67647.000
       190   06 Jun 2027 04:07:50.804   06 Jun 2027 04:09:21.495            90.691         45345.500
       191   06 Jun 2027 05:28:41.045   06 Jun 2027 05:29:31.044            49.999         24999.500
       192   06 Jun 2027 05:30:16.586   06 Jun 2027 05:30:16.586             0.000             0.000
       193   06 Jun 2027 07:05:00.670   06 Jun 2027 07:05:47.181            46.511         23244.281
       194   06 Jun 2027 07:06:21.560   06 Jun 2027 07:06:24.595             3.035          1074.344
       195   06 Jun 2027 07:07:05.208   06 Jun 2027 07:07:07.634             2.426           970.781
       196   06 Jun 2027 07:07:16.817   06 Jun 2027 07:07:20.565             3.748           236.625
       197   06 Jun 2027 07:07:27.933   06 Jun 2027 07:07:27.933             0.000             0.000
       198   06 Jun 2027 07:07:36.701   06 Jun 2027 07:07:39.425             2.724           459.594
       199   06 Jun 2027 07:08:01.579   06 Jun 2027 07:08:01.579             0.000             0.000
       200   06 Jun 2027 08:38:31.088   06 Jun 2027 08:38:41.189            10.101          4724.594
       201   06 Jun 2027 08:40:44.228   06 Jun 2027 08:40:46.249             2.021          1010.500
       202   06 Jun 2027 08:41:32.973   06 Jun 2027 08:41:38.358             5.385          1943.656
       203   06 Jun 2027 08:42:23.489   06 Jun 2027 08:42:28.458             4.969          1030.469
       204   06 Jun 2027 08:45:19.354   06 Jun 2027 08:45:28.074             8.720          4221.188
       205   06 Jun 2027 08:45:38.105   06 Jun 2027 08:45:38.251             0.146            73.000
       206   06 Jun 2027 08:45:41.789   06 Jun 2027 08:45:43.677             1.888           271.750
       207   06 Jun 2027 08:47:00.827   06 Jun 2027 08:47:02.347             1.520           760.000
       208   06 Jun 2027 10:16:01.886   06 Jun 2027 10:16:20.119            18.233          5755.125
       209   06 Jun 2027 10:18:40.134   06 Jun 2027 10:18:42.900             2.766          1320.812
       210   06 Jun 2027 10:19:24.113   06 Jun 2027 10:19:26.166             2.053           689.750
       211   06 Jun 2027 10:19:35.223   06 Jun 2027 10:19:41.880             6.657            39.500
       212   06 Jun 2027 10:20:54.030   06 Jun 2027 10:20:58.161             4.131          2065.500
       213   06 Jun 2027 10:21:24.286   06 Jun 2027 10:21:26.904             2.618           874.156
       214   06 Jun 2027 10:22:10.915   06 Jun 2027 10:22:18.310             7.395          1268.812
       215   06 Jun 2027 10:22:34.676   06 Jun 2027 10:22:35.356             0.680           340.000
       216   06 Jun 2027 11:52:58.283   06 Jun 2027 11:53:19.671            21.388          6836.312
       217   06 Jun 2027 11:54:39.697   06 Jun 2027 11:54:45.426             5.729          2147.094
       218   06 Jun 2027 11:55:11.404   06 Jun 2027 11:55:14.237             2.833           784.969
       219   06 Jun 2027 11:56:11.785   06 Jun 2027 11:56:18.022             6.237          1477.844
       220   06 Jun 2027 11:56:25.865   06 Jun 2027 11:56:27.311             1.446           217.875
       221   06 Jun 2027 11:57:03.484   06 Jun 2027 11:57:04.440             0.956           478.000
       222   06 Jun 2027 11:57:46.048   06 Jun 2027 11:57:56.940            10.892          1911.344
       223   06 Jun 2027 11:58:00.995   06 Jun 2027 11:58:02.552             1.557           126.719
       224   06 Jun 2027 11:58:24.804   06 Jun 2027 11:58:27.274             2.470           436.719
       225   07 Jun 2027 04:16:54.847   07 Jun 2027 04:19:24.168           149.321         74660.500
       226   07 Jun 2027 04:19:53.267   07 Jun 2027 04:20:52.061            58.794         29397.000
       227   07 Jun 2027 05:40:31.739   07 Jun 2027 05:41:26.102            54.363         27181.500
       228   07 Jun 2027 07:17:02.956   07 Jun 2027 07:18:01.388            58.432         26347.093
       229   07 Jun 2027 07:18:14.925   07 Jun 2027 07:18:16.386             1.461           400.969
       230   07 Jun 2027 07:18:35.642   07 Jun 2027 07:18:38.262             2.620           601.750
       231   07 Jun 2027 07:19:51.775   07 Jun 2027 07:19:55.780             4.005          1943.531
       232   07 Jun 2027 08:51:10.844   07 Jun 2027 08:51:23.675            12.831          6263.750
       233   07 Jun 2027 08:52:38.073   07 Jun 2027 08:52:42.736             4.663          1609.875
       234   07 Jun 2027 08:52:59.738   07 Jun 2027 08:53:01.758             2.020           217.375
       235   07 Jun 2027 08:53:52.289   07 Jun 2027 08:53:59.255             6.966          1059.062
       236   07 Jun 2027 08:54:27.567   07 Jun 2027 08:54:31.424             3.857           715.125
       237   07 Jun 2027 08:54:58.262   07 Jun 2027 08:55:00.759             2.497           837.313
       238   07 Jun 2027 08:56:55.833   07 Jun 2027 08:57:03.351             7.518          3117.625
       239   07 Jun 2027 08:57:04.376   07 Jun 2027 08:57:05.492             1.116            32.031
       240   07 Jun 2027 08:57:11.145   07 Jun 2027 08:57:12.642             1.497           176.656
       241   07 Jun 2027 08:58:09.042   07 Jun 2027 08:58:16.168             7.126           946.219
       242   07 Jun 2027 10:28:08.677   07 Jun 2027 10:28:21.413            12.736          5984.531
       243   07 Jun 2027 10:28:24.904   07 Jun 2027 10:28:26.696             1.792            50.406
       244   07 Jun 2027 10:28:50.339   07 Jun 2027 10:28:53.204             2.865           267.406
       245   07 Jun 2027 10:30:33.503   07 Jun 2027 10:30:38.798             5.295          2465.250
       246   07 Jun 2027 10:30:49.961   07 Jun 2027 10:30:51.465             1.504           187.219
       247   07 Jun 2027 10:31:00.279   07 Jun 2027 10:31:02.609             2.330           275.437
       248   07 Jun 2027 10:31:20.634   07 Jun 2027 10:31:26.768             6.134           563.281
       249   07 Jun 2027 10:32:04.612   07 Jun 2027 10:32:05.562             0.950           367.469
       250   07 Jun 2027 10:32:20.726   07 Jun 2027 10:32:24.443             3.717           392.813
       251   07 Jun 2027 10:32:46.346   07 Jun 2027 10:32:50.756             4.410           684.469
       252   07 Jun 2027 10:33:08.204   07 Jun 2027 10:33:11.354             3.150           545.250
       253   07 Jun 2027 10:34:08.830   07 Jun 2027 10:34:12.618             3.788          1665.531
       254   07 Jun 2027 10:34:42.197   07 Jun 2027 10:34:44.124             1.927           924.344
       255   07 Jun 2027 10:34:46.734   07 Jun 2027 10:34:49.711             2.977            81.562
       256   08 Jun 2027 04:29:20.019   08 Jun 2027 04:29:46.668            26.649         13324.500
       257   08 Jun 2027 04:30:08.029   08 Jun 2027 04:32:52.825           164.796         82398.000
       258   08 Jun 2027 04:33:19.085   08 Jun 2027 04:33:19.085             0.000             0.000
       259   08 Jun 2027 05:52:41.551   08 Jun 2027 05:53:36.348            54.797         27398.500
       260   08 Jun 2027 05:53:44.470   08 Jun 2027 05:53:50.723             6.253          3126.500
       261   08 Jun 2027 05:55:30.189   08 Jun 2027 05:55:47.081            16.892          8446.000
       262   08 Jun 2027 07:29:12.437   08 Jun 2027 07:29:52.513            40.076         19694.000
       263   08 Jun 2027 07:30:35.673   08 Jun 2027 07:30:42.442             6.769          1348.750
       264   08 Jun 2027 07:32:11.207   08 Jun 2027 07:32:17.735             6.528          2684.875
       265   08 Jun 2027 07:32:35.611   08 Jun 2027 07:32:36.540             0.929            14.188
       266   08 Jun 2027 09:04:22.364   08 Jun 2027 09:04:32.161             9.797          4701.844
       267   08 Jun 2027 09:04:42.836   08 Jun 2027 09:04:43.765             0.929           333.594
       268   08 Jun 2027 09:05:53.702   08 Jun 2027 09:05:53.702             0.000             0.000
       269   08 Jun 2027 09:06:42.231   08 Jun 2027 09:06:50.106             7.875          1900.188
       270   08 Jun 2027 09:07:17.199   08 Jun 2027 09:07:18.484             1.285            62.875
       271   08 Jun 2027 09:07:41.724   08 Jun 2027 09:07:43.174             1.450           635.219
       272   08 Jun 2027 09:07:45.448   08 Jun 2027 09:07:45.801             0.353            71.063
       273   08 Jun 2027 09:08:26.644   08 Jun 2027 09:08:31.112             4.468          1020.625
       274   08 Jun 2027 09:08:49.535   08 Jun 2027 09:08:50.785             1.250           384.406
       275   08 Jun 2027 09:09:40.604   08 Jun 2027 09:09:44.665             4.061          1056.469
       276   08 Jun 2027 09:10:57.208   08 Jun 2027 09:10:59.235             2.027          1013.500
       277   08 Jun 2027 10:40:44.861   08 Jun 2027 10:41:01.108            16.247          6232.094
       278   08 Jun 2027 10:41:22.335   08 Jun 2027 10:41:25.130             2.795           346.562
       279   08 Jun 2027 10:41:50.158   08 Jun 2027 10:41:52.323             2.165           115.656
       280   08 Jun 2027 10:42:36.332   08 Jun 2027 10:42:38.586             2.254          1127.000
       281   08 Jun 2027 10:42:40.587   08 Jun 2027 10:42:40.803             0.216            72.406
       282   08 Jun 2027 10:42:47.315   08 Jun 2027 10:42:47.713             0.398           110.219
       283   08 Jun 2027 10:42:58.622   08 Jun 2027 10:42:59.186             0.564           106.844
       284   08 Jun 2027 10:44:41.261   08 Jun 2027 10:44:48.737             7.476          2578.969
       285   08 Jun 2027 10:45:27.418   08 Jun 2027 10:45:33.243             5.825           842.469
       286   08 Jun 2027 10:45:47.616   08 Jun 2027 10:45:50.148             2.532            69.156
       287   08 Jun 2027 10:46:10.681   08 Jun 2027 10:46:12.171             1.490           611.031
       288   08 Jun 2027 10:46:43.353   08 Jun 2027 10:46:47.811             4.458           903.312
       289   09 Jun 2027 03:03:04.494   09 Jun 2027 03:03:43.895            39.401         19700.500
       290   09 Jun 2027 03:04:06.998   09 Jun 2027 03:05:12.071            65.073         32536.500
       291   09 Jun 2027 03:06:07.878   09 Jun 2027 03:06:42.817            34.939         17469.500
       292   09 Jun 2027 03:06:46.370   09 Jun 2027 03:06:58.010            11.640          5820.000
       293   09 Jun 2027 03:08:24.700   09 Jun 2027 03:08:28.503             3.803          1901.500
       294   09 Jun 2027 03:11:14.699   09 Jun 2027 03:11:57.092            42.393         21196.500
       295   09 Jun 2027 04:41:15.734   09 Jun 2027 04:41:53.598            37.864         18932.000
       296   09 Jun 2027 04:42:23.235   09 Jun 2027 04:43:36.257            73.022         36511.000
       297   09 Jun 2027 04:44:45.562   09 Jun 2027 04:44:51.824             6.262          3131.000
       298   09 Jun 2027 06:05:21.615   09 Jun 2027 06:05:41.584            19.969          9984.500
       299   09 Jun 2027 06:05:56.070   09 Jun 2027 06:06:00.280             4.210          2105.000
       300   09 Jun 2027 06:07:31.915   09 Jun 2027 06:07:34.016             2.101          1050.500
       301   09 Jun 2027 07:41:06.978   09 Jun 2027 07:41:18.629            11.651          5214.594
       302   09 Jun 2027 07:42:17.829   09 Jun 2027 07:42:24.212             6.383          1850.000
       303   09 Jun 2027 07:42:47.945   09 Jun 2027 07:42:49.782             1.837           290.250
       304   09 Jun 2027 07:43:36.867   09 Jun 2027 07:43:40.920             4.053          1383.187
       305   09 Jun 2027 07:44:19.756   09 Jun 2027 07:44:22.558             2.802          1177.312
       306   09 Jun 2027 07:44:41.213   09 Jun 2027 07:44:43.931             2.718           524.875
       307   09 Jun 2027 09:16:04.355   09 Jun 2027 09:16:15.030            10.675          4738.969
       308   09 Jun 2027 09:17:10.076   09 Jun 2027 09:17:14.136             4.060          1522.250
       309   09 Jun 2027 09:18:29.570   09 Jun 2027 09:18:30.783             1.213           606.500
       310   09 Jun 2027 09:18:55.933   09 Jun 2027 09:18:55.933             0.000             0.000
       311   09 Jun 2027 09:19:44.213   09 Jun 2027 09:19:51.106             6.893          2784.969
       312   09 Jun 2027 09:21:38.827   09 Jun 2027 09:21:38.827             0.000             0.000
       313   09 Jun 2027 09:22:41.623   09 Jun 2027 09:22:55.950            14.327          4389.344
       314   09 Jun 2027 10:52:16.996   09 Jun 2027 10:52:31.511            14.515          7099.750
       315   09 Jun 2027 10:53:01.984   09 Jun 2027 10:53:04.239             2.255           262.344
       316   09 Jun 2027 10:54:29.868   09 Jun 2027 10:54:33.730             3.862          1899.750
       317   09 Jun 2027 10:54:50.158   09 Jun 2027 10:54:51.859             1.701           513.375
       318   09 Jun 2027 10:55:10.994   09 Jun 2027 10:55:19.520             8.526           597.969
       319   09 Jun 2027 10:55:21.609   09 Jun 2027 10:55:24.474             2.865            59.937
       320   09 Jun 2027 10:56:04.007   09 Jun 2027 10:56:07.238             3.231          1235.406
       321   09 Jun 2027 10:56:37.457   09 Jun 2027 10:56:39.277             1.820           527.250
       322   09 Jun 2027 10:57:25.684   09 Jun 2027 10:57:30.049             4.365          1450.219
       323   09 Jun 2027 10:57:59.190   09 Jun 2027 10:58:00.820             1.630           738.469
       324   09 Jun 2027 10:58:11.915   09 Jun 2027 10:58:12.697             0.782           239.813
       325   10 Jun 2027 03:16:09.873   10 Jun 2027 03:18:42.658           152.785         76392.500
       326   10 Jun 2027 03:18:48.492   10 Jun 2027 03:19:06.443            17.951          8975.500
       327   10 Jun 2027 03:21:18.470   10 Jun 2027 03:21:48.041            29.571         14785.500
       328   10 Jun 2027 03:22:32.152   10 Jun 2027 03:22:32.152             0.000             0.000
       329   10 Jun 2027 03:23:08.549   10 Jun 2027 03:23:11.188             2.639          1319.500
       330   10 Jun 2027 04:42:07.277   10 Jun 2027 04:42:48.800            41.523         20761.500
       331   10 Jun 2027 04:53:11.897   10 Jun 2027 04:54:21.197            69.300         34332.344
       332   10 Jun 2027 04:55:28.469   10 Jun 2027 04:55:28.469             0.000             0.000
       333   10 Jun 2027 06:16:10.117   10 Jun 2027 06:16:23.093            12.976          6462.719
       334   10 Jun 2027 06:17:11.125   10 Jun 2027 06:17:16.590             5.465           859.219
       335   10 Jun 2027 06:17:56.159   10 Jun 2027 06:17:59.153             2.994           778.656
       336   10 Jun 2027 06:19:33.636   10 Jun 2027 06:19:43.098             9.462          2641.656
       337   10 Jun 2027 07:51:42.461   10 Jun 2027 07:51:52.213             9.752          4677.312
       338   10 Jun 2027 07:53:08.616   10 Jun 2027 07:53:13.048             4.432          1490.375
       339   10 Jun 2027 07:53:56.759   10 Jun 2027 07:53:58.463             1.704           825.563
       340   10 Jun 2027 07:54:34.314   10 Jun 2027 07:54:37.414             3.100          1120.344
       341   10 Jun 2027 07:55:40.608   10 Jun 2027 07:55:43.196             2.588           676.750
       342   10 Jun 2027 07:56:16.347   10 Jun 2027 07:56:24.004             7.657          1035.969
       343   10 Jun 2027 07:57:07.548   10 Jun 2027 07:57:11.652             4.104          1138.406
       344   10 Jun 2027 09:27:37.806   10 Jun 2027 09:27:41.817             4.011          2005.500
       345   10 Jun 2027 09:28:10.410   10 Jun 2027 09:28:18.167             7.757          2502.844
       346   10 Jun 2027 09:29:38.353   10 Jun 2027 09:29:44.893             6.540          2218.625
       347   10 Jun 2027 09:31:31.305   10 Jun 2027 09:31:40.418             9.113          3002.062
       348   10 Jun 2027 09:32:26.351   10 Jun 2027 09:32:26.351             0.000             0.000
       349   10 Jun 2027 09:33:37.799   10 Jun 2027 09:33:43.103             5.304          2652.000
       350   10 Jun 2027 09:34:22.003   10 Jun 2027 09:34:25.319             3.316          1658.000
       351   10 Jun 2027 09:35:00.492   10 Jun 2027 09:35:04.452             3.960          1484.687
       352   10 Jun 2027 11:04:39.228   10 Jun 2027 11:04:55.260            16.032          7769.438
       353   10 Jun 2027 11:06:14.192   10 Jun 2027 11:06:20.280             6.088          2300.750
       354   10 Jun 2027 11:06:42.481   10 Jun 2027 11:06:45.606             3.125           693.781
       355   10 Jun 2027 11:06:52.482   10 Jun 2027 11:06:54.226             1.744            49.125
       356   10 Jun 2027 11:07:07.296   10 Jun 2027 11:07:08.746             1.450           330.031
       357   10 Jun 2027 11:07:49.530   10 Jun 2027 11:07:50.243             0.713           356.500
       358   10 Jun 2027 11:08:01.138   10 Jun 2027 11:08:03.655             2.517           794.844
       359   10 Jun 2027 11:08:14.209   10 Jun 2027 11:08:14.714             0.505            51.344
       360   10 Jun 2027 11:08:30.283   10 Jun 2027 11:08:35.488             5.205           411.688
       361   10 Jun 2027 11:09:01.325   10 Jun 2027 11:09:02.897             1.572           706.687
       362   10 Jun 2027 11:09:32.948   10 Jun 2027 11:09:34.572             1.624           713.719
       363   10 Jun 2027 11:09:59.102   10 Jun 2027 11:10:05.277             6.175           178.937
       364   10 Jun 2027 11:10:12.158   10 Jun 2027 11:10:14.924             2.766           191.969
       365   10 Jun 2027 11:10:20.889   10 Jun 2027 11:10:21.274             0.385           186.406
       366   10 Jun 2027 11:10:43.612   10 Jun 2027 11:10:46.879             3.267           649.281
       367   11 Jun 2027 03:28:35.802   11 Jun 2027 03:30:12.596            96.794         48397.000
       368   11 Jun 2027 03:30:20.151   11 Jun 2027 03:30:41.216            21.065         10532.500
       369   11 Jun 2027 03:30:56.986   11 Jun 2027 03:31:46.295            49.309         24654.500
       370   11 Jun 2027 03:33:13.143   11 Jun 2027 03:33:56.011            42.868         21434.000
       371   11 Jun 2027 03:34:33.821   11 Jun 2027 03:34:45.147            11.326          5663.000
       372   11 Jun 2027 03:34:59.338   11 Jun 2027 03:35:14.859            15.521          7760.500
       373   11 Jun 2027 04:53:31.418   11 Jun 2027 04:53:51.639            20.221         10110.500
       374   11 Jun 2027 05:05:14.205   11 Jun 2027 05:06:14.800            60.595         30281.687
       375   11 Jun 2027 05:06:32.088   11 Jun 2027 05:06:32.873             0.785           392.500
       376   11 Jun 2027 06:27:26.819   11 Jun 2027 06:27:38.422            11.603          5381.844
       377   11 Jun 2027 06:27:56.363   11 Jun 2027 06:27:58.083             1.720           458.781
       378   11 Jun 2027 06:28:23.514   11 Jun 2027 06:28:30.015             6.501           584.375
       379   11 Jun 2027 06:29:55.766   11 Jun 2027 06:29:59.560             3.794          1415.156
       380   11 Jun 2027 06:31:32.613   11 Jun 2027 06:31:36.196             3.583          1791.500
       381   11 Jun 2027 06:32:04.773   11 Jun 2027 06:32:07.094             2.321          1160.500
       382   11 Jun 2027 08:02:34.195   11 Jun 2027 08:02:42.225             8.030          3822.562
       383   11 Jun 2027 08:03:03.036   11 Jun 2027 08:03:03.591             0.555           185.563
       384   11 Jun 2027 08:03:46.393   11 Jun 2027 08:03:49.221             2.828          1337.563
       385   11 Jun 2027 08:04:36.149   11 Jun 2027 08:04:38.400             2.251          1097.625
       386   11 Jun 2027 08:06:19.765   11 Jun 2027 08:06:29.177             9.412          2671.656
       387   11 Jun 2027 08:07:43.886   11 Jun 2027 08:07:50.883             6.997          2236.469
       388   11 Jun 2027 08:08:11.065   11 Jun 2027 08:08:13.930             2.865           445.187
       389   11 Jun 2027 08:09:10.003   11 Jun 2027 08:09:12.601             2.598          1299.000
       390   11 Jun 2027 09:39:47.547   11 Jun 2027 09:39:57.829            10.282          4819.750
       391   11 Jun 2027 09:43:04.158   11 Jun 2027 09:43:14.346            10.188          4861.375
       392   11 Jun 2027 09:43:32.889   11 Jun 2027 09:43:37.605             4.716           509.281
       393   11 Jun 2027 09:46:14.759   11 Jun 2027 09:46:33.407            18.648          4574.281
       394   11 Jun 2027 11:16:43.765   11 Jun 2027 11:16:58.617            14.852          7083.562
       395   11 Jun 2027 11:17:39.978   11 Jun 2027 11:17:43.284             3.306          1292.531
       396   11 Jun 2027 11:19:08.845   11 Jun 2027 11:19:15.761             6.916          2229.562
       397   11 Jun 2027 11:20:24.562   11 Jun 2027 11:20:28.993             4.431          2150.031
       398   11 Jun 2027 11:22:13.679   11 Jun 2027 11:22:20.510             6.831          3271.437
       399   11 Jun 2027 11:22:43.459   11 Jun 2027 11:22:44.583             1.124           562.000
       400   12 Jun 2027 03:40:50.399   12 Jun 2027 03:42:43.269           112.870         56435.000
       401   12 Jun 2027 03:43:30.366   12 Jun 2027 03:44:13.237            42.871         21435.500
       402   12 Jun 2027 03:44:46.261   12 Jun 2027 03:45:57.149            70.888         35444.000
       403   12 Jun 2027 03:47:34.541   12 Jun 2027 03:47:40.534             5.993          2996.500
       404   12 Jun 2027 05:04:59.420   12 Jun 2027 05:05:41.447            42.027         21013.500
       405   12 Jun 2027 05:17:11.106   12 Jun 2027 05:17:48.788            37.682         18841.000
       406   12 Jun 2027 06:39:12.426   12 Jun 2027 06:39:23.117            10.691          4675.406
       407   12 Jun 2027 06:40:24.950   12 Jun 2027 06:40:28.189             3.239          1524.281
       408   12 Jun 2027 06:41:15.581   12 Jun 2027 06:41:18.811             3.230          1466.031
       409   12 Jun 2027 06:41:54.797   12 Jun 2027 06:41:57.270             2.473           926.813
       410   12 Jun 2027 06:43:30.823   12 Jun 2027 06:43:38.835             8.012          2923.531
       411   12 Jun 2027 06:43:48.603   12 Jun 2027 06:43:49.576             0.973           276.125
       412   12 Jun 2027 06:44:45.635   12 Jun 2027 06:44:48.923             3.288          1644.000
       413   12 Jun 2027 08:14:03.650   12 Jun 2027 08:14:13.735            10.085          3964.156
       414   12 Jun 2027 08:15:43.905   12 Jun 2027 08:15:47.480             3.575          1626.000
       415   12 Jun 2027 08:16:03.920   12 Jun 2027 08:16:06.778             2.858           425.875
       416   12 Jun 2027 08:16:32.351   12 Jun 2027 08:16:35.302             2.951           787.219
       417   12 Jun 2027 08:17:53.543   12 Jun 2027 08:17:58.163             4.620          2093.437
       418   12 Jun 2027 08:18:32.742   12 Jun 2027 08:18:32.742             0.000             0.000
       419   12 Jun 2027 08:19:44.078   12 Jun 2027 08:19:51.073             6.995          3135.344
       420   12 Jun 2027 08:20:04.456   12 Jun 2027 08:20:08.906             4.450           295.906
       421   12 Jun 2027 08:21:23.393   12 Jun 2027 08:21:28.118             4.725          2208.156
       422   12 Jun 2027 08:21:47.937   12 Jun 2027 08:21:52.609             4.672           619.344
       423   12 Jun 2027 08:22:25.578   12 Jun 2027 08:22:34.342             8.764          1030.281
       424   12 Jun 2027 08:22:38.914   12 Jun 2027 08:22:40.201             1.287           142.875
       425   12 Jun 2027 09:51:49.559   12 Jun 2027 09:52:09.166            19.607          6346.906
       426   12 Jun 2027 09:54:53.957   12 Jun 2027 09:55:04.504            10.547          4424.656
       427   12 Jun 2027 09:56:26.226   12 Jun 2027 09:56:30.196             3.970          1884.844
       428   12 Jun 2027 09:56:34.903   12 Jun 2027 09:56:35.766             0.863           147.094
       429   12 Jun 2027 09:56:47.142   12 Jun 2027 09:56:49.709             2.567           336.719
       430   12 Jun 2027 09:57:41.679   12 Jun 2027 09:57:44.951             3.272          1435.719
       431   12 Jun 2027 09:58:04.770   12 Jun 2027 09:58:05.819             1.049           210.844
       432   12 Jun 2027 09:58:24.067   12 Jun 2027 09:58:26.924             2.857           405.156
       433   12 Jun 2027 09:59:02.279   12 Jun 2027 09:59:05.175             2.896           955.844
       434   12 Jun 2027 11:28:37.161   12 Jun 2027 11:28:56.452            19.291          8273.906
       435   12 Jun 2027 11:29:00.194   12 Jun 2027 11:29:05.555             5.361           101.813
       436   12 Jun 2027 11:30:55.411   12 Jun 2027 11:31:00.098             4.687          1876.813
       437   12 Jun 2027 11:31:30.889   12 Jun 2027 11:31:33.541             2.652           820.250
       438   12 Jun 2027 11:32:26.433   12 Jun 2027 11:32:30.242             3.809          1652.875
       439   12 Jun 2027 11:32:57.923   12 Jun 2027 11:32:59.697             1.774           816.719
       440   12 Jun 2027 11:33:27.809   12 Jun 2027 11:33:35.027             7.218           878.500
       441   12 Jun 2027 11:34:08.821   12 Jun 2027 11:34:12.864             4.043          1056.062
       442   12 Jun 2027 11:34:39.127   12 Jun 2027 11:34:42.871             3.744           809.406
       443   12 Jun 2027 11:34:44.999   12 Jun 2027 11:34:53.463             8.464            35.594
       444   13 Jun 2027 03:52:58.712   13 Jun 2027 03:55:38.704           159.992         79996.000
       445   13 Jun 2027 03:57:46.962   13 Jun 2027 03:58:13.607            26.645         13322.500
       446   13 Jun 2027 05:17:02.242   13 Jun 2027 05:18:08.576            66.334         33167.000
       447   13 Jun 2027 06:52:59.467   13 Jun 2027 06:53:54.654            55.187         27351.812
       448   13 Jun 2027 06:54:26.504   13 Jun 2027 06:54:28.907             2.403           810.281
       449   13 Jun 2027 06:54:41.137   13 Jun 2027 06:54:41.137             0.000             0.000
       450   13 Jun 2027 06:56:08.491   13 Jun 2027 06:56:15.760             7.269          3107.719
       451   13 Jun 2027 08:26:49.358   13 Jun 2027 08:27:02.668            13.310          5485.062
       452   13 Jun 2027 08:28:59.966   13 Jun 2027 08:29:04.540             4.574          1544.281
       453   13 Jun 2027 08:30:06.061   13 Jun 2027 08:30:10.888             4.827          1692.563
       454   13 Jun 2027 08:30:19.729   13 Jun 2027 08:30:20.214             0.485           205.250
       455   13 Jun 2027 08:31:30.358   13 Jun 2027 08:31:35.377             5.019          2192.000
       456   13 Jun 2027 08:31:51.290   13 Jun 2027 08:31:53.283             1.993           237.937
       457   13 Jun 2027 08:32:14.445   13 Jun 2027 08:32:15.029             0.584            89.563
       458   13 Jun 2027 08:32:24.211   13 Jun 2027 08:32:31.964             7.753           140.938
       459   13 Jun 2027 08:32:48.008   13 Jun 2027 08:32:48.824             0.816           171.063
       460   13 Jun 2027 08:33:18.652   13 Jun 2027 08:33:21.729             3.077           327.406
       461   13 Jun 2027 08:33:54.163   13 Jun 2027 08:33:54.163             0.000             0.000
       462   13 Jun 2027 08:34:34.402   13 Jun 2027 08:34:39.012             4.610          2207.375
       463   13 Jun 2027 10:03:52.805   13 Jun 2027 10:04:07.711            14.906          6775.406
       464   13 Jun 2027 10:04:28.860   13 Jun 2027 10:04:30.012             1.152           505.406
       465   13 Jun 2027 10:04:43.006   13 Jun 2027 10:04:45.630             2.624           315.312
       466   13 Jun 2027 10:05:29.605   13 Jun 2027 10:05:31.318             1.713           528.000
       467   13 Jun 2027 10:06:10.713   13 Jun 2027 10:06:15.286             4.573          1047.312
       468   13 Jun 2027 10:06:52.023   13 Jun 2027 10:06:53.977             1.954           918.562
       469   13 Jun 2027 10:07:46.291   13 Jun 2027 10:07:48.081             1.790           492.500
       470   13 Jun 2027 10:08:03.363   13 Jun 2027 10:08:07.004             3.641           477.563
       471   13 Jun 2027 10:08:49.870   13 Jun 2027 10:08:52.078             2.208           797.094
       472   13 Jun 2027 10:08:54.354   13 Jun 2027 10:08:55.497             1.143            71.125
       473   13 Jun 2027 10:09:53.460   13 Jun 2027 10:09:57.464             4.004          1765.844
       474   13 Jun 2027 10:10:36.480   13 Jun 2027 10:10:38.389             1.909           641.375
       475   13 Jun 2027 10:10:44.369   13 Jun 2027 10:10:44.750             0.381           186.875
       476   13 Jun 2027 10:10:46.591   13 Jun 2027 10:10:46.803             0.212            47.750
       477   13 Jun 2027 11:40:47.445   13 Jun 2027 11:40:59.300            11.855          5927.500
       478   13 Jun 2027 11:41:21.089   13 Jun 2027 11:41:25.904             4.815          1366.750
       479   13 Jun 2027 11:42:55.902   13 Jun 2027 11:43:01.949             6.047          2058.469
       480   13 Jun 2027 11:43:54.151   13 Jun 2027 11:44:00.843             6.692          1579.437
       481   13 Jun 2027 11:44:27.620   13 Jun 2027 11:44:28.178             0.558           279.000
       482   13 Jun 2027 11:44:37.679   13 Jun 2027 11:44:43.671             5.992           303.250
       483   13 Jun 2027 11:45:13.411   13 Jun 2027 11:45:16.971             3.560           929.375
       484   13 Jun 2027 11:46:06.088   13 Jun 2027 11:46:11.092             5.004          1489.594
       485   13 Jun 2027 11:46:22.393   13 Jun 2027 11:46:24.108             1.715           353.156
       486   13 Jun 2027 11:46:42.280   13 Jun 2027 11:46:43.964             1.684           547.156
       487   13 Jun 2027 11:46:56.358   13 Jun 2027 11:47:00.285             3.927           340.969
