uniorb/output/strategy_2/Camera/Camera_KinoSat_110801.txt

KinoSat_110801
-------------------------
    Access    *     Start Time (UTCG)     *     Stop Time (UTCG)  *   Duration (s) *   Data (Mbytes)
         1   01 Jun 2027 04:13:39.434   01 Jun 2027 04:15:08.993            89.559         44779.500
         2   01 Jun 2027 04:15:45.680   01 Jun 2027 04:16:09.672            23.992         11996.000
         3   01 Jun 2027 04:16:53.893   01 Jun 2027 04:16:59.097             5.204          2602.000
         4   01 Jun 2027 05:47:30.399   01 Jun 2027 05:50:15.228           164.829         82414.500
         5   01 Jun 2027 05:50:41.268   01 Jun 2027 05:51:00.498            19.230          9615.000
         6   01 Jun 2027 05:51:39.383   01 Jun 2027 05:51:53.274            13.891          6945.500
         7   01 Jun 2027 05:55:15.658   01 Jun 2027 05:55:33.385            17.727          8863.500
         8   01 Jun 2027 07:24:37.175   01 Jun 2027 07:26:32.562           115.387         57693.500
         9   01 Jun 2027 07:27:15.790   01 Jun 2027 07:28:05.909            50.119         25059.500
        10   01 Jun 2027 07:28:44.448   01 Jun 2027 07:28:49.391             4.943          2471.500
        11   01 Jun 2027 07:29:02.190   01 Jun 2027 07:29:28.944            26.754         13377.000
        12   01 Jun 2027 07:30:30.507   01 Jun 2027 07:30:30.801             0.294           147.000
        13   01 Jun 2027 07:30:33.852   01 Jun 2027 07:30:38.966             5.114          2557.000
        14   01 Jun 2027 07:31:25.452   01 Jun 2027 07:31:35.363             9.911          4955.500
        15   01 Jun 2027 09:01:39.739   01 Jun 2027 09:03:42.754           123.015         61507.500
        16   01 Jun 2027 09:04:23.310   01 Jun 2027 09:05:03.913            40.603         20301.500
        17   01 Jun 2027 09:05:32.097   01 Jun 2027 09:05:37.049             4.952          2476.000
        18   01 Jun 2027 09:06:10.837   01 Jun 2027 09:06:18.383             7.546          3773.000
        19   01 Jun 2027 09:07:10.505   01 Jun 2027 09:07:23.771            13.266          6633.000
        20   01 Jun 2027 09:07:28.333   01 Jun 2027 09:07:30.589             2.256          1128.000
        21   01 Jun 2027 10:38:37.100   01 Jun 2027 10:41:01.188           144.088         72044.000
        22   01 Jun 2027 10:41:53.528   01 Jun 2027 10:41:53.528             0.000             0.000
        23   01 Jun 2027 10:42:41.609   01 Jun 2027 10:42:50.894             9.285          4642.500
        24   02 Jun 2027 04:26:01.194   02 Jun 2027 04:28:54.101           172.907         86453.500
        25   02 Jun 2027 05:59:41.369   02 Jun 2027 06:01:35.850           114.481         57240.500
        26   02 Jun 2027 06:02:01.667   02 Jun 2027 06:02:16.344            14.677          7338.500
        27   02 Jun 2027 06:05:26.619   02 Jun 2027 06:05:38.784            12.165          6082.500
        28   02 Jun 2027 06:06:29.319   02 Jun 2027 06:06:43.960            14.641          7320.500
        29   02 Jun 2027 06:07:31.475   02 Jun 2027 06:07:36.884             5.409          2704.500
        30   02 Jun 2027 06:07:50.399   02 Jun 2027 06:07:59.531             9.132          4566.000
        31   02 Jun 2027 07:37:03.171   02 Jun 2027 07:39:54.542           171.371         85685.500
        32   02 Jun 2027 07:42:40.232   02 Jun 2027 07:42:41.318             1.086           543.000
        33   02 Jun 2027 07:42:50.272   02 Jun 2027 07:43:08.808            18.536          9268.000
        34   02 Jun 2027 09:14:00.251   02 Jun 2027 09:15:38.854            98.603         49301.500
        35   02 Jun 2027 09:16:32.680   02 Jun 2027 09:16:48.239            15.559          7480.843
        36   02 Jun 2027 09:16:50.865   02 Jun 2027 09:16:53.401             2.536            82.063
        37   02 Jun 2027 09:17:38.933   02 Jun 2027 09:17:39.162             0.229           114.500
        38   02 Jun 2027 09:18:19.238   02 Jun 2027 09:18:21.318             2.080          1040.000
        39   02 Jun 2027 09:18:23.730   02 Jun 2027 09:18:28.164             4.434          1033.469
        40   02 Jun 2027 09:18:54.340   02 Jun 2027 09:18:59.230             4.890           818.000
        41   02 Jun 2027 10:50:50.653   02 Jun 2027 10:51:06.629            15.976          7262.625
        42   02 Jun 2027 10:51:13.014   02 Jun 2027 10:51:13.590             0.576           199.531
        43   02 Jun 2027 10:51:37.828   02 Jun 2027 10:51:40.522             2.694           694.719
        44   02 Jun 2027 10:51:51.545   02 Jun 2027 10:51:51.597             0.052            26.000
        45   02 Jun 2027 10:52:28.156   02 Jun 2027 10:52:32.290             4.134          1420.969
        46   02 Jun 2027 10:53:18.098   02 Jun 2027 10:53:18.534             0.436           218.000
        47   02 Jun 2027 10:54:00.656   02 Jun 2027 10:54:06.560             5.904          1949.750
        48   02 Jun 2027 10:55:13.552   02 Jun 2027 10:55:16.373             2.821          1085.250
        49   03 Jun 2027 03:01:24.128   03 Jun 2027 03:01:54.386            30.258         15129.000
        50   03 Jun 2027 03:02:07.167   03 Jun 2027 03:02:12.206             5.039          2519.500
        51   03 Jun 2027 04:38:03.166   03 Jun 2027 04:38:27.268            24.102         12051.000
        52   03 Jun 2027 04:38:42.258   03 Jun 2027 04:41:34.160           171.902         85951.000
        53   03 Jun 2027 06:12:58.126   03 Jun 2027 06:14:14.698            76.572         38286.000
        54   03 Jun 2027 06:14:39.321   03 Jun 2027 06:14:51.601            12.280          3119.156
        55   03 Jun 2027 06:16:36.758   03 Jun 2027 06:16:36.758             0.000             0.000
        56   03 Jun 2027 06:17:20.035   03 Jun 2027 06:17:30.192            10.157          4587.750
        57   03 Jun 2027 06:18:04.470   03 Jun 2027 06:18:04.470             0.000             0.000
        58   03 Jun 2027 06:18:57.139   03 Jun 2027 06:19:01.221             4.082          1975.500
        59   03 Jun 2027 06:19:18.444   03 Jun 2027 06:19:21.195             2.751           538.219
        60   03 Jun 2027 06:19:53.077   03 Jun 2027 06:19:55.870             2.793           557.500
        61   03 Jun 2027 07:49:10.600   03 Jun 2027 07:49:32.199            21.599          9917.094
        62   03 Jun 2027 07:51:13.359   03 Jun 2027 07:51:16.476             3.117          1125.375
        63   03 Jun 2027 07:51:47.070   03 Jun 2027 07:51:53.946             6.876           956.063
        64   03 Jun 2027 07:52:46.801   03 Jun 2027 07:52:54.417             7.616          1538.156
        65   03 Jun 2027 07:53:29.582   03 Jun 2027 07:53:33.295             3.713           946.500
        66   03 Jun 2027 07:53:45.302   03 Jun 2027 07:53:48.209             2.907           151.781
        67   03 Jun 2027 07:54:21.810   03 Jun 2027 07:54:22.939             1.129           521.844
        68   03 Jun 2027 07:54:38.531   03 Jun 2027 07:54:45.781             7.250           128.719
        69   03 Jun 2027 07:55:09.120   03 Jun 2027 07:55:12.978             3.858           474.094
        70   03 Jun 2027 07:55:34.133   03 Jun 2027 07:55:36.225             2.092           582.719
        71   03 Jun 2027 09:26:54.234   03 Jun 2027 09:27:12.975            18.741          8502.969
        72   03 Jun 2027 09:27:24.090   03 Jun 2027 09:27:26.653             2.563            16.125
        73   03 Jun 2027 09:28:09.463   03 Jun 2027 09:28:14.417             4.954           504.219
        74   03 Jun 2027 09:28:48.223   03 Jun 2027 09:28:48.629             0.406           203.000
        75   03 Jun 2027 09:29:20.372   03 Jun 2027 09:29:25.156             4.784          1602.219
        76   03 Jun 2027 09:30:41.630   03 Jun 2027 09:30:44.713             3.083          1541.500
        77   03 Jun 2027 09:31:15.903   03 Jun 2027 09:31:15.903             0.000             0.000
        78   03 Jun 2027 11:03:00.502   03 Jun 2027 11:03:17.172            16.670          8335.000
        79   03 Jun 2027 11:03:43.848   03 Jun 2027 11:03:48.299             4.451           941.312
        80   03 Jun 2027 11:03:57.800   03 Jun 2027 11:03:57.800             0.000             0.000
        81   03 Jun 2027 11:04:15.283   03 Jun 2027 11:04:18.600             3.317           643.375
        82   03 Jun 2027 11:04:57.195   03 Jun 2027 11:04:58.377             1.182           515.438
        83   03 Jun 2027 11:05:42.106   03 Jun 2027 11:05:44.843             2.737          1255.656
        84   03 Jun 2027 11:06:29.086   03 Jun 2027 11:06:36.070             6.984          1382.594
        85   04 Jun 2027 03:13:38.520   04 Jun 2027 03:13:56.085            17.565          8782.500
        86   04 Jun 2027 03:14:05.434   04 Jun 2027 03:14:07.814             2.380          1190.000
        87   04 Jun 2027 03:14:19.413   04 Jun 2027 03:14:27.458             8.045          4022.500
        88   04 Jun 2027 03:14:31.525   04 Jun 2027 03:14:54.973            23.448         11724.000
        89   04 Jun 2027 03:16:36.667   04 Jun 2027 03:16:46.398             9.731          4865.500
        90   04 Jun 2027 04:50:10.297   04 Jun 2027 04:52:55.684           165.387         82693.500
        91   04 Jun 2027 06:25:20.421   04 Jun 2027 06:26:34.253            73.832         36868.157
        92   04 Jun 2027 06:29:46.766   04 Jun 2027 06:29:58.418            11.652          5623.625
        93   04 Jun 2027 06:31:07.535   04 Jun 2027 06:31:11.721             4.186          1873.812
        94   04 Jun 2027 06:31:17.113   04 Jun 2027 06:31:20.927             3.814           168.500
        95   04 Jun 2027 06:31:45.165   04 Jun 2027 06:31:48.462             3.297           329.156
        96   04 Jun 2027 08:01:45.137   04 Jun 2027 08:02:08.693            23.556         11211.719
        97   04 Jun 2027 08:02:35.480   04 Jun 2027 08:02:37.138             1.658           133.375
        98   04 Jun 2027 08:02:43.990   04 Jun 2027 08:02:47.692             3.702            85.625
        99   04 Jun 2027 08:04:11.850   04 Jun 2027 08:04:15.592             3.742          1754.969
       100   04 Jun 2027 08:04:46.959   04 Jun 2027 08:04:49.635             2.676           932.969
       101   04 Jun 2027 08:04:52.214   04 Jun 2027 08:04:53.003             0.789            51.938
       102   04 Jun 2027 08:05:38.304   04 Jun 2027 08:05:40.844             2.540          1211.562
       103   04 Jun 2027 08:06:55.184   04 Jun 2027 08:07:01.105             5.921          1512.688
       104   04 Jun 2027 08:07:32.295   04 Jun 2027 08:07:35.345             3.050           868.438
       105   04 Jun 2027 09:39:00.603   04 Jun 2027 09:39:18.056            17.453          8695.781
       106   04 Jun 2027 09:39:27.159   04 Jun 2027 09:39:33.758             6.599           204.906
       107   04 Jun 2027 09:40:02.230   04 Jun 2027 09:40:04.963             2.733           889.750
       108   04 Jun 2027 09:40:28.229   04 Jun 2027 09:40:29.971             1.742           696.781
       109   04 Jun 2027 09:41:19.429   04 Jun 2027 09:41:22.706             3.277           890.563
       110   04 Jun 2027 09:41:46.977   04 Jun 2027 09:41:49.021             2.044           595.406
       111   04 Jun 2027 09:42:41.676   04 Jun 2027 09:42:44.538             2.862          1415.437
       112   04 Jun 2027 09:43:14.752   04 Jun 2027 09:43:18.151             3.399           782.656
       113   04 Jun 2027 11:15:14.898   04 Jun 2027 11:15:28.784            13.886          6185.844
       114   04 Jun 2027 11:15:56.271   04 Jun 2027 11:15:57.816             1.545           765.875
       115   04 Jun 2027 11:16:17.779   04 Jun 2027 11:16:20.798             3.019           336.344
       116   04 Jun 2027 11:17:44.255   04 Jun 2027 11:17:49.523             5.268          1875.219
       117   04 Jun 2027 11:18:59.791   04 Jun 2027 11:19:03.926             4.135          2050.719
       118   04 Jun 2027 11:19:24.570   04 Jun 2027 11:19:27.402             2.832           645.125
       119   04 Jun 2027 11:19:32.255   04 Jun 2027 11:19:36.350             4.095           151.656
       120   05 Jun 2027 03:25:40.893   05 Jun 2027 03:26:14.711            33.818         16909.000
       121   05 Jun 2027 03:26:21.642   05 Jun 2027 03:26:32.804            11.162          5581.000
       122   05 Jun 2027 03:26:37.715   05 Jun 2027 03:27:02.667            24.952         12476.000
       123   05 Jun 2027 05:02:03.121   05 Jun 2027 05:05:18.329           195.208         97604.000
       124   05 Jun 2027 05:05:50.225   05 Jun 2027 05:06:02.939            12.714          6357.000
       125   05 Jun 2027 06:36:59.179   05 Jun 2027 06:37:32.760            33.581         16453.687
       126   05 Jun 2027 06:38:05.896   05 Jun 2027 06:38:08.197             2.301           923.125
       127   05 Jun 2027 06:38:36.255   05 Jun 2027 06:38:38.447             2.192           470.969
       128   05 Jun 2027 06:39:41.516   05 Jun 2027 06:39:45.350             3.834          1358.031
       129   05 Jun 2027 06:40:14.159   05 Jun 2027 06:40:18.120             3.961           900.281
       130   05 Jun 2027 06:41:53.413   05 Jun 2027 06:41:59.491             6.078          2460.031
       131   05 Jun 2027 06:42:28.397   05 Jun 2027 06:42:30.500             2.103           814.906
       132   05 Jun 2027 06:43:26.660   05 Jun 2027 06:43:30.329             3.669          1310.500
       133   05 Jun 2027 06:43:36.106   05 Jun 2027 06:43:37.798             1.692           180.531
       134   05 Jun 2027 08:13:18.374   05 Jun 2027 08:13:45.937            27.563         13197.719
       135   05 Jun 2027 08:14:05.794   05 Jun 2027 08:14:09.144             3.350           585.969
       136   05 Jun 2027 08:14:37.213   05 Jun 2027 08:14:38.466             1.253           311.313
       137   05 Jun 2027 08:14:56.812   05 Jun 2027 08:14:58.060             1.248           573.312
       138   05 Jun 2027 08:15:38.803   05 Jun 2027 08:15:44.245             5.442           974.437
       139   05 Jun 2027 08:17:36.626   05 Jun 2027 08:17:43.249             6.623          3006.625
       140   05 Jun 2027 08:17:53.848   05 Jun 2027 08:17:57.480             3.632           203.281
       141   05 Jun 2027 08:19:30.447   05 Jun 2027 08:19:37.191             6.744          2815.062
       142   05 Jun 2027 08:19:42.717   05 Jun 2027 08:19:42.944             0.227           113.500
       143   05 Jun 2027 09:51:33.507   05 Jun 2027 09:51:49.267            15.760          7713.375
       144   05 Jun 2027 09:52:02.332   05 Jun 2027 09:52:02.626             0.294           147.000
       145   05 Jun 2027 09:52:29.109   05 Jun 2027 09:52:38.132             9.023          1017.375
       146   05 Jun 2027 09:52:59.796   05 Jun 2027 09:53:02.186             2.390           116.594
       147   05 Jun 2027 09:53:28.875   05 Jun 2027 09:53:32.213             3.338           827.500
       148   05 Jun 2027 09:54:10.126   05 Jun 2027 09:54:18.298             8.172          1169.406
       149   05 Jun 2027 09:55:02.049   05 Jun 2027 09:55:04.629             2.580          1058.469
       150   05 Jun 2027 11:26:53.837   05 Jun 2027 11:27:09.747            15.910          6445.031
       151   05 Jun 2027 11:28:16.676   05 Jun 2027 11:28:29.209            12.533          2035.063
       152   05 Jun 2027 11:28:42.756   05 Jun 2027 11:28:44.555             1.799           423.344
       153   05 Jun 2027 11:29:00.525   05 Jun 2027 11:29:04.059             3.534           342.469
       154   05 Jun 2027 11:29:38.521   05 Jun 2027 11:29:42.496             3.975          1076.938
       155   05 Jun 2027 11:30:54.892   05 Jun 2027 11:31:03.067             8.175          2146.281
       156   05 Jun 2027 11:31:26.161   05 Jun 2027 11:31:29.163             3.002           519.281
       157   05 Jun 2027 11:32:23.605   05 Jun 2027 11:32:24.796             1.191           595.500
       158   06 Jun 2027 03:36:45.732   06 Jun 2027 03:37:03.812            18.080          9040.000
       159   06 Jun 2027 03:37:21.476   06 Jun 2027 03:37:47.817            26.341         13170.500
       160   06 Jun 2027 03:38:19.725   06 Jun 2027 03:38:34.198            14.473          7236.500
       161   06 Jun 2027 03:39:08.680   06 Jun 2027 03:39:14.070             5.390          2695.000
       162   06 Jun 2027 03:40:00.510   06 Jun 2027 03:40:19.834            19.324          9662.000
       163   06 Jun 2027 03:40:41.790   06 Jun 2027 03:40:41.790             0.000             0.000
       164   06 Jun 2027 03:40:59.024   06 Jun 2027 03:41:06.921             7.897          3948.500
       165   06 Jun 2027 03:41:23.432   06 Jun 2027 03:41:23.576             0.144            72.000
       166   06 Jun 2027 05:12:21.751   06 Jun 2027 05:13:00.607            38.856         19428.000
       167   06 Jun 2027 05:13:47.194   06 Jun 2027 05:15:58.167           130.973         65486.500
       168   06 Jun 2027 05:16:13.324   06 Jun 2027 05:16:19.818             6.494          3247.000
       169   06 Jun 2027 05:17:19.352   06 Jun 2027 05:17:19.352             0.000             0.000
       170   06 Jun 2027 05:18:01.153   06 Jun 2027 05:18:05.875             4.722          2361.000
       171   06 Jun 2027 05:18:11.656   06 Jun 2027 05:18:20.836             9.180          4590.000
       172   06 Jun 2027 06:48:32.558   06 Jun 2027 06:49:16.298            43.740         21203.280
       173   06 Jun 2027 06:49:46.328   06 Jun 2027 06:49:48.551             2.223           362.219
       174   06 Jun 2027 06:51:33.238   06 Jun 2027 06:51:34.732             1.494           597.875
       175   06 Jun 2027 06:51:49.941   06 Jun 2027 06:51:49.941             0.000             0.000
       176   06 Jun 2027 06:52:10.354   06 Jun 2027 06:52:12.897             2.543           923.719
       177   06 Jun 2027 06:52:37.331   06 Jun 2027 06:52:39.992             2.661           733.906
       178   06 Jun 2027 06:52:52.992   06 Jun 2027 06:52:53.962             0.970           406.250
       179   06 Jun 2027 06:53:11.417   06 Jun 2027 06:53:12.723             1.306           494.375
       180   06 Jun 2027 06:53:33.902   06 Jun 2027 06:53:37.164             3.262           474.500
       181   06 Jun 2027 06:55:03.830   06 Jun 2027 06:55:08.767             4.937          2286.281
       182   06 Jun 2027 06:55:48.748   06 Jun 2027 06:55:48.748             0.000             0.000
       183   06 Jun 2027 08:25:37.815   06 Jun 2027 08:26:04.644            26.829         12295.406
       184   06 Jun 2027 08:26:43.637   06 Jun 2027 08:26:46.464             2.827           686.719
       185   06 Jun 2027 08:27:13.828   06 Jun 2027 08:27:15.636             1.808           246.938
       186   06 Jun 2027 08:27:54.837   06 Jun 2027 08:27:57.151             2.314          1119.312
       187   06 Jun 2027 08:28:30.709   06 Jun 2027 08:28:33.906             3.197           899.281
       188   06 Jun 2027 08:29:21.639   06 Jun 2027 08:29:26.069             4.430          1319.469
       189   06 Jun 2027 08:29:33.378   06 Jun 2027 08:29:34.703             1.325           148.250
       190   06 Jun 2027 08:29:49.232   06 Jun 2027 08:29:50.972             1.740           261.375
       191   06 Jun 2027 08:30:43.166   06 Jun 2027 08:30:51.118             7.952          1561.219
       192   06 Jun 2027 08:30:56.054   06 Jun 2027 08:30:58.126             2.072           154.250
       193   06 Jun 2027 10:03:36.651   06 Jun 2027 10:03:50.310            13.659          6829.500
       194   06 Jun 2027 10:04:25.715   06 Jun 2027 10:04:38.041            12.326          1620.125
       195   06 Jun 2027 10:05:03.571   06 Jun 2027 10:05:05.613             2.042           611.969
       196   06 Jun 2027 10:05:10.455   06 Jun 2027 10:05:12.507             2.052           124.219
       197   06 Jun 2027 10:05:22.720   06 Jun 2027 10:05:24.914             2.194           182.063
       198   06 Jun 2027 10:06:40.184   06 Jun 2027 10:06:47.230             7.046          2235.625
       199   06 Jun 2027 10:07:19.855   06 Jun 2027 10:07:23.155             3.300          1019.531
       200   06 Jun 2027 11:36:45.250   06 Jun 2027 11:36:59.475            14.225          6570.969
       201   06 Jun 2027 11:37:07.980   06 Jun 2027 11:37:08.877             0.897           231.781
       202   06 Jun 2027 11:37:51.897   06 Jun 2027 11:37:52.616             0.719           243.312
       203   06 Jun 2027 11:38:48.309   06 Jun 2027 11:38:54.624             6.315          1137.656
       204   06 Jun 2027 11:40:16.814   06 Jun 2027 11:40:22.152             5.338          2549.000
       205   06 Jun 2027 11:40:38.902   06 Jun 2027 11:40:43.460             4.558           431.219
       206   06 Jun 2027 11:41:52.447   06 Jun 2027 11:41:58.715             6.268          1726.906
       207   06 Jun 2027 11:42:31.465   06 Jun 2027 11:42:33.521             2.056          1023.438
       208   06 Jun 2027 11:43:17.936   06 Jun 2027 11:43:19.850             1.914           957.000
       209   06 Jun 2027 11:43:34.241   06 Jun 2027 11:43:40.200             5.959           708.187
       210   06 Jun 2027 11:44:25.144   06 Jun 2027 11:44:28.166             3.022           890.406
       211   06 Jun 2027 11:44:40.302   06 Jun 2027 11:44:41.323             1.021           348.406
       212   07 Jun 2027 03:48:24.456   07 Jun 2027 03:49:34.811            70.355         35177.500
       213   07 Jun 2027 03:50:35.674   07 Jun 2027 03:50:35.674             0.000             0.000
       214   07 Jun 2027 03:51:16.140   07 Jun 2027 03:51:16.140             0.000             0.000
       215   07 Jun 2027 03:52:38.989   07 Jun 2027 03:52:38.989             0.000             0.000
       216   07 Jun 2027 03:52:43.252   07 Jun 2027 03:52:56.372            13.120          6560.000
       217   07 Jun 2027 03:53:07.355   07 Jun 2027 03:53:36.872            29.517         14758.500
       218   07 Jun 2027 05:23:28.149   07 Jun 2027 05:25:11.605           103.456         51728.000
       219   07 Jun 2027 05:25:35.008   07 Jun 2027 05:25:55.770            20.762         10381.000
       220   07 Jun 2027 05:26:23.087   07 Jun 2027 05:26:47.520            24.433         12216.500
       221   07 Jun 2027 05:27:07.581   07 Jun 2027 05:27:25.049            17.468          8734.000
       222   07 Jun 2027 05:28:53.114   07 Jun 2027 05:28:53.114             0.000             0.000
       223   07 Jun 2027 05:31:23.120   07 Jun 2027 05:31:44.818            21.698         10849.000
       224   07 Jun 2027 07:01:45.997   07 Jun 2027 07:02:41.614            55.617         27205.719
       225   07 Jun 2027 07:03:01.291   07 Jun 2027 07:03:03.294             2.003           405.469
       226   07 Jun 2027 07:03:36.602   07 Jun 2027 07:03:38.878             2.276           994.188
       227   07 Jun 2027 07:03:50.629   07 Jun 2027 07:03:51.728             1.099           367.219
       228   07 Jun 2027 07:04:44.926   07 Jun 2027 07:04:47.377             2.451          1146.937
       229   07 Jun 2027 07:05:08.982   07 Jun 2027 07:05:10.999             2.017            37.531
       230   07 Jun 2027 07:07:03.315   07 Jun 2027 07:07:08.657             5.342          2671.000
       231   07 Jun 2027 07:07:50.333   07 Jun 2027 07:07:50.333             0.000             0.000
       232   07 Jun 2027 08:37:39.205   07 Jun 2027 08:38:04.425            25.220         11747.188
       233   07 Jun 2027 08:39:02.065   07 Jun 2027 08:39:05.068             3.003           188.188
       234   07 Jun 2027 08:40:01.601   07 Jun 2027 08:40:05.142             3.541          1025.781
       235   07 Jun 2027 08:40:44.879   07 Jun 2027 08:40:46.189             1.310           114.000
       236   07 Jun 2027 08:41:17.825   07 Jun 2027 08:41:29.259            11.434           811.563
       237   07 Jun 2027 08:41:43.483   07 Jun 2027 08:41:45.035             1.552           443.406
       238   07 Jun 2027 08:42:35.525   07 Jun 2027 08:42:38.851             3.326          1577.812
       239   07 Jun 2027 08:42:57.843   07 Jun 2027 08:42:59.677             1.834           593.500
       240   07 Jun 2027 08:43:22.206   07 Jun 2027 08:43:24.444             2.238           659.375
       241   07 Jun 2027 08:43:55.493   07 Jun 2027 08:43:57.090             1.597           798.500
       242   07 Jun 2027 10:15:36.341   07 Jun 2027 10:15:54.495            18.154          7940.406
       243   07 Jun 2027 10:16:13.595   07 Jun 2027 10:16:16.199             2.604           596.875
       244   07 Jun 2027 10:16:54.504   07 Jun 2027 10:16:56.907             2.403           110.656
       245   07 Jun 2027 10:17:08.442   07 Jun 2027 10:17:11.257             2.815           257.125
       246   07 Jun 2027 10:17:27.594   07 Jun 2027 10:17:29.349             1.755           426.938
       247   07 Jun 2027 10:17:44.588   07 Jun 2027 10:17:47.142             2.554           369.156
       248   07 Jun 2027 10:18:35.571   07 Jun 2027 10:18:39.376             3.805           989.375
       249   07 Jun 2027 10:19:07.966   07 Jun 2027 10:19:10.529             2.563           893.438
       250   07 Jun 2027 10:19:25.703   07 Jun 2027 10:19:29.488             3.785           345.813
       251   07 Jun 2027 11:49:12.472   07 Jun 2027 11:49:17.805             5.333          1807.937
       252   07 Jun 2027 11:49:42.710   07 Jun 2027 11:49:45.153             2.443            94.625
       253   07 Jun 2027 11:50:37.304   07 Jun 2027 11:50:41.801             4.497          1629.719
       254   07 Jun 2027 11:50:52.275   07 Jun 2027 11:50:54.828             2.553           132.656
       255   07 Jun 2027 11:51:22.060   07 Jun 2027 11:51:24.413             2.353           851.000
       256   07 Jun 2027 11:52:01.239   07 Jun 2027 11:52:04.035             2.796           964.812
       257   07 Jun 2027 11:52:32.576   07 Jun 2027 11:52:39.101             6.525           796.719
       258   07 Jun 2027 11:52:59.507   07 Jun 2027 11:52:59.507             0.000             0.000
       259   07 Jun 2027 11:53:56.934   07 Jun 2027 11:54:03.691             6.757          1929.094
       260   07 Jun 2027 11:55:05.656   07 Jun 2027 11:55:14.028             8.372          1923.531
       261   07 Jun 2027 11:56:04.813   07 Jun 2027 11:56:18.393            13.580          1480.844
       262   08 Jun 2027 04:00:08.122   08 Jun 2027 04:01:22.090            73.968         36984.000
       263   08 Jun 2027 04:02:13.588   08 Jun 2027 04:02:28.979            15.391          7695.500
       264   08 Jun 2027 04:02:29.359   08 Jun 2027 04:02:29.359             0.000             0.000
       265   08 Jun 2027 04:04:19.216   08 Jun 2027 04:04:38.250            19.034          9517.000
       266   08 Jun 2027 04:05:12.780   08 Jun 2027 04:05:12.780             0.000             0.000
       267   08 Jun 2027 05:34:56.367   08 Jun 2027 05:37:10.547           134.180         67090.000
       268   08 Jun 2027 05:37:26.616   08 Jun 2027 05:38:24.187            57.571         28785.500
       269   08 Jun 2027 05:40:32.584   08 Jun 2027 05:40:32.584             0.000             0.000
       270   08 Jun 2027 05:43:48.658   08 Jun 2027 05:43:58.676            10.018          5009.000
       271   08 Jun 2027 07:12:45.576   08 Jun 2027 07:13:36.609            51.033         25103.531
       272   08 Jun 2027 07:14:21.275   08 Jun 2027 07:14:28.872             7.597          1353.438
       273   08 Jun 2027 07:15:36.999   08 Jun 2027 07:15:39.831             2.832          1279.281
       274   08 Jun 2027 07:16:12.866   08 Jun 2027 07:16:13.706             0.840           406.281
       275   08 Jun 2027 07:16:20.223   08 Jun 2027 07:16:20.441             0.218           109.000
       276   08 Jun 2027 07:16:25.834   08 Jun 2027 07:16:27.616             1.782           263.187
       277   08 Jun 2027 07:17:02.490   08 Jun 2027 07:17:08.803             6.313           468.344
       278   08 Jun 2027 07:17:41.675   08 Jun 2027 07:17:44.213             2.538           808.281
       279   08 Jun 2027 07:18:58.809   08 Jun 2027 07:19:05.891             7.082          2228.156
       280   08 Jun 2027 07:19:51.722   08 Jun 2027 07:19:55.664             3.942          1432.219
       281   08 Jun 2027 08:49:29.976   08 Jun 2027 08:49:41.973            11.997          5998.500
       282   08 Jun 2027 08:50:00.135   08 Jun 2027 08:50:23.234            23.099          7955.188
       283   08 Jun 2027 08:51:37.223   08 Jun 2027 08:51:42.894             5.671          2037.781
       284   08 Jun 2027 08:52:19.689   08 Jun 2027 08:52:21.586             1.897           640.312
       285   08 Jun 2027 08:53:07.541   08 Jun 2027 08:53:10.436             2.895          1436.094
       286   08 Jun 2027 08:53:17.301   08 Jun 2027 08:53:18.323             1.022           149.531
       287   08 Jun 2027 08:53:37.866   08 Jun 2027 08:53:42.991             5.125           305.719
       288   08 Jun 2027 08:54:19.913   08 Jun 2027 08:54:23.661             3.748          1153.812
       289   08 Jun 2027 08:54:50.305   08 Jun 2027 08:54:52.504             2.199           810.531
       290   08 Jun 2027 08:55:05.253   08 Jun 2027 08:55:05.939             0.686           343.000
       291   08 Jun 2027 08:56:08.524   08 Jun 2027 08:56:13.592             5.068          2011.187
       292   08 Jun 2027 10:27:38.393   08 Jun 2027 10:27:52.646            14.253          6987.437
       293   08 Jun 2027 10:28:03.098   08 Jun 2027 10:28:05.243             2.145           182.031
       294   08 Jun 2027 10:28:38.229   08 Jun 2027 10:28:38.229             0.000             0.000
       295   08 Jun 2027 10:28:43.036   08 Jun 2027 10:28:50.981             7.945          1181.031
       296   08 Jun 2027 10:29:15.978   08 Jun 2027 10:29:17.154             1.176           488.469
       297   08 Jun 2027 10:29:25.598   08 Jun 2027 10:29:28.600             3.002           209.875
       298   08 Jun 2027 10:30:11.379   08 Jun 2027 10:30:16.283             4.904          1061.313
       299   08 Jun 2027 10:30:36.207   08 Jun 2027 10:30:39.706             3.499           622.625
       300   08 Jun 2027 10:30:52.338   08 Jun 2027 10:30:52.868             0.530            46.094
       301   08 Jun 2027 10:31:31.731   08 Jun 2027 10:31:35.049             3.318          1036.813
       302   08 Jun 2027 10:31:42.313   08 Jun 2027 10:31:44.449             2.136            74.063
       303   09 Jun 2027 04:13:54.234   09 Jun 2027 04:16:00.530           126.296         63148.000
       304   09 Jun 2027 04:16:02.174   09 Jun 2027 04:16:25.733            23.559         11779.500
       305   09 Jun 2027 05:47:45.014   09 Jun 2027 05:49:50.242           125.228         62614.000
       306   09 Jun 2027 05:50:13.796   09 Jun 2027 05:50:25.720            11.924          5962.000
       307   09 Jun 2027 05:50:38.125   09 Jun 2027 05:50:38.283             0.158            79.000
       308   09 Jun 2027 05:50:42.334   09 Jun 2027 05:50:46.715             4.381          2190.500
       309   09 Jun 2027 05:52:14.406   09 Jun 2027 05:52:16.801             2.395          1197.500
       310   09 Jun 2027 05:53:03.765   09 Jun 2027 05:53:09.246             5.481          2740.500
       311   09 Jun 2027 05:53:12.591   09 Jun 2027 05:53:31.285            18.694          9347.000
       312   09 Jun 2027 05:53:32.154   09 Jun 2027 05:53:39.463             7.309          3654.500
       313   09 Jun 2027 05:55:30.055   09 Jun 2027 05:55:46.744            16.689          7101.562
       314   09 Jun 2027 07:24:52.016   09 Jun 2027 07:25:15.280            23.264         11632.000
       315   09 Jun 2027 07:25:31.188   09 Jun 2027 07:25:35.288             4.100          1421.656
       316   09 Jun 2027 07:26:05.374   09 Jun 2027 07:26:10.313             4.939           532.094
       317   09 Jun 2027 07:27:30.424   09 Jun 2027 07:27:35.443             5.019          2364.812
       318   09 Jun 2027 07:27:54.964   09 Jun 2027 07:28:02.653             7.689           411.406
       319   09 Jun 2027 07:29:00.981   09 Jun 2027 07:29:04.192             3.211          1441.031
       320   09 Jun 2027 07:30:24.225   09 Jun 2027 07:30:30.535             6.310          2501.031
       321   09 Jun 2027 07:30:46.139   09 Jun 2027 07:30:46.732             0.593           104.469
       322   09 Jun 2027 07:30:58.983   09 Jun 2027 07:31:00.620             1.637           375.594
       323   09 Jun 2027 07:31:52.881   09 Jun 2027 07:31:52.881             0.000             0.000
       324   09 Jun 2027 09:01:54.945   09 Jun 2027 09:02:19.929            24.984         11939.531
       325   09 Jun 2027 09:03:44.583   09 Jun 2027 09:03:49.441             4.858          2303.687
       326   09 Jun 2027 09:04:41.022   09 Jun 2027 09:04:47.129             6.107          1366.938
       327   09 Jun 2027 09:05:05.952   09 Jun 2027 09:05:09.116             3.164           588.219
       328   09 Jun 2027 09:05:31.795   09 Jun 2027 09:05:33.255             1.460           668.375
       329   09 Jun 2027 09:05:56.141   09 Jun 2027 09:06:09.415            13.274           557.344
       330   09 Jun 2027 09:06:21.656   09 Jun 2027 09:06:23.225             1.569           382.531
       331   09 Jun 2027 09:06:55.154   09 Jun 2027 09:06:56.761             1.607           574.563
       332   09 Jun 2027 09:07:25.917   09 Jun 2027 09:07:32.629             6.712           911.125
       333   09 Jun 2027 09:07:43.015   09 Jun 2027 09:07:44.616             1.601            94.688
       334   09 Jun 2027 09:07:47.515   09 Jun 2027 09:07:54.592             7.077             8.313
       335   09 Jun 2027 10:38:52.781   09 Jun 2027 10:39:06.879            14.098          6919.125
       336   09 Jun 2027 10:39:16.836   09 Jun 2027 10:39:16.836             0.000             0.000
       337   09 Jun 2027 10:39:28.621   09 Jun 2027 10:39:30.451             1.830           669.656
       338   09 Jun 2027 10:40:00.768   09 Jun 2027 10:40:06.051             5.283           903.906
       339   09 Jun 2027 10:40:50.069   09 Jun 2027 10:40:53.102             3.033          1362.094
       340   09 Jun 2027 10:41:32.849   09 Jun 2027 10:41:35.495             2.646           699.656
       341   09 Jun 2027 10:42:25.572   09 Jun 2027 10:42:30.890             5.318          1481.406
       342   10 Jun 2027 04:26:15.924   10 Jun 2027 04:29:08.575           172.651         86325.500
       343   10 Jun 2027 05:59:57.611   10 Jun 2027 06:00:31.010            33.399         16699.500
       344   10 Jun 2027 06:00:39.400   10 Jun 2027 06:02:17.438            98.038         49019.000
       345   10 Jun 2027 06:04:44.298   10 Jun 2027 06:04:44.298             0.000             0.000
       346   10 Jun 2027 06:04:57.041   10 Jun 2027 06:05:11.383            14.342          6333.656
       347   10 Jun 2027 06:05:55.548   10 Jun 2027 06:05:57.808             2.260           987.219
       348   10 Jun 2027 06:06:47.779   10 Jun 2027 06:06:47.779             0.000             0.000
       349   10 Jun 2027 06:07:47.200   10 Jun 2027 06:07:57.383            10.183          3298.812
       350   10 Jun 2027 07:37:18.244   10 Jun 2027 07:37:42.103            23.859         11516.812
       351   10 Jun 2027 07:40:20.697   10 Jun 2027 07:40:23.981             3.284          1549.937
       352   10 Jun 2027 07:41:01.453   10 Jun 2027 07:41:10.956             9.503          1171.000
       353   10 Jun 2027 07:41:19.914   10 Jun 2027 07:41:21.603             1.689           166.844
       354   10 Jun 2027 07:41:58.707   10 Jun 2027 07:42:02.148             3.441          1159.500
       355   10 Jun 2027 07:43:19.833   10 Jun 2027 07:43:23.075             3.242          1352.406
       356   10 Jun 2027 07:43:54.666   10 Jun 2027 07:43:56.875             2.209           812.656
       357   10 Jun 2027 09:14:15.093   10 Jun 2027 09:14:40.947            25.854         11760.875
       358   10 Jun 2027 09:15:01.990   10 Jun 2027 09:15:07.932             5.942           283.000
       359   10 Jun 2027 09:15:50.990   10 Jun 2027 09:15:53.744             2.754          1272.031
       360   10 Jun 2027 09:16:21.188   10 Jun 2027 09:16:25.815             4.627           616.594
       361   10 Jun 2027 09:16:59.352   10 Jun 2027 09:17:05.111             5.759           532.563
       362   10 Jun 2027 09:17:38.697   10 Jun 2027 09:17:41.959             3.262          1044.000
       363   10 Jun 2027 09:18:34.302   10 Jun 2027 09:18:36.456             2.154          1077.000
       364   10 Jun 2027 09:18:38.678   10 Jun 2027 09:18:43.693             5.015           558.719
       365   10 Jun 2027 09:19:08.908   10 Jun 2027 09:19:14.819             5.911           787.969
       366   10 Jun 2027 09:19:44.321   10 Jun 2027 09:19:46.279             1.958           578.719
       367   10 Jun 2027 10:51:05.584   10 Jun 2027 10:51:24.390            18.806          8577.375
       368   10 Jun 2027 10:51:29.120   10 Jun 2027 10:51:30.258             1.138            10.969
       369   10 Jun 2027 10:52:07.863   10 Jun 2027 10:52:11.297             3.434          1175.156
       370   10 Jun 2027 10:52:22.068   10 Jun 2027 10:52:25.599             3.531           287.281
       371   10 Jun 2027 10:53:16.385   10 Jun 2027 10:53:19.066             2.681          1122.125
       372   10 Jun 2027 10:53:27.294   10 Jun 2027 10:53:29.529             2.235           257.125
       373   10 Jun 2027 10:54:15.104   10 Jun 2027 10:54:20.974             5.870          1227.312
       374   10 Jun 2027 10:55:30.066   10 Jun 2027 10:55:33.448             3.382          1080.531
       375   11 Jun 2027 03:01:38.871   11 Jun 2027 03:02:10.208            31.337         15668.500
       376   11 Jun 2027 03:02:38.798   11 Jun 2027 03:02:46.164             7.366          3683.000
       377   11 Jun 2027 04:38:18.951   11 Jun 2027 04:41:08.678           169.727         84863.500
       378   11 Jun 2027 04:41:18.477   11 Jun 2027 04:41:48.610            30.133         15066.500
       379   11 Jun 2027 06:13:18.052   11 Jun 2027 06:14:32.135            74.083         36978.344
       380   11 Jun 2027 06:16:16.959   11 Jun 2027 06:16:19.863             2.904          1452.000
       381   11 Jun 2027 06:16:52.588   11 Jun 2027 06:16:57.160             4.572          2286.000
       382   11 Jun 2027 06:17:06.559   11 Jun 2027 06:17:08.721             2.162           854.125
       383   11 Jun 2027 06:17:23.917   11 Jun 2027 06:17:25.727             1.810           474.875
       384   11 Jun 2027 06:18:08.569   11 Jun 2027 06:18:12.976             4.407          1073.406
       385   11 Jun 2027 06:19:11.907   11 Jun 2027 06:19:15.479             3.572          1572.688
       386   11 Jun 2027 06:19:34.296   11 Jun 2027 06:19:43.230             8.934           552.719
       387   11 Jun 2027 06:20:06.694   11 Jun 2027 06:20:07.747             1.053           339.812
       388   11 Jun 2027 07:49:25.668   11 Jun 2027 07:49:49.008            23.340          9958.969
       389   11 Jun 2027 07:50:54.663   11 Jun 2027 07:50:55.349             0.686           193.313
       390   11 Jun 2027 07:52:01.609   11 Jun 2027 07:52:05.487             3.878           953.813
       391   11 Jun 2027 07:52:12.640   11 Jun 2027 07:52:14.327             1.687           146.000
       392   11 Jun 2027 07:53:29.536   11 Jun 2027 07:53:34.953             5.417          2051.313
       393   11 Jun 2027 07:54:12.051   11 Jun 2027 07:54:20.018             7.967          1087.875
       394   11 Jun 2027 07:54:37.422   11 Jun 2027 07:54:40.051             2.629           273.937
       395   11 Jun 2027 07:54:53.461   11 Jun 2027 07:54:53.797             0.336           140.563
       396   11 Jun 2027 07:55:23.626   11 Jun 2027 07:55:24.914             1.288           410.438
       397   11 Jun 2027 07:55:50.919   11 Jun 2027 07:55:50.965             0.046             8.188
       398   11 Jun 2027 07:55:51.044   11 Jun 2027 07:55:51.437             0.393             2.469
       399   11 Jun 2027 09:27:09.817   11 Jun 2027 09:27:28.637            18.820          9163.906
       400   11 Jun 2027 09:27:39.734   11 Jun 2027 09:27:40.604             0.870            40.500
       401   11 Jun 2027 09:29:03.292   11 Jun 2027 09:29:07.814             4.522          2111.844
       402   11 Jun 2027 09:29:24.574   11 Jun 2027 09:29:26.955             2.381           523.750
       403   11 Jun 2027 09:29:35.203   11 Jun 2027 09:29:36.211             1.008           119.781
       404   11 Jun 2027 09:30:15.609   11 Jun 2027 09:30:21.753             6.144          1231.188
       405   11 Jun 2027 09:30:52.184   11 Jun 2027 09:30:56.374             4.190           927.594
       406   11 Jun 2027 09:31:20.614   11 Jun 2027 09:31:26.148             5.534           679.812
       407   11 Jun 2027 11:03:15.650   11 Jun 2027 11:03:30.002            14.352          7176.000
       408   11 Jun 2027 11:03:55.816   11 Jun 2027 11:03:58.579             2.763           942.750
       409   11 Jun 2027 11:04:09.545   11 Jun 2027 11:04:11.900             2.355           342.687
       410   11 Jun 2027 11:05:01.306   11 Jun 2027 11:05:07.330             6.024          1543.938
       411   11 Jun 2027 11:05:30.734   11 Jun 2027 11:05:34.028             3.294           584.531
       412   11 Jun 2027 11:05:38.527   11 Jun 2027 11:05:42.883             4.356           140.594
       413   11 Jun 2027 11:06:57.505   11 Jun 2027 11:07:04.459             6.954          1895.188
       414   11 Jun 2027 11:07:25.436   11 Jun 2027 11:07:27.357             1.921           655.531
       415   12 Jun 2027 03:13:53.323   12 Jun 2027 03:14:11.098            17.775          8887.500
       416   12 Jun 2027 03:14:43.017   12 Jun 2027 03:16:14.714            91.697         45848.500
       417   12 Jun 2027 03:16:14.866   12 Jun 2027 03:16:16.499             1.633           816.500
       418   12 Jun 2027 03:16:33.958   12 Jun 2027 03:16:51.847            17.889          8944.500
       419   12 Jun 2027 04:50:25.145   12 Jun 2027 04:51:21.702            56.557         28278.500
       420   12 Jun 2027 04:51:35.438   12 Jun 2027 04:52:42.809            67.371         33685.500
       421   12 Jun 2027 06:25:35.389   12 Jun 2027 06:26:26.370            50.981         25217.657
       422   12 Jun 2027 06:26:35.380   12 Jun 2027 06:26:37.131             1.751           281.563
       423   12 Jun 2027 06:27:01.235   12 Jun 2027 06:27:03.044             1.809           220.937
       424   12 Jun 2027 06:27:55.759   12 Jun 2027 06:27:59.387             3.628          1647.344
       425   12 Jun 2027 06:28:38.469   12 Jun 2027 06:28:41.634             3.165          1221.312
       426   12 Jun 2027 06:28:53.515   12 Jun 2027 06:29:00.066             6.551           277.719
       427   12 Jun 2027 06:30:01.297   12 Jun 2027 06:30:04.371             3.074            38.562
       428   12 Jun 2027 06:30:24.674   12 Jun 2027 06:30:26.810             2.136           491.281
       429   12 Jun 2027 06:31:02.725   12 Jun 2027 06:31:08.191             5.466           246.875
       430   12 Jun 2027 06:32:02.701   12 Jun 2027 06:32:08.930             6.229          1578.344
       431   12 Jun 2027 08:01:59.288   12 Jun 2027 08:02:22.968            23.680          9406.438
       432   12 Jun 2027 08:02:28.035   12 Jun 2027 08:02:29.348             1.313           149.750
       433   12 Jun 2027 08:02:48.261   12 Jun 2027 08:02:52.566             4.305            74.531
       434   12 Jun 2027 08:03:21.859   12 Jun 2027 08:03:27.660             5.801           334.625
       435   12 Jun 2027 08:03:41.888   12 Jun 2027 08:03:43.778             1.890           362.375
       436   12 Jun 2027 08:04:28.565   12 Jun 2027 08:04:31.903             3.338           427.281
       437   12 Jun 2027 08:05:03.741   12 Jun 2027 08:05:05.153             1.412           706.000
       438   12 Jun 2027 08:05:06.867   12 Jun 2027 08:05:07.587             0.720           337.500
       439   12 Jun 2027 08:06:21.511   12 Jun 2027 08:06:26.747             5.236          2023.625
       440   12 Jun 2027 08:06:48.393   12 Jun 2027 08:06:50.916             2.523           676.438
       441   12 Jun 2027 08:07:18.937   12 Jun 2027 08:07:20.148             1.211           546.781
       442   12 Jun 2027 08:07:40.301   12 Jun 2027 08:07:42.306             2.005           629.781
       443   12 Jun 2027 09:39:15.703   12 Jun 2027 09:39:35.259            19.556          8413.437
       444   12 Jun 2027 09:40:16.878   12 Jun 2027 09:40:24.713             7.835           870.656
       445   12 Jun 2027 09:41:12.367   12 Jun 2027 09:41:16.759             4.392           944.000
       446   12 Jun 2027 09:41:44.592   12 Jun 2027 09:41:46.370             1.778           742.562
       447   12 Jun 2027 09:41:51.095   12 Jun 2027 09:41:52.763             1.668            50.781
       448   12 Jun 2027 09:41:58.139   12 Jun 2027 09:41:59.362             1.223           168.000
       449   12 Jun 2027 09:42:11.610   12 Jun 2027 09:42:16.398             4.788           382.750
       450   12 Jun 2027 09:42:56.281   12 Jun 2027 09:42:59.870             3.589          1246.344
       451   12 Jun 2027 09:43:29.715   12 Jun 2027 09:43:33.245             3.530           931.656
       452   12 Jun 2027 11:15:29.419   12 Jun 2027 11:15:43.885            14.466          7045.656
       453   12 Jun 2027 11:16:04.365   12 Jun 2027 11:16:06.195             1.830           497.938
       454   12 Jun 2027 11:16:10.073   12 Jun 2027 11:16:10.933             0.860           118.844
       455   12 Jun 2027 11:16:23.504   12 Jun 2027 11:16:23.504             0.000             0.000
       456   12 Jun 2027 11:17:17.856   12 Jun 2027 11:17:22.137             4.281          2091.344
       457   12 Jun 2027 11:17:58.543   12 Jun 2027 11:18:01.210             2.667          1128.562
       458   12 Jun 2027 11:19:02.048   12 Jun 2027 11:19:07.852             5.804          1592.469
       459   12 Jun 2027 11:19:42.291   12 Jun 2027 11:19:44.483             2.192          1076.219
       460   13 Jun 2027 03:26:22.949   13 Jun 2027 03:27:05.921            42.972         21486.000
       461   13 Jun 2027 03:27:17.414   13 Jun 2027 03:27:21.124             3.710          1855.000
       462   13 Jun 2027 03:27:27.529   13 Jun 2027 03:27:32.399             4.870          2435.000
       463   13 Jun 2027 05:02:17.753   13 Jun 2027 05:06:05.223           227.470        113735.000
       464   13 Jun 2027 06:37:13.865   13 Jun 2027 06:37:50.153            36.288         17704.188
       465   13 Jun 2027 06:38:21.622   13 Jun 2027 06:38:23.965             2.343           965.125
       466   13 Jun 2027 06:38:51.853   13 Jun 2027 06:38:57.660             5.807           413.813
       467   13 Jun 2027 06:39:57.529   13 Jun 2027 06:40:00.021             2.492          1246.000
       468   13 Jun 2027 06:40:29.113   13 Jun 2027 06:40:35.390             6.277          1026.781
       469   13 Jun 2027 06:40:53.052   13 Jun 2027 06:40:53.052             0.000             0.000
       470   13 Jun 2027 06:42:08.825   13 Jun 2027 06:42:13.966             5.141          2440.250
       471   13 Jun 2027 06:42:42.517   13 Jun 2027 06:42:44.365             1.848           801.312
       472   13 Jun 2027 06:43:28.456   13 Jun 2027 06:43:31.790             3.334           896.375
       473   13 Jun 2027 06:44:04.578   13 Jun 2027 06:44:08.415             3.837          1024.625
       474   13 Jun 2027 08:13:33.114   13 Jun 2027 08:14:00.809            27.695         13671.875
       475   13 Jun 2027 08:15:09.098   13 Jun 2027 08:15:12.204             3.106           515.031
       476   13 Jun 2027 08:15:53.295   13 Jun 2027 08:15:58.533             5.238           897.250
       477   13 Jun 2027 08:16:20.479   13 Jun 2027 08:16:21.035             0.556           233.812
       478   13 Jun 2027 08:16:47.870   13 Jun 2027 08:16:49.933             2.063           173.500
       479   13 Jun 2027 08:17:05.363   13 Jun 2027 08:17:11.734             6.371           407.000
       480   13 Jun 2027 08:18:15.111   13 Jun 2027 08:18:16.810             1.699           849.500
       481   13 Jun 2027 08:18:42.247   13 Jun 2027 08:18:48.710             6.463          1925.937
       482   13 Jun 2027 08:18:51.809   13 Jun 2027 08:18:59.028             7.219            61.281
       483   13 Jun 2027 08:19:40.671   13 Jun 2027 08:19:44.685             4.014          1198.094
       484   13 Jun 2027 09:51:48.462   13 Jun 2027 09:52:09.833            21.371          9476.000
       485   13 Jun 2027 09:53:14.643   13 Jun 2027 09:53:18.883             4.240          1792.656
       486   13 Jun 2027 09:53:43.873   13 Jun 2027 09:53:47.514             3.641           776.375
       487   13 Jun 2027 09:54:15.192   13 Jun 2027 09:54:20.089             4.897           764.063
       488   13 Jun 2027 09:54:55.527   13 Jun 2027 09:54:59.273             3.746          1107.437
       489   13 Jun 2027 09:55:22.219   13 Jun 2027 09:55:22.219             0.000             0.000
       490   13 Jun 2027 11:27:09.023   13 Jun 2027 11:27:24.266            15.243          6398.000
       491   13 Jun 2027 11:28:32.759   13 Jun 2027 11:28:43.908            11.149          2086.812
       492   13 Jun 2027 11:28:57.333   13 Jun 2027 11:28:58.751             1.418           419.531
       493   13 Jun 2027 11:29:19.006   13 Jun 2027 11:29:21.170             2.164           423.219
       494   13 Jun 2027 11:29:49.270   13 Jun 2027 11:29:51.511             2.241           760.969
       495   13 Jun 2027 11:30:16.734   13 Jun 2027 11:30:20.272             3.538           732.469
       496   13 Jun 2027 11:30:54.046   13 Jun 2027 11:30:55.639             1.593           688.469
       497   13 Jun 2027 11:31:01.076   13 Jun 2027 11:31:04.714             3.638           169.906
       498   13 Jun 2027 11:31:59.515   13 Jun 2027 11:32:10.775            11.260          1558.250
       499   13 Jun 2027 11:32:38.238   13 Jun 2027 11:32:39.673             1.435           717.500
