uniorb/output/strategy_2/Camera/Camera_KinoSat_110702.txt

KinoSat_110702
-------------------------
    Access    *     Start Time (UTCG)     *     Stop Time (UTCG)  *   Duration (s) *   Data (Mbytes)
         1   01 Jun 2027 04:08:33.420   01 Jun 2027 04:09:53.453            80.033         40016.500
         2   01 Jun 2027 04:10:23.040   01 Jun 2027 04:10:33.298            10.258          5129.000
         3   01 Jun 2027 04:10:42.595   01 Jun 2027 04:10:42.595             0.000             0.000
         4   01 Jun 2027 04:11:37.005   01 Jun 2027 04:11:49.704            12.699          6349.500
         5   01 Jun 2027 04:12:03.810   01 Jun 2027 04:12:06.531             2.721          1360.500
         6   01 Jun 2027 05:43:41.984   01 Jun 2027 05:46:06.713           144.729         72364.500
         7   01 Jun 2027 05:47:14.612   01 Jun 2027 05:47:29.728            15.116          7558.000
         8   01 Jun 2027 05:48:21.745   01 Jun 2027 05:48:34.774            13.029          6514.500
         9   01 Jun 2027 05:49:08.193   01 Jun 2027 05:49:15.995             7.802          3901.000
        10   01 Jun 2027 05:49:59.678   01 Jun 2027 05:50:30.714            31.036         15518.000
        11   01 Jun 2027 07:20:01.992   01 Jun 2027 07:21:12.146            70.154         35077.000
        12   01 Jun 2027 07:21:44.618   01 Jun 2027 07:22:49.137            64.519         32259.500
        13   01 Jun 2027 07:23:41.202   01 Jun 2027 07:24:59.074            77.872         38936.000
        14   01 Jun 2027 08:57:36.972   01 Jun 2027 09:00:18.706           161.734         80867.000
        15   01 Jun 2027 09:00:56.522   01 Jun 2027 09:01:02.590             6.068          3034.000
        16   01 Jun 2027 09:01:36.084   01 Jun 2027 09:01:46.496            10.412          5206.000
        17   01 Jun 2027 10:33:39.475   01 Jun 2027 10:36:15.230           155.755         77877.500
        18   02 Jun 2027 04:20:43.965   02 Jun 2027 04:22:15.195            91.230         45615.000
        19   02 Jun 2027 04:22:50.918   02 Jun 2027 04:23:43.475            52.557         26278.500
        20   02 Jun 2027 04:23:55.130   02 Jun 2027 04:23:55.130             0.000             0.000
        21   02 Jun 2027 05:55:53.754   02 Jun 2027 05:57:12.782            79.028         39514.000
        22   02 Jun 2027 05:57:19.736   02 Jun 2027 05:58:01.291            41.555         20777.500
        23   02 Jun 2027 05:58:16.969   02 Jun 2027 05:58:34.128            17.159          8579.500
        24   02 Jun 2027 05:59:08.588   02 Jun 2027 06:00:04.295            55.707         27853.500
        25   02 Jun 2027 06:02:16.344   02 Jun 2027 06:02:22.858             6.514          3257.000
        26   02 Jun 2027 07:32:14.933   02 Jun 2027 07:33:27.347            72.414         36207.000
        27   02 Jun 2027 07:34:26.467   02 Jun 2027 07:35:46.378            79.911         39955.500
        28   02 Jun 2027 07:36:00.588   02 Jun 2027 07:36:17.595            17.007          8503.500
        29   02 Jun 2027 07:38:15.605   02 Jun 2027 07:38:24.193             8.588          4294.000
        30   02 Jun 2027 09:09:31.977   02 Jun 2027 09:11:34.989           123.012         60680.814
        31   02 Jun 2027 09:12:45.867   02 Jun 2027 09:12:52.429             6.562          2162.781
        32   02 Jun 2027 09:13:02.413   02 Jun 2027 09:13:05.292             2.879           312.000
        33   02 Jun 2027 09:13:22.556   02 Jun 2027 09:13:29.376             6.820           469.125
        34   02 Jun 2027 10:45:44.179   02 Jun 2027 10:46:02.553            18.374          9131.094
        35   02 Jun 2027 10:46:17.753   02 Jun 2027 10:46:18.144             0.391           195.500
        36   02 Jun 2027 10:46:52.841   02 Jun 2027 10:46:57.684             4.843          1089.125
        37   02 Jun 2027 10:47:35.771   02 Jun 2027 10:47:36.317             0.546           273.000
        38   02 Jun 2027 10:48:08.182   02 Jun 2027 10:48:12.640             4.458          1913.000
        39   02 Jun 2027 10:49:16.515   02 Jun 2027 10:49:20.877             4.362          1834.781
        40   02 Jun 2027 10:49:53.848   02 Jun 2027 10:49:56.944             3.096           371.437
        41   02 Jun 2027 10:50:29.521   02 Jun 2027 10:50:30.716             1.195           597.500
        42   03 Jun 2027 04:32:32.307   03 Jun 2027 04:35:52.639           200.332        100166.000
        43   03 Jun 2027 06:07:26.417   03 Jun 2027 06:08:07.186            40.769         20384.500
        44   03 Jun 2027 06:08:51.555   03 Jun 2027 06:10:02.111            70.556         33597.125
        45   03 Jun 2027 06:10:43.813   03 Jun 2027 06:10:52.424             8.611           906.719
        46   03 Jun 2027 06:11:35.258   03 Jun 2027 06:11:37.903             2.645          1297.469
        47   03 Jun 2027 06:12:09.787   03 Jun 2027 06:12:09.787             0.000             0.000
        48   03 Jun 2027 06:12:15.931   03 Jun 2027 06:12:19.774             3.843          1188.375
        49   03 Jun 2027 06:12:55.570   03 Jun 2027 06:12:56.165             0.595            56.000
        50   03 Jun 2027 06:13:24.766   03 Jun 2027 06:13:24.766             0.000             0.000
        51   03 Jun 2027 06:13:57.416   03 Jun 2027 06:13:57.416             0.000             0.000
        52   03 Jun 2027 07:43:52.321   03 Jun 2027 07:44:29.922            37.601         17694.219
        53   03 Jun 2027 07:45:32.680   03 Jun 2027 07:45:36.366             3.686          1398.250
        54   03 Jun 2027 07:46:04.976   03 Jun 2027 07:46:08.065             3.089           894.062
        55   03 Jun 2027 07:47:37.233   03 Jun 2027 07:47:45.233             8.000          2167.000
        56   03 Jun 2027 07:48:03.968   03 Jun 2027 07:48:07.180             3.212           585.469
        57   03 Jun 2027 07:48:57.931   03 Jun 2027 07:49:01.539             3.608          1585.969
        58   03 Jun 2027 07:49:28.455   03 Jun 2027 07:49:32.199             3.744           599.875
        59   03 Jun 2027 07:49:57.424   03 Jun 2027 07:50:02.358             4.934           463.344
        60   03 Jun 2027 09:22:10.789   03 Jun 2027 09:22:33.849            23.060         10551.344
        61   03 Jun 2027 09:23:14.144   03 Jun 2027 09:23:17.111             2.967          1030.062
        62   03 Jun 2027 09:23:26.734   03 Jun 2027 09:23:31.496             4.762           300.719
        63   03 Jun 2027 09:23:41.268   03 Jun 2027 09:23:42.922             1.654           263.031
        64   03 Jun 2027 09:24:11.596   03 Jun 2027 09:24:13.532             1.936           766.687
        65   03 Jun 2027 09:25:04.932   03 Jun 2027 09:25:12.598             7.666          1540.625
        66   03 Jun 2027 09:25:21.989   03 Jun 2027 09:25:24.277             2.288           293.469
        67   03 Jun 2027 09:25:41.398   03 Jun 2027 09:25:43.104             1.706           490.062
        68   03 Jun 2027 10:57:37.134   03 Jun 2027 10:57:52.890            15.756          6783.406
        69   03 Jun 2027 10:58:55.454   03 Jun 2027 10:59:01.265             5.811          1917.375
        70   03 Jun 2027 10:59:10.791   03 Jun 2027 10:59:15.718             4.927           190.156
        71   03 Jun 2027 10:59:26.278   03 Jun 2027 10:59:27.219             0.941           289.469
        72   03 Jun 2027 10:59:36.841   03 Jun 2027 10:59:36.841             0.000             0.000
        73   03 Jun 2027 11:00:24.914   03 Jun 2027 11:00:28.638             3.724          1569.437
        74   03 Jun 2027 11:01:35.908   03 Jun 2027 11:01:38.668             2.760          1380.000
        75   03 Jun 2027 11:02:07.044   03 Jun 2027 11:02:10.827             3.783          1274.281
        76   04 Jun 2027 03:07:15.950   04 Jun 2027 03:07:42.156            26.206         13103.000
        77   04 Jun 2027 03:08:18.827   04 Jun 2027 03:08:18.827             0.000             0.000
        78   04 Jun 2027 03:08:51.205   04 Jun 2027 03:09:17.339            26.134         13067.000
        79   04 Jun 2027 03:10:45.152   04 Jun 2027 03:10:46.478             1.326           663.000
        80   04 Jun 2027 03:11:20.242   04 Jun 2027 03:11:28.693             8.451          4225.500
        81   04 Jun 2027 03:11:56.419   04 Jun 2027 03:11:56.419             0.000             0.000
        82   04 Jun 2027 04:42:48.742   04 Jun 2027 04:43:38.656            49.914         24957.000
        83   04 Jun 2027 04:44:16.753   04 Jun 2027 04:46:05.499           108.746         54373.000
        84   04 Jun 2027 04:46:39.957   04 Jun 2027 04:46:46.348             6.391          3195.500
        85   04 Jun 2027 04:48:11.375   04 Jun 2027 04:48:20.151             8.776          4388.000
        86   04 Jun 2027 04:48:33.790   04 Jun 2027 04:48:43.966            10.176          5088.000
        87   04 Jun 2027 06:19:06.133   04 Jun 2027 06:20:26.659            80.526         39880.969
        88   04 Jun 2027 06:21:24.723   04 Jun 2027 06:21:29.806             5.083          1684.844
        89   04 Jun 2027 06:22:01.126   04 Jun 2027 06:22:03.678             2.552           607.719
        90   04 Jun 2027 06:22:09.101   04 Jun 2027 06:22:09.265             0.164            35.875
        91   04 Jun 2027 06:22:25.815   04 Jun 2027 06:22:25.815             0.000             0.000
        92   04 Jun 2027 06:24:08.632   04 Jun 2027 06:24:17.835             9.203          3512.375
        93   04 Jun 2027 06:24:45.106   04 Jun 2027 06:24:45.259             0.153            76.500
        94   04 Jun 2027 06:25:20.927   04 Jun 2027 06:25:29.567             8.640          1890.344
        95   04 Jun 2027 06:25:57.871   04 Jun 2027 06:26:04.824             6.953           884.500
        96   04 Jun 2027 07:56:11.872   04 Jun 2027 07:56:47.288            35.416         17537.844
        97   04 Jun 2027 07:57:02.044   04 Jun 2027 07:57:02.622             0.578           111.500
        98   04 Jun 2027 07:58:25.279   04 Jun 2027 07:58:29.034             3.755          1782.219
        99   04 Jun 2027 07:59:17.275   04 Jun 2027 07:59:21.844             4.569          1027.813
       100   04 Jun 2027 07:59:56.350   04 Jun 2027 07:59:56.866             0.516           160.094
       101   04 Jun 2027 08:00:07.734   04 Jun 2027 08:00:08.359             0.625            10.313
       102   04 Jun 2027 08:00:30.927   04 Jun 2027 08:00:31.808             0.881           437.531
       103   04 Jun 2027 08:00:42.889   04 Jun 2027 08:00:43.152             0.263           101.281
       104   04 Jun 2027 08:01:31.014   04 Jun 2027 08:01:36.199             5.185          1021.750
       105   04 Jun 2027 08:02:15.989   04 Jun 2027 08:02:21.182             5.193          1118.281
       106   04 Jun 2027 09:34:09.218   04 Jun 2027 09:34:29.101            19.883          9648.187
       107   04 Jun 2027 09:34:58.112   04 Jun 2027 09:34:59.967             1.855           271.000
       108   04 Jun 2027 09:35:40.610   04 Jun 2027 09:35:43.374             2.764           848.313
       109   04 Jun 2027 09:36:06.613   04 Jun 2027 09:36:09.450             2.837           726.219
       110   04 Jun 2027 09:36:58.537   04 Jun 2027 09:37:02.493             3.956           951.469
       111   04 Jun 2027 09:38:05.124   04 Jun 2027 09:38:06.996             1.872           936.000
       112   04 Jun 2027 11:07:14.101   04 Jun 2027 11:07:27.793            13.692          6714.469
       113   04 Jun 2027 11:09:08.955   04 Jun 2027 11:09:13.632             4.677          1902.250
       114   04 Jun 2027 11:09:40.805   04 Jun 2027 11:09:43.109             2.304           779.813
       115   04 Jun 2027 11:10:02.946   04 Jun 2027 11:10:02.946             0.000             0.000
       116   04 Jun 2027 11:10:06.228   04 Jun 2027 11:10:06.854             0.626           279.687
       117   04 Jun 2027 11:11:07.707   04 Jun 2027 11:11:15.359             7.652          1453.188
       118   04 Jun 2027 11:11:18.052   04 Jun 2027 11:11:19.200             1.148            79.844
       119   04 Jun 2027 11:12:26.707   04 Jun 2027 11:12:28.506             1.799           899.500
       120   04 Jun 2027 11:13:10.836   04 Jun 2027 11:13:17.221             6.385          2240.187
       121   04 Jun 2027 11:14:16.635   04 Jun 2027 11:14:29.310            12.675          1106.938
       122   04 Jun 2027 11:14:44.254   04 Jun 2027 11:14:47.720             3.466           467.000
       123   04 Jun 2027 11:15:01.842   04 Jun 2027 11:15:01.842             0.000             0.000
       124   04 Jun 2027 11:15:12.528   04 Jun 2027 11:15:14.874             2.346           702.594
       125   05 Jun 2027 03:18:59.143   05 Jun 2027 03:19:05.791             6.648          3324.000
       126   05 Jun 2027 03:19:59.301   05 Jun 2027 03:20:04.969             5.668          2834.000
       127   05 Jun 2027 03:20:55.864   05 Jun 2027 03:21:32.596            36.732         18366.000
       128   05 Jun 2027 03:21:36.025   05 Jun 2027 03:21:45.487             9.462          4731.000
       129   05 Jun 2027 03:22:48.990   05 Jun 2027 03:23:05.382            16.392          8196.000
       130   05 Jun 2027 04:53:57.302   05 Jun 2027 04:55:51.482           114.180         57090.000
       131   05 Jun 2027 04:56:00.649   05 Jun 2027 04:57:25.368            84.719         42359.500
       132   05 Jun 2027 04:58:14.767   05 Jun 2027 04:58:23.315             8.548          4274.000
       133   05 Jun 2027 04:59:05.792   05 Jun 2027 04:59:05.792             0.000             0.000
       134   05 Jun 2027 06:31:25.471   05 Jun 2027 06:32:08.844            43.373         21686.500
       135   05 Jun 2027 06:32:32.484   05 Jun 2027 06:32:45.711            13.227          5905.313
       136   05 Jun 2027 06:32:51.252   05 Jun 2027 06:32:53.223             1.971            56.250
       137   05 Jun 2027 06:33:27.885   05 Jun 2027 06:33:31.213             3.328            11.281
       138   05 Jun 2027 06:33:40.745   05 Jun 2027 06:33:42.595             1.850            78.344
       139   05 Jun 2027 06:34:21.081   05 Jun 2027 06:34:22.640             1.559           741.406
       140   05 Jun 2027 06:35:03.968   05 Jun 2027 06:35:06.794             2.826          1291.500
       141   05 Jun 2027 06:36:56.225   05 Jun 2027 06:37:06.754            10.529          1510.687
       142   05 Jun 2027 06:37:37.951   05 Jun 2027 06:37:41.949             3.998           974.906
       143   05 Jun 2027 06:38:22.202   05 Jun 2027 06:38:24.936             2.734          1054.687
       144   05 Jun 2027 06:38:29.318   05 Jun 2027 06:38:31.202             1.884           136.938
       145   05 Jun 2027 08:08:10.662   05 Jun 2027 08:08:43.212            32.550         15862.719
       146   05 Jun 2027 08:08:53.979   05 Jun 2027 08:08:57.101             3.122           120.031
       147   05 Jun 2027 08:10:28.068   05 Jun 2027 08:10:33.890             5.822          1744.906
       148   05 Jun 2027 08:11:22.817   05 Jun 2027 08:11:26.485             3.668          1419.562
       149   05 Jun 2027 08:11:54.728   05 Jun 2027 08:11:56.043             1.315           266.844
       150   05 Jun 2027 08:12:06.645   05 Jun 2027 08:12:09.241             2.596           241.969
       151   05 Jun 2027 08:12:43.139   05 Jun 2027 08:12:44.914             1.775           792.063
       152   05 Jun 2027 08:13:08.410   05 Jun 2027 08:13:12.283             3.873           548.344
       153   05 Jun 2027 08:13:25.842   05 Jun 2027 08:13:27.894             2.052           412.844
       154   05 Jun 2027 08:13:35.651   05 Jun 2027 08:13:36.184             0.533           242.406
       155   05 Jun 2027 08:14:19.182   05 Jun 2027 08:14:22.398             3.216          1038.906
       156   05 Jun 2027 09:46:08.744   05 Jun 2027 09:46:27.907            19.163          9581.500
       157   05 Jun 2027 09:46:50.417   05 Jun 2027 09:46:54.254             3.837          1276.937
       158   05 Jun 2027 09:47:24.907   05 Jun 2027 09:47:28.515             3.608           957.906
       159   05 Jun 2027 09:48:02.289   05 Jun 2027 09:48:05.115             2.826           669.188
       160   05 Jun 2027 09:49:29.317   05 Jun 2027 09:49:33.869             4.552          2066.562
       161   05 Jun 2027 09:49:54.595   05 Jun 2027 09:49:55.546             0.951           430.719
       162   05 Jun 2027 11:19:46.500   05 Jun 2027 11:19:52.884             6.384          2230.219
       163   05 Jun 2027 11:21:14.065   05 Jun 2027 11:21:20.560             6.495          2374.812
       164   05 Jun 2027 11:22:07.593   05 Jun 2027 11:22:15.537             7.944          1469.781
       165   05 Jun 2027 11:22:47.781   05 Jun 2027 11:22:47.781             0.000             0.000
       166   05 Jun 2027 11:23:05.461   05 Jun 2027 11:23:09.811             4.350          1361.656
       167   05 Jun 2027 11:24:06.129   05 Jun 2027 11:24:09.323             3.194          1366.406
       168   05 Jun 2027 11:24:45.599   05 Jun 2027 11:24:48.367             2.768          1042.313
       169   05 Jun 2027 11:25:12.246   05 Jun 2027 11:25:12.246             0.000             0.000
       170   05 Jun 2027 11:25:25.987   05 Jun 2027 11:25:28.778             2.791           795.219
       171   05 Jun 2027 11:26:13.698   05 Jun 2027 11:26:21.060             7.362          1295.187
       172   06 Jun 2027 03:30:34.066   06 Jun 2027 03:31:40.569            66.503         33251.500
       173   06 Jun 2027 03:31:42.449   06 Jun 2027 03:31:45.169             2.720          1360.000
       174   06 Jun 2027 03:35:23.821   06 Jun 2027 03:35:25.952             2.131          1065.500
       175   06 Jun 2027 05:05:25.170   06 Jun 2027 05:09:03.778           218.608        109304.000
       176   06 Jun 2027 05:09:30.504   06 Jun 2027 05:09:58.320            27.816         13592.063
       177   06 Jun 2027 05:13:03.407   06 Jun 2027 05:13:03.407             0.000             0.000
       178   06 Jun 2027 05:14:08.314   06 Jun 2027 05:14:29.530            21.216          7206.312
       179   06 Jun 2027 06:43:18.475   06 Jun 2027 06:43:53.814            35.339         16846.594
       180   06 Jun 2027 06:44:45.897   06 Jun 2027 06:44:49.270             3.373          1627.594
       181   06 Jun 2027 06:45:22.933   06 Jun 2027 06:45:25.608             2.675           180.125
       182   06 Jun 2027 06:46:20.441   06 Jun 2027 06:46:21.907             1.466           656.875
       183   06 Jun 2027 06:47:10.153   06 Jun 2027 06:47:14.074             3.921          1319.625
       184   06 Jun 2027 06:48:02.189   06 Jun 2027 06:48:03.220             1.031           199.156
       185   06 Jun 2027 06:48:14.413   06 Jun 2027 06:48:15.698             1.285           270.063
       186   06 Jun 2027 06:48:24.098   06 Jun 2027 06:48:25.683             1.585           262.500
       187   06 Jun 2027 06:48:30.110   06 Jun 2027 06:48:31.496             1.386           138.344
       188   06 Jun 2027 06:49:10.523   06 Jun 2027 06:49:12.021             1.498           541.125
       189   06 Jun 2027 06:49:57.520   06 Jun 2027 06:50:00.859             3.339           997.344
       190   06 Jun 2027 08:20:02.342   06 Jun 2027 08:20:27.797            25.455         12727.500
       191   06 Jun 2027 08:20:36.382   06 Jun 2027 08:20:43.705             7.323          3367.344
       192   06 Jun 2027 08:21:00.976   06 Jun 2027 08:21:02.333             1.357           178.031
       193   06 Jun 2027 08:21:50.112   06 Jun 2027 08:21:53.012             2.900          1139.844
       194   06 Jun 2027 08:22:52.672   06 Jun 2027 08:22:54.338             1.666           813.281
       195   06 Jun 2027 08:23:45.051   06 Jun 2027 08:23:52.680             7.629          1524.813
       196   06 Jun 2027 08:24:46.661   06 Jun 2027 08:24:50.805             4.144          1392.063
       197   06 Jun 2027 08:24:58.926   06 Jun 2027 08:24:59.925             0.999           253.781
       198   06 Jun 2027 08:25:20.201   06 Jun 2027 08:25:20.201             0.000             0.000
       199   06 Jun 2027 08:25:44.731   06 Jun 2027 08:25:47.374             2.643          1193.656
       200   06 Jun 2027 08:26:11.428   06 Jun 2027 08:26:11.428             0.000             0.000
       201   06 Jun 2027 09:58:09.041   06 Jun 2027 09:58:26.383            17.342          8654.250
       202   06 Jun 2027 09:59:05.264   06 Jun 2027 09:59:11.460             6.196          1177.281
       203   06 Jun 2027 09:59:48.533   06 Jun 2027 09:59:51.653             3.120          1135.937
       204   06 Jun 2027 10:00:29.529   06 Jun 2027 10:00:35.370             5.841          1173.219
       205   06 Jun 2027 10:01:19.891   06 Jun 2027 10:01:22.871             2.980           957.969
       206   06 Jun 2027 11:33:52.577   06 Jun 2027 11:33:55.821             3.244          1590.125
       207   06 Jun 2027 11:34:49.384   06 Jun 2027 11:34:51.609             2.225           849.500
       208   06 Jun 2027 11:35:40.943   06 Jun 2027 11:35:47.411             6.468          1162.562
       209   06 Jun 2027 11:36:03.314   06 Jun 2027 11:36:05.229             1.915           496.969
       210   06 Jun 2027 11:37:00.563   06 Jun 2027 11:37:01.229             0.666           333.000
       211   06 Jun 2027 11:37:22.062   06 Jun 2027 11:37:28.893             6.831          1633.156
       212   06 Jun 2027 11:37:51.897   06 Jun 2027 11:37:55.980             4.083           634.781
       213   07 Jun 2027 03:44:29.687   07 Jun 2027 03:44:50.564            20.877         10438.500
       214   07 Jun 2027 03:46:37.917   07 Jun 2027 03:46:44.926             7.009          3504.500
       215   07 Jun 2027 03:46:48.386   07 Jun 2027 03:46:53.608             5.222          2611.000
       216   07 Jun 2027 03:47:05.380   07 Jun 2027 03:47:10.699             5.319          2659.500
       217   07 Jun 2027 03:47:27.131   07 Jun 2027 03:47:46.458            19.327          9663.500
       218   07 Jun 2027 03:48:17.481   07 Jun 2027 03:48:17.481             0.000             0.000
       219   07 Jun 2027 05:18:17.027   07 Jun 2027 05:22:05.758           228.731        114365.500
       220   07 Jun 2027 05:23:16.378   07 Jun 2027 05:23:16.378             0.000             0.000
       221   07 Jun 2027 05:26:47.520   07 Jun 2027 05:26:47.612             0.092            46.000
       222   07 Jun 2027 06:55:25.813   07 Jun 2027 06:56:24.818            59.005         29502.500
       223   07 Jun 2027 06:56:39.514   07 Jun 2027 06:56:46.614             7.100          3354.156
       224   07 Jun 2027 06:56:55.318   07 Jun 2027 06:56:55.359             0.041            10.250
       225   07 Jun 2027 06:57:17.040   07 Jun 2027 06:57:18.215             1.175           582.062
       226   07 Jun 2027 06:58:35.712   07 Jun 2027 06:58:43.218             7.506          1537.656
       227   07 Jun 2027 06:59:15.771   07 Jun 2027 06:59:21.891             6.120          1017.281
       228   07 Jun 2027 07:00:45.473   07 Jun 2027 07:00:50.849             5.376          2316.812
       229   07 Jun 2027 07:02:02.107   07 Jun 2027 07:02:06.303             4.196           860.969
       230   07 Jun 2027 08:32:40.114   07 Jun 2027 08:33:06.195            26.081         12943.437
       231   07 Jun 2027 08:33:16.900   07 Jun 2027 08:33:20.355             3.455           300.906
       232   07 Jun 2027 08:33:41.412   07 Jun 2027 08:33:43.601             2.189           658.031
       233   07 Jun 2027 08:34:01.954   07 Jun 2027 08:34:05.893             3.939           407.781
       234   07 Jun 2027 08:34:25.451   07 Jun 2027 08:34:27.981             2.530           563.844
       235   07 Jun 2027 08:35:58.325   07 Jun 2027 08:36:01.602             3.277          1638.500
       236   07 Jun 2027 08:36:41.843   07 Jun 2027 08:36:47.279             5.436          2402.531
       237   07 Jun 2027 08:37:43.023   07 Jun 2027 08:37:47.430             4.407          1536.094
       238   07 Jun 2027 08:38:14.079   07 Jun 2027 08:38:17.694             3.615           832.781
       239   07 Jun 2027 10:09:22.705   07 Jun 2027 10:09:40.621            17.916          8783.125
       240   07 Jun 2027 10:10:29.106   07 Jun 2027 10:10:32.523             3.417          1515.156
       241   07 Jun 2027 10:11:18.844   07 Jun 2027 10:11:24.868             6.024          1235.063
       242   07 Jun 2027 10:11:42.039   07 Jun 2027 10:11:43.598             1.559           412.406
       243   07 Jun 2027 10:11:48.622   07 Jun 2027 10:11:48.981             0.359           157.000
       244   07 Jun 2027 10:12:25.672   07 Jun 2027 10:12:29.030             3.358           973.031
       245   07 Jun 2027 10:13:19.284   07 Jun 2027 10:13:19.928             0.644           322.000
       246   07 Jun 2027 10:13:41.959   07 Jun 2027 10:13:46.475             4.516          1927.219
       247   07 Jun 2027 11:44:34.072   07 Jun 2027 11:44:39.375             5.303          2090.875
       248   07 Jun 2027 11:46:22.122   07 Jun 2027 11:46:31.664             9.542          1966.656
       249   07 Jun 2027 11:47:02.494   07 Jun 2027 11:47:02.494             0.000             0.000
       250   07 Jun 2027 11:47:12.135   07 Jun 2027 11:47:14.040             1.905           663.500
       251   07 Jun 2027 11:48:25.447   07 Jun 2027 11:48:33.905             8.458          2123.625
       252   08 Jun 2027 03:56:43.340   08 Jun 2027 03:57:47.724            64.384         32192.000
       253   08 Jun 2027 03:58:16.351   08 Jun 2027 03:58:22.455             6.104          3052.000
       254   08 Jun 2027 03:58:58.003   08 Jun 2027 03:59:10.660            12.657          6328.500
       255   08 Jun 2027 05:30:40.272   08 Jun 2027 05:34:23.374           223.102        111551.000
       256   08 Jun 2027 05:38:00.358   08 Jun 2027 05:38:00.358             0.000             0.000
       257   08 Jun 2027 05:38:43.527   08 Jun 2027 05:38:45.967             2.440          1220.000
       258   08 Jun 2027 07:07:51.281   08 Jun 2027 07:08:40.772            49.491         24661.907
       259   08 Jun 2027 07:09:39.725   08 Jun 2027 07:09:42.288             2.563           721.844
       260   08 Jun 2027 07:10:36.158   08 Jun 2027 07:10:38.292             2.134           515.875
       261   08 Jun 2027 07:11:00.786   08 Jun 2027 07:11:04.129             3.343           338.469
       262   08 Jun 2027 07:11:31.555   08 Jun 2027 07:11:32.932             1.377           470.594
       263   08 Jun 2027 07:11:49.369   08 Jun 2027 07:11:50.426             1.057           404.531
       264   08 Jun 2027 07:12:32.656   08 Jun 2027 07:12:37.298             4.642          1319.688
       265   08 Jun 2027 07:13:29.045   08 Jun 2027 07:13:31.596             2.551          1241.000
       266   08 Jun 2027 07:14:29.456   08 Jun 2027 07:14:33.322             3.866          1755.469
       267   08 Jun 2027 08:44:51.984   08 Jun 2027 08:45:20.625            28.641         14106.656
       268   08 Jun 2027 08:47:35.437   08 Jun 2027 08:47:47.740            12.303          3532.062
       269   08 Jun 2027 08:48:09.424   08 Jun 2027 08:48:10.814             1.390           647.687
       270   08 Jun 2027 08:48:23.388   08 Jun 2027 08:48:23.388             0.000             0.000
       271   08 Jun 2027 08:48:41.072   08 Jun 2027 08:48:41.072             0.000             0.000
       272   08 Jun 2027 08:48:57.467   08 Jun 2027 08:49:01.853             4.386          1457.906
       273   08 Jun 2027 08:49:30.124   08 Jun 2027 08:49:31.933             1.809           831.187
       274   08 Jun 2027 10:21:37.677   08 Jun 2027 10:21:56.031            18.354          8869.937
       275   08 Jun 2027 10:22:54.853   08 Jun 2027 10:22:58.404             3.551          1534.906
       276   08 Jun 2027 10:23:54.196   08 Jun 2027 10:23:57.885             3.689          1610.906
       277   08 Jun 2027 10:25:25.775   08 Jun 2027 10:25:33.403             7.628          2593.031
       278   08 Jun 2027 11:59:47.452   08 Jun 2027 11:59:54.995             7.543          2295.250
       279   09 Jun 2027 04:08:48.217   09 Jun 2027 04:10:09.480            81.263         40631.500
       280   09 Jun 2027 04:11:10.160   09 Jun 2027 04:11:18.011             7.851          3925.500
       281   09 Jun 2027 05:43:57.062   09 Jun 2027 05:45:30.205            93.143         46571.500
       282   09 Jun 2027 05:45:55.034   09 Jun 2027 05:46:06.891            11.857          5928.500
       283   09 Jun 2027 05:46:22.879   09 Jun 2027 05:46:46.047            23.168         11584.000
       284   09 Jun 2027 05:47:01.783   09 Jun 2027 05:48:00.907            59.124         29562.000
       285   09 Jun 2027 05:50:25.720   09 Jun 2027 05:50:45.635            19.915          9957.500
       286   09 Jun 2027 07:20:17.005   09 Jun 2027 07:21:11.152            54.147         26584.000
       287   09 Jun 2027 07:22:11.612   09 Jun 2027 07:22:12.378             0.766           240.688
       288   09 Jun 2027 07:22:27.626   09 Jun 2027 07:22:28.690             1.064           136.844
       289   09 Jun 2027 07:23:19.249   09 Jun 2027 07:23:21.751             2.502           970.500
       290   09 Jun 2027 07:24:01.812   09 Jun 2027 07:24:04.202             2.390           837.625
       291   09 Jun 2027 07:25:00.008   09 Jun 2027 07:25:03.360             3.352          1652.969
       292   09 Jun 2027 07:25:23.035   09 Jun 2027 07:25:23.035             0.000             0.000
       293   09 Jun 2027 07:25:30.639   09 Jun 2027 07:25:35.288             4.649           805.188
       294   09 Jun 2027 07:26:02.314   09 Jun 2027 07:26:03.753             1.439           515.187
       295   09 Jun 2027 07:26:19.891   09 Jun 2027 07:26:24.785             4.894           504.312
       296   09 Jun 2027 08:57:51.644   09 Jun 2027 08:58:14.413            22.769         11384.500
       297   09 Jun 2027 08:58:52.613   09 Jun 2027 08:58:56.174             3.561          1578.125
       298   09 Jun 2027 08:59:08.883   09 Jun 2027 08:59:11.180             2.297           397.156
       299   09 Jun 2027 09:00:08.731   09 Jun 2027 09:00:11.182             2.451          1203.063
       300   09 Jun 2027 09:00:14.093   09 Jun 2027 09:00:14.514             0.421            90.969
       301   09 Jun 2027 09:00:20.111   09 Jun 2027 09:00:21.545             1.434           116.500
       302   09 Jun 2027 09:00:46.977   09 Jun 2027 09:00:49.141             2.164           584.469
       303   09 Jun 2027 09:01:34.226   09 Jun 2027 09:01:35.382             1.156           578.000
       304   09 Jun 2027 09:01:52.640   09 Jun 2027 09:01:54.148             1.508           675.313
       305   09 Jun 2027 09:02:09.397   09 Jun 2027 09:02:12.491             3.094           246.719
       306   09 Jun 2027 10:33:54.360   09 Jun 2027 10:34:09.935            15.575          7785.062
       307   09 Jun 2027 10:34:40.328   09 Jun 2027 10:34:42.271             1.943           622.219
       308   09 Jun 2027 10:34:55.846   09 Jun 2027 10:35:01.092             5.246           421.094
       309   09 Jun 2027 10:35:08.665   09 Jun 2027 10:35:10.901             2.236           236.656
       310   09 Jun 2027 10:35:44.008   09 Jun 2027 10:35:45.839             1.831           482.656
       311   09 Jun 2027 10:36:10.657   09 Jun 2027 10:36:13.042             2.385           775.562
       312   09 Jun 2027 10:36:52.631   09 Jun 2027 10:36:54.218             1.587           714.781
       313   09 Jun 2027 10:37:15.709   09 Jun 2027 10:37:20.414             4.705           668.562
       314   09 Jun 2027 10:37:52.527   09 Jun 2027 10:37:55.421             2.894           786.281
       315   09 Jun 2027 10:38:04.697   09 Jun 2027 10:38:05.372             0.675           119.656
       316   10 Jun 2027 04:20:58.646   10 Jun 2027 04:22:29.836            91.190         45595.000
       317   10 Jun 2027 04:23:06.296   10 Jun 2027 04:23:58.308            52.012         26006.000
       318   10 Jun 2027 04:24:09.430   10 Jun 2027 04:24:22.818            13.388          6694.000
       319   10 Jun 2027 05:56:08.693   10 Jun 2027 05:58:34.726           146.033         73016.500
       320   10 Jun 2027 06:01:34.632   10 Jun 2027 06:01:46.375            11.743          5871.500
       321   10 Jun 2027 06:02:17.438   10 Jun 2027 06:02:23.470             6.032          3016.000
       322   10 Jun 2027 07:32:29.625   10 Jun 2027 07:33:07.778            38.153         18645.969
       323   10 Jun 2027 07:34:07.953   10 Jun 2027 07:34:11.949             3.996          1624.281
       324   10 Jun 2027 07:34:52.998   10 Jun 2027 07:34:58.135             5.137           364.406
       325   10 Jun 2027 07:36:01.313   10 Jun 2027 07:36:05.593             4.280          1234.437
       326   10 Jun 2027 07:36:19.647   10 Jun 2027 07:36:20.742             1.095           439.187
       327   10 Jun 2027 07:37:06.601   10 Jun 2027 07:37:09.171             2.570          1061.937
       328   10 Jun 2027 07:37:32.158   10 Jun 2027 07:37:34.472             2.314           718.344
       329   10 Jun 2027 07:38:09.539   10 Jun 2027 07:38:09.539             0.000             0.000
       330   10 Jun 2027 07:38:25.478   10 Jun 2027 07:38:25.478             0.000             0.000
       331   10 Jun 2027 09:09:46.471   10 Jun 2027 09:10:06.767            20.296         10135.469
       332   10 Jun 2027 09:10:41.956   10 Jun 2027 09:10:45.183             3.227          1099.656
       333   10 Jun 2027 09:10:48.346   10 Jun 2027 09:10:49.435             1.089            98.844
       334   10 Jun 2027 09:11:16.600   10 Jun 2027 09:11:19.315             2.715           475.375
       335   10 Jun 2027 09:12:52.676   10 Jun 2027 09:12:58.724             6.048          2917.531
       336   10 Jun 2027 09:13:09.846   10 Jun 2027 09:13:10.736             0.890           347.563
       337   10 Jun 2027 09:13:37.856   10 Jun 2027 09:13:45.124             7.268           481.500
       338   10 Jun 2027 09:14:24.418   10 Jun 2027 09:14:27.383             2.965          1164.437
       339   10 Jun 2027 10:45:58.828   10 Jun 2027 10:46:14.111            15.283          6541.687
       340   10 Jun 2027 10:46:33.750   10 Jun 2027 10:46:36.095             2.345           207.625
       341   10 Jun 2027 10:46:54.653   10 Jun 2027 10:46:57.451             2.798           368.563
       342   10 Jun 2027 10:47:29.485   10 Jun 2027 10:47:33.434             3.949          1001.063
       343   10 Jun 2027 10:48:41.377   10 Jun 2027 10:48:44.886             3.509          1589.750
       344   10 Jun 2027 10:49:15.166   10 Jun 2027 10:49:15.166             0.000             0.000
       345   10 Jun 2027 10:49:21.941   10 Jun 2027 10:49:28.214             6.273           860.844
       346   10 Jun 2027 10:49:51.511   10 Jun 2027 10:49:57.927             6.416           728.031
       347   10 Jun 2027 10:50:08.596   10 Jun 2027 10:50:08.596             0.000             0.000
       348   10 Jun 2027 10:50:26.160   10 Jun 2027 10:50:32.028             5.868           882.281
       349   11 Jun 2027 04:32:46.460   11 Jun 2027 04:36:07.512           201.052        100526.000
       350   11 Jun 2027 04:36:23.292   11 Jun 2027 04:36:45.884            22.592         11296.000
       351   11 Jun 2027 06:07:39.954   11 Jun 2027 06:09:06.754            86.800         42095.656
       352   11 Jun 2027 06:09:46.541   11 Jun 2027 06:09:51.397             4.856          1243.344
       353   11 Jun 2027 06:10:24.010   11 Jun 2027 06:10:28.655             4.645          1012.469
       354   11 Jun 2027 06:10:36.386   11 Jun 2027 06:10:36.386             0.000             0.000
       355   11 Jun 2027 06:10:41.085   11 Jun 2027 06:10:42.820             1.735           318.688
       356   11 Jun 2027 06:12:24.398   11 Jun 2027 06:12:24.398             0.000             0.000
       357   11 Jun 2027 06:12:32.703   11 Jun 2027 06:12:43.279            10.576          2911.719
       358   11 Jun 2027 06:14:04.098   11 Jun 2027 06:14:11.978             7.880          1757.188
       359   11 Jun 2027 07:44:07.708   11 Jun 2027 07:44:43.602            35.894         16129.625
       360   11 Jun 2027 07:45:28.030   11 Jun 2027 07:45:30.978             2.948            53.344
       361   11 Jun 2027 07:45:50.919   11 Jun 2027 07:45:51.585             0.666             3.594
       362   11 Jun 2027 07:46:15.789   11 Jun 2027 07:46:16.818             1.029           286.312
       363   11 Jun 2027 07:46:44.126   11 Jun 2027 07:46:46.450             2.324           767.062
       364   11 Jun 2027 07:47:09.789   11 Jun 2027 07:47:13.207             3.418            44.250
       365   11 Jun 2027 07:48:07.355   11 Jun 2027 07:48:10.930             3.575          1396.812
       366   11 Jun 2027 07:49:02.985   11 Jun 2027 07:49:07.279             4.294          1380.719
       367   11 Jun 2027 07:49:36.099   11 Jun 2027 07:49:41.752             5.653           812.938
       368   11 Jun 2027 07:50:12.652   11 Jun 2027 07:50:13.692             1.040           442.000
       369   11 Jun 2027 09:22:25.856   11 Jun 2027 09:22:44.311            18.455          8805.438
       370   11 Jun 2027 09:23:46.289   11 Jun 2027 09:23:49.320             3.031          1515.500
       371   11 Jun 2027 09:23:59.135   11 Jun 2027 09:24:01.533             2.398           457.625
       372   11 Jun 2027 09:24:28.840   11 Jun 2027 09:24:30.651             1.811           812.313
       373   11 Jun 2027 09:25:19.485   11 Jun 2027 09:25:27.391             7.906          1526.063
       374   11 Jun 2027 10:57:52.618   11 Jun 2027 10:58:05.652            13.034          6091.406
       375   11 Jun 2027 10:58:42.245   11 Jun 2027 10:58:52.075             9.830          1056.031
       376   11 Jun 2027 10:59:50.463   11 Jun 2027 10:59:53.956             3.493          1605.125
       377   11 Jun 2027 11:01:29.377   11 Jun 2027 11:01:33.944             4.567          1849.156
       378   11 Jun 2027 11:02:14.940   11 Jun 2027 11:02:18.276             3.336           819.656
       379   11 Jun 2027 11:02:48.340   11 Jun 2027 11:02:50.140             1.800           837.500
       380   12 Jun 2027 03:07:30.673   12 Jun 2027 03:07:56.771            26.098         13049.000
       381   12 Jun 2027 03:08:28.870   12 Jun 2027 03:08:31.077             2.207          1103.500
       382   12 Jun 2027 03:09:00.280   12 Jun 2027 03:09:34.121            33.841         16920.500
       383   12 Jun 2027 03:09:36.235   12 Jun 2027 03:09:53.657            17.422          8711.000
       384   12 Jun 2027 03:10:22.808   12 Jun 2027 03:10:22.808             0.000             0.000
       385   12 Jun 2027 03:10:23.873   12 Jun 2027 03:10:48.655            24.782         12391.000
       386   12 Jun 2027 04:43:02.679   12 Jun 2027 04:43:53.275            50.596         25298.000
       387   12 Jun 2027 04:44:31.340   12 Jun 2027 04:46:11.454           100.114         50057.000
       388   12 Jun 2027 04:46:15.813   12 Jun 2027 04:46:21.145             5.332          2666.000
       389   12 Jun 2027 04:49:01.930   12 Jun 2027 04:49:01.930             0.000             0.000
       390   12 Jun 2027 06:19:21.290   12 Jun 2027 06:20:21.776            60.486         30143.125
       391   12 Jun 2027 06:20:47.912   12 Jun 2027 06:20:50.203             2.291           427.625
       392   12 Jun 2027 06:22:16.606   12 Jun 2027 06:22:18.929             2.323           595.313
       393   12 Jun 2027 06:22:23.822   12 Jun 2027 06:22:26.871             3.049            11.938
       394   12 Jun 2027 06:22:33.016   12 Jun 2027 06:22:33.688             0.672            64.688
       395   12 Jun 2027 06:23:01.242   12 Jun 2027 06:23:03.871             2.629           552.781
       396   12 Jun 2027 06:23:38.586   12 Jun 2027 06:23:39.819             1.233           527.000
       397   12 Jun 2027 06:23:57.777   12 Jun 2027 06:23:58.881             1.104           545.563
       398   12 Jun 2027 06:24:04.975   12 Jun 2027 06:24:06.499             1.524           141.031
       399   12 Jun 2027 06:25:09.048   12 Jun 2027 06:25:12.455             3.407          1397.094
       400   12 Jun 2027 06:25:19.264   12 Jun 2027 06:25:20.179             0.915            55.313
       401   12 Jun 2027 06:25:51.460   12 Jun 2027 06:25:54.146             2.686           733.156
       402   12 Jun 2027 06:26:41.651   12 Jun 2027 06:26:48.330             6.679          1484.531
       403   12 Jun 2027 07:56:27.421   12 Jun 2027 07:57:01.572            34.151         16913.844
       404   12 Jun 2027 07:57:36.520   12 Jun 2027 07:57:38.403             1.883           721.406
       405   12 Jun 2027 07:58:43.285   12 Jun 2027 07:58:48.275             4.990          1890.469
       406   12 Jun 2027 07:59:32.037   12 Jun 2027 07:59:36.190             4.153           969.031
       407   12 Jun 2027 08:00:41.104   12 Jun 2027 08:00:45.438             4.334          1730.469
       408   12 Jun 2027 08:01:16.442   12 Jun 2027 08:01:20.957             4.515           968.875
       409   12 Jun 2027 08:02:00.157   12 Jun 2027 08:02:03.793             3.636          1132.750
       410   12 Jun 2027 08:02:42.517   12 Jun 2027 08:02:42.517             0.000             0.000
       411   12 Jun 2027 08:02:43.750   12 Jun 2027 08:02:47.525             3.775          1248.656
       412   12 Jun 2027 09:34:23.964   12 Jun 2027 09:34:41.859            17.895          8947.500
       413   12 Jun 2027 09:35:04.067   12 Jun 2027 09:35:09.491             5.424          1066.812
       414   12 Jun 2027 09:35:43.567   12 Jun 2027 09:35:45.779             2.212           204.375
       415   12 Jun 2027 09:36:04.079   12 Jun 2027 09:36:06.143             2.064           179.500
       416   12 Jun 2027 09:36:33.327   12 Jun 2027 09:36:38.874             5.547           849.500
       417   12 Jun 2027 09:37:13.104   12 Jun 2027 09:37:14.587             1.483           741.500
       418   12 Jun 2027 09:37:29.660   12 Jun 2027 09:37:31.859             2.199           665.875
       419   12 Jun 2027 09:38:06.762   12 Jun 2027 09:38:10.007             3.245           831.875
       420   12 Jun 2027 09:38:15.142   12 Jun 2027 09:38:20.084             4.942           160.469
       421   12 Jun 2027 11:07:28.830   12 Jun 2027 11:07:42.646            13.816          6447.562
       422   12 Jun 2027 11:09:03.022   12 Jun 2027 11:09:05.264             2.242           985.906
       423   12 Jun 2027 11:09:42.121   12 Jun 2027 11:09:46.071             3.950          1151.781
       424   12 Jun 2027 11:10:19.151   12 Jun 2027 11:10:21.149             1.998           218.906
       425   12 Jun 2027 11:10:35.931   12 Jun 2027 11:10:37.089             1.158           461.938
       426   12 Jun 2027 11:10:57.745   12 Jun 2027 11:11:00.740             2.995           213.812
       427   12 Jun 2027 11:11:23.325   12 Jun 2027 11:11:23.325             0.000             0.000
       428   12 Jun 2027 11:11:52.812   12 Jun 2027 11:11:57.446             4.634          1626.438
       429   12 Jun 2027 11:13:43.840   12 Jun 2027 11:13:49.184             5.344          2672.000
       430   12 Jun 2027 11:14:31.317   12 Jun 2027 11:14:43.983            12.666           831.907
       431   12 Jun 2027 11:14:59.637   12 Jun 2027 11:15:02.948             3.311           489.188
       432   12 Jun 2027 11:15:16.665   12 Jun 2027 11:15:16.665             0.000             0.000
       433   12 Jun 2027 11:15:17.986   12 Jun 2027 11:15:21.987             4.001           391.656
       434   13 Jun 2027 03:19:13.679   13 Jun 2027 03:20:16.448            62.769         31384.500
       435   13 Jun 2027 03:20:17.527   13 Jun 2027 03:20:19.493             1.966           983.000
       436   13 Jun 2027 03:21:22.321   13 Jun 2027 03:21:32.646            10.325          5162.500
       437   13 Jun 2027 03:21:36.568   13 Jun 2027 03:21:36.568             0.000             0.000
       438   13 Jun 2027 03:23:02.064   13 Jun 2027 03:23:21.047            18.983          9491.500
       439   13 Jun 2027 04:54:11.569   13 Jun 2027 04:56:06.362           114.793         57396.500
       440   13 Jun 2027 04:56:15.278   13 Jun 2027 04:57:20.525            65.247         32623.500
       441   13 Jun 2027 04:57:39.954   13 Jun 2027 04:57:39.954             0.000             0.000
       442   13 Jun 2027 04:59:25.701   13 Jun 2027 04:59:34.657             8.956          4478.000
       443   13 Jun 2027 05:00:11.657   13 Jun 2027 05:00:21.478             9.821          4910.500
       444   13 Jun 2027 05:02:31.865   13 Jun 2027 05:02:33.443             1.578           789.000
       445   13 Jun 2027 06:31:40.062   13 Jun 2027 06:31:52.709            12.647          6323.500
       446   13 Jun 2027 06:33:03.319   13 Jun 2027 06:33:39.550            36.231         17121.719
       447   13 Jun 2027 06:33:42.547   13 Jun 2027 06:33:47.221             4.674            32.719
       448   13 Jun 2027 06:33:56.420   13 Jun 2027 06:33:57.320             0.900            79.844
       449   13 Jun 2027 06:34:23.952   13 Jun 2027 06:34:27.551             3.599           192.906
       450   13 Jun 2027 06:35:05.469   13 Jun 2027 06:35:15.359             9.890           955.594
       451   13 Jun 2027 06:36:01.377   13 Jun 2027 06:36:02.988             1.611           542.156
       452   13 Jun 2027 06:37:02.044   13 Jun 2027 06:37:06.627             4.583          1617.250
       453   13 Jun 2027 06:37:38.274   13 Jun 2027 06:37:38.274             0.000             0.000
       454   13 Jun 2027 06:37:50.738   13 Jun 2027 06:37:53.160             2.422          1201.750
       455   13 Jun 2027 06:37:53.281   13 Jun 2027 06:37:54.961             1.680             3.781
       456   13 Jun 2027 06:38:36.700   13 Jun 2027 06:38:39.592             2.892          1051.625
       457   13 Jun 2027 06:38:44.759   13 Jun 2027 06:38:47.860             3.101           161.469
       458   13 Jun 2027 08:08:24.813   13 Jun 2027 08:08:59.917            35.104         14867.406
       459   13 Jun 2027 08:09:48.675   13 Jun 2027 08:09:53.362             4.687          1097.062
       460   13 Jun 2027 08:10:40.409   13 Jun 2027 08:10:42.675             2.266           911.844
       461   13 Jun 2027 08:11:07.518   13 Jun 2027 08:11:10.703             3.185           769.812
       462   13 Jun 2027 08:12:13.805   13 Jun 2027 08:12:21.157             7.352          1971.938
       463   13 Jun 2027 08:12:32.203   13 Jun 2027 08:12:35.342             3.139           345.187
       464   13 Jun 2027 08:12:47.406   13 Jun 2027 08:12:54.893             7.487           349.062
       465   13 Jun 2027 08:13:41.748   13 Jun 2027 08:13:45.758             4.010          1361.562
       466   13 Jun 2027 08:14:34.026   13 Jun 2027 08:14:37.735             3.709          1452.687
       467   13 Jun 2027 09:46:23.174   13 Jun 2027 09:46:40.645            17.471          8534.781
       468   13 Jun 2027 09:47:39.300   13 Jun 2027 09:47:43.338             4.038          1832.969
       469   13 Jun 2027 09:48:37.889   13 Jun 2027 09:48:46.128             8.239          1689.094
       470   13 Jun 2027 09:49:21.554   13 Jun 2027 09:49:25.451             3.897           785.625
       471   13 Jun 2027 09:50:11.498   13 Jun 2027 09:50:15.999             4.501          1071.281
       472   13 Jun 2027 11:20:01.065   13 Jun 2027 11:20:07.435             6.370          2009.906
       473   13 Jun 2027 11:20:16.912   13 Jun 2027 11:20:18.899             1.987           211.375
       474   13 Jun 2027 11:21:06.266   13 Jun 2027 11:21:12.862             6.596          1046.688
       475   13 Jun 2027 11:22:06.806   13 Jun 2027 11:22:09.841             3.035          1474.406
       476   13 Jun 2027 11:22:36.609   13 Jun 2027 11:22:39.462             2.853           739.687
       477   13 Jun 2027 11:22:48.100   13 Jun 2027 11:22:50.726             2.626            58.000
       478   13 Jun 2027 11:23:36.953   13 Jun 2027 11:23:40.254             3.301          1200.000
       479   13 Jun 2027 11:24:27.370   13 Jun 2027 11:24:27.370             0.000             0.000
       480   13 Jun 2027 11:24:52.579   13 Jun 2027 11:25:00.332             7.753          1824.688
       481   13 Jun 2027 11:25:27.114   13 Jun 2027 11:25:27.114             0.000             0.000
       482   13 Jun 2027 11:25:42.060   13 Jun 2027 11:25:44.895             2.835          1304.000
       483   13 Jun 2027 11:26:28.530   13 Jun 2027 11:26:31.978             3.448          1293.219
       484   13 Jun 2027 11:27:08.190   13 Jun 2027 11:27:12.574             4.384           805.875
