uniorb/output/strategy_2/Camera/Camera_KinoSat_110705.txt

KinoSat_110705
-------------------------
    Access    *     Start Time (UTCG)     *     Stop Time (UTCG)  *   Duration (s) *   Data (Mbytes)
         1   01 Jun 2027 03:37:20.091   01 Jun 2027 03:38:29.226            69.135         34567.500
         2   01 Jun 2027 03:39:21.527   01 Jun 2027 03:39:21.527             0.000             0.000
         3   01 Jun 2027 03:39:22.055   01 Jun 2027 03:39:33.572            11.517          5758.500
         4   01 Jun 2027 03:40:52.790   01 Jun 2027 03:40:52.790             0.000             0.000
         5   01 Jun 2027 03:41:48.622   01 Jun 2027 03:41:48.622             0.000             0.000
         6   01 Jun 2027 03:42:22.479   01 Jun 2027 03:42:22.479             0.000             0.000
         7   01 Jun 2027 05:12:12.488   01 Jun 2027 05:15:27.407           194.919         97459.500
         8   01 Jun 2027 05:15:45.480   01 Jun 2027 05:16:03.803            18.323          9161.500
         9   01 Jun 2027 05:17:48.287   01 Jun 2027 05:17:58.411            10.124          5062.000
        10   01 Jun 2027 05:21:09.431   01 Jun 2027 05:21:10.792             1.361           680.500
        11   01 Jun 2027 06:50:22.239   01 Jun 2027 06:52:31.023           128.784         64392.000
        12   01 Jun 2027 06:53:32.272   01 Jun 2027 06:54:10.347            38.075         19037.500
        13   01 Jun 2027 06:54:33.853   01 Jun 2027 06:54:39.152             5.299          2649.500
        14   01 Jun 2027 06:55:04.328   01 Jun 2027 06:55:10.340             6.012          3006.000
        15   01 Jun 2027 06:55:15.538   01 Jun 2027 06:55:15.538             0.000             0.000
        16   01 Jun 2027 06:55:49.927   01 Jun 2027 06:56:46.242            56.315         28157.500
        17   01 Jun 2027 08:27:17.056   01 Jun 2027 08:27:28.599            11.543          5771.500
        18   01 Jun 2027 08:27:49.844   01 Jun 2027 08:30:20.241           150.397         75198.500
        19   01 Jun 2027 08:30:20.905   01 Jun 2027 08:30:23.261             2.356          1178.000
        20   01 Jun 2027 08:30:35.080   01 Jun 2027 08:31:05.452            30.372         15186.000
        21   01 Jun 2027 08:33:19.161   01 Jun 2027 08:33:27.823             8.662          4331.000
        22   01 Jun 2027 10:04:23.597   01 Jun 2027 10:06:47.120           143.523         71761.500
        23   01 Jun 2027 10:06:50.238   01 Jun 2027 10:06:50.238             0.000             0.000
        24   01 Jun 2027 10:08:20.235   01 Jun 2027 10:08:20.235             0.000             0.000
        25   01 Jun 2027 10:08:36.658   01 Jun 2027 10:08:44.496             7.838          3919.000
        26   01 Jun 2027 10:08:53.815   01 Jun 2027 10:09:01.094             7.279          3639.500
        27   01 Jun 2027 11:39:21.800   01 Jun 2027 11:40:09.288            47.488         23744.000
        28   01 Jun 2027 11:41:05.952   01 Jun 2027 11:41:52.061            46.109         23054.500
        29   01 Jun 2027 11:44:00.755   01 Jun 2027 11:44:03.235             2.480          1240.000
        30   02 Jun 2027 03:51:46.851   02 Jun 2027 03:52:49.389            62.538         31269.000
        31   02 Jun 2027 03:53:50.552   02 Jun 2027 03:54:02.469            11.917          5958.500
        32   02 Jun 2027 05:25:16.150   02 Jun 2027 05:25:45.015            28.865         14432.500
        33   02 Jun 2027 05:26:13.252   02 Jun 2027 05:29:22.983           189.731         94865.500
        34   02 Jun 2027 05:33:47.023   02 Jun 2027 05:33:48.787             1.764           882.000
        35   02 Jun 2027 07:02:48.568   02 Jun 2027 07:05:30.477           161.909         80954.500
        36   02 Jun 2027 07:06:47.538   02 Jun 2027 07:06:49.487             1.949           974.500
        37   02 Jun 2027 07:07:13.267   02 Jun 2027 07:07:47.907            34.640         17320.000
        38   02 Jun 2027 07:08:34.988   02 Jun 2027 07:08:41.952             6.964          3482.000
        39   02 Jun 2027 08:39:43.805   02 Jun 2027 08:41:23.496            99.691         49845.500
        40   02 Jun 2027 08:42:07.087   02 Jun 2027 08:42:27.730            20.643          8504.469
        41   02 Jun 2027 08:43:08.082   02 Jun 2027 08:43:13.659             5.577           561.687
        42   02 Jun 2027 08:43:20.224   02 Jun 2027 08:43:20.224             0.000             0.000
        43   02 Jun 2027 08:43:47.118   02 Jun 2027 08:43:49.674             2.556          1045.594
        44   02 Jun 2027 08:44:10.473   02 Jun 2027 08:44:11.414             0.941           470.500
        45   02 Jun 2027 08:44:16.396   02 Jun 2027 08:44:18.341             1.945           145.437
        46   02 Jun 2027 08:45:10.172   02 Jun 2027 08:45:21.772            11.600          1581.156
        47   02 Jun 2027 10:16:35.327   02 Jun 2027 10:16:56.651            21.324         10552.781
        48   02 Jun 2027 10:17:30.651   02 Jun 2027 10:17:35.422             4.771          1011.438
        49   02 Jun 2027 10:18:41.412   02 Jun 2027 10:18:45.780             4.368          2062.187
        50   02 Jun 2027 10:18:54.325   02 Jun 2027 10:18:56.178             1.853           197.906
        51   02 Jun 2027 10:19:34.536   02 Jun 2027 10:19:37.922             3.386          1198.687
        52   02 Jun 2027 10:20:43.442   02 Jun 2027 10:20:50.014             6.572          1843.812
        53   02 Jun 2027 11:54:07.797   02 Jun 2027 11:54:15.882             8.085          2827.156
        54   02 Jun 2027 11:54:52.362   02 Jun 2027 11:54:53.864             1.502           736.375
        55   02 Jun 2027 11:56:04.270   02 Jun 2027 11:56:08.642             4.372          1503.719
        56   03 Jun 2027 04:03:47.972   03 Jun 2027 04:04:50.973            63.001         31500.500
        57   03 Jun 2027 04:05:41.414   03 Jun 2027 04:05:51.437            10.023          5011.500
        58   03 Jun 2027 05:36:03.437   03 Jun 2027 05:36:03.781             0.344           172.000
        59   03 Jun 2027 05:37:55.595   03 Jun 2027 05:39:58.502           122.907         61453.500
        60   03 Jun 2027 05:40:30.002   03 Jun 2027 05:41:04.177            34.175         17087.500
        61   03 Jun 2027 05:41:08.400   03 Jun 2027 05:41:55.813            47.413         23706.500
        62   03 Jun 2027 05:43:59.271   03 Jun 2027 05:44:27.417            28.146         14073.000
        63   03 Jun 2027 05:45:42.237   03 Jun 2027 05:45:43.325             1.088           544.000
        64   03 Jun 2027 07:14:54.185   03 Jun 2027 07:15:44.736            50.551         25275.500
        65   03 Jun 2027 07:16:29.382   03 Jun 2027 07:16:35.253             5.871          2163.844
        66   03 Jun 2027 07:16:54.661   03 Jun 2027 07:16:56.306             1.645           202.594
        67   03 Jun 2027 07:18:34.895   03 Jun 2027 07:18:40.774             5.879          1511.687
        68   03 Jun 2027 07:19:05.612   03 Jun 2027 07:19:06.892             1.280           331.969
        69   03 Jun 2027 07:20:35.233   03 Jun 2027 07:20:42.508             7.275          2576.156
        70   03 Jun 2027 07:21:01.474   03 Jun 2027 07:21:03.470             1.996           592.687
        71   03 Jun 2027 07:21:24.607   03 Jun 2027 07:21:24.607             0.000             0.000
        72   03 Jun 2027 08:52:30.407   03 Jun 2027 08:52:59.677            29.270         12169.031
        73   03 Jun 2027 08:53:18.576   03 Jun 2027 08:53:20.286             1.710           584.000
        74   03 Jun 2027 08:54:04.273   03 Jun 2027 08:54:06.041             1.768           809.469
        75   03 Jun 2027 08:54:53.120   03 Jun 2027 08:54:56.021             2.901          1300.938
        76   03 Jun 2027 08:55:16.849   03 Jun 2027 08:55:19.850             3.001           564.719
        77   03 Jun 2027 08:55:26.762   03 Jun 2027 08:55:27.821             1.059           216.000
        78   03 Jun 2027 08:56:09.475   03 Jun 2027 08:56:12.190             2.715          1265.906
        79   03 Jun 2027 08:56:55.422   03 Jun 2027 08:56:56.331             0.909           454.500
        80   03 Jun 2027 10:28:39.188   03 Jun 2027 10:28:57.507            18.319          8458.250
        81   03 Jun 2027 10:29:57.204   03 Jun 2027 10:30:02.785             5.581          1294.063
        82   03 Jun 2027 10:30:52.206   03 Jun 2027 10:30:54.934             2.728           995.375
        83   03 Jun 2027 10:31:37.382   03 Jun 2027 10:31:40.422             3.040          1312.906
        84   03 Jun 2027 10:32:12.345   03 Jun 2027 10:32:16.926             4.581           803.187
        85   03 Jun 2027 10:32:17.545   03 Jun 2027 10:32:19.401             1.856            19.344
        86   03 Jun 2027 10:32:30.546   03 Jun 2027 10:32:34.603             4.057           348.281
        87   04 Jun 2027 04:15:58.300   04 Jun 2027 04:17:47.292           108.992         54496.000
        88   04 Jun 2027 04:18:27.158   04 Jun 2027 04:18:27.158             0.000             0.000
        89   04 Jun 2027 04:18:57.014   04 Jun 2027 04:19:20.000            22.986         11493.000
        90   04 Jun 2027 05:51:08.486   04 Jun 2027 05:54:02.304           173.818         86909.000
        91   04 Jun 2027 05:57:01.827   04 Jun 2027 05:57:04.388             2.561          1280.500
        92   04 Jun 2027 05:57:13.275   04 Jun 2027 05:57:15.588             2.313          1156.500
        93   04 Jun 2027 05:57:27.414   04 Jun 2027 05:57:39.152            11.738          5869.000
        94   04 Jun 2027 07:27:29.936   04 Jun 2027 07:28:05.232            35.296         17648.000
        95   04 Jun 2027 07:28:26.882   04 Jun 2027 07:28:36.153             9.271          2735.656
        96   04 Jun 2027 07:29:17.362   04 Jun 2027 07:29:20.095             2.733           585.500
        97   04 Jun 2027 07:29:41.539   04 Jun 2027 07:29:43.659             2.120           585.000
        98   04 Jun 2027 07:30:40.043   04 Jun 2027 07:30:42.103             2.060          1028.594
        99   04 Jun 2027 07:31:12.260   04 Jun 2027 07:31:15.201             2.941           932.219
       100   04 Jun 2027 07:32:11.457   04 Jun 2027 07:32:14.665             3.208          1574.000
       101   04 Jun 2027 07:32:28.446   04 Jun 2027 07:32:28.446             0.000             0.000
       102   04 Jun 2027 07:33:14.593   04 Jun 2027 07:33:19.328             4.735          1747.781
       103   04 Jun 2027 09:04:48.694   04 Jun 2027 09:05:10.843            22.149         11074.500
       104   04 Jun 2027 09:05:36.844   04 Jun 2027 09:05:39.985             3.141          1276.375
       105   04 Jun 2027 09:07:06.281   04 Jun 2027 09:07:11.057             4.776          2388.000
       106   04 Jun 2027 09:07:45.230   04 Jun 2027 09:07:49.100             3.870          1376.656
       107   04 Jun 2027 09:08:12.380   04 Jun 2027 09:08:13.208             0.828           414.000
       108   04 Jun 2027 09:08:29.533   04 Jun 2027 09:08:31.773             2.240           771.719
       109   04 Jun 2027 09:08:57.346   04 Jun 2027 09:08:58.885             1.539           612.437
       110   04 Jun 2027 10:41:00.443   04 Jun 2027 10:41:14.752            14.309          7003.125
       111   04 Jun 2027 10:41:31.096   04 Jun 2027 10:41:31.728             0.632            57.156
       112   04 Jun 2027 10:41:58.557   04 Jun 2027 10:42:00.519             1.962           739.219
       113   04 Jun 2027 10:42:26.107   04 Jun 2027 10:42:31.074             4.967           799.625
       114   04 Jun 2027 10:42:51.820   04 Jun 2027 10:42:53.664             1.844           615.625
       115   04 Jun 2027 10:43:07.568   04 Jun 2027 10:43:08.925             1.357           434.500
       116   04 Jun 2027 10:43:59.753   04 Jun 2027 10:44:04.968             5.215           671.812
       117   04 Jun 2027 10:44:16.836   04 Jun 2027 10:44:18.160             1.324           370.875
       118   04 Jun 2027 10:45:01.379   04 Jun 2027 10:45:12.228            10.849          1078.969
       119   04 Jun 2027 10:45:17.073   04 Jun 2027 10:45:18.943             1.870           147.063
       120   04 Jun 2027 10:45:37.757   04 Jun 2027 10:45:39.803             2.046           551.187
       121   05 Jun 2027 04:27:53.683   05 Jun 2027 04:28:32.737            39.054         19527.000
       122   05 Jun 2027 04:30:19.771   05 Jun 2027 04:31:29.898            70.127         35063.500
       123   05 Jun 2027 06:02:51.521   05 Jun 2027 06:06:00.557           189.036         94259.031
       124   05 Jun 2027 06:07:22.836   05 Jun 2027 06:07:26.419             3.583          1791.500
       125   05 Jun 2027 06:07:31.779   05 Jun 2027 06:07:31.779             0.000             0.000
       126   05 Jun 2027 06:08:29.531   05 Jun 2027 06:08:36.129             6.598          2751.969
       127   05 Jun 2027 06:08:58.164   05 Jun 2027 06:08:58.942             0.778           389.000
       128   05 Jun 2027 06:09:05.508   05 Jun 2027 06:09:05.614             0.106            53.000
       129   05 Jun 2027 06:09:49.307   05 Jun 2027 06:09:52.732             3.425          1712.500
       130   05 Jun 2027 07:39:03.505   05 Jun 2027 07:39:36.343            32.838         15429.250
       131   05 Jun 2027 07:40:07.481   05 Jun 2027 07:40:14.872             7.391           222.750
       132   05 Jun 2027 07:40:34.920   05 Jun 2027 07:40:37.337             2.417           429.594
       133   05 Jun 2027 07:41:02.856   05 Jun 2027 07:41:10.852             7.996           775.531
       134   05 Jun 2027 07:41:47.841   05 Jun 2027 07:41:57.930            10.089           794.656
       135   05 Jun 2027 07:42:09.362   05 Jun 2027 07:42:11.977             2.615           266.156
       136   05 Jun 2027 07:42:22.418   05 Jun 2027 07:42:25.930             3.512           316.781
       137   05 Jun 2027 07:42:49.288   05 Jun 2027 07:42:51.084             1.796           591.563
       138   05 Jun 2027 07:43:20.610   05 Jun 2027 07:43:27.551             6.941           528.375
       139   05 Jun 2027 07:44:08.919   05 Jun 2027 07:44:08.919             0.000             0.000
       140   05 Jun 2027 07:44:23.833   05 Jun 2027 07:44:25.838             2.005          1002.500
       141   05 Jun 2027 07:44:39.552   05 Jun 2027 07:44:41.010             1.458           456.531
       142   05 Jun 2027 07:44:53.387   05 Jun 2027 07:44:56.009             2.622           260.594
       143   05 Jun 2027 07:45:15.266   05 Jun 2027 07:45:19.116             3.850           514.156
       144   05 Jun 2027 09:17:03.696   05 Jun 2027 09:17:24.976            21.280          9785.125
       145   05 Jun 2027 09:18:04.823   05 Jun 2027 09:18:07.691             2.868           826.313
       146   05 Jun 2027 09:18:48.708   05 Jun 2027 09:18:54.596             5.888          1281.781
       147   05 Jun 2027 09:18:58.822   05 Jun 2027 09:19:02.039             3.217           132.062
       148   05 Jun 2027 09:19:18.660   05 Jun 2027 09:19:20.916             2.256           408.500
       149   05 Jun 2027 09:19:32.837   05 Jun 2027 09:19:35.144             2.307           161.312
       150   05 Jun 2027 09:19:58.882   05 Jun 2027 09:20:00.922             2.040           394.313
       151   05 Jun 2027 09:20:47.216   05 Jun 2027 09:20:49.605             2.389          1048.813
       152   05 Jun 2027 09:21:14.201   05 Jun 2027 09:21:15.624             1.423           711.500
       153   05 Jun 2027 10:52:44.992   05 Jun 2027 10:52:57.213            12.221          6103.312
       154   05 Jun 2027 10:54:17.508   05 Jun 2027 10:54:21.496             3.988          1762.250
       155   05 Jun 2027 10:54:25.754   05 Jun 2027 10:54:28.473             2.719            35.844
       156   05 Jun 2027 10:54:52.812   05 Jun 2027 10:54:52.812             0.000             0.000
       157   05 Jun 2027 10:55:35.170   05 Jun 2027 10:55:39.494             4.324          2084.281
       158   05 Jun 2027 10:56:12.840   05 Jun 2027 10:56:15.539             2.699           999.687
       159   05 Jun 2027 10:56:55.038   05 Jun 2027 10:56:57.831             2.793          1217.094
       160   05 Jun 2027 10:57:51.717   05 Jun 2027 10:57:55.958             4.241          1683.938
       161   05 Jun 2027 10:58:08.356   05 Jun 2027 10:58:08.683             0.327           128.344
       162   06 Jun 2027 03:03:15.830   06 Jun 2027 03:03:36.906            21.076         10538.000
       163   06 Jun 2027 03:04:02.319   06 Jun 2027 03:04:02.319             0.000             0.000
       164   06 Jun 2027 03:04:38.008   06 Jun 2027 03:04:59.785            21.777         10888.500
       165   06 Jun 2027 03:05:37.594   06 Jun 2027 03:05:37.594             0.000             0.000
       166   06 Jun 2027 03:05:47.686   06 Jun 2027 03:06:01.682            13.996          6998.000
       167   06 Jun 2027 03:06:56.191   06 Jun 2027 03:06:56.985             0.794           397.000
       168   06 Jun 2027 04:38:29.771   06 Jun 2027 04:38:35.559             5.788          2894.000
       169   06 Jun 2027 04:39:51.862   06 Jun 2027 04:41:15.902            84.040         42020.000
       170   06 Jun 2027 04:41:27.749   06 Jun 2027 04:43:27.278           119.529         59764.500
       171   06 Jun 2027 04:43:32.735   06 Jun 2027 04:43:35.584             2.849          1424.500
       172   06 Jun 2027 04:44:01.637   06 Jun 2027 04:44:01.637             0.000             0.000
       173   06 Jun 2027 06:14:25.243   06 Jun 2027 06:15:23.671            58.428         29084.999
       174   06 Jun 2027 06:15:46.689   06 Jun 2027 06:15:49.528             2.839           360.125
       175   06 Jun 2027 06:17:03.212   06 Jun 2027 06:17:06.203             2.991           810.750
       176   06 Jun 2027 06:17:43.441   06 Jun 2027 06:17:44.810             1.369           511.969
       177   06 Jun 2027 06:19:25.082   06 Jun 2027 06:19:34.715             9.633          2620.750
       178   06 Jun 2027 06:19:41.081   06 Jun 2027 06:19:42.052             0.971           198.938
       179   06 Jun 2027 06:20:06.449   06 Jun 2027 06:20:07.143             0.694           347.000
       180   06 Jun 2027 06:20:12.953   06 Jun 2027 06:20:17.287             4.334           466.469
       181   06 Jun 2027 06:21:15.956   06 Jun 2027 06:21:21.020             5.064          1812.875
       182   06 Jun 2027 06:21:46.518   06 Jun 2027 06:21:47.330             0.812           254.688
       183   06 Jun 2027 07:51:24.483   06 Jun 2027 07:52:02.098            37.615         17729.719
       184   06 Jun 2027 07:52:22.602   06 Jun 2027 07:52:27.261             4.659           157.844
       185   06 Jun 2027 07:53:10.946   06 Jun 2027 07:53:17.800             6.854           849.719
       186   06 Jun 2027 07:53:19.091   06 Jun 2027 07:53:19.428             0.337            40.344
       187   06 Jun 2027 07:54:11.062   06 Jun 2027 07:54:16.741             5.679          1613.563
       188   06 Jun 2027 07:55:08.415   06 Jun 2027 07:55:11.291             2.876          1438.000
       189   06 Jun 2027 07:55:33.230   06 Jun 2027 07:55:38.516             5.286           862.406
       190   06 Jun 2027 07:56:52.479   06 Jun 2027 07:56:59.787             7.308          2109.063
       191   06 Jun 2027 07:57:30.537   06 Jun 2027 07:57:32.768             2.231           939.219
       192   06 Jun 2027 09:29:25.470   06 Jun 2027 09:29:45.258            19.788          9677.312
       193   06 Jun 2027 09:30:02.470   06 Jun 2027 09:30:05.500             3.030           478.062
       194   06 Jun 2027 09:30:42.470   06 Jun 2027 09:30:46.463             3.993          1155.313
       195   06 Jun 2027 09:31:06.129   06 Jun 2027 09:31:07.077             0.948           246.656
       196   06 Jun 2027 09:32:08.897   06 Jun 2027 09:32:15.114             6.217          1784.719
       197   06 Jun 2027 09:32:43.018   06 Jun 2027 09:32:43.018             0.000             0.000
       198   06 Jun 2027 11:02:41.027   06 Jun 2027 11:02:56.237            15.210          7519.438
       199   06 Jun 2027 11:04:24.150   06 Jun 2027 11:04:30.363             6.213          1895.781
       200   06 Jun 2027 11:05:48.555   06 Jun 2027 11:06:01.857            13.302          2443.500
       201   06 Jun 2027 11:06:25.440   06 Jun 2027 11:06:29.720             4.280           736.969
       202   06 Jun 2027 11:06:46.936   06 Jun 2027 11:06:47.907             0.971           485.500
       203   06 Jun 2027 11:06:59.130   06 Jun 2027 11:07:00.259             1.129           403.219
       204   06 Jun 2027 11:07:42.779   06 Jun 2027 11:07:47.496             4.717          1328.750
       205   06 Jun 2027 11:08:05.150   06 Jun 2027 11:08:05.978             0.828           355.094
       206   06 Jun 2027 11:08:16.524   06 Jun 2027 11:08:20.241             3.717           329.562
       207   06 Jun 2027 11:08:52.983   06 Jun 2027 11:09:03.112            10.129           711.187
       208   06 Jun 2027 11:10:07.224   06 Jun 2027 11:10:13.220             5.996          1980.469
       209   06 Jun 2027 11:10:18.601   06 Jun 2027 11:10:18.601             0.000             0.000
       210   07 Jun 2027 03:14:13.891   07 Jun 2027 03:15:28.657            74.766         37383.000
       211   07 Jun 2027 03:16:15.425   07 Jun 2027 03:16:15.425             0.000             0.000
       212   07 Jun 2027 03:16:36.166   07 Jun 2027 03:16:37.561             1.395           697.500
       213   07 Jun 2027 03:18:02.459   07 Jun 2027 03:18:23.668            21.209         10604.500
       214   07 Jun 2027 03:19:13.377   07 Jun 2027 03:19:13.377             0.000             0.000
       215   07 Jun 2027 04:49:23.682   07 Jun 2027 04:50:49.647            85.965         42982.500
       216   07 Jun 2027 04:51:22.755   07 Jun 2027 04:52:43.164            80.409         40204.500
       217   07 Jun 2027 04:53:30.420   07 Jun 2027 04:53:42.858            12.438          6219.000
       218   07 Jun 2027 04:55:00.075   07 Jun 2027 04:55:17.724            17.649          8824.500
       219   07 Jun 2027 06:26:32.538   07 Jun 2027 06:27:08.770            36.232         18066.531
       220   07 Jun 2027 06:27:50.792   07 Jun 2027 06:27:52.912             2.120           584.906
       221   07 Jun 2027 06:29:01.937   07 Jun 2027 06:29:03.261             1.324           572.937
       222   07 Jun 2027 06:29:28.564   07 Jun 2027 06:29:33.526             4.962           772.344
       223   07 Jun 2027 06:30:04.365   07 Jun 2027 06:30:06.316             1.951           919.969
       224   07 Jun 2027 06:30:50.782   07 Jun 2027 06:30:53.048             2.266           890.594
       225   07 Jun 2027 06:31:10.210   07 Jun 2027 06:31:13.459             3.249           322.750
       226   07 Jun 2027 06:31:27.726   07 Jun 2027 06:31:28.017             0.291            84.031
       227   07 Jun 2027 06:32:51.263   07 Jun 2027 06:32:51.263             0.000             0.000
       228   07 Jun 2027 06:33:00.482   07 Jun 2027 06:33:07.814             7.332          2591.844
       229   07 Jun 2027 06:33:16.055   07 Jun 2027 06:33:18.307             2.252            73.313
       230   07 Jun 2027 06:33:50.609   07 Jun 2027 06:33:55.031             4.422           404.187
       231   07 Jun 2027 08:03:30.054   07 Jun 2027 08:04:06.716            36.662         17536.531
       232   07 Jun 2027 08:04:13.335   07 Jun 2027 08:04:14.944             1.609           100.406
       233   07 Jun 2027 08:04:30.908   07 Jun 2027 08:04:39.044             8.136           353.250
       234   07 Jun 2027 08:05:08.257   07 Jun 2027 08:05:10.182             1.925           888.594
       235   07 Jun 2027 08:05:33.636   07 Jun 2027 08:05:36.550             2.914           577.500
       236   07 Jun 2027 08:05:58.283   07 Jun 2027 08:06:03.646             5.363           421.812
       237   07 Jun 2027 08:07:39.841   07 Jun 2027 08:07:45.937             6.096          3000.219
       238   07 Jun 2027 08:08:49.664   07 Jun 2027 08:08:53.806             4.142          1578.250
       239   07 Jun 2027 08:09:03.417   07 Jun 2027 08:09:04.155             0.738           300.344
       240   07 Jun 2027 08:09:24.848   07 Jun 2027 08:09:29.262             4.414           617.625
       241   07 Jun 2027 09:41:23.110   07 Jun 2027 09:41:41.657            18.547          9169.500
       242   07 Jun 2027 09:42:06.390   07 Jun 2027 09:42:06.390             0.000             0.000
       243   07 Jun 2027 09:42:07.316   07 Jun 2027 09:42:10.297             2.981           801.844
       244   07 Jun 2027 09:43:08.920   07 Jun 2027 09:43:11.624             2.704          1314.219
       245   07 Jun 2027 09:43:53.007   07 Jun 2027 09:43:59.077             6.070          1149.906
       246   07 Jun 2027 09:45:15.975   07 Jun 2027 09:45:22.649             6.674          2011.250
       247   07 Jun 2027 11:14:50.191   07 Jun 2027 11:14:57.237             7.046          2770.031
       248   07 Jun 2027 11:16:18.278   07 Jun 2027 11:16:21.101             2.823          1391.250
       249   07 Jun 2027 11:16:36.011   07 Jun 2027 11:16:38.799             2.788           465.938
       250   07 Jun 2027 11:17:15.970   07 Jun 2027 11:17:19.726             3.756           174.563
       251   07 Jun 2027 11:17:38.074   07 Jun 2027 11:17:41.321             3.247           573.375
       252   07 Jun 2027 11:18:41.458   07 Jun 2027 11:18:46.229             4.771          1502.750
       253   07 Jun 2027 11:18:57.467   07 Jun 2027 11:18:59.475             2.008            67.531
       254   07 Jun 2027 11:19:43.391   07 Jun 2027 11:19:46.290             2.899           811.188
       255   07 Jun 2027 11:19:58.767   07 Jun 2027 11:19:58.767             0.000             0.000
       256   07 Jun 2027 11:20:16.837   07 Jun 2027 11:20:19.095             2.258           633.406
       257   07 Jun 2027 11:20:44.567   07 Jun 2027 11:20:44.975             0.408           204.000
       258   07 Jun 2027 11:20:47.456   07 Jun 2027 11:20:50.278             2.822           592.375
       259   07 Jun 2027 11:21:04.336   07 Jun 2027 11:21:05.476             1.140           276.937
       260   07 Jun 2027 11:21:44.411   07 Jun 2027 11:21:53.680             9.269           658.219
       261   08 Jun 2027 03:25:58.857   08 Jun 2027 03:27:17.178            78.321         39160.500
       262   08 Jun 2027 03:29:09.929   08 Jun 2027 03:29:21.016            11.087          5543.500
       263   08 Jun 2027 03:30:03.529   08 Jun 2027 03:30:06.904             3.375          1687.500
       264   08 Jun 2027 03:30:16.753   08 Jun 2027 03:30:25.398             8.645          4322.500
       265   08 Jun 2027 03:31:02.167   08 Jun 2027 03:31:32.367            30.200         15100.000
       266   08 Jun 2027 03:31:34.107   08 Jun 2027 03:31:34.322             0.215           107.500
       267   08 Jun 2027 05:00:57.814   08 Jun 2027 05:03:37.642           159.828         79914.000
       268   08 Jun 2027 05:04:20.143   08 Jun 2027 05:04:20.143             0.000             0.000
       269   08 Jun 2027 05:05:33.381   08 Jun 2027 05:05:52.011            18.630          9315.000
       270   08 Jun 2027 05:09:40.773   08 Jun 2027 05:09:56.464            15.691          7845.500
       271   08 Jun 2027 06:38:33.918   08 Jun 2027 06:39:15.834            41.916         19446.187
       272   08 Jun 2027 06:39:52.831   08 Jun 2027 06:39:54.368             1.537           536.969
       273   08 Jun 2027 06:41:03.337   08 Jun 2027 06:41:07.679             4.342          2131.062
       274   08 Jun 2027 06:41:19.990   08 Jun 2027 06:41:19.990             0.000             0.000
       275   08 Jun 2027 06:41:36.652   08 Jun 2027 06:41:38.452             1.800           875.719
       276   08 Jun 2027 06:42:37.969   08 Jun 2027 06:42:43.599             5.630          1859.906
       277   08 Jun 2027 06:42:52.676   08 Jun 2027 06:42:53.980             1.304           241.844
       278   08 Jun 2027 06:43:17.033   08 Jun 2027 06:43:20.130             3.097           209.031
       279   08 Jun 2027 06:43:30.652   08 Jun 2027 06:43:31.602             0.950           231.000
       280   08 Jun 2027 06:43:41.605   08 Jun 2027 06:43:44.824             3.219            42.875
       281   08 Jun 2027 06:43:47.304   08 Jun 2027 06:43:48.989             1.685            77.500
       282   08 Jun 2027 06:43:53.975   08 Jun 2027 06:43:59.650             5.675           155.813
       283   08 Jun 2027 06:44:30.896   08 Jun 2027 06:44:33.834             2.938           893.188
       284   08 Jun 2027 06:44:45.885   08 Jun 2027 06:44:46.828             0.943           369.094
       285   08 Jun 2027 06:45:17.534   08 Jun 2027 06:45:19.811             2.277           823.063
       286   08 Jun 2027 08:15:22.058   08 Jun 2027 08:15:53.760            31.702         14828.375
       287   08 Jun 2027 08:16:00.220   08 Jun 2027 08:16:02.025             1.805            26.375
       288   08 Jun 2027 08:16:27.455   08 Jun 2027 08:16:29.816             2.361           210.625
       289   08 Jun 2027 08:16:57.805   08 Jun 2027 08:17:06.554             8.749           839.844
       290   08 Jun 2027 08:17:49.818   08 Jun 2027 08:17:54.122             4.304          1265.312
       291   08 Jun 2027 08:18:41.385   08 Jun 2027 08:18:41.385             0.000             0.000
       292   08 Jun 2027 08:19:35.371   08 Jun 2027 08:19:43.460             8.089          2338.906
       293   08 Jun 2027 08:20:03.152   08 Jun 2027 08:20:04.702             1.550           560.594
       294   08 Jun 2027 08:20:34.845   08 Jun 2027 08:20:36.826             1.981           669.469
       295   08 Jun 2027 08:20:43.233   08 Jun 2027 08:20:45.433             2.200            80.125
       296   08 Jun 2027 08:20:46.940   08 Jun 2027 08:20:47.512             0.572            47.094
       297   08 Jun 2027 08:21:40.502   08 Jun 2027 08:21:43.963             3.461          1380.312
       298   08 Jun 2027 09:53:23.683   08 Jun 2027 09:53:42.160            18.477          8461.375
       299   08 Jun 2027 09:53:44.918   08 Jun 2027 09:53:44.918             0.000             0.000
       300   08 Jun 2027 09:53:54.804   08 Jun 2027 09:53:55.785             0.981           358.250
       301   08 Jun 2027 09:54:39.124   08 Jun 2027 09:54:45.331             6.207          1354.344
       302   08 Jun 2027 09:55:09.031   08 Jun 2027 09:55:09.365             0.334           125.906
       303   08 Jun 2027 09:55:18.353   08 Jun 2027 09:55:19.636             1.283           254.719
       304   08 Jun 2027 09:56:07.080   08 Jun 2027 09:56:14.224             7.144          1440.750
       305   08 Jun 2027 09:56:28.797   08 Jun 2027 09:56:30.117             1.320           322.344
       306   08 Jun 2027 09:57:02.894   08 Jun 2027 09:57:05.023             2.129           980.281
       307   08 Jun 2027 09:57:09.770   08 Jun 2027 09:57:10.421             0.651           148.344
       308   08 Jun 2027 11:27:16.477   08 Jun 2027 11:27:24.024             7.547          2758.094
       309   08 Jun 2027 11:28:35.028   08 Jun 2027 11:28:39.675             4.647          2101.125
       310   08 Jun 2027 11:29:31.922   08 Jun 2027 11:29:35.362             3.440          1632.719
       311   08 Jun 2027 11:30:05.141   08 Jun 2027 11:30:05.141             0.000             0.000
       312   08 Jun 2027 11:30:21.066   08 Jun 2027 11:30:26.676             5.610          1328.875
       313   08 Jun 2027 11:31:30.799   08 Jun 2027 11:31:36.451             5.652          1771.281
       314   08 Jun 2027 11:31:56.742   08 Jun 2027 11:32:06.558             9.816           419.875
       315   08 Jun 2027 11:32:40.053   08 Jun 2027 11:32:45.416             5.363          1046.719
       316   09 Jun 2027 03:37:34.402   09 Jun 2027 03:38:52.346            77.944         38972.000
       317   09 Jun 2027 03:41:07.385   09 Jun 2027 03:41:07.385             0.000             0.000
       318   09 Jun 2027 03:41:59.759   09 Jun 2027 03:41:59.759             0.000             0.000
       319   09 Jun 2027 03:42:04.675   09 Jun 2027 03:42:09.063             4.388          2194.000
       320   09 Jun 2027 05:12:27.002   09 Jun 2027 05:15:25.458           178.456         89228.000
       321   09 Jun 2027 05:15:50.869   09 Jun 2027 05:16:00.567             9.698          4849.000
       322   09 Jun 2027 05:17:35.228   09 Jun 2027 05:17:42.876             7.648          3824.000
       323   09 Jun 2027 05:18:33.651   09 Jun 2027 05:18:36.645             2.994          1497.000
       324   09 Jun 2027 05:21:26.603   09 Jun 2027 05:21:35.770             9.167          4583.500
       325   09 Jun 2027 06:50:37.155   09 Jun 2027 06:51:34.469            57.314         28057.531
       326   09 Jun 2027 06:51:55.762   09 Jun 2027 06:51:58.211             2.449           647.094
       327   09 Jun 2027 06:52:35.904   09 Jun 2027 06:52:35.904             0.000             0.000
       328   09 Jun 2027 06:53:08.523   09 Jun 2027 06:53:15.996             7.473          1447.844
       329   09 Jun 2027 06:53:51.711   09 Jun 2027 06:53:53.355             1.644           677.875
       330   09 Jun 2027 06:54:21.580   09 Jun 2027 06:54:25.167             3.587           475.219
       331   09 Jun 2027 06:55:25.469   09 Jun 2027 06:55:31.097             5.628          1357.469
       332   09 Jun 2027 06:55:41.803   09 Jun 2027 06:55:42.248             0.445           222.500
       333   09 Jun 2027 06:56:31.140   09 Jun 2027 06:56:36.036             4.896          1612.438
       334   09 Jun 2027 06:56:51.901   09 Jun 2027 06:56:53.060             1.159           486.375
       335   09 Jun 2027 06:57:04.715   09 Jun 2027 06:57:04.973             0.258           121.844
       336   09 Jun 2027 06:57:26.036   09 Jun 2027 06:57:27.556             1.520           627.375
       337   09 Jun 2027 06:57:43.243   09 Jun 2027 06:57:47.127             3.884           490.219
       338   09 Jun 2027 08:27:31.900   09 Jun 2027 08:27:43.189            11.289          5644.500
       339   09 Jun 2027 08:28:04.836   09 Jun 2027 08:28:27.404            22.568         10110.406
       340   09 Jun 2027 08:29:37.297   09 Jun 2027 08:29:38.474             1.177           588.500
       341   09 Jun 2027 08:30:19.603   09 Jun 2027 08:30:19.603             0.000             0.000
       342   09 Jun 2027 08:30:37.514   09 Jun 2027 08:30:44.392             6.878          2333.375
       343   09 Jun 2027 08:30:49.780   09 Jun 2027 08:30:51.507             1.727           168.375
       344   09 Jun 2027 08:31:03.985   09 Jun 2027 08:31:05.021             1.036           235.094
       345   09 Jun 2027 08:32:46.898   09 Jun 2027 08:32:53.859             6.961          2555.438
       346   09 Jun 2027 08:33:15.508   09 Jun 2027 08:33:16.640             1.132           457.313
       347   09 Jun 2027 08:33:52.708   09 Jun 2027 08:33:53.595             0.887           443.500
       348   09 Jun 2027 10:04:38.288   09 Jun 2027 10:04:52.465            14.177          7088.500
       349   09 Jun 2027 10:05:01.419   09 Jun 2027 10:05:05.788             4.369          2038.875
       350   09 Jun 2027 10:05:22.021   09 Jun 2027 10:05:23.480             1.459           405.594
       351   09 Jun 2027 10:05:45.489   09 Jun 2027 10:05:47.428             1.939           659.156
       352   09 Jun 2027 10:06:14.991   09 Jun 2027 10:06:22.530             7.539           809.156
       353   09 Jun 2027 10:07:02.609   09 Jun 2027 10:07:04.966             2.357          1178.500
       354   09 Jun 2027 10:07:26.418   09 Jun 2027 10:07:33.578             7.160           744.344
       355   09 Jun 2027 10:07:55.854   09 Jun 2027 10:07:59.322             3.468           482.812
       356   09 Jun 2027 10:08:26.227   09 Jun 2027 10:08:26.227             0.000             0.000
       357   09 Jun 2027 10:08:35.210   09 Jun 2027 10:08:39.855             4.645           981.406
       358   09 Jun 2027 10:08:46.766   09 Jun 2027 10:08:46.993             0.227            97.719
       359   09 Jun 2027 11:39:37.244   09 Jun 2027 11:39:42.161             4.917          1765.437
       360   09 Jun 2027 11:40:15.996   09 Jun 2027 11:40:17.793             1.797           794.719
       361   09 Jun 2027 11:41:20.516   09 Jun 2027 11:41:28.083             7.567          1290.219
       362   09 Jun 2027 11:42:06.696   09 Jun 2027 11:42:10.203             3.507           878.406
       363   09 Jun 2027 11:42:18.024   09 Jun 2027 11:42:19.638             1.614           244.406
       364   09 Jun 2027 11:42:44.388   09 Jun 2027 11:42:47.736             3.348           773.438
       365   09 Jun 2027 11:42:58.304   09 Jun 2027 11:42:58.388             0.084            32.281
       366   09 Jun 2027 11:43:39.977   09 Jun 2027 11:43:41.841             1.864           782.031
       367   09 Jun 2027 11:44:06.572   09 Jun 2027 11:44:11.017             4.445           772.844
       368   09 Jun 2027 11:44:18.256   09 Jun 2027 11:44:18.256             0.000             0.000
       369   09 Jun 2027 11:44:36.854   09 Jun 2027 11:44:39.284             2.430           666.500
       370   10 Jun 2027 03:52:01.780   10 Jun 2027 03:52:47.809            46.029         23014.500
       371   10 Jun 2027 03:54:06.028   10 Jun 2027 03:54:27.171            21.143         10571.500
       372   10 Jun 2027 05:25:30.997   10 Jun 2027 05:28:39.392           188.395         94197.500
       373   10 Jun 2027 05:29:07.459   10 Jun 2027 05:29:39.106            31.647         15823.500
       374   10 Jun 2027 05:34:01.672   10 Jun 2027 05:34:03.476             1.804           902.000
       375   10 Jun 2027 07:03:03.270   10 Jun 2027 07:04:03.792            60.522         29975.218
       376   10 Jun 2027 07:04:12.484   10 Jun 2027 07:04:13.684             1.200            22.156
       377   10 Jun 2027 07:05:45.056   10 Jun 2027 07:05:50.176             5.120          1865.844
       378   10 Jun 2027 07:06:44.090   10 Jun 2027 07:06:47.501             3.411          1651.969
       379   10 Jun 2027 07:06:56.199   10 Jun 2027 07:06:57.241             1.042           122.313
       380   10 Jun 2027 07:07:36.001   10 Jun 2027 07:07:37.060             1.059           445.656
       381   10 Jun 2027 07:08:02.105   10 Jun 2027 07:08:09.702             7.597           639.656
       382   10 Jun 2027 07:08:49.668   10 Jun 2027 07:08:51.158             1.490           745.000
       383   10 Jun 2027 07:09:19.884   10 Jun 2027 07:09:23.313             3.429          1308.281
       384   10 Jun 2027 08:39:59.085   10 Jun 2027 08:40:29.871            30.786         15306.344
       385   10 Jun 2027 08:40:38.238   10 Jun 2027 08:40:39.506             1.268           125.406
       386   10 Jun 2027 08:40:53.223   10 Jun 2027 08:40:54.066             0.843             6.312
       387   10 Jun 2027 08:41:29.279   10 Jun 2027 08:41:30.833             1.554           468.125
       388   10 Jun 2027 08:42:19.071   10 Jun 2027 08:42:22.339             3.268          1198.687
       389   10 Jun 2027 08:43:22.699   10 Jun 2027 08:43:28.343             5.644          1570.219
       390   10 Jun 2027 08:44:02.948   10 Jun 2027 08:44:03.784             0.836           418.000
       391   10 Jun 2027 08:44:17.695   10 Jun 2027 08:44:21.936             4.241          1098.125
       392   10 Jun 2027 08:44:31.120   10 Jun 2027 08:44:33.563             2.443           145.969
       393   10 Jun 2027 08:45:07.090   10 Jun 2027 08:45:11.144             4.054          1009.344
       394   10 Jun 2027 10:16:50.096   10 Jun 2027 10:17:07.323            17.227          7868.313
       395   10 Jun 2027 10:17:29.213   10 Jun 2027 10:17:31.963             2.750           480.219
       396   10 Jun 2027 10:18:07.269   10 Jun 2027 10:18:10.118             2.849           987.719
       397   10 Jun 2027 10:18:56.925   10 Jun 2027 10:19:00.201             3.276          1462.719
       398   10 Jun 2027 10:19:33.535   10 Jun 2027 10:19:33.535             0.000             0.000
       399   10 Jun 2027 10:20:01.852   10 Jun 2027 10:20:09.393             7.541          1769.438
       400   10 Jun 2027 10:20:41.470   10 Jun 2027 10:20:41.470             0.000             0.000
       401   10 Jun 2027 10:20:45.995   10 Jun 2027 10:20:49.921             3.926           385.906
       402   10 Jun 2027 11:54:23.196   10 Jun 2027 11:54:28.850             5.654          2158.937
       403   10 Jun 2027 11:54:59.924   10 Jun 2027 11:54:59.924             0.000             0.000
       404   10 Jun 2027 11:55:07.573   10 Jun 2027 11:55:09.602             2.029           684.437
       405   10 Jun 2027 11:56:19.298   10 Jun 2027 11:56:26.289             6.991          1451.969
       406   11 Jun 2027 04:04:03.150   11 Jun 2027 04:05:33.152            90.002         45001.000
       407   11 Jun 2027 04:05:36.425   11 Jun 2027 04:05:36.425             0.000             0.000
       408   11 Jun 2027 04:06:07.493   11 Jun 2027 04:06:10.088             2.595          1297.500
       409   11 Jun 2027 04:06:13.231   11 Jun 2027 04:06:13.231             0.000             0.000
       410   11 Jun 2027 04:07:06.361   11 Jun 2027 04:07:06.361             0.000             0.000
       411   11 Jun 2027 04:07:12.543   11 Jun 2027 04:07:36.804            24.261         12130.500
       412   11 Jun 2027 05:38:10.583   11 Jun 2027 05:41:40.999           210.416        105162.937
       413   11 Jun 2027 05:43:02.781   11 Jun 2027 05:43:02.781             0.000             0.000
       414   11 Jun 2027 05:45:56.862   11 Jun 2027 05:45:58.243             1.381           690.500
       415   11 Jun 2027 07:15:09.108   11 Jun 2027 07:15:46.639            37.531         18385.531
       416   11 Jun 2027 07:16:33.423   11 Jun 2027 07:16:36.271             2.848          1401.813
       417   11 Jun 2027 07:17:23.468   11 Jun 2027 07:17:27.277             3.809          1233.437
       418   11 Jun 2027 07:17:50.001   11 Jun 2027 07:17:51.083             1.082           541.000
       419   11 Jun 2027 07:17:54.502   11 Jun 2027 07:17:55.521             1.019           243.312
       420   11 Jun 2027 07:18:16.668   11 Jun 2027 07:18:19.064             2.396           214.094
       421   11 Jun 2027 07:19:10.414   11 Jun 2027 07:19:16.421             6.007          1604.687
       422   11 Jun 2027 07:19:39.374   11 Jun 2027 07:19:40.419             1.045           309.844
       423   11 Jun 2027 07:20:13.057   11 Jun 2027 07:20:16.026             2.969           357.312
       424   11 Jun 2027 07:20:43.673   11 Jun 2027 07:20:46.125             2.452           757.969
       425   11 Jun 2027 07:21:01.786   11 Jun 2027 07:21:04.553             2.767           352.687
       426   11 Jun 2027 08:52:47.375   11 Jun 2027 08:53:14.490            27.115         13279.687
       427   11 Jun 2027 08:53:17.738   11 Jun 2027 08:53:20.736             2.998           101.500
       428   11 Jun 2027 08:53:34.899   11 Jun 2027 08:53:39.086             4.187           250.813
       429   11 Jun 2027 08:55:05.244   11 Jun 2027 08:55:11.026             5.782          2692.437
       430   11 Jun 2027 08:55:30.114   11 Jun 2027 08:55:31.454             1.340           596.500
       431   11 Jun 2027 08:55:33.972   11 Jun 2027 08:55:33.972             0.000             0.000
       432   11 Jun 2027 08:56:07.692   11 Jun 2027 08:56:12.031             4.339          1132.437
       433   11 Jun 2027 08:57:11.277   11 Jun 2027 08:57:17.309             6.032          1851.438
       434   11 Jun 2027 10:28:53.399   11 Jun 2027 10:29:12.251            18.852          8033.437
       435   11 Jun 2027 10:29:37.702   11 Jun 2027 10:29:38.556             0.854           425.344
       436   11 Jun 2027 10:29:43.593   11 Jun 2027 10:29:45.283             1.690           134.969
       437   11 Jun 2027 10:29:54.791   11 Jun 2027 10:29:56.746             1.955           297.125
       438   11 Jun 2027 10:30:11.614   11 Jun 2027 10:30:11.614             0.000             0.000
       439   11 Jun 2027 10:30:51.963   11 Jun 2027 10:30:57.317             5.354          1536.406
       440   11 Jun 2027 10:31:10.280   11 Jun 2027 10:31:13.833             3.553           405.094
       441   11 Jun 2027 10:32:39.584   11 Jun 2027 10:32:44.182             4.598          2224.031
       442   11 Jun 2027 10:33:10.225   11 Jun 2027 10:33:15.264             5.039           813.844
       443   11 Jun 2027 10:33:33.124   11 Jun 2027 10:33:36.480             3.356           272.906
       444   11 Jun 2027 10:33:40.666   11 Jun 2027 10:33:41.374             0.708           125.937
       445   12 Jun 2027 04:16:13.162   12 Jun 2027 04:17:37.680            84.518         42259.000
       446   12 Jun 2027 04:19:34.909   12 Jun 2027 04:19:36.767             1.858           929.000
       447   12 Jun 2027 05:51:23.253   12 Jun 2027 05:53:57.171           153.918         76959.000
       448   12 Jun 2027 05:54:30.851   12 Jun 2027 05:54:41.180            10.329          5164.500
       449   12 Jun 2027 05:55:39.240   12 Jun 2027 05:55:39.240             0.000             0.000
       450   12 Jun 2027 05:55:41.456   12 Jun 2027 05:55:45.532             4.076          2038.000
       451   12 Jun 2027 05:56:55.799   12 Jun 2027 05:57:17.198            21.399         10699.500
       452   12 Jun 2027 05:57:44.852   12 Jun 2027 05:57:57.897            13.045          6522.500
       453   12 Jun 2027 07:27:45.247   12 Jun 2027 07:28:44.836            59.589         29704.375
       454   12 Jun 2027 07:29:57.015   12 Jun 2027 07:30:01.365             4.350          1623.719
       455   12 Jun 2027 07:31:15.793   12 Jun 2027 07:31:16.526             0.733           366.500
       456   12 Jun 2027 07:31:36.084   12 Jun 2027 07:31:41.632             5.548          1931.844
       457   12 Jun 2027 07:32:42.829   12 Jun 2027 07:32:45.562             2.733          1366.500
       458   12 Jun 2027 07:33:21.174   12 Jun 2027 07:33:26.869             5.695          1168.000
       459   12 Jun 2027 09:05:03.481   12 Jun 2027 09:05:25.889            22.408         11204.000
       460   12 Jun 2027 09:05:51.579   12 Jun 2027 09:05:55.009             3.430          1289.563
       461   12 Jun 2027 09:07:16.891   12 Jun 2027 09:07:22.774             5.883          2558.812
       462   12 Jun 2027 09:07:57.602   12 Jun 2027 09:08:02.546             4.944          1087.531
       463   12 Jun 2027 09:08:39.335   12 Jun 2027 09:08:44.934             5.599          1097.875
       464   12 Jun 2027 09:09:12.182   12 Jun 2027 09:09:13.893             1.711           597.781
       465   12 Jun 2027 10:41:15.223   12 Jun 2027 10:41:30.549            15.326          6621.312
       466   12 Jun 2027 10:41:45.908   12 Jun 2027 10:41:46.268             0.360            52.062
       467   12 Jun 2027 10:41:54.006   12 Jun 2027 10:41:54.453             0.447           136.719
       468   12 Jun 2027 10:41:57.512   12 Jun 2027 10:41:57.863             0.351            29.906
       469   12 Jun 2027 10:42:32.921   12 Jun 2027 10:42:36.036             3.115          1095.562
       470   12 Jun 2027 10:42:46.091   12 Jun 2027 10:42:46.943             0.852           291.031
       471   12 Jun 2027 10:43:06.552   12 Jun 2027 10:43:07.941             1.389           589.562
       472   12 Jun 2027 10:43:23.271   12 Jun 2027 10:43:24.794             1.523           468.594
       473   12 Jun 2027 10:44:16.496   12 Jun 2027 10:44:20.015             3.519           733.031
       474   12 Jun 2027 10:44:43.213   12 Jun 2027 10:44:44.919             1.706           355.625
       475   12 Jun 2027 10:45:08.719   12 Jun 2027 10:45:15.819             7.100           743.750
       476   12 Jun 2027 10:45:27.105   12 Jun 2027 10:45:28.287             1.182           305.563
       477   13 Jun 2027 04:28:08.214   13 Jun 2027 04:28:46.942            38.728         19364.000
       478   13 Jun 2027 04:29:43.882   13 Jun 2027 04:31:44.839           120.957         60478.500
       479   13 Jun 2027 06:03:05.795   13 Jun 2027 06:05:22.320           136.525         67214.563
       480   13 Jun 2027 06:05:54.572   13 Jun 2027 06:05:54.572             0.000             0.000
       481   13 Jun 2027 06:07:40.987   13 Jun 2027 06:07:41.610             0.623           311.500
       482   13 Jun 2027 06:07:48.551   13 Jun 2027 06:08:00.585            12.034          3926.656
       483   13 Jun 2027 06:08:31.859   13 Jun 2027 06:08:31.935             0.076            38.000
       484   13 Jun 2027 06:08:49.732   13 Jun 2027 06:08:52.988             3.256           592.219
       485   13 Jun 2027 06:09:13.569   13 Jun 2027 06:09:17.406             3.837           596.375
       486   13 Jun 2027 06:10:04.106   13 Jun 2027 06:10:07.133             3.027          1370.812
       487   13 Jun 2027 07:39:18.092   13 Jun 2027 07:39:52.096            34.004         16559.406
       488   13 Jun 2027 07:40:37.846   13 Jun 2027 07:40:40.013             2.167             7.781
       489   13 Jun 2027 07:41:18.375   13 Jun 2027 07:41:22.523             4.148           578.438
       490   13 Jun 2027 07:41:47.100   13 Jun 2027 07:41:54.210             7.110           503.687
       491   13 Jun 2027 07:42:15.045   13 Jun 2027 07:42:21.270             6.225           358.094
       492   13 Jun 2027 07:42:37.150   13 Jun 2027 07:42:40.226             3.076           259.312
       493   13 Jun 2027 07:43:24.451   13 Jun 2027 07:43:27.638             3.187          1258.844
       494   13 Jun 2027 07:44:23.441   13 Jun 2027 07:44:25.876             2.435           560.781
       495   13 Jun 2027 07:44:40.243   13 Jun 2027 07:44:41.657             1.414           301.750
       496   13 Jun 2027 07:44:59.883   13 Jun 2027 07:45:03.217             3.334           569.563
       497   13 Jun 2027 07:45:13.473   13 Jun 2027 07:45:13.978             0.505           102.875
       498   13 Jun 2027 09:17:18.844   13 Jun 2027 09:17:44.889            26.045         11217.937
       499   13 Jun 2027 09:18:19.447   13 Jun 2027 09:18:22.052             2.605           822.906
       500   13 Jun 2027 09:19:03.508   13 Jun 2027 09:19:11.076             7.568          1295.500
       501   13 Jun 2027 09:19:16.680   13 Jun 2027 09:19:17.210             0.530           175.125
       502   13 Jun 2027 09:19:42.682   13 Jun 2027 09:19:45.237             2.555           557.781
       503   13 Jun 2027 09:20:01.304   13 Jun 2027 09:20:08.372             7.068           410.500
       504   13 Jun 2027 09:20:29.134   13 Jun 2027 09:20:30.180             1.046           479.094
       505   13 Jun 2027 10:52:59.279   13 Jun 2027 10:53:12.491            13.212          6414.969
       506   13 Jun 2027 10:53:37.965   13 Jun 2027 10:53:42.003             4.038           717.438
       507   13 Jun 2027 10:53:45.970   13 Jun 2027 10:53:48.609             2.639           113.781
       508   13 Jun 2027 10:54:14.827   13 Jun 2027 10:54:14.827             0.000             0.000
       509   13 Jun 2027 10:54:44.061   13 Jun 2027 10:54:47.681             3.620          1660.906
       510   13 Jun 2027 10:56:03.769   13 Jun 2027 10:56:08.586             4.817          2244.750
       511   13 Jun 2027 10:56:32.501   13 Jun 2027 10:56:39.455             6.954           747.344
       512   13 Jun 2027 10:56:56.447   13 Jun 2027 10:56:57.391             0.944           296.625
       513   13 Jun 2027 10:57:22.250   13 Jun 2027 10:57:22.852             0.602           301.000
       514   13 Jun 2027 10:57:29.192   13 Jun 2027 10:57:31.515             2.323            49.813
