uniorb/output/strategy_2/Camera/Camera_KinoSat_111505.txt

KinoSat_111505
-------------------------
    Access    *     Start Time (UTCG)     *     Stop Time (UTCG)  *   Duration (s) *   Data (Mbytes)
         1   01 Jun 2027 03:18:11.691   01 Jun 2027 03:19:13.865            62.174         31087.000
         2   01 Jun 2027 03:19:20.371   01 Jun 2027 03:21:27.459           127.088         63544.000
         3   01 Jun 2027 03:21:46.557   01 Jun 2027 03:22:14.639            28.082         14041.000
         4   01 Jun 2027 03:23:45.783   01 Jun 2027 03:23:50.570             4.787          2393.500
         5   01 Jun 2027 03:24:07.881   01 Jun 2027 03:24:26.065            18.184          9092.000
         6   01 Jun 2027 04:56:30.129   01 Jun 2027 04:57:02.076            31.947         15973.500
         7   01 Jun 2027 04:57:19.582   01 Jun 2027 04:59:10.582           111.000         55500.000
         8   01 Jun 2027 06:19:52.640   01 Jun 2027 06:20:47.538            54.898         27449.000
         9   01 Jun 2027 06:22:36.700   01 Jun 2027 06:22:47.962            11.262          5631.000
        10   01 Jun 2027 07:56:24.500   01 Jun 2027 07:58:51.927           147.427         73713.500
        11   01 Jun 2027 07:59:24.178   01 Jun 2027 07:59:41.347            17.169          8584.500
        12   01 Jun 2027 07:59:54.332   01 Jun 2027 07:59:54.365             0.033            16.500
        13   01 Jun 2027 09:31:34.894   01 Jun 2027 09:33:06.085            91.191         45595.500
        14   01 Jun 2027 09:34:11.450   01 Jun 2027 09:34:18.042             6.592          3296.000
        15   01 Jun 2027 09:35:31.114   01 Jun 2027 09:35:43.491            12.377          6188.500
        16   01 Jun 2027 09:35:59.853   01 Jun 2027 09:36:46.386            46.533         23266.500
        17   01 Jun 2027 09:38:00.161   01 Jun 2027 09:38:11.175            11.014          5507.000
        18   01 Jun 2027 11:07:57.952   01 Jun 2027 11:09:37.812            99.860         49930.000
        19   01 Jun 2027 11:11:44.147   01 Jun 2027 11:12:09.479            25.332         12666.000
        20   01 Jun 2027 11:12:32.316   01 Jun 2027 11:12:39.477             7.161          3580.500
        21   02 Jun 2027 03:31:18.310   02 Jun 2027 03:34:12.800           174.490         87245.000
        22   02 Jun 2027 03:35:10.550   02 Jun 2027 03:35:41.285            30.735         15367.500
        23   02 Jun 2027 03:35:52.526   02 Jun 2027 03:36:00.340             7.814          3907.000
        24   02 Jun 2027 03:38:31.994   02 Jun 2027 03:39:06.799            34.805         17402.500
        25   02 Jun 2027 05:08:26.833   02 Jun 2027 05:09:06.114            39.281         19640.500
        26   02 Jun 2027 05:09:27.275   02 Jun 2027 05:10:26.997            59.722         29861.000
        27   02 Jun 2027 05:10:27.443   02 Jun 2027 05:10:39.056            11.613          5806.500
        28   02 Jun 2027 05:10:48.324   02 Jun 2027 05:10:48.324             0.000             0.000
        29   02 Jun 2027 05:11:18.727   02 Jun 2027 05:11:58.963            40.236         20118.000
        30   02 Jun 2027 05:11:59.346   02 Jun 2027 05:11:59.826             0.480           240.000
        31   02 Jun 2027 06:32:22.419   02 Jun 2027 06:32:44.999            22.580         11290.000
        32   02 Jun 2027 06:34:36.912   02 Jun 2027 06:34:51.662            14.750          7375.000
        33   02 Jun 2027 08:08:17.179   02 Jun 2027 08:09:51.089            93.910         46955.000
        34   02 Jun 2027 08:10:25.905   02 Jun 2027 08:11:21.084            55.179         27572.030
        35   02 Jun 2027 08:11:40.245   02 Jun 2027 08:11:43.441             3.196           503.469
        36   02 Jun 2027 09:43:12.638   02 Jun 2027 09:43:28.789            16.151          5548.813
        37   02 Jun 2027 09:44:58.651   02 Jun 2027 09:45:04.386             5.735          2537.938
        38   02 Jun 2027 09:45:51.977   02 Jun 2027 09:45:58.760             6.783           825.594
        39   02 Jun 2027 09:49:51.318   02 Jun 2027 09:50:06.807            15.489          7078.469
        40   02 Jun 2027 11:19:32.385   02 Jun 2027 11:19:47.245            14.860          7317.594
        41   02 Jun 2027 11:21:09.413   02 Jun 2027 11:21:20.505            11.092           186.031
        42   02 Jun 2027 11:21:35.809   02 Jun 2027 11:21:36.631             0.822           217.531
        43   02 Jun 2027 11:22:01.449   02 Jun 2027 11:22:03.779             2.330           746.156
        44   02 Jun 2027 11:23:17.896   02 Jun 2027 11:23:22.300             4.404          1670.094
        45   02 Jun 2027 11:23:30.084   02 Jun 2027 11:23:32.277             2.193           243.250
        46   02 Jun 2027 11:24:09.021   02 Jun 2027 11:24:11.380             2.359          1083.125
        47   02 Jun 2027 11:24:58.281   02 Jun 2027 11:25:01.330             3.049          1465.656
        48   02 Jun 2027 11:25:44.913   02 Jun 2027 11:25:47.192             2.279          1139.500
        49   03 Jun 2027 03:43:22.034   03 Jun 2027 03:46:27.689           185.655         92827.500
        50   03 Jun 2027 03:47:54.290   03 Jun 2027 03:48:16.442            22.152         11076.000
        51   03 Jun 2027 03:49:47.976   03 Jun 2027 03:49:53.168             5.192          2596.000
        52   03 Jun 2027 03:50:16.545   03 Jun 2027 03:50:59.281            42.736         21368.000
        53   03 Jun 2027 05:09:10.190   03 Jun 2027 05:09:45.683            35.493         17746.500
        54   03 Jun 2027 05:20:22.916   03 Jun 2027 05:21:12.008            49.092         23522.094
        55   03 Jun 2027 05:21:37.250   03 Jun 2027 05:21:39.716             2.466           473.156
        56   03 Jun 2027 06:42:59.716   03 Jun 2027 06:43:14.032            14.316          5716.625
        57   03 Jun 2027 06:43:46.409   03 Jun 2027 06:43:50.118             3.709           485.781
        58   03 Jun 2027 06:45:07.154   03 Jun 2027 06:45:14.390             7.236          1657.844
        59   03 Jun 2027 06:46:36.583   03 Jun 2027 06:46:43.137             6.554          2436.437
        60   03 Jun 2027 06:47:30.857   03 Jun 2027 06:47:30.857             0.000             0.000
        61   03 Jun 2027 08:18:34.838   03 Jun 2027 08:18:46.836            11.998          5137.500
        62   03 Jun 2027 08:20:01.826   03 Jun 2027 08:20:08.341             6.515           754.938
        63   03 Jun 2027 08:21:22.973   03 Jun 2027 08:21:29.317             6.344          2042.250
        64   03 Jun 2027 08:21:41.208   03 Jun 2027 08:21:41.613             0.405            76.250
        65   03 Jun 2027 08:23:58.025   03 Jun 2027 08:24:05.296             7.271          2428.125
        66   03 Jun 2027 08:24:16.317   03 Jun 2027 08:24:18.394             2.077           195.969
        67   03 Jun 2027 09:54:46.510   03 Jun 2027 09:54:51.119             4.609          2304.500
        68   03 Jun 2027 09:56:59.217   03 Jun 2027 09:57:10.444            11.227          5430.375
        69   03 Jun 2027 09:58:55.376   03 Jun 2027 09:59:08.965            13.589          1792.531
        70   03 Jun 2027 10:01:39.335   03 Jun 2027 10:01:48.610             9.275          4177.469
        71   03 Jun 2027 10:02:18.082   03 Jun 2027 10:02:20.556             2.474           806.281
        72   03 Jun 2027 11:31:52.733   03 Jun 2027 11:32:03.226            10.493          5246.500
        73   03 Jun 2027 11:32:14.487   03 Jun 2027 11:32:20.063             5.576          1449.375
        74   03 Jun 2027 11:32:29.527   03 Jun 2027 11:32:31.188             1.661           295.750
        75   03 Jun 2027 11:34:36.200   03 Jun 2027 11:34:44.208             8.008          3665.156
        76   03 Jun 2027 11:35:29.403   03 Jun 2027 11:35:34.239             4.836          1332.719
        77   03 Jun 2027 11:36:04.208   03 Jun 2027 11:36:07.646             3.438           774.281
        78   03 Jun 2027 11:36:40.327   03 Jun 2027 11:36:43.433             3.106          1021.281
        79   03 Jun 2027 11:37:48.595   03 Jun 2027 11:37:52.741             4.146          2008.750
        80   03 Jun 2027 11:38:02.275   03 Jun 2027 11:38:06.388             4.113            91.156
        81   03 Jun 2027 11:38:14.045   03 Jun 2027 11:38:14.454             0.409            95.750
        82   04 Jun 2027 03:55:51.349   04 Jun 2027 03:58:19.924           148.575         74287.500
        83   04 Jun 2027 03:58:28.841   04 Jun 2027 03:58:42.244            13.403          6701.500
        84   04 Jun 2027 03:59:04.005   04 Jun 2027 03:59:10.838             6.833          3416.500
        85   04 Jun 2027 03:59:16.354   04 Jun 2027 03:59:16.589             0.235           117.500
        86   04 Jun 2027 04:00:35.278   04 Jun 2027 04:01:40.479            65.201         32600.500
        87   04 Jun 2027 04:02:38.418   04 Jun 2027 04:02:59.513            21.095         10547.500
        88   04 Jun 2027 05:20:49.776   04 Jun 2027 05:21:16.941            27.165         13582.500
        89   04 Jun 2027 05:32:25.630   04 Jun 2027 05:32:54.111            28.481         14240.500
        90   04 Jun 2027 05:33:16.123   04 Jun 2027 05:33:27.010            10.887          5443.500
        91   04 Jun 2027 06:54:40.169   04 Jun 2027 06:55:05.825            25.656         12187.374
        92   04 Jun 2027 06:55:33.500   04 Jun 2027 06:55:39.320             5.820           423.313
        93   04 Jun 2027 06:57:06.725   04 Jun 2027 06:57:11.486             4.761          1503.094
        94   04 Jun 2027 06:58:35.611   04 Jun 2027 06:58:35.611             0.000             0.000
        95   04 Jun 2027 06:58:57.499   04 Jun 2027 06:59:04.653             7.154          2977.219
        96   04 Jun 2027 06:59:16.078   04 Jun 2027 06:59:18.514             2.436           127.531
        97   04 Jun 2027 08:29:41.452   04 Jun 2027 08:29:52.002            10.550          3680.500
        98   04 Jun 2027 08:30:25.710   04 Jun 2027 08:30:27.003             1.293           520.094
        99   04 Jun 2027 08:31:10.882   04 Jun 2027 08:31:17.783             6.901          1085.906
       100   04 Jun 2027 08:32:39.011   04 Jun 2027 08:32:45.417             6.406          1560.687
       101   04 Jun 2027 08:33:21.775   04 Jun 2027 08:33:21.775             0.000             0.000
       102   04 Jun 2027 08:33:39.511   04 Jun 2027 08:33:42.183             2.672          1073.375
       103   04 Jun 2027 08:33:44.669   04 Jun 2027 08:33:52.691             8.022            77.687
       104   04 Jun 2027 08:34:15.270   04 Jun 2027 08:34:21.930             6.660           471.719
       105   04 Jun 2027 08:34:24.453   04 Jun 2027 08:34:25.063             0.610            78.844
       106   04 Jun 2027 08:35:15.193   04 Jun 2027 08:35:17.738             2.545          1272.500
       107   04 Jun 2027 08:35:19.670   04 Jun 2027 08:35:23.028             3.358           354.438
       108   04 Jun 2027 08:36:08.930   04 Jun 2027 08:36:08.930             0.000             0.000
       109   04 Jun 2027 08:37:38.749   04 Jun 2027 08:37:49.966            11.217          3272.281
       110   04 Jun 2027 10:07:06.586   04 Jun 2027 10:07:15.530             8.944          3606.781
       111   04 Jun 2027 10:09:21.300   04 Jun 2027 10:09:25.480             4.180          1878.000
       112   04 Jun 2027 10:10:15.196   04 Jun 2027 10:10:15.679             0.483           137.344
       113   04 Jun 2027 10:11:33.367   04 Jun 2027 10:11:33.367             0.000             0.000
       114   04 Jun 2027 10:12:43.077   04 Jun 2027 10:12:52.151             9.074          3979.938
       115   04 Jun 2027 10:13:11.303   04 Jun 2027 10:13:14.377             3.074           433.375
       116   04 Jun 2027 10:14:00.258   04 Jun 2027 10:14:06.144             5.886          1347.844
       117   04 Jun 2027 11:43:54.137   04 Jun 2027 11:44:16.046            21.909          8377.500
       118   04 Jun 2027 11:46:35.665   04 Jun 2027 11:46:41.083             5.418          2709.000
       119   04 Jun 2027 11:47:20.562   04 Jun 2027 11:47:25.623             5.061          2014.500
       120   04 Jun 2027 11:48:40.251   04 Jun 2027 11:48:50.577            10.326          2332.125
       121   04 Jun 2027 11:49:31.920   04 Jun 2027 11:49:37.082             5.162           711.719
       122   04 Jun 2027 11:49:48.053   04 Jun 2027 11:49:48.691             0.638           315.937
       123   04 Jun 2027 11:49:57.609   04 Jun 2027 11:50:00.952             3.343           278.688
       124   04 Jun 2027 11:50:11.761   04 Jun 2027 11:50:17.121             5.360           337.781
       125   05 Jun 2027 04:07:52.969   05 Jun 2027 04:09:29.838            96.869         48434.500
       126   05 Jun 2027 04:09:51.990   05 Jun 2027 04:10:58.160            66.170         33085.000
       127   05 Jun 2027 04:11:45.567   05 Jun 2027 04:11:58.133            12.566          6283.000
       128   05 Jun 2027 04:12:10.561   05 Jun 2027 04:12:48.011            37.450         18725.000
       129   05 Jun 2027 04:12:49.712   05 Jun 2027 04:13:12.222            22.510         11255.000
       130   05 Jun 2027 04:14:02.050   05 Jun 2027 04:14:02.050             0.000             0.000
       131   05 Jun 2027 04:14:12.932   05 Jun 2027 04:14:45.431            32.499         16249.500
       132   05 Jun 2027 05:32:14.658   05 Jun 2027 05:32:35.707            21.049         10524.500
       133   05 Jun 2027 05:32:52.793   05 Jun 2027 05:33:01.722             8.929          4464.500
       134   05 Jun 2027 05:33:02.695   05 Jun 2027 05:33:03.963             1.268           634.000
       135   05 Jun 2027 05:34:22.384   05 Jun 2027 05:34:26.784             4.400          2200.000
       136   05 Jun 2027 05:44:27.674   05 Jun 2027 05:44:59.071            31.397         15698.500
       137   05 Jun 2027 07:06:21.883   05 Jun 2027 07:06:39.771            17.888          8824.938
       138   05 Jun 2027 07:08:25.229   05 Jun 2027 07:08:30.627             5.398          1530.719
       139   05 Jun 2027 07:09:28.434   05 Jun 2027 07:09:31.232             2.798          1399.000
       140   05 Jun 2027 07:11:54.771   05 Jun 2027 07:12:02.615             7.844          3922.000
       141   05 Jun 2027 08:41:10.272   05 Jun 2027 08:41:23.221            12.949          3754.375
       142   05 Jun 2027 08:42:32.624   05 Jun 2027 08:42:35.051             2.427          1174.531
       143   05 Jun 2027 08:43:12.171   05 Jun 2027 08:43:12.171             0.000             0.000
       144   05 Jun 2027 08:44:35.970   05 Jun 2027 08:44:41.477             5.507          2727.625
       145   05 Jun 2027 08:45:38.103   05 Jun 2027 08:45:40.241             2.138          1069.000
       146   05 Jun 2027 08:46:55.301   05 Jun 2027 08:47:04.725             9.424          2945.625
       147   05 Jun 2027 08:47:36.851   05 Jun 2027 08:47:38.497             1.646           121.219
       148   05 Jun 2027 08:48:12.179   05 Jun 2027 08:48:14.384             2.205          1027.000
       149   05 Jun 2027 08:48:29.585   05 Jun 2027 08:48:31.250             1.665           475.031
       150   05 Jun 2027 08:49:31.349   05 Jun 2027 08:49:35.448             4.099          1253.031
       151   05 Jun 2027 10:19:00.722   05 Jun 2027 10:19:16.607            15.885          6204.156
       152   05 Jun 2027 10:19:54.968   05 Jun 2027 10:19:58.124             3.156          1119.312
       153   05 Jun 2027 10:20:12.898   05 Jun 2027 10:20:14.324             1.426           206.687
       154   05 Jun 2027 10:21:44.438   05 Jun 2027 10:21:51.773             7.335          2816.063
       155   05 Jun 2027 10:23:06.815   05 Jun 2027 10:23:12.068             5.253          1994.625
       156   05 Jun 2027 10:23:18.719   05 Jun 2027 10:23:19.835             1.116           207.844
       157   05 Jun 2027 10:24:58.517   05 Jun 2027 10:25:05.547             7.030          3083.812
       158   05 Jun 2027 10:25:54.993   05 Jun 2027 10:25:59.160             4.167          1490.562
       159   05 Jun 2027 10:26:09.582   05 Jun 2027 10:26:11.535             1.953           325.688
       160   05 Jun 2027 11:55:45.451   05 Jun 2027 11:55:58.032            12.581          6290.500
       161   05 Jun 2027 11:56:16.616   05 Jun 2027 11:56:20.595             3.979          1894.281
       162   05 Jun 2027 11:56:38.794   05 Jun 2027 11:56:43.655             4.861           567.656
       163   05 Jun 2027 11:58:34.007   05 Jun 2027 11:58:36.768             2.761          1380.500
       164   05 Jun 2027 11:58:50.689   05 Jun 2027 11:58:51.752             1.063           531.500
       165   05 Jun 2027 11:59:29.432   05 Jun 2027 11:59:31.997             2.565          1282.500
       166   06 Jun 2027 04:20:15.410   06 Jun 2027 04:23:44.158           208.748        104374.000
       167   06 Jun 2027 04:24:38.121   06 Jun 2027 04:24:38.121             0.000             0.000
       168   06 Jun 2027 04:25:16.486   06 Jun 2027 04:25:24.418             7.932          3966.000
       169   06 Jun 2027 05:44:12.740   06 Jun 2027 05:44:58.058            45.318         22659.000
       170   06 Jun 2027 05:45:03.840   06 Jun 2027 05:45:19.870            16.030          8015.000
       171   06 Jun 2027 07:20:09.901   06 Jun 2027 07:21:03.895            53.994         26018.093
       172   06 Jun 2027 07:21:33.113   06 Jun 2027 07:21:36.519             3.406           913.062
       173   06 Jun 2027 07:22:31.226   06 Jun 2027 07:22:38.096             6.870          1684.188
       174   06 Jun 2027 07:23:02.738   06 Jun 2027 07:23:02.738             0.000             0.000
       175   06 Jun 2027 07:23:29.138   06 Jun 2027 07:23:33.824             4.686          1527.313
       176   06 Jun 2027 08:53:58.607   06 Jun 2027 08:54:08.401             9.794          4442.844
       177   06 Jun 2027 08:54:49.846   06 Jun 2027 08:54:50.845             0.999           222.969
       178   06 Jun 2027 08:55:27.172   06 Jun 2027 08:55:28.801             1.629           441.500
       179   06 Jun 2027 08:57:10.109   06 Jun 2027 08:57:15.101             4.992          2196.563
       180   06 Jun 2027 08:58:40.168   06 Jun 2027 08:58:40.168             0.000             0.000
       181   06 Jun 2027 09:00:18.739   06 Jun 2027 09:00:29.696            10.957          5449.438
       182   06 Jun 2027 09:00:40.245   06 Jun 2027 09:00:42.585             2.340           246.187
       183   06 Jun 2027 09:01:46.645   06 Jun 2027 09:01:51.920             5.275          2001.875
       184   06 Jun 2027 09:02:27.767   06 Jun 2027 09:02:29.346             1.579           357.656
       185   06 Jun 2027 10:31:08.084   06 Jun 2027 10:31:26.014            17.930          7088.031
       186   06 Jun 2027 10:31:53.960   06 Jun 2027 10:31:55.939             1.979           403.625
       187   06 Jun 2027 10:35:35.065   06 Jun 2027 10:35:54.537            19.472          6420.188
       188   06 Jun 2027 10:35:59.928   06 Jun 2027 10:36:01.661             1.733           168.469
       189   06 Jun 2027 10:36:18.174   06 Jun 2027 10:36:20.776             2.602           178.344
       190   06 Jun 2027 10:36:27.754   06 Jun 2027 10:36:29.984             2.230           218.062
       191   06 Jun 2027 10:36:35.397   06 Jun 2027 10:36:35.890             0.493           169.156
       192   06 Jun 2027 10:36:58.179   06 Jun 2027 10:37:03.836             5.657           372.469
       193   06 Jun 2027 10:37:50.425   06 Jun 2027 10:37:53.788             3.363          1455.906
       194   06 Jun 2027 10:38:10.084   06 Jun 2027 10:38:12.809             2.725           495.219
       195   07 Jun 2027 03:00:00.000   07 Jun 2027 03:00:25.842            25.842         12921.000
       196   07 Jun 2027 04:32:44.108   07 Jun 2027 04:34:37.691           113.583         56791.500
       197   07 Jun 2027 04:35:25.670   07 Jun 2027 04:37:19.169           113.499         56749.500
       198   07 Jun 2027 05:56:05.664   07 Jun 2027 05:56:48.200            42.536         21268.000
       199   07 Jun 2027 05:58:22.300   07 Jun 2027 05:58:28.778             6.478          3239.000
       200   07 Jun 2027 07:32:28.112   07 Jun 2027 07:32:57.230            29.118         14325.875
       201   07 Jun 2027 07:33:05.993   07 Jun 2027 07:33:06.727             0.734           239.500
       202   07 Jun 2027 07:33:49.063   07 Jun 2027 07:33:53.194             4.131          1288.094
       203   07 Jun 2027 07:34:21.446   07 Jun 2027 07:34:22.803             1.357           293.813
       204   07 Jun 2027 07:35:20.014   07 Jun 2027 07:35:23.673             3.659          1787.844
       205   07 Jun 2027 09:06:19.743   07 Jun 2027 09:06:27.674             7.931          3892.844
       206   07 Jun 2027 09:08:31.477   07 Jun 2027 09:08:38.066             6.589          2439.125
       207   07 Jun 2027 09:08:57.251   07 Jun 2027 09:08:59.162             1.911           544.938
       208   07 Jun 2027 09:09:34.041   07 Jun 2027 09:09:37.590             3.549          1056.875
       209   07 Jun 2027 09:10:09.102   07 Jun 2027 09:10:13.320             4.218           984.750
       210   07 Jun 2027 09:12:49.990   07 Jun 2027 09:12:56.188             6.198          3099.000
       211   07 Jun 2027 09:13:05.955   07 Jun 2027 09:13:13.227             7.272          1605.594
       212   07 Jun 2027 09:14:27.855   07 Jun 2027 09:14:30.150             2.295          1147.500
       213   07 Jun 2027 10:43:34.896   07 Jun 2027 10:43:50.586            15.690          7237.781
       214   07 Jun 2027 10:44:02.431   07 Jun 2027 10:44:03.668             1.237           118.687
       215   07 Jun 2027 10:45:20.701   07 Jun 2027 10:45:27.040             6.339          1074.375
       216   07 Jun 2027 10:45:51.776   07 Jun 2027 10:45:53.985             2.209           760.000
       217   07 Jun 2027 10:46:16.607   07 Jun 2027 10:46:19.335             2.728           706.937
       218   07 Jun 2027 10:47:05.617   07 Jun 2027 10:47:12.614             6.997          1430.031
       219   07 Jun 2027 10:48:18.631   07 Jun 2027 10:48:25.359             6.728          2007.562
       220   07 Jun 2027 10:48:31.768   07 Jun 2027 10:48:34.886             3.118           176.906
       221   07 Jun 2027 10:48:44.279   07 Jun 2027 10:48:44.737             0.458           229.000
       222   07 Jun 2027 10:48:52.115   07 Jun 2027 10:48:52.990             0.875           295.094
       223   07 Jun 2027 10:49:42.431   07 Jun 2027 10:49:46.321             3.890          1464.000
       224   07 Jun 2027 10:49:57.862   07 Jun 2027 10:50:00.588             2.726           360.656
       225   07 Jun 2027 10:50:06.932   07 Jun 2027 10:50:07.897             0.965            18.500
       226   07 Jun 2027 10:50:11.411   07 Jun 2027 10:50:12.974             1.563            84.313
       227   08 Jun 2027 03:06:20.014   08 Jun 2027 03:06:24.062             4.048          2024.000
       228   08 Jun 2027 03:06:49.004   08 Jun 2027 03:08:27.966            98.962         49481.000
       229   08 Jun 2027 03:08:42.161   08 Jun 2027 03:09:02.692            20.531         10265.500
       230   08 Jun 2027 03:09:05.978   08 Jun 2027 03:09:11.996             6.018          3009.000
       231   08 Jun 2027 03:09:43.595   08 Jun 2027 03:09:50.310             6.715          3357.500
       232   08 Jun 2027 03:10:00.793   08 Jun 2027 03:10:33.967            33.174         16587.000
       233   08 Jun 2027 03:12:06.226   08 Jun 2027 03:12:06.226             0.000             0.000
       234   08 Jun 2027 03:12:12.739   08 Jun 2027 03:12:14.379             1.640           820.000
       235   08 Jun 2027 04:45:00.595   08 Jun 2027 04:47:04.796           124.201         62100.500
       236   08 Jun 2027 04:47:18.035   08 Jun 2027 04:47:37.875            19.840          8602.219
       237   08 Jun 2027 04:48:16.201   08 Jun 2027 04:48:16.201             0.000             0.000
       238   08 Jun 2027 06:07:54.381   08 Jun 2027 06:08:06.319            11.938          5662.844
       239   08 Jun 2027 06:10:18.002   08 Jun 2027 06:10:18.002             0.000             0.000
       240   08 Jun 2027 06:10:18.881   08 Jun 2027 06:10:27.597             8.716          4017.875
       241   08 Jun 2027 07:44:31.635   08 Jun 2027 07:44:41.797            10.162          3185.187
       242   08 Jun 2027 07:45:11.121   08 Jun 2027 07:45:12.543             1.422           381.594
       243   08 Jun 2027 07:45:35.926   08 Jun 2027 07:45:36.648             0.722           361.000
       244   08 Jun 2027 07:46:34.393   08 Jun 2027 07:46:39.754             5.361          2063.188
       245   08 Jun 2027 07:47:14.917   08 Jun 2027 07:47:16.892             1.975           243.344
       246   08 Jun 2027 09:19:37.536   08 Jun 2027 09:19:47.124             9.588          3717.031
       247   08 Jun 2027 09:20:20.825   08 Jun 2027 09:20:24.088             3.263           786.594
       248   08 Jun 2027 09:20:52.042   08 Jun 2027 09:20:55.166             3.124           494.469
       249   08 Jun 2027 09:21:57.852   08 Jun 2027 09:22:00.692             2.840          1370.875
       250   08 Jun 2027 09:23:30.927   08 Jun 2027 09:23:35.988             5.061          1790.250
       251   08 Jun 2027 09:25:35.224   08 Jun 2027 09:25:42.038             6.814          3407.000
       252   08 Jun 2027 09:26:13.609   08 Jun 2027 09:26:13.945             0.336           168.000
       253   08 Jun 2027 09:26:22.932   08 Jun 2027 09:26:26.413             3.481          1418.562
       254   08 Jun 2027 10:55:58.346   08 Jun 2027 10:56:09.994            11.648          4651.156
       255   08 Jun 2027 10:56:18.574   08 Jun 2027 10:56:20.040             1.466            28.500
       256   08 Jun 2027 10:57:35.405   08 Jun 2027 10:57:45.394             9.989          1827.406
       257   08 Jun 2027 10:57:55.422   08 Jun 2027 10:57:57.522             2.100           161.125
       258   08 Jun 2027 10:58:11.802   08 Jun 2027 10:58:12.842             1.040           387.188
       259   08 Jun 2027 10:58:49.206   08 Jun 2027 10:58:52.917             3.711          1045.063
       260   08 Jun 2027 11:00:15.136   08 Jun 2027 11:00:20.653             5.517          1788.812
       261   08 Jun 2027 11:00:25.533   08 Jun 2027 11:00:26.349             0.816            44.625
       262   08 Jun 2027 11:00:51.419   08 Jun 2027 11:00:53.202             1.783           690.156
       263   08 Jun 2027 11:01:35.597   08 Jun 2027 11:01:40.114             4.517          1322.500
       264   08 Jun 2027 11:01:50.036   08 Jun 2027 11:01:55.390             5.354           310.062
       265   08 Jun 2027 11:02:00.400   08 Jun 2027 11:02:00.801             0.401            50.406
       266   09 Jun 2027 03:18:28.421   09 Jun 2027 03:19:30.228            61.807         30903.500
       267   09 Jun 2027 03:19:36.777   09 Jun 2027 03:21:37.455           120.678         60339.000
       268   09 Jun 2027 03:23:24.594   09 Jun 2027 03:23:24.594             0.000             0.000
       269   09 Jun 2027 03:23:35.913   09 Jun 2027 03:24:00.989            25.076         12538.000
       270   09 Jun 2027 04:56:46.533   09 Jun 2027 04:57:19.558            33.025         16512.500
       271   09 Jun 2027 04:57:35.055   09 Jun 2027 04:58:31.858            56.803         28147.688
       272   09 Jun 2027 04:58:58.408   09 Jun 2027 04:59:01.028             2.620           829.687
       273   09 Jun 2027 04:59:28.056   09 Jun 2027 04:59:33.614             5.558           844.625
       274   09 Jun 2027 05:00:10.361   09 Jun 2027 05:00:13.951             3.590          1148.344
       275   09 Jun 2027 06:20:08.436   09 Jun 2027 06:20:21.727            13.291          5828.500
       276   09 Jun 2027 06:21:22.923   09 Jun 2027 06:21:22.923             0.000             0.000
       277   09 Jun 2027 06:21:41.663   09 Jun 2027 06:21:45.484             3.821          1910.500
       278   09 Jun 2027 06:22:02.596   09 Jun 2027 06:22:05.896             3.300          1122.250
       279   09 Jun 2027 06:23:04.894   09 Jun 2027 06:23:08.830             3.936          1544.687
       280   09 Jun 2027 07:56:41.587   09 Jun 2027 07:56:48.613             7.026          2357.000
       281   09 Jun 2027 07:57:14.309   09 Jun 2027 07:57:16.579             2.270           478.938
       282   09 Jun 2027 07:57:51.819   09 Jun 2027 07:57:54.926             3.107          1101.250
       283   09 Jun 2027 07:58:48.359   09 Jun 2027 07:58:54.829             6.470          1669.781
       284   09 Jun 2027 09:31:51.848   09 Jun 2027 09:32:02.874            11.026          5317.500
       285   09 Jun 2027 09:33:15.400   09 Jun 2027 09:33:15.400             0.000             0.000
       286   09 Jun 2027 09:33:16.256   09 Jun 2027 09:33:20.558             4.302          2151.000
       287   09 Jun 2027 09:34:28.936   09 Jun 2027 09:34:33.367             4.431          2140.781
       288   09 Jun 2027 09:34:49.097   09 Jun 2027 09:34:49.662             0.565           146.531
       289   09 Jun 2027 09:35:40.025   09 Jun 2027 09:35:42.395             2.370          1164.156
       290   09 Jun 2027 09:35:49.998   09 Jun 2027 09:35:53.260             3.262            27.812
       291   09 Jun 2027 09:36:23.705   09 Jun 2027 09:36:25.701             1.996           388.031
       292   09 Jun 2027 09:36:34.019   09 Jun 2027 09:36:35.132             1.113            48.844
       293   09 Jun 2027 09:37:35.033   09 Jun 2027 09:37:40.780             5.747           999.156
       294   09 Jun 2027 09:37:52.433   09 Jun 2027 09:37:54.082             1.649           136.438
       295   09 Jun 2027 09:38:06.262   09 Jun 2027 09:38:08.223             1.961           219.406
       296   09 Jun 2027 09:38:16.246   09 Jun 2027 09:38:18.453             2.207           209.156
       297   09 Jun 2027 09:38:26.761   09 Jun 2027 09:38:27.870             1.109           259.625
       298   09 Jun 2027 11:08:13.285   09 Jun 2027 11:08:26.410            13.125          5789.281
       299   09 Jun 2027 11:08:44.588   09 Jun 2027 11:08:46.125             1.537           209.938
       300   09 Jun 2027 11:09:46.213   09 Jun 2027 11:09:50.533             4.320          1719.875
       301   09 Jun 2027 11:09:57.055   09 Jun 2027 11:09:59.198             2.143           156.250
       302   09 Jun 2027 11:10:15.088   09 Jun 2027 11:10:16.112             1.024           248.875
       303   09 Jun 2027 11:10:29.964   09 Jun 2027 11:10:31.336             1.372           204.531
       304   09 Jun 2027 11:10:51.358   09 Jun 2027 11:10:59.735             8.377           301.656
       305   09 Jun 2027 11:11:25.513   09 Jun 2027 11:11:26.338             0.825           159.125
       306   09 Jun 2027 11:12:10.044   09 Jun 2027 11:12:12.250             2.206          1072.187
       307   09 Jun 2027 11:13:16.218   09 Jun 2027 11:13:19.244             3.026          1513.000
       308   09 Jun 2027 11:13:40.586   09 Jun 2027 11:13:42.026             1.440           720.000
       309   09 Jun 2027 11:13:51.284   09 Jun 2027 11:13:53.310             2.026           722.250
       310   09 Jun 2027 11:14:02.404   09 Jun 2027 11:14:04.973             2.569           211.594
       311   09 Jun 2027 11:14:20.901   09 Jun 2027 11:14:22.986             2.085           497.750
       312   10 Jun 2027 03:31:34.943   10 Jun 2027 03:35:22.124           227.181        113590.500
       313   10 Jun 2027 03:35:59.508   10 Jun 2027 03:36:02.367             2.859          1429.500
       314   10 Jun 2027 03:36:39.534   10 Jun 2027 03:36:39.534             0.000             0.000
       315   10 Jun 2027 03:38:24.321   10 Jun 2027 03:38:48.027            23.706         11853.000
       316   10 Jun 2027 05:08:43.120   10 Jun 2027 05:09:22.879            39.759         19879.500
       317   10 Jun 2027 05:09:42.532   10 Jun 2027 05:10:19.495            36.963         18441.719
       318   10 Jun 2027 05:11:05.749   10 Jun 2027 05:11:14.372             8.623           617.281
       319   10 Jun 2027 05:11:42.731   10 Jun 2027 05:11:45.203             2.472           226.312
       320   10 Jun 2027 06:32:10.122   10 Jun 2027 06:32:22.403            12.281          5154.938
       321   10 Jun 2027 06:33:23.365   10 Jun 2027 06:33:28.674             5.309          1905.062
       322   10 Jun 2027 06:34:52.340   10 Jun 2027 06:34:57.661             5.321          2464.156
       323   10 Jun 2027 08:08:32.889   10 Jun 2027 08:08:40.950             8.061          3784.625
       324   10 Jun 2027 08:09:39.602   10 Jun 2027 08:09:43.425             3.823          1738.594
       325   10 Jun 2027 08:09:58.368   10 Jun 2027 08:10:02.285             3.917           466.969
       326   10 Jun 2027 08:10:06.153   10 Jun 2027 08:10:06.153             0.000             0.000
       327   10 Jun 2027 08:10:42.945   10 Jun 2027 08:10:46.285             3.340          1270.625
       328   10 Jun 2027 08:11:10.371   10 Jun 2027 08:11:16.808             6.437           663.125
       329   10 Jun 2027 08:12:08.001   10 Jun 2027 08:12:08.001             0.000             0.000
       330   10 Jun 2027 09:43:26.317   10 Jun 2027 09:43:32.646             6.329          3164.500
       331   10 Jun 2027 09:43:34.869   10 Jun 2027 09:43:37.385             2.516          1023.281
       332   10 Jun 2027 09:45:44.499   10 Jun 2027 09:45:51.615             7.116          3491.562
       333   10 Jun 2027 09:46:07.141   10 Jun 2027 09:46:11.284             4.143           417.000
       334   10 Jun 2027 09:47:38.895   10 Jun 2027 09:47:50.262            11.367          2737.844
       335   10 Jun 2027 09:48:05.177   10 Jun 2027 09:48:05.563             0.386           153.594
       336   10 Jun 2027 09:48:24.090   10 Jun 2027 09:48:26.528             2.438           578.969
       337   10 Jun 2027 09:48:43.900   10 Jun 2027 09:48:46.115             2.215           393.375
       338   10 Jun 2027 09:49:39.352   10 Jun 2027 09:49:47.299             7.947          1398.406
       339   10 Jun 2027 09:49:54.388   10 Jun 2027 09:49:54.658             0.270           135.000
       340   10 Jun 2027 09:50:21.525   10 Jun 2027 09:50:24.686             3.161           887.156
       341   10 Jun 2027 11:19:50.013   10 Jun 2027 11:20:02.520            12.507          5762.437
       342   10 Jun 2027 11:20:22.953   10 Jun 2027 11:20:26.727             3.774           282.906
       343   10 Jun 2027 11:20:51.279   10 Jun 2027 11:20:53.547             2.268           511.219
       344   10 Jun 2027 11:21:52.840   10 Jun 2027 11:21:57.721             4.881          1852.906
       345   10 Jun 2027 11:22:14.985   10 Jun 2027 11:22:17.506             2.521           504.312
       346   10 Jun 2027 11:22:45.364   10 Jun 2027 11:22:48.213             2.849           859.375
       347   10 Jun 2027 11:23:35.210   10 Jun 2027 11:23:43.108             7.898          1329.250
       348   10 Jun 2027 11:24:03.019   10 Jun 2027 11:24:04.483             1.464           589.094
       349   10 Jun 2027 11:24:21.698   10 Jun 2027 11:24:23.922             2.224           537.969
       350   10 Jun 2027 11:24:29.283   10 Jun 2027 11:24:32.402             3.119           167.531
       351   10 Jun 2027 11:24:54.814   10 Jun 2027 11:24:57.982             3.168           700.375
       352   10 Jun 2027 11:25:07.033   10 Jun 2027 11:25:09.429             2.396           261.250
       353   10 Jun 2027 11:25:22.948   10 Jun 2027 11:25:24.378             1.430           283.375
       354   11 Jun 2027 03:43:38.929   11 Jun 2027 03:45:49.310           130.381         65190.500
       355   11 Jun 2027 03:45:56.309   11 Jun 2027 03:46:18.463            22.154         11077.000
       356   11 Jun 2027 03:47:31.084   11 Jun 2027 03:47:31.291             0.207           103.500
       357   11 Jun 2027 03:48:02.490   11 Jun 2027 03:49:01.111            58.621         29310.500
       358   11 Jun 2027 03:49:14.918   11 Jun 2027 03:49:15.341             0.423           211.500
       359   11 Jun 2027 03:49:40.728   11 Jun 2027 03:49:54.542            13.814          6907.000
       360   11 Jun 2027 03:50:41.080   11 Jun 2027 03:51:17.034            35.954         17977.000
       361   11 Jun 2027 05:09:23.934   11 Jun 2027 05:09:52.650            28.716         14358.000
       362   11 Jun 2027 05:20:39.283   11 Jun 2027 05:21:26.736            47.453         22594.936
       363   11 Jun 2027 05:21:58.224   11 Jun 2027 05:22:02.917             4.693           867.938
       364   11 Jun 2027 05:23:19.169   11 Jun 2027 05:23:24.056             4.887          1134.625
       365   11 Jun 2027 06:43:15.684   11 Jun 2027 06:43:29.884            14.200          5398.219
       366   11 Jun 2027 06:44:02.284   11 Jun 2027 06:44:08.845             6.561           493.250
       367   11 Jun 2027 06:45:23.404   11 Jun 2027 06:45:29.055             5.651          1616.156
       368   11 Jun 2027 06:46:51.989   11 Jun 2027 06:46:57.684             5.695          2415.031
       369   11 Jun 2027 06:47:46.663   11 Jun 2027 06:47:52.238             5.575          1091.625
       370   11 Jun 2027 08:18:50.440   11 Jun 2027 08:19:01.655            11.215          5077.938
       371   11 Jun 2027 08:20:16.861   11 Jun 2027 08:20:23.462             6.601           987.000
       372   11 Jun 2027 08:21:20.326   11 Jun 2027 08:21:24.569             4.243           722.187
       373   11 Jun 2027 08:22:59.456   11 Jun 2027 08:23:07.954             8.498          2459.969
       374   11 Jun 2027 08:23:35.917   11 Jun 2027 08:23:44.079             8.162           873.844
       375   11 Jun 2027 08:23:55.258   11 Jun 2027 08:23:55.910             0.652           215.656
       376   11 Jun 2027 08:24:26.798   11 Jun 2027 08:24:32.085             5.287           751.031
       377   11 Jun 2027 08:24:41.024   11 Jun 2027 08:24:43.585             2.561           279.344
       378   11 Jun 2027 09:55:03.367   11 Jun 2027 09:55:08.025             4.658          2329.000
       379   11 Jun 2027 09:58:17.287   11 Jun 2027 09:58:32.753            15.466          7216.062
       380   11 Jun 2027 09:59:15.563   11 Jun 2027 09:59:23.580             8.017          1170.812
       381   11 Jun 2027 09:59:45.271   11 Jun 2027 09:59:47.746             2.475           207.750
       382   11 Jun 2027 10:00:09.940   11 Jun 2027 10:00:13.606             3.666           693.562
       383   11 Jun 2027 10:00:24.373   11 Jun 2027 10:00:28.389             4.016           206.094
       384   11 Jun 2027 10:00:46.628   11 Jun 2027 10:00:51.525             4.897           474.125
       385   11 Jun 2027 10:00:57.761   11 Jun 2027 10:00:58.377             0.616           194.875
       386   11 Jun 2027 10:01:35.877   11 Jun 2027 10:01:40.767             4.890          1097.219
       387   11 Jun 2027 10:02:11.764   11 Jun 2027 10:02:16.623             4.859           880.719
       388   11 Jun 2027 11:32:09.681   11 Jun 2027 11:32:28.536            18.855          8346.937
       389   11 Jun 2027 11:34:53.067   11 Jun 2027 11:35:03.937            10.870          4456.219
       390   11 Jun 2027 11:35:45.166   11 Jun 2027 11:35:49.400             4.234          1288.406
       391   11 Jun 2027 11:36:32.643   11 Jun 2027 11:36:53.371            20.728          1221.437
       392   11 Jun 2027 11:37:00.577   11 Jun 2027 11:37:01.808             1.231           225.188
       393   11 Jun 2027 11:37:26.388   11 Jun 2027 11:37:27.521             1.133           366.969
       394   11 Jun 2027 11:38:14.096   11 Jun 2027 11:38:19.086             4.990          1163.969
       395   12 Jun 2027 03:56:08.111   12 Jun 2027 03:57:47.944            99.833         49916.500
       396   12 Jun 2027 03:57:53.273   12 Jun 2027 03:58:35.148            41.875         20937.500
       397   12 Jun 2027 03:58:57.716   12 Jun 2027 03:59:01.599             3.883          1941.500
       398   12 Jun 2027 03:59:16.663   12 Jun 2027 03:59:16.663             0.000             0.000
       399   12 Jun 2027 04:00:12.878   12 Jun 2027 04:01:22.600            69.722         34861.000
       400   12 Jun 2027 04:01:56.243   12 Jun 2027 04:01:56.243             0.000             0.000
       401   12 Jun 2027 04:02:17.813   12 Jun 2027 04:02:39.102            21.289         10644.500
       402   12 Jun 2027 05:20:59.072   12 Jun 2027 05:21:33.301            34.229         17114.500
       403   12 Jun 2027 05:32:42.506   12 Jun 2027 05:33:32.563            50.057         24393.781
       404   12 Jun 2027 06:54:58.068   12 Jun 2027 06:55:12.039            13.971          5275.750
       405   12 Jun 2027 06:55:37.435   12 Jun 2027 06:55:39.331             1.896           452.688
       406   12 Jun 2027 06:57:22.942   12 Jun 2027 06:57:28.889             5.947          2880.281
       407   12 Jun 2027 06:59:14.572   12 Jun 2027 06:59:23.158             8.586          3004.281
       408   12 Jun 2027 06:59:32.567   12 Jun 2027 06:59:35.445             2.878           143.625
       409   12 Jun 2027 08:29:57.051   12 Jun 2027 08:30:07.452            10.401          4449.469
       410   12 Jun 2027 08:30:42.964   12 Jun 2027 08:30:43.401             0.437           218.500
       411   12 Jun 2027 08:31:17.114   12 Jun 2027 08:31:20.896             3.782          1415.875
       412   12 Jun 2027 08:31:35.946   12 Jun 2027 08:31:38.603             2.657           470.313
       413   12 Jun 2027 08:32:55.134   12 Jun 2027 08:32:58.451             3.317          1516.375
       414   12 Jun 2027 08:33:37.957   12 Jun 2027 08:33:40.790             2.833          1173.438
       415   12 Jun 2027 08:34:21.101   12 Jun 2027 08:34:28.598             7.497          1259.719
       416   12 Jun 2027 08:35:10.002   12 Jun 2027 08:35:10.002             0.000             0.000
       417   12 Jun 2027 08:35:45.750   12 Jun 2027 08:35:49.999             4.249          1987.813
       418   12 Jun 2027 08:35:59.178   12 Jun 2027 08:36:02.849             3.671           131.625
       419   12 Jun 2027 08:36:32.512   12 Jun 2027 08:36:34.639             2.127           525.125
       420   12 Jun 2027 08:37:58.664   12 Jun 2027 08:38:06.711             8.047          1880.437
       421   12 Jun 2027 10:07:23.541   12 Jun 2027 10:07:38.575            15.034          4881.969
       422   12 Jun 2027 10:08:18.806   12 Jun 2027 10:08:22.565             3.759           599.187
       423   12 Jun 2027 10:09:37.831   12 Jun 2027 10:09:50.465            12.634          1853.750
       424   12 Jun 2027 10:10:07.677   12 Jun 2027 10:10:10.317             2.640           312.219
       425   12 Jun 2027 10:10:49.982   12 Jun 2027 10:10:52.722             2.740           655.094
       426   12 Jun 2027 10:11:01.878   12 Jun 2027 10:11:06.105             4.227           202.937
       427   12 Jun 2027 10:11:36.601   12 Jun 2027 10:11:39.255             2.654            13.750
       428   12 Jun 2027 10:11:55.055   12 Jun 2027 10:11:56.769             1.714           493.750
       429   12 Jun 2027 10:12:10.992   12 Jun 2027 10:12:12.314             1.322           444.469
       430   12 Jun 2027 10:12:14.705   12 Jun 2027 10:12:19.329             4.624            74.719
       431   12 Jun 2027 10:12:25.543   12 Jun 2027 10:12:26.132             0.589           188.219
       432   12 Jun 2027 10:12:37.729   12 Jun 2027 10:12:39.347             1.618           288.406
       433   12 Jun 2027 10:13:38.053   12 Jun 2027 10:13:41.026             2.973          1179.938
       434   12 Jun 2027 10:13:58.265   12 Jun 2027 10:14:02.959             4.694           247.875
       435   12 Jun 2027 10:14:03.419   12 Jun 2027 10:14:03.581             0.162            14.375
       436   12 Jun 2027 10:14:21.510   12 Jun 2027 10:14:27.312             5.802           179.656
       437   12 Jun 2027 11:44:10.050   12 Jun 2027 11:44:22.948            12.898          5750.750
       438   12 Jun 2027 11:45:15.537   12 Jun 2027 11:45:24.930             9.393          1311.031
       439   12 Jun 2027 11:46:14.065   12 Jun 2027 11:46:17.675             3.610          1435.000
       440   12 Jun 2027 11:47:33.947   12 Jun 2027 11:47:37.854             3.907          1953.500
       441   12 Jun 2027 11:48:10.026   12 Jun 2027 11:48:15.395             5.369          1306.562
       442   12 Jun 2027 11:48:57.909   12 Jun 2027 11:49:01.114             3.205          1316.625
       443   12 Jun 2027 11:49:35.703   12 Jun 2027 11:49:40.911             5.208           366.594
       444   12 Jun 2027 11:49:52.911   12 Jun 2027 11:49:53.772             0.861           144.063
       445   12 Jun 2027 11:50:05.810   12 Jun 2027 11:50:07.308             1.498           108.156
       446   12 Jun 2027 11:50:15.690   12 Jun 2027 11:50:15.690             0.000             0.000
       447   13 Jun 2027 04:08:10.218   13 Jun 2027 04:09:44.788            94.570         47285.000
       448   13 Jun 2027 04:09:46.094   13 Jun 2027 04:10:10.065            23.971         11985.500
       449   13 Jun 2027 04:10:34.055   13 Jun 2027 04:11:12.807            38.752         19376.000
       450   13 Jun 2027 04:11:22.774   13 Jun 2027 04:11:29.602             6.828          3414.000
       451   13 Jun 2027 04:11:43.141   13 Jun 2027 04:12:28.364            45.223         22611.500
       452   13 Jun 2027 04:13:28.432   13 Jun 2027 04:13:57.844            29.412         14706.000
       453   13 Jun 2027 04:14:19.358   13 Jun 2027 04:14:38.793            19.435          9717.500
       454   13 Jun 2027 05:32:31.624   13 Jun 2027 05:33:16.589            44.965         22482.500
       455   13 Jun 2027 05:44:48.209   13 Jun 2027 05:45:15.687            27.478         13739.000
       456   13 Jun 2027 07:06:36.247   13 Jun 2027 07:06:57.912            21.665         10733.813
       457   13 Jun 2027 07:08:57.151   13 Jun 2027 07:09:08.496            11.345          3433.188
       458   13 Jun 2027 07:09:19.149   13 Jun 2027 07:09:21.865             2.716           214.656
       459   13 Jun 2027 07:10:18.652   13 Jun 2027 07:10:24.303             5.651          1774.594
       460   13 Jun 2027 07:11:36.279   13 Jun 2027 07:11:45.022             8.743          2249.250
       461   13 Jun 2027 08:41:25.012   13 Jun 2027 08:41:37.979            12.967          4400.094
       462   13 Jun 2027 08:43:17.310   13 Jun 2027 08:43:23.673             6.363          2007.781
       463   13 Jun 2027 08:44:17.929   13 Jun 2027 08:44:17.929             0.000             0.000
       464   13 Jun 2027 08:44:52.028   13 Jun 2027 08:44:58.443             6.415          2681.594
       465   13 Jun 2027 08:45:57.847   13 Jun 2027 08:46:00.953             3.106          1005.781
       466   13 Jun 2027 08:48:10.575   13 Jun 2027 08:48:14.275             3.700          1850.000
       467   13 Jun 2027 08:49:47.528   13 Jun 2027 08:49:53.553             6.025          2509.937
       468   13 Jun 2027 10:19:17.889   13 Jun 2027 10:19:31.505            13.616          5991.781
       469   13 Jun 2027 10:20:11.055   13 Jun 2027 10:20:12.246             1.191           595.500
       470   13 Jun 2027 10:20:13.385   13 Jun 2027 10:20:15.542             2.157           417.125
       471   13 Jun 2027 10:20:29.133   13 Jun 2027 10:20:29.854             0.721           125.375
       472   13 Jun 2027 10:20:36.982   13 Jun 2027 10:20:39.749             2.767           222.750
       473   13 Jun 2027 10:20:52.449   13 Jun 2027 10:20:54.711             2.262           396.875
       474   13 Jun 2027 10:21:36.340   13 Jun 2027 10:21:45.491             9.151          1300.906
       475   13 Jun 2027 10:22:08.406   13 Jun 2027 10:22:10.174             1.768           272.656
       476   13 Jun 2027 10:23:26.414   13 Jun 2027 10:23:33.274             6.860          2107.969
       477   13 Jun 2027 10:23:40.797   13 Jun 2027 10:23:42.876             2.079           235.094
       478   13 Jun 2027 10:24:02.132   13 Jun 2027 10:24:02.897             0.765           382.500
       479   13 Jun 2027 10:24:57.245   13 Jun 2027 10:24:57.245             0.000             0.000
       480   13 Jun 2027 10:25:13.184   13 Jun 2027 10:25:20.798             7.614          2231.969
       481   13 Jun 2027 10:25:27.393   13 Jun 2027 10:25:29.905             2.512           127.000
       482   13 Jun 2027 10:26:07.424   13 Jun 2027 10:26:10.357             2.933          1055.469
       483   13 Jun 2027 10:26:21.942   13 Jun 2027 10:26:23.989             2.047           356.844
       484   13 Jun 2027 11:56:01.941   13 Jun 2027 11:56:12.616            10.675          5337.500
       485   13 Jun 2027 11:56:34.566   13 Jun 2027 11:56:39.752             5.186          2367.406
       486   13 Jun 2027 11:57:41.887   13 Jun 2027 11:57:45.936             4.049          1941.719
       487   13 Jun 2027 11:58:04.946   13 Jun 2027 11:58:05.653             0.707           240.875
       488   13 Jun 2027 11:59:44.629   13 Jun 2027 11:59:49.077             4.448          2224.000
