uniorb/output/strategy_2/Camera/Camera_KinoSat_111610.txt

KinoSat_111610
-------------------------
    Access    *     Start Time (UTCG)     *     Stop Time (UTCG)  *   Duration (s) *   Data (Mbytes)
         1   01 Jun 2027 04:03:31.289   01 Jun 2027 04:05:58.944           147.655         73827.500
         2   01 Jun 2027 04:06:57.442   01 Jun 2027 04:07:52.285            54.843         27421.500
         3   01 Jun 2027 04:08:23.080   01 Jun 2027 04:08:38.158            15.078          7539.000
         4   01 Jun 2027 04:10:27.471   01 Jun 2027 04:10:27.569             0.098            49.000
         5   01 Jun 2027 04:11:10.145   01 Jun 2027 04:11:17.287             7.142          3571.000
         6   01 Jun 2027 05:29:36.785   01 Jun 2027 05:30:07.253            30.468         15234.000
         7   01 Jun 2027 05:40:34.272   01 Jun 2027 05:41:33.219            58.947         29473.500
         8   01 Jun 2027 05:41:57.159   01 Jun 2027 05:42:08.944            11.785          5892.500
         9   01 Jun 2027 05:42:25.243   01 Jun 2027 05:42:50.103            24.860         12430.000
        10   01 Jun 2027 05:43:26.673   01 Jun 2027 05:43:35.277             8.604          4302.000
        11   01 Jun 2027 07:03:53.483   01 Jun 2027 07:06:01.618           128.135         64067.500
        12   01 Jun 2027 08:40:16.055   01 Jun 2027 08:42:37.225           141.170         70585.000
        13   01 Jun 2027 08:43:31.105   01 Jun 2027 08:43:51.324            20.219         10109.500
        14   01 Jun 2027 10:15:01.393   01 Jun 2027 10:16:59.064           117.671         58835.500
        15   01 Jun 2027 10:21:54.994   01 Jun 2027 10:22:34.018            39.024         19512.000
        16   01 Jun 2027 11:51:50.840   01 Jun 2027 11:53:36.328           105.488         52744.000
        17   01 Jun 2027 11:57:15.617   01 Jun 2027 11:57:43.359            27.742         13871.000
        18   02 Jun 2027 04:15:54.666   02 Jun 2027 04:18:46.624           171.958         85979.000
        19   02 Jun 2027 04:19:21.556   02 Jun 2027 04:19:50.245            28.689         14344.500
        20   02 Jun 2027 04:20:06.013   02 Jun 2027 04:20:44.819            38.806         19403.000
        21   02 Jun 2027 05:40:55.561   02 Jun 2027 05:41:36.717            41.156         20578.000
        22   02 Jun 2027 05:41:50.829   02 Jun 2027 05:41:59.483             8.654          4327.000
        23   02 Jun 2027 05:52:35.638   02 Jun 2027 05:53:32.607            56.969         28484.500
        24   02 Jun 2027 05:53:54.664   02 Jun 2027 05:53:56.384             1.720           860.000
        25   02 Jun 2027 07:14:51.668   02 Jun 2027 07:16:07.496            75.828         37914.000
        26   02 Jun 2027 07:16:48.722   02 Jun 2027 07:18:03.627            74.905         37452.500
        27   02 Jun 2027 07:18:27.124   02 Jun 2027 07:18:41.546            14.422          7211.000
        28   02 Jun 2027 08:50:03.850   02 Jun 2027 08:51:27.051            83.201         41600.500
        29   02 Jun 2027 08:52:19.812   02 Jun 2027 08:52:50.834            31.022         15511.000
        30   02 Jun 2027 08:55:50.865   02 Jun 2027 08:56:05.296            14.431          5857.219
        31   02 Jun 2027 10:27:08.556   02 Jun 2027 10:27:10.420             1.864           932.000
        32   02 Jun 2027 10:32:48.370   02 Jun 2027 10:33:28.784            40.414         15468.188
        33   02 Jun 2027 10:34:10.651   02 Jun 2027 10:34:13.722             3.071          1233.125
        34   03 Jun 2027 04:28:13.067   03 Jun 2027 04:31:14.642           181.575         90787.500
        35   03 Jun 2027 04:31:21.831   03 Jun 2027 04:31:42.980            21.149         10574.500
        36   03 Jun 2027 04:32:49.522   03 Jun 2027 04:33:02.458            12.936          6468.000
        37   03 Jun 2027 04:33:16.370   03 Jun 2027 04:33:46.339            29.969         14984.500
        38   03 Jun 2027 04:33:58.158   03 Jun 2027 04:34:01.269             3.111          1555.500
        39   03 Jun 2027 04:34:01.930   03 Jun 2027 04:34:01.930             0.000             0.000
        40   03 Jun 2027 04:34:54.442   03 Jun 2027 04:35:09.142            14.700          7350.000
        41   03 Jun 2027 05:52:17.822   03 Jun 2027 05:52:51.652            33.830         16915.000
        42   03 Jun 2027 06:04:32.753   03 Jun 2027 06:05:12.419            39.666         19833.000
        43   03 Jun 2027 07:26:33.496   03 Jun 2027 07:26:49.093            15.597          7292.813
        44   03 Jun 2027 07:27:35.530   03 Jun 2027 07:27:41.152             5.622          1310.844
        45   03 Jun 2027 07:27:45.968   03 Jun 2027 07:27:49.778             3.810           135.250
        46   03 Jun 2027 07:29:35.842   03 Jun 2027 07:29:41.881             6.039          2301.656
        47   03 Jun 2027 07:30:03.534   03 Jun 2027 07:30:04.258             0.724            42.469
        48   03 Jun 2027 07:30:16.407   03 Jun 2027 07:30:18.187             1.780           274.188
        49   03 Jun 2027 07:31:04.519   03 Jun 2027 07:31:07.423             2.904           758.219
        50   03 Jun 2027 07:31:08.570   03 Jun 2027 07:31:09.021             0.451            28.531
        51   03 Jun 2027 09:01:31.436   03 Jun 2027 09:01:39.923             8.487          3980.687
        52   03 Jun 2027 09:03:18.927   03 Jun 2027 09:03:18.927             0.000             0.000
        53   03 Jun 2027 09:04:05.025   03 Jun 2027 09:04:19.129            14.104          3538.375
        54   03 Jun 2027 09:05:43.732   03 Jun 2027 09:05:47.004             3.272          1636.000
        55   03 Jun 2027 09:07:00.067   03 Jun 2027 09:07:00.067             0.000             0.000
        56   03 Jun 2027 09:07:42.074   03 Jun 2027 09:07:48.148             6.074          3037.000
        57   03 Jun 2027 09:09:43.319   03 Jun 2027 09:09:50.873             7.554          3561.344
        58   03 Jun 2027 09:10:00.864   03 Jun 2027 09:10:01.782             0.918           312.219
        59   03 Jun 2027 10:39:10.835   03 Jun 2027 10:39:24.237            13.402          5824.812
        60   03 Jun 2027 10:39:57.976   03 Jun 2027 10:40:01.194             3.218           840.562
        61   03 Jun 2027 10:40:11.511   03 Jun 2027 10:40:12.019             0.508           105.719
        62   03 Jun 2027 10:40:59.024   03 Jun 2027 10:40:59.267             0.243           121.500
        63   03 Jun 2027 10:42:17.276   03 Jun 2027 10:42:23.343             6.067          2643.188
        64   03 Jun 2027 10:43:29.577   03 Jun 2027 10:43:32.477             2.900          1379.594
        65   03 Jun 2027 10:44:09.193   03 Jun 2027 10:44:11.342             2.149           898.813
        66   03 Jun 2027 10:44:31.963   03 Jun 2027 10:44:35.180             3.217           408.594
        67   03 Jun 2027 10:45:11.129   03 Jun 2027 10:45:19.500             8.371          1019.625
        68   03 Jun 2027 10:45:52.264   03 Jun 2027 10:45:54.678             2.414           972.469
        69   03 Jun 2027 10:46:37.056   03 Jun 2027 10:46:37.668             0.612           306.000
        70   04 Jun 2027 03:01:29.821   04 Jun 2027 03:01:31.281             1.460           730.000
        71   04 Jun 2027 03:01:56.986   04 Jun 2027 03:02:23.371            26.385         13192.500
        72   04 Jun 2027 03:02:25.430   04 Jun 2027 03:03:38.637            73.207         36603.500
        73   04 Jun 2027 03:03:42.742   04 Jun 2027 03:03:49.120             6.378          3189.000
        74   04 Jun 2027 03:04:24.876   04 Jun 2027 03:04:29.135             4.259          2129.500
        75   04 Jun 2027 03:04:52.024   04 Jun 2027 03:04:52.777             0.753           376.500
        76   04 Jun 2027 03:05:36.391   04 Jun 2027 03:05:36.391             0.000             0.000
        77   04 Jun 2027 03:06:06.759   04 Jun 2027 03:06:15.673             8.914          4457.000
        78   04 Jun 2027 03:07:02.769   04 Jun 2027 03:07:06.259             3.490          1745.000
        79   04 Jun 2027 04:40:18.072   04 Jun 2027 04:41:04.621            46.549         23274.500
        80   04 Jun 2027 04:41:07.596   04 Jun 2027 04:41:28.013            20.417         10208.500
        81   04 Jun 2027 04:42:08.712   04 Jun 2027 04:43:41.628            92.916         46458.000
        82   04 Jun 2027 04:44:51.251   04 Jun 2027 04:45:19.120            27.869         13934.500
        83   04 Jun 2027 06:04:25.065   04 Jun 2027 06:04:55.605            30.540         14202.812
        84   04 Jun 2027 07:38:13.086   04 Jun 2027 07:38:25.121            12.035          5973.344
        85   04 Jun 2027 07:39:43.053   04 Jun 2027 07:39:48.286             5.233          1754.375
        86   04 Jun 2027 07:40:17.064   04 Jun 2027 07:40:21.619             4.555           352.781
        87   04 Jun 2027 07:41:02.480   04 Jun 2027 07:41:07.815             5.335           463.875
        88   04 Jun 2027 07:42:38.132   04 Jun 2027 07:42:48.017             9.885          2822.406
        89   04 Jun 2027 07:43:11.231   04 Jun 2027 07:43:12.506             1.275           608.187
        90   04 Jun 2027 09:13:05.375   04 Jun 2027 09:13:10.606             5.231          2615.500
        91   04 Jun 2027 09:13:54.518   04 Jun 2027 09:14:03.108             8.590          3332.781
        92   04 Jun 2027 09:15:45.142   04 Jun 2027 09:15:50.629             5.487           784.437
        93   04 Jun 2027 09:18:53.314   04 Jun 2027 09:19:04.673            11.359          5474.656
        94   04 Jun 2027 09:20:10.044   04 Jun 2027 09:20:16.280             6.236          2042.844
        95   04 Jun 2027 09:20:41.502   04 Jun 2027 09:20:42.844             1.342           671.000
        96   04 Jun 2027 09:21:05.069   04 Jun 2027 09:21:09.201             4.132           811.719
        97   04 Jun 2027 09:22:05.455   04 Jun 2027 09:22:10.697             5.242          1612.563
        98   04 Jun 2027 09:22:37.418   04 Jun 2027 09:22:39.578             2.160           738.281
        99   04 Jun 2027 10:51:13.347   04 Jun 2027 10:51:34.398            21.051          7454.594
       100   04 Jun 2027 10:54:04.291   04 Jun 2027 10:54:04.291             0.000             0.000
       101   04 Jun 2027 10:55:24.201   04 Jun 2027 10:55:37.726            13.525          6724.781
       102   04 Jun 2027 10:56:46.899   04 Jun 2027 10:56:54.145             7.246          1452.344
       103   04 Jun 2027 10:57:52.721   04 Jun 2027 10:58:00.124             7.403          1826.125
       104   05 Jun 2027 03:14:29.337   05 Jun 2027 03:15:24.180            54.843         27421.500
       105   05 Jun 2027 03:15:32.825   05 Jun 2027 03:16:14.475            41.650         20825.000
       106   05 Jun 2027 03:16:14.962   05 Jun 2027 03:17:29.301            74.339         37169.500
       107   05 Jun 2027 03:17:51.775   05 Jun 2027 03:18:28.200            36.425         18212.500
       108   05 Jun 2027 03:18:59.972   05 Jun 2027 03:19:12.772            12.800          6400.000
       109   05 Jun 2027 04:52:54.854   05 Jun 2027 04:53:56.640            61.786         30893.000
       110   05 Jun 2027 04:54:29.711   05 Jun 2027 04:54:55.410            25.699         12289.344
       111   05 Jun 2027 04:55:50.917   05 Jun 2027 04:55:59.053             8.136          1485.281
       112   05 Jun 2027 04:56:27.787   05 Jun 2027 04:56:31.427             3.640           767.437
       113   05 Jun 2027 04:57:12.568   05 Jun 2027 04:57:14.197             1.629           702.531
       114   05 Jun 2027 06:16:20.448   05 Jun 2027 06:16:38.485            18.037          7047.062
       115   05 Jun 2027 06:17:42.788   05 Jun 2027 06:17:49.995             7.207          1616.688
       116   05 Jun 2027 07:52:35.379   05 Jun 2027 07:52:54.962            19.583          8254.281
       117   05 Jun 2027 07:53:54.459   05 Jun 2027 07:53:54.459             0.000             0.000
       118   05 Jun 2027 07:54:35.002   05 Jun 2027 07:54:42.492             7.490          3017.313
       119   05 Jun 2027 07:55:40.572   05 Jun 2027 07:55:44.357             3.785          1291.094
       120   05 Jun 2027 09:26:07.908   05 Jun 2027 09:26:17.435             9.527          4069.750
       121   05 Jun 2027 09:27:42.260   05 Jun 2027 09:27:42.260             0.000             0.000
       122   05 Jun 2027 09:28:34.028   05 Jun 2027 09:28:38.744             4.716          2291.562
       123   05 Jun 2027 09:29:11.151   05 Jun 2027 09:29:11.151             0.000             0.000
       124   05 Jun 2027 09:31:03.836   05 Jun 2027 09:31:16.811            12.975          4517.500
       125   05 Jun 2027 09:32:14.764   05 Jun 2027 09:32:19.976             5.212           828.906
       126   05 Jun 2027 09:33:12.563   05 Jun 2027 09:33:19.274             6.711          1227.062
       127   05 Jun 2027 09:33:40.464   05 Jun 2027 09:33:42.652             2.188           654.813
       128   05 Jun 2027 09:33:57.709   05 Jun 2027 09:33:58.427             0.718           359.000
       129   05 Jun 2027 09:34:11.511   05 Jun 2027 09:34:14.018             2.507           468.063
       130   05 Jun 2027 11:03:40.491   05 Jun 2027 11:03:54.394            13.903          5621.531
       131   05 Jun 2027 11:04:22.255   05 Jun 2027 11:04:23.827             1.572           436.062
       132   05 Jun 2027 11:04:25.282   05 Jun 2027 11:04:28.264             2.982            45.469
       133   05 Jun 2027 11:06:04.064   05 Jun 2027 11:06:09.166             5.102          2344.781
       134   05 Jun 2027 11:06:47.695   05 Jun 2027 11:06:54.397             6.702           647.031
       135   05 Jun 2027 11:06:56.759   05 Jun 2027 11:06:57.907             1.148            73.812
       136   05 Jun 2027 11:07:04.248   05 Jun 2027 11:07:08.764             4.516            81.563
       137   05 Jun 2027 11:07:44.367   05 Jun 2027 11:07:46.605             2.238           873.031
       138   05 Jun 2027 11:08:30.300   05 Jun 2027 11:08:32.443             2.143           935.469
       139   05 Jun 2027 11:09:10.512   05 Jun 2027 11:09:25.233            14.721          1096.687
       140   05 Jun 2027 11:09:59.259   05 Jun 2027 11:10:01.269             2.010           699.531
       141   06 Jun 2027 03:26:30.534   06 Jun 2027 03:26:58.629            28.095         14047.500
       142   06 Jun 2027 03:27:01.206   06 Jun 2027 03:29:30.637           149.431         74715.500
       143   06 Jun 2027 03:29:38.285   06 Jun 2027 03:29:48.439            10.154          5077.000
       144   06 Jun 2027 03:30:01.671   06 Jun 2027 03:30:10.173             8.502          4251.000
       145   06 Jun 2027 03:30:39.264   06 Jun 2027 03:31:20.996            41.732         20866.000
       146   06 Jun 2027 05:04:33.408   06 Jun 2027 05:05:42.958            69.550         34775.000
       147   06 Jun 2027 05:05:59.934   06 Jun 2027 05:06:10.058            10.124          5062.000
       148   06 Jun 2027 05:06:10.669   06 Jun 2027 05:06:11.772             1.103           551.500
       149   06 Jun 2027 05:07:06.661   06 Jun 2027 05:07:07.940             1.279           639.500
       150   06 Jun 2027 05:07:41.565   06 Jun 2027 05:07:51.044             9.479          2476.125
       151   06 Jun 2027 05:08:17.039   06 Jun 2027 05:08:17.039             0.000             0.000
       152   06 Jun 2027 06:28:12.473   06 Jun 2027 06:28:28.191            15.718          7561.094
       153   06 Jun 2027 06:30:49.116   06 Jun 2027 06:30:51.945             2.829          1414.500
       154   06 Jun 2027 08:04:39.668   06 Jun 2027 08:04:49.291             9.623          4811.500
       155   06 Jun 2027 08:05:10.046   06 Jun 2027 08:05:12.702             2.656           942.719
       156   06 Jun 2027 08:05:35.877   06 Jun 2027 08:05:36.865             0.988           494.000
       157   06 Jun 2027 08:06:32.381   06 Jun 2027 08:06:36.243             3.862          1910.156
       158   06 Jun 2027 09:36:54.505   06 Jun 2027 09:36:57.383             2.878          1439.000
       159   06 Jun 2027 09:38:47.212   06 Jun 2027 09:38:57.034             9.822          3581.844
       160   06 Jun 2027 09:41:57.360   06 Jun 2027 09:42:07.461            10.101          4891.781
       161   06 Jun 2027 09:42:25.207   06 Jun 2027 09:42:27.853             2.646           524.750
       162   06 Jun 2027 09:43:53.371   06 Jun 2027 09:43:53.371             0.000             0.000
       163   06 Jun 2027 09:44:47.832   06 Jun 2027 09:44:59.362            11.530          4045.844
       164   06 Jun 2027 09:45:07.964   06 Jun 2027 09:45:08.672             0.708           268.813
       165   06 Jun 2027 09:46:24.551   06 Jun 2027 09:46:31.477             6.926          2309.031
       166   06 Jun 2027 11:15:45.690   06 Jun 2027 11:15:59.876            14.186          7093.000
       167   06 Jun 2027 11:16:09.499   06 Jun 2027 11:16:12.479             2.980           333.031
       168   06 Jun 2027 11:16:20.314   06 Jun 2027 11:16:21.788             1.474           199.719
       169   06 Jun 2027 11:16:21.855   06 Jun 2027 11:16:29.555             7.700             2.094
       170   06 Jun 2027 11:17:50.884   06 Jun 2027 11:17:55.434             4.550          1450.125
       171   06 Jun 2027 11:18:57.711   06 Jun 2027 11:19:04.328             6.617          1926.187
       172   06 Jun 2027 11:19:46.448   06 Jun 2027 11:19:48.279             1.831           493.344
       173   06 Jun 2027 11:19:58.677   06 Jun 2027 11:20:01.410             2.733           324.937
       174   06 Jun 2027 11:20:09.522   06 Jun 2027 11:20:10.140             0.618           119.312
       175   06 Jun 2027 11:20:13.215   06 Jun 2027 11:20:13.531             0.316            96.094
       176   06 Jun 2027 11:20:14.143   06 Jun 2027 11:20:14.934             0.791             1.000
       177   06 Jun 2027 11:21:44.467   06 Jun 2027 11:21:49.877             5.410          2424.375
       178   06 Jun 2027 11:22:06.066   06 Jun 2027 11:22:08.566             2.500           486.313
       179   07 Jun 2027 03:38:38.531   07 Jun 2027 03:39:39.007            60.476         30238.000
       180   07 Jun 2027 03:39:47.590   07 Jun 2027 03:41:32.592           105.002         52501.000
       181   07 Jun 2027 03:42:12.042   07 Jun 2027 03:42:12.042             0.000             0.000
       182   07 Jun 2027 03:42:36.756   07 Jun 2027 03:43:26.343            49.587         24793.500
       183   07 Jun 2027 03:44:01.793   07 Jun 2027 03:44:17.751            15.958          7979.000
       184   07 Jun 2027 05:17:00.852   07 Jun 2027 05:17:24.584            23.732         11866.000
       185   07 Jun 2027 05:18:16.519   07 Jun 2027 05:18:58.380            41.861         20930.500
       186   07 Jun 2027 05:19:21.327   07 Jun 2027 05:19:43.618            22.291         10945.094
       187   07 Jun 2027 05:20:16.252   07 Jun 2027 05:20:17.496             1.244           330.937
       188   07 Jun 2027 05:21:11.009   07 Jun 2027 05:21:12.298             1.289           644.500
       189   07 Jun 2027 06:40:20.720   07 Jun 2027 06:40:35.964            15.244          5515.688
       190   07 Jun 2027 06:41:45.960   07 Jun 2027 06:41:49.212             3.252          1493.437
       191   07 Jun 2027 06:42:18.174   07 Jun 2027 06:42:20.236             2.062           483.125
       192   07 Jun 2027 06:42:40.163   07 Jun 2027 06:42:40.163             0.000             0.000
       193   07 Jun 2027 06:42:59.892   07 Jun 2027 06:43:03.085             3.193          1222.594
       194   07 Jun 2027 08:16:50.118   07 Jun 2027 08:16:57.523             7.405          2571.844
       195   07 Jun 2027 08:17:37.580   07 Jun 2027 08:17:37.580             0.000             0.000
       196   07 Jun 2027 08:17:51.705   07 Jun 2027 08:17:57.475             5.770          1453.594
       197   07 Jun 2027 08:18:16.716   07 Jun 2027 08:18:18.457             1.741           601.281
       198   07 Jun 2027 08:19:17.878   07 Jun 2027 08:19:25.616             7.738          1662.312
       199   07 Jun 2027 08:20:25.391   07 Jun 2027 08:20:25.391             0.000             0.000
       200   07 Jun 2027 09:52:01.206   07 Jun 2027 09:52:12.148            10.942          4839.781
       201   07 Jun 2027 09:52:44.295   07 Jun 2027 09:52:50.781             6.486           994.219
       202   07 Jun 2027 09:55:24.705   07 Jun 2027 09:55:33.889             9.184          4066.469
       203   07 Jun 2027 09:56:15.679   07 Jun 2027 09:56:19.061             3.382           796.344
       204   07 Jun 2027 09:56:31.917   07 Jun 2027 09:56:35.262             3.345           401.750
       205   07 Jun 2027 09:57:10.513   07 Jun 2027 09:57:14.679             4.166           907.687
       206   07 Jun 2027 09:57:42.370   07 Jun 2027 09:57:45.531             3.161           785.875
       207   07 Jun 2027 09:58:02.348   07 Jun 2027 09:58:04.834             2.486           235.500
       208   07 Jun 2027 09:58:29.911   07 Jun 2027 09:58:31.517             1.606           695.688
       209   07 Jun 2027 11:28:20.768   07 Jun 2027 11:28:30.982            10.214          5027.812
       210   07 Jun 2027 11:29:32.822   07 Jun 2027 11:29:39.389             6.567          1347.187
       211   07 Jun 2027 11:30:16.406   07 Jun 2027 11:30:16.414             0.008             4.000
       212   07 Jun 2027 11:30:21.791   07 Jun 2027 11:30:23.327             1.536           768.000
       213   07 Jun 2027 11:30:54.185   07 Jun 2027 11:31:00.235             6.050          1517.125
       214   07 Jun 2027 11:33:37.546   07 Jun 2027 11:33:47.543             9.997          4915.969
       215   07 Jun 2027 11:33:52.430   07 Jun 2027 11:33:55.500             3.070           152.719
       216   07 Jun 2027 11:34:34.816   07 Jun 2027 11:34:35.934             1.118           559.000
       217   08 Jun 2027 03:50:43.280   08 Jun 2027 03:50:59.783            16.503          8251.500
       218   08 Jun 2027 03:51:45.901   08 Jun 2027 03:54:25.345           159.444         79722.000
       219   08 Jun 2027 03:55:17.302   08 Jun 2027 03:55:18.421             1.119           559.500
       220   08 Jun 2027 03:55:32.345   08 Jun 2027 03:56:03.262            30.917         15458.500
       221   08 Jun 2027 03:58:58.841   08 Jun 2027 03:59:21.448            22.607         11303.500
       222   08 Jun 2027 05:28:54.705   08 Jun 2027 05:29:32.209            37.504         18752.000
       223   08 Jun 2027 05:30:02.328   08 Jun 2027 05:30:38.732            36.404         18202.000
       224   08 Jun 2027 05:31:09.884   08 Jun 2027 05:31:19.905            10.021          4650.938
       225   08 Jun 2027 05:31:53.749   08 Jun 2027 05:31:54.577             0.828           337.812
       226   08 Jun 2027 05:32:06.029   08 Jun 2027 05:32:08.578             2.549           131.031
       227   08 Jun 2027 05:32:22.037   08 Jun 2027 05:32:24.820             2.783           119.125
       228   08 Jun 2027 06:53:03.567   08 Jun 2027 06:53:20.183            16.616          7848.844
       229   08 Jun 2027 06:53:42.581   08 Jun 2027 06:53:43.902             1.321           253.719
       230   08 Jun 2027 06:53:47.067   08 Jun 2027 06:53:47.067             0.000             0.000
       231   08 Jun 2027 06:54:57.842   08 Jun 2027 06:55:04.327             6.485          2310.625
       232   08 Jun 2027 06:55:28.695   08 Jun 2027 06:55:30.981             2.286           447.125
       233   08 Jun 2027 08:28:47.018   08 Jun 2027 08:28:54.246             7.228          3341.562
       234   08 Jun 2027 08:29:21.579   08 Jun 2027 08:29:24.026             2.447           837.719
       235   08 Jun 2027 08:30:26.865   08 Jun 2027 08:30:30.406             3.541          1491.781
       236   08 Jun 2027 08:31:19.520   08 Jun 2027 08:31:26.267             6.747          1411.969
       237   08 Jun 2027 10:03:45.252   08 Jun 2027 10:03:59.053            13.801          3914.063
       238   08 Jun 2027 10:04:14.716   08 Jun 2027 10:04:17.383             2.667           242.281
       239   08 Jun 2027 10:05:42.876   08 Jun 2027 10:05:42.876             0.000             0.000
       240   08 Jun 2027 10:06:03.076   08 Jun 2027 10:06:06.183             3.107          1466.031
       241   08 Jun 2027 10:06:17.974   08 Jun 2027 10:06:18.885             0.911            14.875
       242   08 Jun 2027 10:10:21.867   08 Jun 2027 10:10:38.504            16.637          7554.094
       243   08 Jun 2027 11:39:56.509   08 Jun 2027 11:40:09.206            12.697          6200.312
       244   08 Jun 2027 11:40:22.195   08 Jun 2027 11:40:25.772             3.577           353.469
       245   08 Jun 2027 11:42:41.449   08 Jun 2027 11:42:51.452            10.003          3567.406
       246   08 Jun 2027 11:44:24.818   08 Jun 2027 11:44:37.744            12.926          2816.250
       247   08 Jun 2027 11:45:42.810   08 Jun 2027 11:45:47.510             4.700          2033.313
       248   09 Jun 2027 04:03:48.673   09 Jun 2027 04:05:36.194           107.521         53760.500
       249   09 Jun 2027 04:05:59.721   09 Jun 2027 04:06:14.041            14.320          7160.000
       250   09 Jun 2027 04:07:13.206   09 Jun 2027 04:08:04.575            51.369         25684.500
       251   09 Jun 2027 04:08:39.249   09 Jun 2027 04:08:54.573            15.324          7662.000
       252   09 Jun 2027 04:09:58.049   09 Jun 2027 04:10:02.169             4.120          2060.000
       253   09 Jun 2027 04:10:46.496   09 Jun 2027 04:11:33.246            46.750         23375.000
       254   09 Jun 2027 05:29:50.816   09 Jun 2027 05:30:25.094            34.278         17139.000
       255   09 Jun 2027 05:40:50.926   09 Jun 2027 05:41:02.920            11.994          5997.000
       256   09 Jun 2027 05:41:42.147   09 Jun 2027 05:42:23.748            41.601         20800.500
       257   09 Jun 2027 05:42:45.918   09 Jun 2027 05:42:47.097             1.179           393.562
       258   09 Jun 2027 05:43:16.005   09 Jun 2027 05:43:20.081             4.076           903.375
       259   09 Jun 2027 07:04:09.178   09 Jun 2027 07:04:26.452            17.274          6605.875
       260   09 Jun 2027 07:06:19.406   09 Jun 2027 07:06:27.083             7.677          3182.500
       261   09 Jun 2027 07:07:43.595   09 Jun 2027 07:07:46.930             3.335          1667.500
       262   09 Jun 2027 08:39:23.225   09 Jun 2027 08:39:28.311             5.086          2543.000
       263   09 Jun 2027 08:40:48.916   09 Jun 2027 08:40:54.791             5.875          2624.094
       264   09 Jun 2027 08:41:18.808   09 Jun 2027 08:41:20.233             1.425           307.156
       265   09 Jun 2027 08:42:56.781   09 Jun 2027 08:43:05.799             9.018          2385.031
       266   09 Jun 2027 08:43:17.451   09 Jun 2027 08:43:18.146             0.695           279.969
       267   09 Jun 2027 08:43:25.140   09 Jun 2027 08:43:30.792             5.652           218.562
       268   09 Jun 2027 10:15:51.787   09 Jun 2027 10:16:03.975            12.188          5335.312
       269   09 Jun 2027 10:17:28.477   09 Jun 2027 10:17:32.579             4.102           903.063
       270   09 Jun 2027 10:21:07.360   09 Jun 2027 10:21:20.055            12.695          6236.219
       271   09 Jun 2027 10:22:13.087   09 Jun 2027 10:22:17.908             4.821          1403.719
       272   09 Jun 2027 11:52:11.049   09 Jun 2027 11:52:30.997            19.948          7802.469
       273   09 Jun 2027 11:52:54.607   09 Jun 2027 11:52:56.334             1.727           537.125
       274   09 Jun 2027 11:53:56.177   09 Jun 2027 11:53:58.511             2.334          1051.312
       275   09 Jun 2027 11:54:30.506   09 Jun 2027 11:54:36.969             6.463           960.437
       276   09 Jun 2027 11:55:52.833   09 Jun 2027 11:55:54.911             2.078          1039.000
       277   09 Jun 2027 11:56:07.847   09 Jun 2027 11:56:12.188             4.341          1492.469
       278   09 Jun 2027 11:56:36.433   09 Jun 2027 11:56:38.771             2.338           757.656
       279   09 Jun 2027 11:57:19.205   09 Jun 2027 11:57:22.413             3.208          1263.562
       280   10 Jun 2027 04:16:12.847   10 Jun 2027 04:17:29.674            76.827         38413.500
       281   10 Jun 2027 04:17:37.790   10 Jun 2027 04:17:38.994             1.204           602.000
       282   10 Jun 2027 04:18:36.877   10 Jun 2027 04:20:23.034           106.157         53078.500
       283   10 Jun 2027 04:20:27.167   10 Jun 2027 04:21:10.086            42.919         21459.500
       284   10 Jun 2027 04:22:29.277   10 Jun 2027 04:22:31.117             1.840           920.000
       285   10 Jun 2027 05:41:11.523   10 Jun 2027 05:41:16.150             4.627          2313.500
       286   10 Jun 2027 05:42:14.741   10 Jun 2027 05:42:27.065            12.324          6162.000
       287   10 Jun 2027 05:52:52.951   10 Jun 2027 05:53:49.109            56.158         28079.000
       288   10 Jun 2027 05:54:09.443   10 Jun 2027 05:54:12.588             3.145          1572.500
       289   10 Jun 2027 07:15:07.446   10 Jun 2027 07:15:31.813            24.367         12183.500
       290   10 Jun 2027 07:15:52.596   10 Jun 2027 07:15:55.652             3.056           793.188
       291   10 Jun 2027 07:17:34.491   10 Jun 2027 07:17:43.830             9.339          3027.062
       292   10 Jun 2027 07:18:42.430   10 Jun 2027 07:18:42.430             0.000             0.000
       293   10 Jun 2027 07:19:44.847   10 Jun 2027 07:19:53.052             8.205          3703.063
       294   10 Jun 2027 08:50:17.534   10 Jun 2027 08:50:26.741             9.207          4129.062
       295   10 Jun 2027 08:50:36.677   10 Jun 2027 08:50:38.893             2.216            45.031
       296   10 Jun 2027 08:51:00.720   10 Jun 2027 08:51:04.394             3.674           682.094
       297   10 Jun 2027 08:52:21.186   10 Jun 2027 08:52:24.885             3.699          1443.625
       298   10 Jun 2027 08:54:15.697   10 Jun 2027 08:54:15.697             0.000             0.000
       299   10 Jun 2027 08:54:56.724   10 Jun 2027 08:55:14.205            17.481          4418.063
       300   10 Jun 2027 08:55:53.383   10 Jun 2027 08:55:57.179             3.796          1034.437
       301   10 Jun 2027 08:57:08.176   10 Jun 2027 08:57:12.249             4.073          2036.500
       302   10 Jun 2027 10:27:25.738   10 Jun 2027 10:27:38.431            12.693          4176.125
       303   10 Jun 2027 10:28:07.473   10 Jun 2027 10:28:09.331             1.858           164.625
       304   10 Jun 2027 10:28:43.683   10 Jun 2027 10:28:45.282             1.599           787.094
       305   10 Jun 2027 10:33:05.874   10 Jun 2027 10:33:24.447            18.573          7140.594
       306   10 Jun 2027 10:34:03.678   10 Jun 2027 10:34:06.931             3.253          1225.969
       307   10 Jun 2027 10:34:26.389   10 Jun 2027 10:34:27.798             1.409           608.063
       308   11 Jun 2027 04:28:31.311   11 Jun 2027 04:31:37.517           186.206         93103.000
       309   11 Jun 2027 04:32:06.641   11 Jun 2027 04:33:01.805            55.164         27582.000
       310   11 Jun 2027 04:33:36.870   11 Jun 2027 04:34:01.497            24.627         12313.500
       311   11 Jun 2027 05:52:36.855   11 Jun 2027 05:53:13.162            36.307         18153.500
       312   11 Jun 2027 06:04:49.904   11 Jun 2027 06:05:28.377            38.473         19236.500
       313   11 Jun 2027 07:26:52.446   11 Jun 2027 07:27:02.661            10.215          4473.469
       314   11 Jun 2027 07:29:01.347   11 Jun 2027 07:29:11.723            10.376          3502.562
       315   11 Jun 2027 07:29:22.926   11 Jun 2027 07:29:25.375             2.449           175.438
       316   11 Jun 2027 07:30:25.773   11 Jun 2027 07:30:25.773             0.000             0.000
       317   11 Jun 2027 07:30:31.556   11 Jun 2027 07:30:37.826             6.270          1807.750
       318   11 Jun 2027 07:31:21.539   11 Jun 2027 07:31:23.855             2.316           802.000
       319   11 Jun 2027 07:31:25.951   11 Jun 2027 07:31:32.357             6.406            65.500
       320   11 Jun 2027 09:01:44.909   11 Jun 2027 09:01:54.471             9.562          4444.031
       321   11 Jun 2027 09:03:36.468   11 Jun 2027 09:03:41.057             4.589          2163.156
       322   11 Jun 2027 09:06:01.710   11 Jun 2027 09:06:13.689            11.979          4351.344
       323   11 Jun 2027 09:06:37.689   11 Jun 2027 09:06:39.798             2.109            87.250
       324   11 Jun 2027 09:08:01.949   11 Jun 2027 09:08:01.949             0.000             0.000
       325   11 Jun 2027 09:09:32.629   11 Jun 2027 09:09:32.667             0.038            19.000
       326   11 Jun 2027 09:09:59.922   11 Jun 2027 09:10:09.671             9.749          4226.938
       327   11 Jun 2027 10:39:27.519   11 Jun 2027 10:39:37.777            10.258          5128.562
       328   11 Jun 2027 10:40:25.352   11 Jun 2027 10:40:26.128             0.776           253.094
       329   11 Jun 2027 10:40:29.135   11 Jun 2027 10:40:29.529             0.394            91.875
       330   11 Jun 2027 10:40:31.834   11 Jun 2027 10:40:35.867             4.033            72.031
       331   11 Jun 2027 10:40:41.941   11 Jun 2027 10:40:43.236             1.295           160.562
       332   11 Jun 2027 10:41:05.267   11 Jun 2027 10:41:10.587             5.320           347.406
       333   11 Jun 2027 10:41:35.791   11 Jun 2027 10:41:40.424             4.633           694.625
       334   11 Jun 2027 10:42:00.343   11 Jun 2027 10:42:05.207             4.864           611.062
       335   11 Jun 2027 10:42:29.234   11 Jun 2027 10:42:33.563             4.329           583.188
       336   11 Jun 2027 10:45:03.434   11 Jun 2027 10:45:11.743             8.309          4154.500
       337   11 Jun 2027 10:45:19.035   11 Jun 2027 10:45:21.253             2.218           756.843
       338   11 Jun 2027 10:45:55.941   11 Jun 2027 10:45:58.271             2.330          1084.000
       339   11 Jun 2027 10:46:11.877   11 Jun 2027 10:46:16.271             4.394           425.188
       340   11 Jun 2027 10:46:53.683   11 Jun 2027 10:46:54.640             0.957           478.500
       341   12 Jun 2027 03:02:14.817   12 Jun 2027 03:02:39.984            25.167         12583.500
       342   12 Jun 2027 03:02:42.378   12 Jun 2027 03:03:34.794            52.416         26208.000
       343   12 Jun 2027 03:03:53.831   12 Jun 2027 03:04:13.694            19.863          9931.500
       344   12 Jun 2027 03:04:49.867   12 Jun 2027 03:04:49.867             0.000             0.000
       345   12 Jun 2027 03:07:31.122   12 Jun 2027 03:07:44.711            13.589          6794.500
       346   12 Jun 2027 04:40:37.246   12 Jun 2027 04:42:55.168           137.922         68961.000
       347   12 Jun 2027 04:42:58.499   12 Jun 2027 04:43:15.240            16.741          8370.500
       348   12 Jun 2027 04:43:59.921   12 Jun 2027 04:43:59.921             0.000             0.000
       349   12 Jun 2027 04:44:27.091   12 Jun 2027 04:44:41.989            14.898          7449.000
       350   12 Jun 2027 06:04:41.770   12 Jun 2027 06:05:14.779            33.009         16504.500
       351   12 Jun 2027 06:05:22.276   12 Jun 2027 06:05:43.046            20.770          8521.812
       352   12 Jun 2027 06:05:54.609   12 Jun 2027 06:05:55.777             1.168           361.344
       353   12 Jun 2027 07:38:28.170   12 Jun 2027 07:38:38.970            10.800          5056.406
       354   12 Jun 2027 07:40:30.288   12 Jun 2027 07:40:36.481             6.193          2743.781
       355   12 Jun 2027 07:41:03.949   12 Jun 2027 07:41:08.483             4.534           385.094
       356   12 Jun 2027 07:41:32.212   12 Jun 2027 07:41:33.405             1.193           480.219
       357   12 Jun 2027 07:42:15.862   12 Jun 2027 07:42:15.862             0.000             0.000
       358   12 Jun 2027 07:42:32.030   12 Jun 2027 07:42:37.935             5.905          1306.156
       359   12 Jun 2027 07:43:08.147   12 Jun 2027 07:43:09.579             1.432           451.125
       360   12 Jun 2027 07:43:44.617   12 Jun 2027 07:43:44.617             0.000             0.000
       361   12 Jun 2027 09:14:28.565   12 Jun 2027 09:14:36.435             7.870          3729.875
       362   12 Jun 2027 09:15:23.772   12 Jun 2027 09:15:27.326             3.554           756.062
       363   12 Jun 2027 09:15:46.195   12 Jun 2027 09:15:48.689             2.494           270.375
       364   12 Jun 2027 09:16:36.256   12 Jun 2027 09:16:38.359             2.103          1022.844
       365   12 Jun 2027 09:17:00.758   12 Jun 2027 09:17:01.036             0.278            47.531
       366   12 Jun 2027 09:20:25.806   12 Jun 2027 09:20:38.435            12.629          5588.063
       367   12 Jun 2027 09:21:01.241   12 Jun 2027 09:21:03.080             1.839           494.125
       368   12 Jun 2027 09:22:06.979   12 Jun 2027 09:22:06.979             0.000             0.000
       369   12 Jun 2027 09:22:43.937   12 Jun 2027 09:22:53.494             9.557          2532.531
       370   12 Jun 2027 09:22:56.734   12 Jun 2027 09:22:57.910             1.176            80.469
       371   12 Jun 2027 10:51:31.137   12 Jun 2027 10:51:49.033            17.896          6776.000
       372   12 Jun 2027 10:54:20.251   12 Jun 2027 10:54:20.251             0.000             0.000
       373   12 Jun 2027 10:55:44.401   12 Jun 2027 10:55:58.423            14.022          6653.687
       374   12 Jun 2027 10:56:25.987   12 Jun 2027 10:56:28.077             2.090           861.375
       375   12 Jun 2027 10:56:59.208   12 Jun 2027 10:56:59.826             0.618           309.000
       376   12 Jun 2027 10:57:00.727   12 Jun 2027 10:57:02.314             1.587           692.000
       377   12 Jun 2027 10:57:28.101   12 Jun 2027 10:57:31.700             3.599           589.719
       378   12 Jun 2027 10:58:01.218   12 Jun 2027 10:58:03.756             2.538           573.562
       379   12 Jun 2027 10:58:26.596   12 Jun 2027 10:58:29.233             2.637           713.750
       380   12 Jun 2027 10:58:36.782   12 Jun 2027 10:58:37.924             1.142           118.594
       381   13 Jun 2027 03:14:47.609   13 Jun 2027 03:15:39.277            51.668         25834.000
       382   13 Jun 2027 03:15:49.322   13 Jun 2027 03:16:31.325            42.003         21001.500
       383   13 Jun 2027 03:16:31.903   13 Jun 2027 03:17:24.037            52.134         26067.000
       384   13 Jun 2027 03:17:50.458   13 Jun 2027 03:18:24.779            34.321         17160.500
       385   13 Jun 2027 03:19:28.812   13 Jun 2027 03:19:28.812             0.000             0.000
       386   13 Jun 2027 04:53:11.628   13 Jun 2027 04:53:51.319            39.691         19845.500
       387   13 Jun 2027 04:54:21.058   13 Jun 2027 04:54:53.052            31.994         15997.000
       388   13 Jun 2027 04:55:19.171   13 Jun 2027 04:56:03.914            44.743         22371.500
       389   13 Jun 2027 04:57:06.507   13 Jun 2027 04:57:12.679             6.172          2999.094
       390   13 Jun 2027 06:16:36.719   13 Jun 2027 06:16:53.643            16.924          8380.312
       391   13 Jun 2027 06:18:22.937   13 Jun 2027 06:18:22.937             0.000             0.000
       392   13 Jun 2027 06:18:46.498   13 Jun 2027 06:18:54.397             7.899          3139.781
       393   13 Jun 2027 07:52:55.753   13 Jun 2027 07:53:09.804            14.051          5916.562
       394   13 Jun 2027 07:53:24.128   13 Jun 2027 07:53:24.128             0.000             0.000
       395   13 Jun 2027 07:53:25.656   13 Jun 2027 07:53:27.376             1.720           328.813
       396   13 Jun 2027 07:53:34.915   13 Jun 2027 07:53:34.915             0.000             0.000
       397   13 Jun 2027 07:53:51.316   13 Jun 2027 07:53:52.127             0.811           405.500
       398   13 Jun 2027 07:54:40.446   13 Jun 2027 07:54:45.105             4.659          1775.719
       399   13 Jun 2027 07:54:54.512   13 Jun 2027 07:54:54.512             0.000             0.000
       400   13 Jun 2027 07:55:13.334   13 Jun 2027 07:55:15.928             2.594           712.531
       401   13 Jun 2027 09:26:25.553   13 Jun 2027 09:26:33.975             8.422          3844.844
       402   13 Jun 2027 09:27:03.033   13 Jun 2027 09:27:04.580             1.547           640.375
       403   13 Jun 2027 09:28:52.526   13 Jun 2027 09:28:55.453             2.927          1463.500
       404   13 Jun 2027 09:29:01.600   13 Jun 2027 09:29:03.803             2.203          1052.625
       405   13 Jun 2027 09:32:58.144   13 Jun 2027 09:33:23.805            25.661          6655.875
       406   13 Jun 2027 09:33:25.585   13 Jun 2027 09:33:26.076             0.491            40.375
       407   13 Jun 2027 09:33:29.644   13 Jun 2027 09:33:29.724             0.080            33.937
       408   13 Jun 2027 09:34:37.674   13 Jun 2027 09:34:42.929             5.255          2123.438
       409   13 Jun 2027 09:34:45.026   13 Jun 2027 09:34:46.444             1.418            65.531
       410   13 Jun 2027 09:34:52.401   13 Jun 2027 09:34:56.698             4.297            30.281
       411   13 Jun 2027 11:03:57.347   13 Jun 2027 11:04:10.507            13.160          6580.000
       412   13 Jun 2027 11:04:41.126   13 Jun 2027 11:04:46.268             5.142          1707.281
       413   13 Jun 2027 11:05:29.859   13 Jun 2027 11:05:31.769             1.910           779.562
       414   13 Jun 2027 11:06:14.412   13 Jun 2027 11:06:19.165             4.753           544.469
       415   13 Jun 2027 11:06:34.295   13 Jun 2027 11:06:35.920             1.625           472.812
       416   13 Jun 2027 11:07:17.569   13 Jun 2027 11:07:19.668             2.099           528.906
       417   13 Jun 2027 11:08:45.940   13 Jun 2027 11:08:53.701             7.761          2009.500
       418   13 Jun 2027 11:10:10.995   13 Jun 2027 11:10:14.990             3.995          1997.500
       419   13 Jun 2027 11:10:23.307   13 Jun 2027 11:10:25.008             1.701           676.219
       420   13 Jun 2027 11:10:37.051   13 Jun 2027 11:10:42.093             5.042           376.344
