uniorb/output/strategy_2/Camera/Camera_KinoSat_110210.txt

KinoSat_110210
-------------------------
    Access    *     Start Time (UTCG)     *     Stop Time (UTCG)  *   Duration (s) *   Data (Mbytes)
         1   01 Jun 2027 03:12:58.512   01 Jun 2027 03:13:05.032             6.520          3260.000
         2   01 Jun 2027 03:13:34.003   01 Jun 2027 03:13:36.351             2.348          1174.000
         3   01 Jun 2027 03:13:49.494   01 Jun 2027 03:13:57.707             8.213          4106.500
         4   01 Jun 2027 03:14:56.778   01 Jun 2027 03:14:59.598             2.820          1410.000
         5   01 Jun 2027 03:15:30.045   01 Jun 2027 03:15:33.160             3.115          1557.500
         6   01 Jun 2027 03:15:39.806   01 Jun 2027 03:15:41.686             1.880           940.000
         7   01 Jun 2027 03:16:14.608   01 Jun 2027 03:16:26.047            11.439          5719.500
         8   01 Jun 2027 03:17:18.269   01 Jun 2027 03:17:18.499             0.230           115.000
         9   01 Jun 2027 03:18:16.012   01 Jun 2027 03:18:17.268             1.256           628.000
        10   01 Jun 2027 03:18:52.429   01 Jun 2027 03:19:01.956             9.527          4763.500
        11   01 Jun 2027 03:19:15.677   01 Jun 2027 03:19:18.146             2.469          1234.500
        12   01 Jun 2027 03:19:56.289   01 Jun 2027 03:20:01.510             5.221          2610.500
        13   01 Jun 2027 03:20:22.396   01 Jun 2027 03:20:33.265            10.869          5434.500
        14   01 Jun 2027 04:50:03.501   01 Jun 2027 04:50:20.620            17.119          8559.500
        15   01 Jun 2027 04:51:19.735   01 Jun 2027 04:51:27.671             7.936          3968.000
        16   01 Jun 2027 04:52:10.323   01 Jun 2027 04:52:17.521             7.198          3599.000
        17   01 Jun 2027 04:52:39.951   01 Jun 2027 04:52:50.778            10.827          5413.500
        18   01 Jun 2027 04:53:55.423   01 Jun 2027 04:53:58.935             3.512          1756.000
        19   01 Jun 2027 04:54:20.563   01 Jun 2027 04:54:22.449             1.886           943.000
        20   01 Jun 2027 04:54:30.903   01 Jun 2027 04:54:34.886             3.983          1991.500
        21   01 Jun 2027 04:54:56.023   01 Jun 2027 04:55:02.198             6.175          3087.500
        22   01 Jun 2027 04:55:32.250   01 Jun 2027 04:55:32.611             0.361           180.500
        23   01 Jun 2027 04:55:42.640   01 Jun 2027 04:55:44.599             1.959           979.500
        24   01 Jun 2027 04:55:53.432   01 Jun 2027 04:56:03.629            10.197          5098.500
        25   01 Jun 2027 06:28:02.449   01 Jun 2027 06:28:02.916             0.467           233.500
        26   01 Jun 2027 06:28:37.322   01 Jun 2027 06:28:38.708             1.386           693.000
        27   01 Jun 2027 06:29:27.384   01 Jun 2027 06:29:42.744            15.360          7680.000
        28   01 Jun 2027 06:31:18.823   01 Jun 2027 06:31:21.097             2.274          1137.000
        29   01 Jun 2027 06:31:35.871   01 Jun 2027 06:31:43.772             7.901          3950.500
        30   01 Jun 2027 08:01:11.187   01 Jun 2027 08:01:20.359             9.172          4586.000
        31   01 Jun 2027 08:01:50.563   01 Jun 2027 08:02:09.963            19.400          9700.000
        32   01 Jun 2027 08:03:46.284   01 Jun 2027 08:04:00.126            13.842          6921.000
        33   01 Jun 2027 08:05:28.973   01 Jun 2027 08:05:31.129             2.156          1078.000
        34   01 Jun 2027 08:05:47.904   01 Jun 2027 08:06:26.552            38.648         19324.000
        35   02 Jun 2027 03:25:16.626   02 Jun 2027 03:25:20.242             3.616          1808.000
        36   02 Jun 2027 03:25:42.505   02 Jun 2027 03:25:45.148             2.643          1321.500
        37   02 Jun 2027 03:26:11.324   02 Jun 2027 03:26:12.533             1.209           604.500
        38   02 Jun 2027 03:26:35.595   02 Jun 2027 03:26:49.801            14.206          7103.000
        39   02 Jun 2027 03:27:22.111   02 Jun 2027 03:27:36.199            14.088          7044.000
        40   02 Jun 2027 03:29:04.588   02 Jun 2027 03:29:11.660             7.072          3536.000
        41   02 Jun 2027 03:30:05.194   02 Jun 2027 03:30:05.712             0.518           259.000
        42   02 Jun 2027 03:30:51.234   02 Jun 2027 03:30:52.197             0.963           481.500
        43   02 Jun 2027 03:31:20.469   02 Jun 2027 03:31:28.208             7.739          3869.500
        44   02 Jun 2027 03:31:57.833   02 Jun 2027 03:32:07.890            10.057          5028.500
        45   02 Jun 2027 05:02:04.957   02 Jun 2027 05:02:08.039             3.082          1541.000
        46   02 Jun 2027 05:02:28.704   02 Jun 2027 05:02:34.690             5.986          2993.000
        47   02 Jun 2027 05:03:09.885   02 Jun 2027 05:03:11.154             1.269           634.500
        48   02 Jun 2027 05:03:56.758   02 Jun 2027 05:04:06.325             9.567          4783.500
        49   02 Jun 2027 05:04:54.187   02 Jun 2027 05:04:58.090             3.903          1951.500
        50   02 Jun 2027 05:05:24.728   02 Jun 2027 05:05:24.894             0.166            83.000
        51   02 Jun 2027 05:06:00.194   02 Jun 2027 05:06:00.632             0.438           219.000
        52   02 Jun 2027 05:06:02.960   02 Jun 2027 05:06:13.160            10.200          5100.000
        53   02 Jun 2027 05:07:06.591   02 Jun 2027 05:07:14.671             8.080          4040.000
        54   02 Jun 2027 05:08:05.699   02 Jun 2027 05:08:09.655             3.956          1978.000
        55   02 Jun 2027 06:40:02.092   02 Jun 2027 06:40:05.199             3.107          1553.500
        56   02 Jun 2027 06:40:43.284   02 Jun 2027 06:40:44.858             1.574           787.000
        57   02 Jun 2027 06:41:10.672   02 Jun 2027 06:41:11.413             0.741           370.500
        58   02 Jun 2027 06:41:15.342   02 Jun 2027 06:41:17.180             1.838           919.000
        59   02 Jun 2027 06:41:39.471   02 Jun 2027 06:41:40.733             1.262           631.000
        60   02 Jun 2027 06:42:16.611   02 Jun 2027 06:42:18.513             1.902           951.000
        61   02 Jun 2027 06:42:49.646   02 Jun 2027 06:42:51.535             1.889           944.500
        62   02 Jun 2027 06:43:09.762   02 Jun 2027 06:43:15.213             5.451          2725.500
        63   02 Jun 2027 08:13:38.542   02 Jun 2027 08:13:59.861            21.319         10659.500
        64   02 Jun 2027 08:15:35.242   02 Jun 2027 08:15:44.617             9.375          4687.500
        65   02 Jun 2027 08:16:02.177   02 Jun 2027 08:16:15.837            13.660          6830.000
        66   02 Jun 2027 08:17:41.303   02 Jun 2027 08:17:45.957             4.654          2327.000
        67   02 Jun 2027 08:17:53.725   02 Jun 2027 08:17:54.673             0.948           474.000
        68   02 Jun 2027 08:18:36.585   02 Jun 2027 08:18:41.722             5.137          2568.500
        69   02 Jun 2027 08:19:06.001   02 Jun 2027 08:19:06.480             0.479           239.500
        70   02 Jun 2027 08:19:16.125   02 Jun 2027 08:19:19.475             3.350          1675.000
        71   02 Jun 2027 08:19:51.598   02 Jun 2027 08:19:53.462             1.864           932.000
        72   02 Jun 2027 08:19:55.409   02 Jun 2027 08:20:02.541             7.132          3566.000
        73   02 Jun 2027 08:20:40.994   02 Jun 2027 08:20:49.463             8.469          4234.500
        74   03 Jun 2027 03:37:11.432   03 Jun 2027 03:37:28.496            17.064          8532.000
        75   03 Jun 2027 03:39:10.527   03 Jun 2027 03:39:10.790             0.263           131.500
        76   03 Jun 2027 03:39:32.284   03 Jun 2027 03:39:33.279             0.995           497.500
        77   03 Jun 2027 03:40:08.112   03 Jun 2027 03:40:19.691            11.579          5789.500
        78   03 Jun 2027 03:41:22.903   03 Jun 2027 03:41:25.697             2.794          1397.000
        79   03 Jun 2027 03:41:58.715   03 Jun 2027 03:42:10.084            11.369          5684.500
        80   03 Jun 2027 03:43:07.751   03 Jun 2027 03:43:12.321             4.570          2285.000
        81   03 Jun 2027 03:43:56.173   03 Jun 2027 03:43:59.157             2.984          1492.000
        82   03 Jun 2027 03:44:24.315   03 Jun 2027 03:44:24.473             0.158            79.000
        83   03 Jun 2027 03:44:36.820   03 Jun 2027 03:44:37.044             0.224           112.000
        84   03 Jun 2027 05:13:55.826   03 Jun 2027 05:13:57.905             2.079          1039.500
        85   03 Jun 2027 05:14:15.714   03 Jun 2027 05:14:23.755             8.041          4020.500
        86   03 Jun 2027 05:14:29.984   03 Jun 2027 05:14:33.893             3.909          1954.500
        87   03 Jun 2027 05:15:05.856   03 Jun 2027 05:15:48.261            42.405         21202.500
        88   03 Jun 2027 05:18:42.677   03 Jun 2027 05:18:50.219             7.542          3771.000
        89   03 Jun 2027 05:20:10.287   03 Jun 2027 05:20:20.378            10.091          5045.500
        90   03 Jun 2027 06:52:03.843   03 Jun 2027 06:52:10.917             7.074          3537.000
        91   03 Jun 2027 06:53:27.521   03 Jun 2027 06:53:30.793             3.272          1636.000
        92   03 Jun 2027 06:53:46.049   03 Jun 2027 06:53:49.687             3.638          1819.000
        93   03 Jun 2027 06:54:12.210   03 Jun 2027 06:54:12.583             0.373           186.500
        94   03 Jun 2027 06:54:23.232   03 Jun 2027 06:54:24.244             1.012           506.000
        95   03 Jun 2027 06:54:38.719   03 Jun 2027 06:54:46.503             7.784          3892.000
        96   03 Jun 2027 06:55:28.423   03 Jun 2027 06:55:29.447             1.024           512.000
        97   03 Jun 2027 06:56:02.557   03 Jun 2027 06:56:06.764             4.207          2103.500
        98   03 Jun 2027 08:25:54.689   03 Jun 2027 08:26:04.874            10.185          5092.500
        99   03 Jun 2027 08:27:02.041   03 Jun 2027 08:27:15.528            13.487          6743.500
       100   03 Jun 2027 08:27:35.728   03 Jun 2027 08:27:35.728             0.000             0.000
       101   03 Jun 2027 08:28:21.736   03 Jun 2027 08:28:25.569             3.833          1916.500
       102   03 Jun 2027 08:29:12.999   03 Jun 2027 08:29:22.878             9.879          4939.500
       103   03 Jun 2027 08:30:07.100   03 Jun 2027 08:30:10.405             3.305          1652.500
       104   03 Jun 2027 08:30:52.075   03 Jun 2027 08:30:52.619             0.544           272.000
       105   03 Jun 2027 08:30:57.881   03 Jun 2027 08:30:58.406             0.525           262.500
       106   03 Jun 2027 08:31:06.940   03 Jun 2027 08:31:12.805             5.865          2932.500
       107   03 Jun 2027 08:31:41.305   03 Jun 2027 08:31:50.208             8.903          4451.500
       108   04 Jun 2027 03:49:17.851   04 Jun 2027 03:49:18.935             1.084           542.000
       109   04 Jun 2027 03:49:27.740   04 Jun 2027 03:49:30.528             2.788          1394.000
       110   04 Jun 2027 03:50:19.342   04 Jun 2027 03:50:33.289            13.947          6973.500
       111   04 Jun 2027 03:51:34.873   04 Jun 2027 03:51:39.043             4.170          2085.000
       112   04 Jun 2027 03:51:42.163   04 Jun 2027 03:51:48.351             6.188          3094.000
       113   04 Jun 2027 03:52:30.613   04 Jun 2027 03:52:49.325            18.712          9356.000
       114   04 Jun 2027 03:54:20.246   04 Jun 2027 03:54:26.566             6.320          3160.000
       115   04 Jun 2027 03:55:09.029   04 Jun 2027 03:55:09.405             0.376           188.000
       116   04 Jun 2027 03:55:18.028   04 Jun 2027 03:55:24.417             6.389          3194.500
       117   04 Jun 2027 03:55:55.521   04 Jun 2027 03:56:00.235             4.714          2357.000
       118   04 Jun 2027 05:26:20.639   04 Jun 2027 05:26:26.601             5.962          2981.000
       119   04 Jun 2027 05:26:57.271   04 Jun 2027 05:26:59.536             2.265          1132.500
       120   04 Jun 2027 05:27:46.189   04 Jun 2027 05:27:46.780             0.591           295.500
       121   04 Jun 2027 05:27:48.230   04 Jun 2027 05:27:55.867             7.637          3818.500
       122   04 Jun 2027 05:28:10.702   04 Jun 2027 05:28:12.653             1.951           975.500
       123   04 Jun 2027 05:29:16.790   04 Jun 2027 05:29:20.992             4.202          2101.000
       124   04 Jun 2027 05:29:50.528   04 Jun 2027 05:30:03.533            13.005          6502.500
       125   04 Jun 2027 05:31:04.988   04 Jun 2027 05:31:10.153             5.165          2582.500
       126   04 Jun 2027 05:31:53.809   04 Jun 2027 05:31:54.507             0.698           349.000
       127   04 Jun 2027 05:32:21.957   04 Jun 2027 05:32:27.698             5.741          2870.500
       128   04 Jun 2027 07:03:18.168   04 Jun 2027 07:03:32.729            14.561          7280.500
       129   04 Jun 2027 07:04:46.556   04 Jun 2027 07:04:54.046             7.490          3745.000
       130   04 Jun 2027 07:05:37.452   04 Jun 2027 07:05:39.443             1.991           995.500
       131   04 Jun 2027 07:06:19.751   04 Jun 2027 07:06:27.274             7.523          3761.500
       132   04 Jun 2027 07:07:04.386   04 Jun 2027 07:07:11.465             7.079          3539.500
       133   04 Jun 2027 07:07:57.195   04 Jun 2027 07:07:59.389             2.194          1097.000
       134   04 Jun 2027 08:38:21.480   04 Jun 2027 08:38:25.571             4.091          2045.500
       135   04 Jun 2027 08:40:01.509   04 Jun 2027 08:40:08.399             6.890          3445.000
       136   04 Jun 2027 08:40:36.897   04 Jun 2027 08:41:17.934            41.037         20518.500
       137   05 Jun 2027 04:01:43.984   05 Jun 2027 04:01:53.545             9.561          4780.500
       138   05 Jun 2027 04:03:19.771   05 Jun 2027 04:03:27.535             7.764          3882.000
       139   05 Jun 2027 04:04:04.399   05 Jun 2027 04:04:11.475             7.076          3538.000
       140   05 Jun 2027 04:05:07.076   05 Jun 2027 04:05:24.625            17.549          8774.500
       141   05 Jun 2027 04:06:43.507   05 Jun 2027 04:06:58.269            14.762          7381.000
       142   05 Jun 2027 04:07:56.837   05 Jun 2027 04:07:56.837             0.000             0.000
       143   05 Jun 2027 04:08:12.621   05 Jun 2027 04:08:25.439            12.818          6409.000
       144   05 Jun 2027 05:38:40.931   05 Jun 2027 05:38:52.277            11.346          5673.000
       145   05 Jun 2027 05:39:54.617   05 Jun 2027 05:39:55.238             0.621           310.500
       146   05 Jun 2027 05:40:02.353   05 Jun 2027 05:40:10.470             8.117          4058.500
       147   05 Jun 2027 05:41:04.067   05 Jun 2027 05:41:17.606            13.539          6769.500
       148   05 Jun 2027 05:42:20.515   05 Jun 2027 05:42:20.994             0.479           239.500
       149   05 Jun 2027 05:42:27.842   05 Jun 2027 05:42:39.542            11.700          5850.000
       150   05 Jun 2027 05:43:37.973   05 Jun 2027 05:43:39.963             1.990           995.000
       151   05 Jun 2027 05:43:56.686   05 Jun 2027 05:44:04.997             8.311          4155.500
       152   05 Jun 2027 07:15:31.394   05 Jun 2027 07:15:32.728             1.334           667.000
       153   05 Jun 2027 07:16:13.620   05 Jun 2027 07:16:20.343             6.723          3361.500
       154   05 Jun 2027 07:17:06.473   05 Jun 2027 07:17:08.874             2.401          1200.500
       155   05 Jun 2027 07:17:47.575   05 Jun 2027 07:17:53.897             6.322          3161.000
       156   05 Jun 2027 07:18:15.299   05 Jun 2027 07:18:17.729             2.430          1215.000
       157   05 Jun 2027 07:18:40.405   05 Jun 2027 07:18:43.926             3.521          1760.500
       158   05 Jun 2027 07:18:58.863   05 Jun 2027 07:19:13.018            14.155          7077.500
       159   05 Jun 2027 08:53:11.679   05 Jun 2027 08:53:11.813             0.134            67.000
       160   05 Jun 2027 08:53:37.242   05 Jun 2027 08:53:49.016            11.774          5887.000
       161   05 Jun 2027 08:54:36.403   05 Jun 2027 08:54:47.829            11.426          5713.000
       162   06 Jun 2027 04:13:51.415   06 Jun 2027 04:14:11.226            19.811          9905.500
       163   06 Jun 2027 04:15:38.679   06 Jun 2027 04:15:48.183             9.504          4752.000
       164   06 Jun 2027 04:16:06.744   06 Jun 2027 04:16:09.325             2.581          1290.500
       165   06 Jun 2027 04:16:19.496   06 Jun 2027 04:16:23.119             3.623          1811.500
       166   06 Jun 2027 04:17:27.532   06 Jun 2027 04:17:29.935             2.403          1201.500
       167   06 Jun 2027 04:17:40.740   06 Jun 2027 04:17:43.724             2.984          1492.000
       168   06 Jun 2027 04:18:09.710   06 Jun 2027 04:18:11.689             1.979           989.500
       169   06 Jun 2027 04:18:26.188   06 Jun 2027 04:18:28.050             1.862           931.000
       170   06 Jun 2027 04:18:41.475   06 Jun 2027 04:18:45.653             4.178          2089.000
       171   06 Jun 2027 04:19:50.484   06 Jun 2027 04:19:57.980             7.496          3748.000
       172   06 Jun 2027 05:51:35.347   06 Jun 2027 05:51:40.046             4.699          2349.500
       173   06 Jun 2027 05:52:20.065   06 Jun 2027 05:52:21.249             1.184           592.000
       174   06 Jun 2027 05:52:44.280   06 Jun 2027 05:52:49.780             5.500          2750.000
       175   06 Jun 2027 05:53:40.114   06 Jun 2027 05:53:40.858             0.744           372.000
       176   06 Jun 2027 05:54:02.053   06 Jun 2027 05:54:05.666             3.613          1806.500
       177   06 Jun 2027 05:54:21.323   06 Jun 2027 05:54:32.375            11.052          5526.000
       178   06 Jun 2027 05:55:46.597   06 Jun 2027 05:55:55.132             8.535          4267.500
       179   06 Jun 2027 07:27:41.430   06 Jun 2027 07:27:44.644             3.214          1607.000
       180   06 Jun 2027 07:27:58.944   06 Jun 2027 07:27:59.626             0.682           341.000
       181   06 Jun 2027 07:28:12.720   06 Jun 2027 07:28:20.978             8.258          4129.000
       182   06 Jun 2027 07:29:28.169   06 Jun 2027 07:29:34.674             6.505          3252.500
       183   06 Jun 2027 07:30:01.785   06 Jun 2027 07:30:05.277             3.492          1746.000
       184   06 Jun 2027 07:30:19.843   06 Jun 2027 07:30:24.908             5.065          2532.500
       185   06 Jun 2027 07:30:46.201   06 Jun 2027 07:30:53.940             7.739          3869.500
       186   06 Jun 2027 07:31:40.794   06 Jun 2027 07:31:46.732             5.938          2969.000
       187   07 Jun 2027 04:26:25.431   07 Jun 2027 04:26:35.169             9.738          4869.000
       188   07 Jun 2027 04:27:47.088   07 Jun 2027 04:27:57.485            10.397          5198.500
       189   07 Jun 2027 04:29:05.172   07 Jun 2027 04:29:16.556            11.384          5692.000
       190   07 Jun 2027 04:30:35.353   07 Jun 2027 04:30:47.372            12.019          6009.500
       191   07 Jun 2027 04:31:58.914   07 Jun 2027 04:32:08.305             9.391          4695.500
       192   07 Jun 2027 06:03:41.426   07 Jun 2027 06:03:46.889             5.463          2731.500
       193   07 Jun 2027 06:04:39.506   07 Jun 2027 06:04:55.715            16.209          8104.500
       194   07 Jun 2027 06:05:49.098   07 Jun 2027 06:05:49.332             0.234           117.000
       195   07 Jun 2027 06:06:12.431   07 Jun 2027 06:06:18.526             6.095          3047.500
       196   07 Jun 2027 06:06:52.073   07 Jun 2027 06:06:55.965             3.892          1946.000
       197   07 Jun 2027 06:07:20.316   07 Jun 2027 06:07:29.373             9.057          4528.500
       198   07 Jun 2027 07:39:55.643   07 Jun 2027 07:40:09.776            14.133          7066.500
       199   07 Jun 2027 07:40:34.304   07 Jun 2027 07:40:34.996             0.692           346.000
       200   07 Jun 2027 07:41:49.308   07 Jun 2027 07:41:55.335             6.027          3013.500
       201   07 Jun 2027 07:42:25.921   07 Jun 2027 07:42:37.494            11.573          5786.500
       202   07 Jun 2027 07:43:40.296   07 Jun 2027 07:43:42.664             2.368          1184.000
       203   07 Jun 2027 07:44:15.983   07 Jun 2027 07:44:23.215             7.232          3616.000
       204   08 Jun 2027 03:01:39.749   08 Jun 2027 03:01:41.842             2.093          1046.500
       205   08 Jun 2027 03:01:58.086   08 Jun 2027 03:02:11.253            13.167          6583.500
       206   08 Jun 2027 03:03:08.075   08 Jun 2027 03:03:08.211             0.136            68.000
       207   08 Jun 2027 03:03:19.041   08 Jun 2027 03:03:30.960            11.919          5959.500
       208   08 Jun 2027 03:04:17.414   08 Jun 2027 03:04:20.185             2.771          1385.500
       209   08 Jun 2027 03:04:40.118   08 Jun 2027 03:04:50.072             9.954          4977.000
       210   08 Jun 2027 03:05:43.590   08 Jun 2027 03:05:48.916             5.326          2663.000
       211   08 Jun 2027 03:06:44.302   08 Jun 2027 03:06:45.313             1.011           505.500
       212   08 Jun 2027 03:07:18.098   08 Jun 2027 03:07:18.718             0.620           310.000
       213   08 Jun 2027 03:07:58.425   08 Jun 2027 03:08:04.502             6.077          3038.500
       214   08 Jun 2027 04:37:59.098   08 Jun 2027 04:38:09.768            10.670          5335.000
       215   08 Jun 2027 04:38:54.745   08 Jun 2027 04:39:07.776            13.031          6515.500
       216   08 Jun 2027 04:39:36.094   08 Jun 2027 04:39:37.174             1.080           540.000
       217   08 Jun 2027 04:40:14.732   08 Jun 2027 04:40:43.390            28.658         14329.000
       218   08 Jun 2027 04:42:44.629   08 Jun 2027 04:42:50.124             5.495          2747.500
       219   08 Jun 2027 04:43:17.716   08 Jun 2027 04:43:28.496            10.780          5390.000
       220   08 Jun 2027 04:44:18.580   08 Jun 2027 04:44:23.690             5.110          2555.000
       221   08 Jun 2027 06:16:14.231   08 Jun 2027 06:16:16.333             2.102          1051.000
       222   08 Jun 2027 06:16:56.207   08 Jun 2027 06:17:05.866             9.659          4829.500
       223   08 Jun 2027 06:17:48.366   08 Jun 2027 06:17:49.854             1.488           744.000
       224   08 Jun 2027 06:17:58.148   08 Jun 2027 06:17:58.595             0.447           223.500
       225   08 Jun 2027 06:18:06.769   08 Jun 2027 06:18:09.456             2.687          1343.500
       226   08 Jun 2027 06:18:36.703   08 Jun 2027 06:18:38.990             2.287          1143.500
       227   08 Jun 2027 06:18:55.692   08 Jun 2027 06:19:06.498            10.806          5403.000
       228   08 Jun 2027 07:51:34.698   08 Jun 2027 07:51:37.576             2.878          1439.000
       229   08 Jun 2027 07:52:06.307   08 Jun 2027 07:52:13.868             7.561          3780.500
       230   08 Jun 2027 07:52:28.009   08 Jun 2027 07:52:28.009             0.000             0.000
       231   08 Jun 2027 07:53:07.911   08 Jun 2027 07:53:38.383            30.472         15236.000
       232   08 Jun 2027 07:56:06.867   08 Jun 2027 07:56:10.033             3.166          1583.000
       233   08 Jun 2027 07:56:21.249   08 Jun 2027 07:56:36.903            15.654          7827.000
       234   08 Jun 2027 07:56:42.124   08 Jun 2027 07:56:42.738             0.614           307.000
       235   09 Jun 2027 03:13:13.118   09 Jun 2027 03:13:19.922             6.804          3402.000
       236   09 Jun 2027 03:13:28.921   09 Jun 2027 03:13:32.497             3.576          1788.000
       237   09 Jun 2027 03:13:51.873   09 Jun 2027 03:13:58.904             7.031          3515.500
       238   09 Jun 2027 03:14:54.484   09 Jun 2027 03:15:01.143             6.659          3329.500
       239   09 Jun 2027 03:15:56.335   09 Jun 2027 03:16:00.992             4.657          2328.500
       240   09 Jun 2027 03:16:25.968   09 Jun 2027 03:16:28.394             2.426          1213.000
       241   09 Jun 2027 03:16:46.842   09 Jun 2027 03:16:48.775             1.933           966.500
       242   09 Jun 2027 03:17:33.071   09 Jun 2027 03:17:33.912             0.841           420.500
       243   09 Jun 2027 03:18:32.385   09 Jun 2027 03:18:33.003             0.618           309.000
       244   09 Jun 2027 03:18:37.971   09 Jun 2027 03:18:45.448             7.477          3738.500
       245   09 Jun 2027 03:19:17.915   09 Jun 2027 03:19:20.300             2.385          1192.500
       246   09 Jun 2027 03:19:28.851   09 Jun 2027 03:19:34.017             5.166          2583.000
       247   09 Jun 2027 03:19:59.813   09 Jun 2027 03:20:06.259             6.446          3223.000
       248   09 Jun 2027 03:20:39.544   09 Jun 2027 03:20:39.880             0.336           168.000
       249   09 Jun 2027 03:20:46.805   09 Jun 2027 03:20:47.770             0.965           482.500
       250   09 Jun 2027 04:50:18.721   09 Jun 2027 04:50:34.163            15.442          7721.000
       251   09 Jun 2027 04:51:41.499   09 Jun 2027 04:51:42.006             0.507           253.500
       252   09 Jun 2027 04:52:02.919   09 Jun 2027 04:52:09.892             6.973          3486.500
       253   09 Jun 2027 04:52:23.172   09 Jun 2027 04:52:25.258             2.086          1043.000
       254   09 Jun 2027 04:53:35.438   09 Jun 2027 04:53:38.942             3.504          1752.000
       255   09 Jun 2027 04:54:04.237   09 Jun 2027 04:54:09.967             5.730          2865.000
       256   09 Jun 2027 04:54:35.286   09 Jun 2027 04:54:36.364             1.078           539.000
       257   09 Jun 2027 04:54:52.733   09 Jun 2027 04:55:10.611            17.878          8939.000
       258   09 Jun 2027 04:55:51.726   09 Jun 2027 04:55:56.822             5.096          2548.000
       259   09 Jun 2027 06:28:17.133   09 Jun 2027 06:28:18.056             0.923           461.500
       260   09 Jun 2027 06:28:56.960   09 Jun 2027 06:28:57.898             0.938           469.000
       261   09 Jun 2027 06:29:45.402   09 Jun 2027 06:29:57.551            12.149          6074.500
       262   09 Jun 2027 06:31:35.977   09 Jun 2027 06:31:45.131             9.154          4577.000
       263   09 Jun 2027 08:01:25.843   09 Jun 2027 08:01:36.142            10.299          5149.500
       264   09 Jun 2027 08:01:43.591   09 Jun 2027 08:02:05.394            21.803         10901.500
       265   09 Jun 2027 08:04:20.526   09 Jun 2027 08:04:20.833             0.307           153.500
       266   09 Jun 2027 08:04:58.826   09 Jun 2027 08:05:17.713            18.887          9443.500
       267   09 Jun 2027 08:06:48.219   09 Jun 2027 08:06:53.025             4.806          2403.000
       268   09 Jun 2027 08:07:19.376   09 Jun 2027 08:07:23.961             4.585          2292.500
       269   09 Jun 2027 08:08:38.277   09 Jun 2027 08:08:42.901             4.624          2312.000
       270   10 Jun 2027 03:25:31.901   10 Jun 2027 03:25:37.581             5.680          2840.000
       271   10 Jun 2027 03:26:15.911   10 Jun 2027 03:26:26.917            11.006          5503.000
       272   10 Jun 2027 03:27:05.937   10 Jun 2027 03:27:09.634             3.697          1848.500
       273   10 Jun 2027 03:27:50.826   10 Jun 2027 03:27:51.845             1.019           509.500
       274   10 Jun 2027 03:28:09.605   10 Jun 2027 03:28:15.146             5.541          2770.500
       275   10 Jun 2027 03:28:47.659   10 Jun 2027 03:28:48.433             0.774           387.000
       276   10 Jun 2027 03:29:05.306   10 Jun 2027 03:29:11.538             6.232          3116.000
       277   10 Jun 2027 03:29:39.094   10 Jun 2027 03:29:44.938             5.844          2922.000
       278   10 Jun 2027 03:30:25.152   10 Jun 2027 03:30:27.168             2.016          1008.000
       279   10 Jun 2027 03:30:55.953   10 Jun 2027 03:30:57.010             1.057           528.500
       280   10 Jun 2027 03:31:47.824   10 Jun 2027 03:31:50.202             2.378          1189.000
       281   10 Jun 2027 03:32:15.385   10 Jun 2027 03:32:24.876             9.491          4745.500
       282   10 Jun 2027 05:02:20.035   10 Jun 2027 05:02:23.153             3.118          1559.000
       283   10 Jun 2027 05:02:43.769   10 Jun 2027 05:02:50.267             6.498          3249.000
       284   10 Jun 2027 05:03:24.646   10 Jun 2027 05:03:28.620             3.974          1987.000
       285   10 Jun 2027 05:04:11.614   10 Jun 2027 05:04:14.687             3.073          1536.500
       286   10 Jun 2027 05:04:23.648   10 Jun 2027 05:04:24.726             1.078           539.000
       287   10 Jun 2027 05:05:08.639   10 Jun 2027 05:05:12.719             4.080          2040.000
       288   10 Jun 2027 05:05:39.454   10 Jun 2027 05:05:41.509             2.055          1027.500
       289   10 Jun 2027 05:06:15.420   10 Jun 2027 05:06:16.981             1.561           780.500
       290   10 Jun 2027 05:06:30.315   10 Jun 2027 05:06:31.025             0.710           355.000
       291   10 Jun 2027 05:07:22.125   10 Jun 2027 05:07:22.591             0.466           233.000
       292   10 Jun 2027 05:07:44.405   10 Jun 2027 05:07:50.175             5.770          2885.000
       293   10 Jun 2027 05:08:42.490   10 Jun 2027 05:08:48.179             5.689          2844.500
       294   10 Jun 2027 06:40:17.147   10 Jun 2027 06:40:19.862             2.715          1357.500
       295   10 Jun 2027 06:40:57.942   10 Jun 2027 06:41:00.302             2.360          1180.000
       296   10 Jun 2027 06:41:27.380   10 Jun 2027 06:41:30.043             2.663          1331.500
       297   10 Jun 2027 06:41:55.385   10 Jun 2027 06:41:55.696             0.311           155.500
       298   10 Jun 2027 06:42:02.616   10 Jun 2027 06:42:06.575             3.959          1979.500
       299   10 Jun 2027 06:42:30.130   10 Jun 2027 06:42:30.136             0.006             3.000
       300   10 Jun 2027 06:42:30.229   10 Jun 2027 06:42:31.426             1.197           598.500
       301   10 Jun 2027 06:43:10.971   10 Jun 2027 06:43:14.193             3.222          1611.000
       302   10 Jun 2027 06:43:53.499   10 Jun 2027 06:43:57.099             3.600          1800.000
       303   10 Jun 2027 08:13:52.974   10 Jun 2027 08:14:14.568            21.594         10797.000
       304   10 Jun 2027 08:15:15.507   10 Jun 2027 08:15:23.485             7.978          3989.000
       305   10 Jun 2027 08:16:50.478   10 Jun 2027 08:17:30.698            40.220         20110.000
       306   10 Jun 2027 08:19:57.694   10 Jun 2027 08:19:57.694             0.000             0.000
       307   10 Jun 2027 08:20:32.020   10 Jun 2027 08:20:33.121             1.101           550.500
       308   11 Jun 2027 03:37:26.250   11 Jun 2027 03:37:42.974            16.724          8362.000
       309   11 Jun 2027 03:39:24.312   11 Jun 2027 03:39:26.065             1.753           876.500
       310   11 Jun 2027 03:39:50.590   11 Jun 2027 03:39:53.167             2.577          1288.500
       311   11 Jun 2027 03:40:07.000   11 Jun 2027 03:40:10.261             3.261          1630.500
       312   11 Jun 2027 03:40:31.762   11 Jun 2027 03:40:35.528             3.766          1883.000
       313   11 Jun 2027 03:41:11.956   11 Jun 2027 03:41:19.278             7.322          3661.000
       314   11 Jun 2027 03:42:27.617   11 Jun 2027 03:42:33.961             6.344          3172.000
       315   11 Jun 2027 03:43:33.634   11 Jun 2027 03:43:35.122             1.488           744.000
       316   11 Jun 2027 03:44:09.535   11 Jun 2027 03:44:14.141             4.606          2303.000
       317   11 Jun 2027 03:44:39.550   11 Jun 2027 03:44:46.905             7.355          3677.500
       318   11 Jun 2027 05:14:10.649   11 Jun 2027 05:14:12.730             2.081          1040.500
       319   11 Jun 2027 05:14:30.889   11 Jun 2027 05:14:37.924             7.035          3517.500
       320   11 Jun 2027 05:16:29.809   11 Jun 2027 05:16:30.519             0.710           355.000
       321   11 Jun 2027 05:17:14.465   11 Jun 2027 05:17:22.919             8.454          4227.000
       322   11 Jun 2027 05:18:12.519   11 Jun 2027 05:18:23.171            10.652          5326.000
       323   11 Jun 2027 05:19:05.043   11 Jun 2027 05:19:05.822             0.779           389.500
       324   11 Jun 2027 05:19:29.389   11 Jun 2027 05:19:34.817             5.428          2714.000
       325   11 Jun 2027 05:20:35.507   11 Jun 2027 05:20:38.952             3.445          1722.500
       326   11 Jun 2027 06:52:19.149   11 Jun 2027 06:52:25.669             6.520          3260.000
       327   11 Jun 2027 06:53:42.642   11 Jun 2027 06:53:46.625             3.983          1991.500
       328   11 Jun 2027 06:54:05.904   11 Jun 2027 06:54:09.410             3.506          1753.000
       329   11 Jun 2027 06:54:28.332   11 Jun 2027 06:54:32.207             3.875          1937.500
       330   11 Jun 2027 06:55:28.303   11 Jun 2027 06:55:44.006            15.703          7851.500
       331   11 Jun 2027 08:26:09.714   11 Jun 2027 08:26:19.572             9.858          4929.000
       332   11 Jun 2027 08:27:16.669   11 Jun 2027 08:27:37.519            20.850         10425.000
       333   11 Jun 2027 08:29:40.383   11 Jun 2027 08:29:48.851             8.468          4234.000
       334   11 Jun 2027 08:30:24.803   11 Jun 2027 08:30:35.006            10.203          5101.500
       335   11 Jun 2027 08:31:19.408   11 Jun 2027 08:31:27.656             8.248          4124.000
       336   11 Jun 2027 08:32:06.627   11 Jun 2027 08:32:11.150             4.523          2261.500
       337   12 Jun 2027 03:49:32.764   12 Jun 2027 03:49:44.868            12.104          6052.000
       338   12 Jun 2027 03:50:37.134   12 Jun 2027 03:50:49.330            12.196          6098.000
       339   12 Jun 2027 03:51:51.005   12 Jun 2027 03:51:53.534             2.529          1264.500
       340   12 Jun 2027 03:52:18.334   12 Jun 2027 03:52:18.927             0.593           296.500
       341   12 Jun 2027 03:52:19.431   12 Jun 2027 03:52:23.914             4.483          2241.500
       342   12 Jun 2027 03:52:47.342   12 Jun 2027 03:52:49.351             2.009          1004.500
       343   12 Jun 2027 03:53:39.730   12 Jun 2027 03:53:40.441             0.711           355.500
       344   12 Jun 2027 03:54:33.059   12 Jun 2027 03:54:36.688             3.629          1814.500
       345   12 Jun 2027 03:54:44.082   12 Jun 2027 03:54:44.216             0.134            67.000
       346   12 Jun 2027 03:55:23.600   12 Jun 2027 03:55:25.195             1.595           797.500
       347   12 Jun 2027 03:55:32.737   12 Jun 2027 03:55:35.534             2.797          1398.500
       348   12 Jun 2027 03:56:06.853   12 Jun 2027 03:56:11.000             4.147          2073.500
       349   12 Jun 2027 03:56:27.853   12 Jun 2027 03:56:46.412            18.559          9279.500
       350   12 Jun 2027 05:26:35.807   12 Jun 2027 05:26:41.845             6.038          3019.000
       351   12 Jun 2027 05:27:15.543   12 Jun 2027 05:27:46.898            31.355         15677.500
       352   12 Jun 2027 05:29:54.015   12 Jun 2027 05:29:57.385             3.370          1685.000
       353   12 Jun 2027 05:30:22.369   12 Jun 2027 05:30:33.921            11.552          5776.000
       354   12 Jun 2027 05:31:17.942   12 Jun 2027 05:31:19.410             1.468           734.000
       355   12 Jun 2027 05:31:53.011   12 Jun 2027 05:31:57.532             4.521          2260.500
       356   12 Jun 2027 05:32:16.018   12 Jun 2027 05:32:21.009             4.991          2495.500
       357   12 Jun 2027 07:03:33.763   12 Jun 2027 07:03:45.746            11.983          5991.500
       358   12 Jun 2027 07:04:36.660   12 Jun 2027 07:04:37.258             0.598           299.000
       359   12 Jun 2027 07:05:00.478   12 Jun 2027 07:05:02.849             2.371          1185.500
       360   12 Jun 2027 07:05:29.607   12 Jun 2027 07:05:34.313             4.706          2353.000
       361   12 Jun 2027 07:05:55.892   12 Jun 2027 07:05:56.701             0.809           404.500
       362   12 Jun 2027 07:06:04.790   12 Jun 2027 07:06:05.626             0.836           418.000
       363   12 Jun 2027 07:06:17.621   12 Jun 2027 07:06:23.094             5.473          2736.500
       364   12 Jun 2027 07:06:55.022   12 Jun 2027 07:06:59.275             4.253          2126.500
       365   12 Jun 2027 07:07:49.861   12 Jun 2027 07:08:08.317            18.456          9228.000
       366   12 Jun 2027 08:38:36.627   12 Jun 2027 08:38:39.926             3.299          1649.500
       367   12 Jun 2027 08:40:16.560   12 Jun 2027 08:40:16.810             0.250           125.000
       368   12 Jun 2027 08:40:25.503   12 Jun 2027 08:40:33.576             8.073          4036.500
       369   12 Jun 2027 08:41:38.281   12 Jun 2027 08:41:50.442            12.161          6080.500
       370   12 Jun 2027 08:42:52.329   12 Jun 2027 08:43:00.334             8.005          4002.500
       371   13 Jun 2027 04:01:59.046   13 Jun 2027 04:02:28.505            29.459         14729.500
       372   13 Jun 2027 04:03:47.478   13 Jun 2027 04:03:52.026             4.548          2274.000
       373   13 Jun 2027 04:04:52.741   13 Jun 2027 04:04:56.280             3.539          1769.500
       374   13 Jun 2027 04:05:19.379   13 Jun 2027 04:05:23.753             4.374          2187.000
       375   13 Jun 2027 04:05:40.743   13 Jun 2027 04:05:43.717             2.974          1487.000
       376   13 Jun 2027 04:06:06.794   13 Jun 2027 04:06:10.658             3.864          1932.000
       377   13 Jun 2027 04:06:26.774   13 Jun 2027 04:06:29.722             2.948          1474.000
       378   13 Jun 2027 04:06:43.754   13 Jun 2027 04:06:46.606             2.852          1426.000
       379   13 Jun 2027 04:07:12.832   13 Jun 2027 04:07:17.111             4.279          2139.500
       380   13 Jun 2027 04:07:43.485   13 Jun 2027 04:07:50.854             7.369          3684.500
       381   13 Jun 2027 04:07:57.739   13 Jun 2027 04:08:09.180            11.441          5720.500
       382   13 Jun 2027 05:38:55.830   13 Jun 2027 05:39:09.468            13.638          6819.000
       383   13 Jun 2027 05:40:10.978   13 Jun 2027 05:40:15.164             4.186          2093.000
       384   13 Jun 2027 05:40:42.287   13 Jun 2027 05:40:43.942             1.655           827.500
       385   13 Jun 2027 05:41:14.138   13 Jun 2027 05:41:18.612             4.474          2237.000
       386   13 Jun 2027 05:41:58.090   13 Jun 2027 05:41:59.006             0.916           458.000
       387   13 Jun 2027 05:42:19.318   13 Jun 2027 05:42:21.041             1.723           861.500
       388   13 Jun 2027 05:42:37.027   13 Jun 2027 05:42:37.847             0.820           410.000
       389   13 Jun 2027 05:42:59.829   13 Jun 2027 05:43:03.530             3.701          1850.500
       390   13 Jun 2027 05:43:48.793   13 Jun 2027 05:43:48.941             0.148            74.000
       391   13 Jun 2027 05:43:53.366   13 Jun 2027 05:43:55.323             1.957           978.500
       392   13 Jun 2027 05:44:05.257   13 Jun 2027 05:44:10.835             5.578          2789.000
       393   13 Jun 2027 07:15:46.303   13 Jun 2027 07:15:49.459             3.156          1578.000
       394   13 Jun 2027 07:16:28.110   13 Jun 2027 07:16:37.556             9.446          4723.000
       395   13 Jun 2027 07:17:21.699   13 Jun 2027 07:17:23.531             1.832           916.000
       396   13 Jun 2027 07:18:02.209   13 Jun 2027 07:18:03.208             0.999           499.500
       397   13 Jun 2027 07:18:21.680   13 Jun 2027 07:18:30.123             8.443          4221.500
       398   13 Jun 2027 07:18:55.197   13 Jun 2027 07:18:58.642             3.445          1722.500
       399   13 Jun 2027 07:19:48.727   13 Jun 2027 07:20:03.106            14.379          7189.500
       400   13 Jun 2027 08:53:27.135   13 Jun 2027 08:53:29.099             1.964           982.000
       401   13 Jun 2027 08:53:48.690   13 Jun 2027 08:53:52.099             3.409          1704.500
       402   13 Jun 2027 08:54:03.665   13 Jun 2027 08:54:03.665             0.000             0.000
       403   13 Jun 2027 08:54:12.067   13 Jun 2027 08:54:20.535             8.468          4234.000
       404   13 Jun 2027 08:55:02.500   13 Jun 2027 08:55:02.713             0.213           106.500
