uniorb/output/strategy_2/Camera/Camera_KinoSat_110908.txt

KinoSat_110908
-------------------------
    Access    *     Start Time (UTCG)     *     Stop Time (UTCG)  *   Duration (s) *   Data (Mbytes)
         1   01 Jun 2027 03:02:26.704   01 Jun 2027 03:02:40.007            13.303          6651.500
         2   01 Jun 2027 03:02:47.840   01 Jun 2027 03:02:50.277             2.437          1218.500
         3   01 Jun 2027 03:03:12.647   01 Jun 2027 03:03:12.647             0.000             0.000
         4   01 Jun 2027 03:03:28.455   01 Jun 2027 03:03:28.455             0.000             0.000
         5   01 Jun 2027 03:03:34.709   01 Jun 2027 03:03:34.709             0.000             0.000
         6   01 Jun 2027 03:04:17.469   01 Jun 2027 03:04:21.189             3.720          1860.000
         7   01 Jun 2027 03:14:56.145   01 Jun 2027 03:15:06.979            10.834          5417.000
         8   01 Jun 2027 04:36:16.670   01 Jun 2027 04:39:29.390           192.720         96360.000
         9   01 Jun 2027 04:40:40.623   01 Jun 2027 04:40:59.121            18.498          9249.000
        10   01 Jun 2027 04:41:28.289   01 Jun 2027 04:41:37.131             8.842          4421.000
        11   01 Jun 2027 04:41:41.809   01 Jun 2027 04:41:47.784             5.975          2987.500
        12   01 Jun 2027 06:11:10.603   01 Jun 2027 06:13:58.128           167.525         83762.500
        13   01 Jun 2027 06:14:58.854   01 Jun 2027 06:15:06.552             7.698          3849.000
        14   01 Jun 2027 06:16:49.682   01 Jun 2027 06:16:50.997             1.315           657.500
        15   01 Jun 2027 06:16:53.063   01 Jun 2027 06:17:00.072             7.009          3504.500
        16   01 Jun 2027 06:19:42.488   01 Jun 2027 06:19:46.890             4.402          2201.000
        17   01 Jun 2027 06:20:12.322   01 Jun 2027 06:20:28.780            16.458          8229.000
        18   01 Jun 2027 06:20:34.120   01 Jun 2027 06:20:42.816             8.696          4348.000
        19   01 Jun 2027 07:49:13.522   01 Jun 2027 07:51:37.967           144.445         72222.500
        20   01 Jun 2027 07:52:54.269   01 Jun 2027 07:53:00.706             6.437          3218.500
        21   01 Jun 2027 07:54:52.210   01 Jun 2027 07:54:58.836             6.626          3313.000
        22   01 Jun 2027 07:55:59.877   01 Jun 2027 07:56:00.622             0.745           372.500
        23   01 Jun 2027 07:56:15.169   01 Jun 2027 07:56:30.832            15.663          7831.500
        24   01 Jun 2027 09:26:06.901   01 Jun 2027 09:28:20.231           133.330         66665.000
        25   01 Jun 2027 09:30:04.738   01 Jun 2027 09:30:29.695            24.957         12478.500
        26   01 Jun 2027 09:32:14.129   01 Jun 2027 09:32:21.030             6.901          3450.500
        27   01 Jun 2027 11:03:17.231   01 Jun 2027 11:05:00.291           103.060         51530.000
        28   01 Jun 2027 11:06:56.543   01 Jun 2027 11:07:08.651            12.108          6054.000
        29   01 Jun 2027 11:08:04.284   01 Jun 2027 11:08:11.603             7.319          3659.500
        30   02 Jun 2027 03:14:24.413   02 Jun 2027 03:14:51.506            27.093         13546.500
        31   02 Jun 2027 03:15:31.030   02 Jun 2027 03:15:52.792            21.762         10881.000
        32   02 Jun 2027 03:16:16.672   02 Jun 2027 03:16:16.672             0.000             0.000
        33   02 Jun 2027 04:50:35.204   02 Jun 2027 04:53:28.884           173.680         86840.000
        34   02 Jun 2027 04:53:45.871   02 Jun 2027 04:54:06.551            20.680         10340.000
        35   02 Jun 2027 06:24:08.720   02 Jun 2027 06:26:35.101           146.381         73190.500
        36   02 Jun 2027 06:26:57.183   02 Jun 2027 06:27:00.903             3.720          1860.000
        37   02 Jun 2027 06:27:09.802   02 Jun 2027 06:27:24.695            14.893          7446.500
        38   02 Jun 2027 06:28:28.940   02 Jun 2027 06:28:35.032             6.092          3046.000
        39   02 Jun 2027 06:31:30.176   02 Jun 2027 06:31:34.531             4.355          2177.500
        40   02 Jun 2027 06:32:36.304   02 Jun 2027 06:32:42.411             6.107          3053.500
        41   02 Jun 2027 08:01:35.469   02 Jun 2027 08:03:49.761           134.292         67146.000
        42   02 Jun 2027 08:05:00.129   02 Jun 2027 08:05:14.118            13.989          6994.500
        43   02 Jun 2027 08:05:34.830   02 Jun 2027 08:05:43.543             8.713          4356.500
        44   02 Jun 2027 08:06:47.336   02 Jun 2027 08:06:52.013             4.677          2338.500
        45   02 Jun 2027 08:07:05.534   02 Jun 2027 08:07:07.748             2.214          1107.000
        46   02 Jun 2027 08:07:56.882   02 Jun 2027 08:07:58.318             1.436           718.000
        47   02 Jun 2027 08:07:58.758   02 Jun 2027 08:07:59.532             0.774           387.000
        48   02 Jun 2027 08:08:10.230   02 Jun 2027 08:08:13.214             2.984           990.781
        49   02 Jun 2027 09:38:36.030   02 Jun 2027 09:39:04.079            28.049         13368.719
        50   02 Jun 2027 09:39:38.365   02 Jun 2027 09:39:43.696             5.331           779.063
        51   02 Jun 2027 09:40:38.349   02 Jun 2027 09:40:43.774             5.425          1232.313
        52   02 Jun 2027 09:42:07.468   02 Jun 2027 09:42:10.643             3.175          1574.281
        53   02 Jun 2027 09:42:24.733   02 Jun 2027 09:42:26.066             1.333           377.156
        54   02 Jun 2027 09:44:05.690   02 Jun 2027 09:44:09.784             4.094          2047.000
        55   02 Jun 2027 09:44:25.909   02 Jun 2027 09:44:27.232             1.323           661.500
        56   02 Jun 2027 11:15:30.143   02 Jun 2027 11:15:44.976            14.833          6845.687
        57   02 Jun 2027 11:16:22.187   02 Jun 2027 11:16:25.934             3.747          1004.219
        58   02 Jun 2027 11:16:50.147   02 Jun 2027 11:16:53.248             3.101           756.656
        59   02 Jun 2027 11:17:24.485   02 Jun 2027 11:17:24.485             0.000             0.000
        60   02 Jun 2027 11:17:43.745   02 Jun 2027 11:17:45.206             1.461           730.500
        61   02 Jun 2027 11:18:11.852   02 Jun 2027 11:18:13.852             2.000          1000.000
        62   02 Jun 2027 11:18:47.286   02 Jun 2027 11:18:56.310             9.024          1467.500
        63   02 Jun 2027 11:19:30.024   02 Jun 2027 11:19:32.385             2.361           565.781
        64   02 Jun 2027 11:19:44.975   02 Jun 2027 11:19:44.975             0.000             0.000
        65   02 Jun 2027 11:19:50.972   02 Jun 2027 11:19:53.925             2.953           563.719
        66   02 Jun 2027 11:20:05.325   02 Jun 2027 11:20:05.529             0.204           102.000
        67   03 Jun 2027 03:26:13.995   03 Jun 2027 03:27:29.626            75.631         37815.500
        68   03 Jun 2027 03:27:42.805   03 Jun 2027 03:27:53.573            10.768          5384.000
        69   03 Jun 2027 05:02:40.972   03 Jun 2027 05:05:44.210           183.238         91619.000
        70   03 Jun 2027 05:06:04.224   03 Jun 2027 05:06:04.224             0.000             0.000
        71   03 Jun 2027 06:34:52.034   03 Jun 2027 06:35:00.024             7.990          3995.000
        72   03 Jun 2027 06:36:47.540   03 Jun 2027 06:37:31.215            43.675         20726.031
        73   03 Jun 2027 06:38:12.040   03 Jun 2027 06:38:15.836             3.796           563.156
        74   03 Jun 2027 06:38:49.109   03 Jun 2027 06:38:52.944             3.835           555.187
        75   03 Jun 2027 06:39:35.151   03 Jun 2027 06:39:37.184             2.033          1014.344
        76   03 Jun 2027 06:40:37.789   03 Jun 2027 06:40:39.724             1.935           686.344
        77   03 Jun 2027 06:41:37.908   03 Jun 2027 06:41:37.908             0.000             0.000
        78   03 Jun 2027 06:42:11.004   03 Jun 2027 06:42:16.323             5.319          2512.594
        79   03 Jun 2027 06:42:56.484   03 Jun 2027 06:42:58.874             2.390           775.094
        80   03 Jun 2027 06:43:30.864   03 Jun 2027 06:43:33.141             2.277           800.813
        81   03 Jun 2027 06:44:06.453   03 Jun 2027 06:44:07.498             1.045           522.500
        82   03 Jun 2027 06:44:15.865   03 Jun 2027 06:44:18.688             2.823           779.969
        83   03 Jun 2027 06:44:36.871   03 Jun 2027 06:44:36.905             0.034            17.000
        84   03 Jun 2027 08:13:45.375   03 Jun 2027 08:14:05.649            20.274          8344.563
        85   03 Jun 2027 08:15:12.870   03 Jun 2027 08:15:15.266             2.396          1092.875
        86   03 Jun 2027 08:16:41.302   03 Jun 2027 08:16:50.396             9.094          1921.156
        87   03 Jun 2027 08:17:01.150   03 Jun 2027 08:17:01.854             0.704           336.062
        88   03 Jun 2027 08:17:51.777   03 Jun 2027 08:17:57.221             5.444          1309.000
        89   03 Jun 2027 08:18:56.249   03 Jun 2027 08:19:00.332             4.083          1843.156
        90   03 Jun 2027 08:19:57.835   03 Jun 2027 08:20:01.826             3.991          1575.156
        91   03 Jun 2027 09:51:00.247   03 Jun 2027 09:51:18.429            18.182          9091.000
        92   03 Jun 2027 09:51:47.901   03 Jun 2027 09:51:52.436             4.535          1135.781
        93   03 Jun 2027 09:52:21.354   03 Jun 2027 09:52:23.091             1.737           801.750
        94   03 Jun 2027 09:52:42.328   03 Jun 2027 09:52:46.295             3.967           601.156
        95   03 Jun 2027 09:54:33.132   03 Jun 2027 09:54:37.125             3.993          1902.312
        96   03 Jun 2027 09:55:01.333   03 Jun 2027 09:55:01.768             0.435           174.469
        97   03 Jun 2027 09:55:42.175   03 Jun 2027 09:55:47.942             5.767           988.063
        98   03 Jun 2027 11:27:30.410   03 Jun 2027 11:27:47.747            17.337          8011.094
        99   03 Jun 2027 11:28:23.613   03 Jun 2027 11:28:26.013             2.400          1112.281
       100   03 Jun 2027 11:28:37.699   03 Jun 2027 11:28:39.538             1.839           365.188
       101   03 Jun 2027 11:29:45.039   03 Jun 2027 11:29:51.742             6.703          1981.937
       102   03 Jun 2027 11:31:04.643   03 Jun 2027 11:31:11.412             6.769          2159.563
       103   03 Jun 2027 11:31:35.574   03 Jun 2027 11:31:38.914             3.340           755.062
       104   03 Jun 2027 11:32:01.536   03 Jun 2027 11:32:03.226             1.690           656.156
       105   03 Jun 2027 11:32:20.063   03 Jun 2027 11:32:22.753             2.690           508.469
       106   04 Jun 2027 03:38:21.717   04 Jun 2027 03:38:30.571             8.854          4427.000
       107   04 Jun 2027 03:38:55.453   04 Jun 2027 03:39:54.089            58.636         29318.000
       108   04 Jun 2027 03:40:05.457   04 Jun 2027 03:40:05.457             0.000             0.000
       109   04 Jun 2027 03:40:11.530   04 Jun 2027 03:40:30.361            18.831          9415.500
       110   04 Jun 2027 05:14:49.764   04 Jun 2027 05:15:08.006            18.242          9121.000
       111   04 Jun 2027 05:15:46.792   04 Jun 2027 05:16:09.168            22.376         11188.000
       112   04 Jun 2027 05:17:19.152   04 Jun 2027 05:18:28.737            69.585         34792.500
       113   04 Jun 2027 06:50:00.181   04 Jun 2027 06:51:59.760           119.579         59194.656
       114   04 Jun 2027 06:52:34.655   04 Jun 2027 06:52:38.305             3.650           454.406
       115   04 Jun 2027 06:52:55.665   04 Jun 2027 06:52:55.665             0.000             0.000
       116   04 Jun 2027 06:53:08.219   04 Jun 2027 06:53:09.627             1.408           627.781
       117   04 Jun 2027 06:54:49.991   04 Jun 2027 06:54:55.761             5.770          2577.594
       118   04 Jun 2027 06:56:01.275   04 Jun 2027 06:56:05.546             4.271          1652.344
       119   04 Jun 2027 08:26:19.529   04 Jun 2027 08:26:40.113            20.584          7794.437
       120   04 Jun 2027 08:27:26.295   04 Jun 2027 08:27:32.604             6.309          1176.375
       121   04 Jun 2027 08:27:48.677   04 Jun 2027 08:27:51.701             3.024           279.250
       122   04 Jun 2027 08:27:59.206   04 Jun 2027 08:28:04.553             5.347            76.687
       123   04 Jun 2027 08:28:12.710   04 Jun 2027 08:28:17.152             4.442           232.063
       124   04 Jun 2027 08:28:46.801   04 Jun 2027 08:28:50.380             3.579           814.031
       125   04 Jun 2027 08:29:25.469   04 Jun 2027 08:29:30.109             4.640           345.062
       126   04 Jun 2027 08:30:27.475   04 Jun 2027 08:30:31.389             3.914          1720.719
       127   04 Jun 2027 08:30:42.315   04 Jun 2027 08:30:43.767             1.452           341.438
       128   04 Jun 2027 08:30:52.076   04 Jun 2027 08:30:53.516             1.440           221.656
       129   04 Jun 2027 08:31:23.771   04 Jun 2027 08:31:25.757             1.986           664.281
       130   04 Jun 2027 08:31:53.536   04 Jun 2027 08:31:56.608             3.072           597.156
       131   04 Jun 2027 08:32:13.413   04 Jun 2027 08:32:13.418             0.005             2.500
       132   04 Jun 2027 10:03:43.482   04 Jun 2027 10:04:00.443            16.961          8155.157
       133   04 Jun 2027 10:04:19.523   04 Jun 2027 10:04:20.836             1.313           596.250
       134   04 Jun 2027 10:04:32.111   04 Jun 2027 10:04:34.438             2.327            49.000
       135   04 Jun 2027 10:05:24.376   04 Jun 2027 10:05:28.024             3.648          1449.531
       136   04 Jun 2027 10:06:02.597   04 Jun 2027 10:06:08.751             6.154           968.875
       137   04 Jun 2027 10:06:09.913   04 Jun 2027 10:06:10.660             0.747            11.844
       138   04 Jun 2027 10:07:10.470   04 Jun 2027 10:07:15.530             5.060          1701.875
       139   04 Jun 2027 10:07:57.794   04 Jun 2027 10:08:02.502             4.708          1265.187
       140   04 Jun 2027 11:39:55.511   04 Jun 2027 11:40:10.292            14.781          6679.938
       141   04 Jun 2027 11:40:25.144   04 Jun 2027 11:40:27.605             2.461           364.219
       142   04 Jun 2027 11:41:07.527   04 Jun 2027 11:41:07.527             0.000             0.000
       143   04 Jun 2027 11:41:40.731   04 Jun 2027 11:41:45.062             4.331          1790.125
       144   04 Jun 2027 11:42:03.836   04 Jun 2027 11:42:06.166             2.330           586.688
       145   04 Jun 2027 11:42:19.607   04 Jun 2027 11:42:22.090             2.483           385.031
       146   04 Jun 2027 11:42:57.784   04 Jun 2027 11:43:01.661             3.877          1072.563
       147   04 Jun 2027 11:43:17.965   04 Jun 2027 11:43:25.929             7.964           130.687
       148   05 Jun 2027 03:50:23.206   05 Jun 2027 03:51:20.857            57.651         28825.500
       149   05 Jun 2027 05:26:51.329   05 Jun 2027 05:30:08.604           197.275         98637.500
       150   05 Jun 2027 05:30:11.814   05 Jun 2027 05:30:16.510             4.696          2348.000
       151   05 Jun 2027 07:02:03.970   05 Jun 2027 07:02:57.662            53.692         25993.531
       152   05 Jun 2027 07:03:19.707   05 Jun 2027 07:03:21.124             1.417           107.656
       153   05 Jun 2027 07:03:48.319   05 Jun 2027 07:03:49.011             0.692           187.281
       154   05 Jun 2027 07:04:38.119   05 Jun 2027 07:04:42.054             3.935          1394.813
       155   05 Jun 2027 07:04:44.595   05 Jun 2027 07:04:46.284             1.689            79.406
       156   05 Jun 2027 07:05:26.323   05 Jun 2027 07:05:34.421             8.098           962.125
       157   05 Jun 2027 07:05:40.780   05 Jun 2027 07:05:41.177             0.397           162.406
       158   05 Jun 2027 07:06:24.759   05 Jun 2027 07:06:25.242             0.483           152.531
       159   05 Jun 2027 07:07:11.472   05 Jun 2027 07:07:14.447             2.975           671.594
       160   05 Jun 2027 07:08:04.420   05 Jun 2027 07:08:04.420             0.000             0.000
       161   05 Jun 2027 07:08:13.952   05 Jun 2027 07:08:13.975             0.023            11.500
       162   05 Jun 2027 07:08:34.323   05 Jun 2027 07:08:39.253             4.930          2374.063
       163   05 Jun 2027 08:37:58.924   05 Jun 2027 08:38:27.595            28.671         13082.969
       164   05 Jun 2027 08:39:06.194   05 Jun 2027 08:39:09.362             3.168           243.844
       165   05 Jun 2027 08:39:38.865   05 Jun 2027 08:39:46.380             7.515            46.500
       166   05 Jun 2027 08:40:39.147   05 Jun 2027 08:40:40.992             1.845           901.813
       167   05 Jun 2027 08:41:06.185   05 Jun 2027 08:41:08.034             1.849           701.750
       168   05 Jun 2027 08:41:35.115   05 Jun 2027 08:41:39.207             4.092           846.281
       169   05 Jun 2027 08:41:43.866   05 Jun 2027 08:41:47.473             3.607           135.062
       170   05 Jun 2027 08:42:25.095   05 Jun 2027 08:42:28.538             3.443          1175.688
       171   05 Jun 2027 08:42:54.008   05 Jun 2027 08:42:58.446             4.438           668.250
       172   05 Jun 2027 08:43:55.808   05 Jun 2027 08:44:00.190             4.382          1395.063
       173   05 Jun 2027 08:44:13.907   05 Jun 2027 08:44:15.167             1.260           390.875
       174   05 Jun 2027 10:15:56.029   05 Jun 2027 10:16:13.695            17.666          7899.437
       175   05 Jun 2027 10:16:30.785   05 Jun 2027 10:16:32.323             1.538           195.313
       176   05 Jun 2027 10:16:59.135   05 Jun 2027 10:17:01.032             1.897           837.875
       177   05 Jun 2027 10:17:03.225   05 Jun 2027 10:17:07.115             3.890            68.531
       178   05 Jun 2027 10:17:44.805   05 Jun 2027 10:17:48.582             3.777           906.906
       179   05 Jun 2027 10:18:08.763   05 Jun 2027 10:18:09.553             0.790           244.656
       180   05 Jun 2027 10:18:39.858   05 Jun 2027 10:18:42.066             2.208           947.031
       181   05 Jun 2027 10:19:18.004   05 Jun 2027 10:19:21.778             3.774          1123.063
       182   05 Jun 2027 10:19:44.320   05 Jun 2027 10:19:50.525             6.205           668.906
       183   05 Jun 2027 10:19:58.124   05 Jun 2027 10:19:58.282             0.158            38.719
       184   05 Jun 2027 10:20:09.554   05 Jun 2027 10:20:09.554             0.000             0.000
       185   05 Jun 2027 11:51:49.309   05 Jun 2027 11:52:01.306            11.997          5943.125
       186   05 Jun 2027 11:52:26.754   05 Jun 2027 11:52:27.978             1.224           403.750
       187   05 Jun 2027 11:53:06.286   05 Jun 2027 11:53:08.316             2.030          1015.000
       188   05 Jun 2027 11:53:15.649   05 Jun 2027 11:53:15.987             0.338           169.000
       189   05 Jun 2027 11:53:48.444   05 Jun 2027 11:53:50.386             1.942           971.000
       190   05 Jun 2027 11:54:22.148   05 Jun 2027 11:54:29.254             7.106          1228.781
       191   05 Jun 2027 11:54:34.532   05 Jun 2027 11:54:35.622             1.090           125.438
       192   05 Jun 2027 11:55:44.802   05 Jun 2027 11:55:50.166             5.364          2142.406
       193   05 Jun 2027 11:56:43.655   05 Jun 2027 11:56:47.485             3.830          1628.188
       194   06 Jun 2027 04:02:49.603   06 Jun 2027 04:04:01.155            71.552         35776.000
       195   06 Jun 2027 05:38:34.551   06 Jun 2027 05:39:31.784            57.233         28616.500
       196   06 Jun 2027 05:39:34.305   06 Jun 2027 05:40:34.189            59.884         29942.000
       197   06 Jun 2027 05:41:45.306   06 Jun 2027 05:42:53.649            68.343         34171.500
       198   06 Jun 2027 07:13:18.385   06 Jun 2027 07:14:11.586            53.201         26600.500
       199   06 Jun 2027 07:14:54.741   06 Jun 2027 07:14:59.531             4.790          2312.094
       200   06 Jun 2027 07:15:54.522   06 Jun 2027 07:15:56.833             2.311           279.719
       201   06 Jun 2027 07:16:19.028   06 Jun 2027 07:16:26.410             7.382           141.062
       202   06 Jun 2027 07:16:35.612   06 Jun 2027 07:16:36.299             0.687           190.875
       203   06 Jun 2027 07:17:04.790   06 Jun 2027 07:17:07.172             2.382           866.969
       204   06 Jun 2027 07:17:38.837   06 Jun 2027 07:17:42.976             4.139           816.344
       205   06 Jun 2027 07:18:49.375   06 Jun 2027 07:18:57.804             8.429          2074.969
       206   06 Jun 2027 07:20:02.462   06 Jun 2027 07:20:07.813             5.351          1917.500
       207   06 Jun 2027 07:20:12.287   06 Jun 2027 07:20:12.287             0.000             0.000
       208   06 Jun 2027 07:20:32.132   06 Jun 2027 07:20:32.132             0.000             0.000
       209   06 Jun 2027 07:20:44.295   06 Jun 2027 07:20:46.674             2.379          1140.063
       210   06 Jun 2027 08:50:06.292   06 Jun 2027 08:50:26.385            20.093          9536.719
       211   06 Jun 2027 08:51:37.087   06 Jun 2027 08:51:40.909             3.822          1259.469
       212   06 Jun 2027 08:51:47.596   06 Jun 2027 08:51:55.082             7.486            22.938
       213   06 Jun 2027 08:52:51.331   06 Jun 2027 08:52:53.378             2.047           213.375
       214   06 Jun 2027 08:53:49.843   06 Jun 2027 08:53:52.429             2.586          1293.000
       215   06 Jun 2027 08:54:30.825   06 Jun 2027 08:54:35.151             4.326          1206.594
       216   06 Jun 2027 08:55:12.952   06 Jun 2027 08:55:14.560             1.608           804.000
       217   06 Jun 2027 08:56:23.283   06 Jun 2027 08:56:27.229             3.946          1973.000
       218   06 Jun 2027 10:28:21.389   06 Jun 2027 10:28:37.449            16.060          7913.125
       219   06 Jun 2027 10:30:10.890   06 Jun 2027 10:30:16.763             5.873          2346.750
       220   06 Jun 2027 10:31:38.870   06 Jun 2027 10:31:44.849             5.979          2565.844
       221   07 Jun 2027 04:13:25.280   07 Jun 2027 04:14:25.752            60.472         30236.000
       222   07 Jun 2027 04:15:06.392   07 Jun 2027 04:15:31.085            24.693         12346.500
       223   07 Jun 2027 04:16:37.640   07 Jun 2027 04:16:57.201            19.561          9780.500
       224   07 Jun 2027 04:17:04.395   07 Jun 2027 04:17:08.990             4.595          2297.500
       225   07 Jun 2027 04:18:03.804   07 Jun 2027 04:18:03.804             0.000             0.000
       226   07 Jun 2027 05:48:28.985   07 Jun 2027 05:49:46.685            77.700         38850.000
       227   07 Jun 2027 05:50:18.968   07 Jun 2027 05:51:18.243            59.275         29637.500
       228   07 Jun 2027 05:51:28.885   07 Jun 2027 05:51:53.477            24.592         12296.000
       229   07 Jun 2027 05:51:53.958   07 Jun 2027 05:52:07.056            13.098          6549.000
       230   07 Jun 2027 05:55:09.752   07 Jun 2027 05:55:11.749             1.997           998.500
       231   07 Jun 2027 07:25:26.621   07 Jun 2027 07:26:14.598            47.977         23298.781
       232   07 Jun 2027 07:27:48.491   07 Jun 2027 07:27:55.005             6.514          1314.375
       233   07 Jun 2027 07:28:20.876   07 Jun 2027 07:28:23.501             2.625           608.000
       234   07 Jun 2027 07:28:33.217   07 Jun 2027 07:28:38.640             5.423           303.625
       235   07 Jun 2027 07:28:56.937   07 Jun 2027 07:29:01.120             4.183           463.250
       236   07 Jun 2027 07:29:24.574   07 Jun 2027 07:29:29.248             4.674           632.781
       237   07 Jun 2027 07:30:48.067   07 Jun 2027 07:30:58.090            10.023          1997.156
       238   07 Jun 2027 07:31:33.832   07 Jun 2027 07:31:37.248             3.416          1087.219
       239   07 Jun 2027 07:31:57.753   07 Jun 2027 07:32:00.207             2.454           240.594
       240   07 Jun 2027 09:02:24.993   07 Jun 2027 09:02:50.693            25.700         12325.875
       241   07 Jun 2027 09:02:57.580   07 Jun 2027 09:03:06.744             9.164            63.469
       242   07 Jun 2027 09:03:40.301   07 Jun 2027 09:03:44.444             4.143           217.969
       243   07 Jun 2027 09:03:55.170   07 Jun 2027 09:04:01.967             6.797           212.062
       244   07 Jun 2027 09:04:52.781   07 Jun 2027 09:04:56.366             3.585          1587.937
       245   07 Jun 2027 09:05:26.363   07 Jun 2027 09:05:28.467             2.104           824.594
       246   07 Jun 2027 09:06:08.075   07 Jun 2027 09:06:11.873             3.798           469.812
       247   07 Jun 2027 09:06:34.154   07 Jun 2027 09:06:40.587             6.433           581.781
       248   07 Jun 2027 09:07:14.371   07 Jun 2027 09:07:16.936             2.565          1055.750
       249   07 Jun 2027 09:07:57.674   07 Jun 2027 09:08:00.862             3.188          1273.063
       250   07 Jun 2027 09:08:30.262   07 Jun 2027 09:08:32.659             2.397           918.750
       251   07 Jun 2027 10:40:19.550   07 Jun 2027 10:40:33.156            13.606          6639.250
       252   07 Jun 2027 10:40:49.749   07 Jun 2027 10:40:51.421             1.672           518.531
       253   07 Jun 2027 10:42:16.002   07 Jun 2027 10:42:21.497             5.495          2583.750
       254   07 Jun 2027 10:43:24.841   07 Jun 2027 10:43:33.598             8.757          1692.344
       255   07 Jun 2027 10:43:44.575   07 Jun 2027 10:43:47.484             2.909           141.781
       256   07 Jun 2027 10:44:17.661   07 Jun 2027 10:44:18.916             1.255           627.500
       257   08 Jun 2027 03:02:50.455   08 Jun 2027 03:03:47.256            56.801         28400.500
       258   08 Jun 2027 04:24:55.134   08 Jun 2027 04:26:13.030            77.896         38948.000
       259   08 Jun 2027 04:26:57.365   08 Jun 2027 04:27:27.497            30.132         15066.000
       260   08 Jun 2027 04:28:39.813   08 Jun 2027 04:28:39.813             0.000             0.000
       261   08 Jun 2027 04:29:06.779   08 Jun 2027 04:29:20.888            14.109          7054.500
       262   08 Jun 2027 04:30:14.085   08 Jun 2027 04:30:26.061            11.976          5988.000
       263   08 Jun 2027 05:59:53.947   08 Jun 2027 06:01:46.366           112.419         56209.500
       264   08 Jun 2027 06:02:04.191   08 Jun 2027 06:02:04.191             0.000             0.000
       265   08 Jun 2027 06:03:01.810   08 Jun 2027 06:03:12.684            10.874          3499.719
       266   08 Jun 2027 06:05:05.707   08 Jun 2027 06:05:08.505             2.798          1399.000
       267   08 Jun 2027 06:05:13.890   08 Jun 2027 06:05:25.496            11.606          2301.250
       268   08 Jun 2027 06:05:34.941   08 Jun 2027 06:05:35.499             0.558           240.844
       269   08 Jun 2027 06:05:45.597   08 Jun 2027 06:05:45.597             0.000             0.000
       270   08 Jun 2027 06:07:13.588   08 Jun 2027 06:07:21.257             7.669          2965.250
       271   08 Jun 2027 06:08:25.227   08 Jun 2027 06:08:28.006             2.779          1389.500
       272   08 Jun 2027 07:37:30.207   08 Jun 2027 07:37:46.992            16.785          7740.813
       273   08 Jun 2027 07:38:05.746   08 Jun 2027 07:38:06.850             1.104           145.406
       274   08 Jun 2027 07:40:47.735   08 Jun 2027 07:40:55.793             8.058          4029.000
       275   08 Jun 2027 07:41:11.607   08 Jun 2027 07:41:16.146             4.539           723.313
       276   08 Jun 2027 07:41:52.151   08 Jun 2027 07:41:55.308             3.157          1125.156
       277   08 Jun 2027 07:42:13.681   08 Jun 2027 07:42:15.436             1.755           384.875
       278   08 Jun 2027 07:42:38.201   08 Jun 2027 07:42:40.332             2.131           349.531
       279   08 Jun 2027 07:42:58.524   08 Jun 2027 07:42:59.957             1.433           568.500
       280   08 Jun 2027 07:43:19.910   08 Jun 2027 07:43:22.130             2.220           623.531
       281   08 Jun 2027 07:44:14.794   08 Jun 2027 07:44:20.309             5.515          1645.750
       282   08 Jun 2027 07:44:22.530   08 Jun 2027 07:44:22.754             0.224            69.406
       283   08 Jun 2027 09:14:14.368   08 Jun 2027 09:14:34.598            20.230          9470.219
       284   08 Jun 2027 09:15:34.211   08 Jun 2027 09:15:37.047             2.836           286.469
       285   08 Jun 2027 09:16:53.616   08 Jun 2027 09:17:07.194            13.578          1595.687
       286   08 Jun 2027 09:18:07.472   08 Jun 2027 09:18:08.337             0.865           432.500
       287   08 Jun 2027 09:19:14.994   08 Jun 2027 09:19:20.328             5.334          2667.000
       288   08 Jun 2027 09:19:54.257   08 Jun 2027 09:19:57.894             3.637          1626.969
       289   08 Jun 2027 09:20:47.927   08 Jun 2027 09:20:52.042             4.115          1312.813
       290   08 Jun 2027 10:52:18.997   08 Jun 2027 10:52:32.615            13.618          6791.531
       291   08 Jun 2027 10:53:24.976   08 Jun 2027 10:53:28.199             3.223          1603.531
       292   08 Jun 2027 10:53:58.547   08 Jun 2027 10:54:00.755             2.208           891.781
       293   08 Jun 2027 10:54:38.636   08 Jun 2027 10:54:44.518             5.882          1183.781
       294   08 Jun 2027 10:55:20.390   08 Jun 2027 10:55:21.376             0.986           493.000
       295   08 Jun 2027 10:55:32.460   08 Jun 2027 10:55:34.230             1.770           794.563
       296   08 Jun 2027 10:55:40.888   08 Jun 2027 10:55:41.250             0.362           177.906
       297   08 Jun 2027 10:56:17.662   08 Jun 2027 10:56:20.040             2.378           852.188
       298   09 Jun 2027 03:02:41.704   09 Jun 2027 03:03:06.362            24.658         12329.000
       299   09 Jun 2027 03:03:25.853   09 Jun 2027 03:03:30.613             4.760          2380.000
       300   09 Jun 2027 03:03:43.349   09 Jun 2027 03:03:43.963             0.614           307.000
       301   09 Jun 2027 03:04:29.423   09 Jun 2027 03:04:36.255             6.832          3416.000
       302   09 Jun 2027 03:15:11.360   09 Jun 2027 03:15:17.501             6.141          3070.500
       303   09 Jun 2027 04:36:31.331   09 Jun 2027 04:39:44.244           192.913         96456.500
       304   09 Jun 2027 04:40:55.513   09 Jun 2027 04:40:55.513             0.000             0.000
       305   09 Jun 2027 04:40:59.690   09 Jun 2027 04:41:14.391            14.701          7350.500
       306   09 Jun 2027 04:41:45.095   09 Jun 2027 04:41:45.095             0.000             0.000
       307   09 Jun 2027 04:41:46.636   09 Jun 2027 04:41:52.128             5.492          2746.000
       308   09 Jun 2027 04:41:56.784   09 Jun 2027 04:42:05.516             8.732          4366.000
       309   09 Jun 2027 06:11:24.470   09 Jun 2027 06:12:11.940            47.470         23735.000
       310   09 Jun 2027 06:13:36.991   09 Jun 2027 06:13:49.979            12.988          5210.187
       311   09 Jun 2027 06:14:33.412   09 Jun 2027 06:14:33.412             0.000             0.000
       312   09 Jun 2027 06:15:07.497   09 Jun 2027 06:15:14.474             6.977          1867.594
       313   09 Jun 2027 06:15:43.191   09 Jun 2027 06:15:43.191             0.000             0.000
       314   09 Jun 2027 06:17:06.674   09 Jun 2027 06:17:16.844            10.170          3506.250
       315   09 Jun 2027 06:18:04.251   09 Jun 2027 06:18:10.048             5.797          1481.469
       316   09 Jun 2027 06:18:41.805   09 Jun 2027 06:18:42.133             0.328           164.000
       317   09 Jun 2027 06:18:43.567   09 Jun 2027 06:18:43.929             0.362           181.000
       318   09 Jun 2027 06:19:29.944   09 Jun 2027 06:19:35.134             5.190          1982.875
       319   09 Jun 2027 06:20:01.268   09 Jun 2027 06:20:04.876             3.608           816.688
       320   09 Jun 2027 07:49:29.052   09 Jun 2027 07:49:49.124            20.072          8126.438
       321   09 Jun 2027 07:51:05.032   09 Jun 2027 07:51:09.610             4.578          2176.094
       322   09 Jun 2027 07:51:52.633   09 Jun 2027 07:52:01.134             8.501          1216.719
       323   09 Jun 2027 07:52:19.889   09 Jun 2027 07:52:22.398             2.509           297.344
       324   09 Jun 2027 07:53:09.003   09 Jun 2027 07:53:11.175             2.172           556.094
       325   09 Jun 2027 07:53:17.342   09 Jun 2027 07:53:17.342             0.000             0.000
       326   09 Jun 2027 07:53:40.729   09 Jun 2027 07:53:42.704             1.975           803.813
       327   09 Jun 2027 07:53:47.903   09 Jun 2027 07:53:51.126             3.223           162.469
       328   09 Jun 2027 07:54:42.769   09 Jun 2027 07:54:45.343             2.574          1245.250
       329   09 Jun 2027 07:54:50.984   09 Jun 2027 07:54:51.569             0.585           127.031
       330   09 Jun 2027 07:55:14.348   09 Jun 2027 07:55:15.712             1.364           676.344
       331   09 Jun 2027 07:56:17.612   09 Jun 2027 07:56:23.721             6.109          1852.594
       332   09 Jun 2027 07:56:32.861   09 Jun 2027 07:56:36.054             3.193           285.625
       333   09 Jun 2027 09:26:22.260   09 Jun 2027 09:26:42.051            19.791          8747.437
       334   09 Jun 2027 09:26:59.227   09 Jun 2027 09:27:02.215             2.988           248.156
       335   09 Jun 2027 09:27:17.791   09 Jun 2027 09:27:21.560             3.769           267.688
       336   09 Jun 2027 09:28:09.190   09 Jun 2027 09:28:13.151             3.961          1394.500
       337   09 Jun 2027 09:29:59.856   09 Jun 2027 09:30:06.701             6.845          2268.938
       338   09 Jun 2027 09:31:08.781   09 Jun 2027 09:31:10.998             2.217          1108.500
       339   09 Jun 2027 09:31:20.021   09 Jun 2027 09:31:24.665             4.644           907.094
       340   09 Jun 2027 09:32:18.018   09 Jun 2027 09:32:21.339             3.321          1139.844
       341   09 Jun 2027 09:32:22.748   09 Jun 2027 09:32:28.722             5.974             4.750
       342   09 Jun 2027 09:32:36.276   09 Jun 2027 09:32:37.577             1.301           236.062
       343   09 Jun 2027 11:03:32.185   09 Jun 2027 11:03:48.426            16.241          7216.219
       344   09 Jun 2027 11:03:51.089   09 Jun 2027 11:03:52.282             1.193            59.594
       345   09 Jun 2027 11:04:14.995   09 Jun 2027 11:04:17.880             2.885           540.875
       346   09 Jun 2027 11:04:29.676   09 Jun 2027 11:04:31.076             1.400           368.625
       347   09 Jun 2027 11:04:33.095   09 Jun 2027 11:04:35.631             2.536            55.687
       348   09 Jun 2027 11:04:49.571   09 Jun 2027 11:04:49.571             0.000             0.000
       349   09 Jun 2027 11:05:19.546   09 Jun 2027 11:05:22.797             3.251          1372.344
       350   09 Jun 2027 11:06:25.156   09 Jun 2027 11:06:29.010             3.854          1897.344
       351   09 Jun 2027 11:06:46.386   09 Jun 2027 11:06:47.368             0.982           421.125
       352   09 Jun 2027 11:07:29.871   09 Jun 2027 11:07:33.113             3.242          1298.906
       353   10 Jun 2027 03:14:38.212   10 Jun 2027 03:15:44.694            66.482         33241.000
       354   10 Jun 2027 03:16:32.792   10 Jun 2027 03:16:32.792             0.000             0.000
       355   10 Jun 2027 04:50:50.287   10 Jun 2027 04:53:56.809           186.522         93261.000
       356   10 Jun 2027 06:24:23.666   10 Jun 2027 06:25:17.770            54.104         27052.000
       357   10 Jun 2027 06:25:32.025   10 Jun 2027 06:25:34.795             2.770          1117.750
       358   10 Jun 2027 06:26:36.385   10 Jun 2027 06:26:37.384             0.999           209.219
       359   10 Jun 2027 06:26:50.634   10 Jun 2027 06:26:52.979             2.345           175.562
       360   10 Jun 2027 06:27:30.294   10 Jun 2027 06:27:30.294             0.000             0.000
       361   10 Jun 2027 06:28:27.207   10 Jun 2027 06:28:32.445             5.238          2389.000
       362   10 Jun 2027 06:28:58.781   10 Jun 2027 06:29:03.158             4.377           476.875
       363   10 Jun 2027 06:29:19.691   10 Jun 2027 06:29:21.006             1.315           385.500
       364   10 Jun 2027 06:30:51.136   10 Jun 2027 06:30:57.711             6.575          2548.344
       365   10 Jun 2027 06:31:10.516   10 Jun 2027 06:31:11.556             1.040           400.156
       366   10 Jun 2027 06:31:50.309   10 Jun 2027 06:31:55.380             5.071           965.063
       367   10 Jun 2027 06:32:10.642   10 Jun 2027 06:32:12.449             1.807           462.281
       368   10 Jun 2027 06:32:54.208   10 Jun 2027 06:32:56.229             2.021           979.281
       369   10 Jun 2027 08:02:00.213   10 Jun 2027 08:02:25.757            25.544         11454.062
       370   10 Jun 2027 08:04:06.822   10 Jun 2027 08:04:19.431            12.609           957.594
       371   10 Jun 2027 08:04:20.722   10 Jun 2027 08:04:27.737             7.015            40.344
       372   10 Jun 2027 08:05:03.404   10 Jun 2027 08:05:07.334             3.930            21.031
       373   10 Jun 2027 08:05:34.174   10 Jun 2027 08:05:35.178             1.004           493.875
       374   10 Jun 2027 08:06:07.319   10 Jun 2027 08:06:09.643             2.324           530.313
       375   10 Jun 2027 08:07:01.865   10 Jun 2027 08:07:05.895             4.030          1624.875
       376   10 Jun 2027 08:07:20.199   10 Jun 2027 08:07:22.148             1.949           364.281
       377   10 Jun 2027 08:08:11.725   10 Jun 2027 08:08:15.442             3.717          1535.687
       378   10 Jun 2027 08:08:25.096   10 Jun 2027 08:08:27.940             2.844           301.687
       379   10 Jun 2027 09:38:50.847   10 Jun 2027 09:39:10.415            19.568          9641.000
       380   10 Jun 2027 09:40:15.180   10 Jun 2027 09:40:21.944             6.764          1816.031
       381   10 Jun 2027 09:40:50.459   10 Jun 2027 09:40:51.654             1.195           597.500
       382   10 Jun 2027 09:40:53.671   10 Jun 2027 09:40:58.448             4.777           237.594
       383   10 Jun 2027 09:41:54.495   10 Jun 2027 09:41:58.595             4.100           698.156
       384   10 Jun 2027 09:42:14.349   10 Jun 2027 09:42:15.903             1.554           492.313
       385   10 Jun 2027 09:42:34.199   10 Jun 2027 09:42:35.807             1.608           571.750
       386   10 Jun 2027 09:43:32.646   10 Jun 2027 09:43:34.869             2.223          1111.500
       387   10 Jun 2027 09:44:20.465   10 Jun 2027 09:44:24.646             4.181          1749.875
       388   10 Jun 2027 11:15:44.838   10 Jun 2027 11:15:59.667            14.829          5482.719
       389   10 Jun 2027 11:16:36.923   10 Jun 2027 11:16:40.401             3.478           976.344
       390   10 Jun 2027 11:17:06.907   10 Jun 2027 11:17:11.709             4.802           770.969
       391   10 Jun 2027 11:17:32.075   10 Jun 2027 11:17:32.075             0.000             0.000
       392   10 Jun 2027 11:17:39.979   10 Jun 2027 11:17:40.994             1.015           507.500
       393   10 Jun 2027 11:18:27.906   10 Jun 2027 11:18:31.240             3.334          1667.000
       394   10 Jun 2027 11:18:34.635   10 Jun 2027 11:18:35.949             1.314           128.062
       395   10 Jun 2027 11:19:48.347   10 Jun 2027 11:19:54.482             6.135          2017.250
       396   10 Jun 2027 11:20:13.590   10 Jun 2027 11:20:17.127             3.537           597.125
       397   10 Jun 2027 11:20:20.769   10 Jun 2027 11:20:20.904             0.135            67.500
       398   11 Jun 2027 03:26:28.806   11 Jun 2027 03:26:44.239            15.433          7716.500
       399   11 Jun 2027 03:26:52.317   11 Jun 2027 03:27:31.408            39.091         19545.500
       400   11 Jun 2027 03:27:48.381   11 Jun 2027 03:27:58.503            10.122          5061.000
       401   11 Jun 2027 03:28:40.374   11 Jun 2027 03:28:47.449             7.075          3537.500
       402   11 Jun 2027 05:02:55.714   11 Jun 2027 05:04:00.769            65.055         32527.500
       403   11 Jun 2027 05:05:23.363   11 Jun 2027 05:06:30.938            67.575         33787.500
       404   11 Jun 2027 06:35:06.076   11 Jun 2027 06:35:15.020             8.944          4472.000
       405   11 Jun 2027 06:37:02.607   11 Jun 2027 06:38:37.819            95.212         47548.719
       406   11 Jun 2027 06:39:03.763   11 Jun 2027 06:39:04.979             1.216           522.219
       407   11 Jun 2027 06:39:21.669   11 Jun 2027 06:39:23.310             1.641            91.219
       408   11 Jun 2027 06:39:49.744   11 Jun 2027 06:39:51.102             1.358           679.000
       409   11 Jun 2027 06:41:05.737   11 Jun 2027 06:41:13.339             7.602          2479.406
       410   11 Jun 2027 06:42:25.338   11 Jun 2027 06:42:29.503             4.165          2082.500
       411   11 Jun 2027 06:42:48.645   11 Jun 2027 06:42:59.824            11.179           765.656
       412   11 Jun 2027 06:43:46.500   11 Jun 2027 06:43:49.181             2.681          1290.031
       413   11 Jun 2027 06:44:08.845   11 Jun 2027 06:44:08.845             0.000             0.000
       414   11 Jun 2027 06:44:21.714   11 Jun 2027 06:44:22.311             0.597           298.500
       415   11 Jun 2027 06:44:32.100   11 Jun 2027 06:44:34.993             2.893          1019.375
       416   11 Jun 2027 06:44:51.539   11 Jun 2027 06:44:51.679             0.140            70.000
       417   11 Jun 2027 08:14:00.658   11 Jun 2027 08:14:17.824            17.166          8336.313
       418   11 Jun 2027 08:15:54.470   11 Jun 2027 08:15:57.888             3.418           777.219
       419   11 Jun 2027 08:16:37.086   11 Jun 2027 08:16:41.082             3.996           384.438
       420   11 Jun 2027 08:16:58.675   11 Jun 2027 08:16:59.108             0.433            86.063
       421   11 Jun 2027 08:17:16.184   11 Jun 2027 08:17:18.075             1.891           360.594
       422   11 Jun 2027 08:17:55.506   11 Jun 2027 08:18:01.201             5.695           653.375
       423   11 Jun 2027 08:18:37.459   11 Jun 2027 08:18:40.318             2.859           911.406
       424   11 Jun 2027 08:19:10.742   11 Jun 2027 08:19:14.384             3.642           790.219
       425   11 Jun 2027 08:19:55.304   11 Jun 2027 08:19:55.304             0.000             0.000
       426   11 Jun 2027 08:20:09.302   11 Jun 2027 08:20:13.133             3.831          1716.188
       427   11 Jun 2027 08:20:27.848   11 Jun 2027 08:20:29.991             2.143           459.844
       428   11 Jun 2027 09:51:18.337   11 Jun 2027 09:51:37.070            18.733          9366.500
       429   11 Jun 2027 09:52:21.263   11 Jun 2027 09:52:26.941             5.678          1834.406
       430   11 Jun 2027 09:53:00.905   11 Jun 2027 09:53:03.007             2.102           673.062
       431   11 Jun 2027 09:53:23.221   11 Jun 2027 09:53:23.883             0.662             1.781
       432   11 Jun 2027 09:54:07.641   11 Jun 2027 09:54:10.423             2.782          1023.531
       433   11 Jun 2027 09:54:50.015   11 Jun 2027 09:54:52.762             2.747           946.688
       434   11 Jun 2027 09:55:16.040   11 Jun 2027 09:55:19.380             3.340           677.938
       435   11 Jun 2027 09:55:28.403   11 Jun 2027 09:55:29.476             1.073           221.781
       436   11 Jun 2027 09:55:41.219   11 Jun 2027 09:55:42.646             1.427           213.312
       437   11 Jun 2027 09:55:58.041   11 Jun 2027 09:55:58.215             0.174            87.000
       438   11 Jun 2027 11:27:45.953   11 Jun 2027 11:28:03.313            17.360          8398.250
       439   11 Jun 2027 11:28:38.350   11 Jun 2027 11:28:41.604             3.254          1083.875
       440   11 Jun 2027 11:29:07.159   11 Jun 2027 11:29:08.575             1.416           396.125
       441   11 Jun 2027 11:29:25.237   11 Jun 2027 11:29:27.744             2.507           445.313
       442   11 Jun 2027 11:29:59.294   11 Jun 2027 11:30:00.518             1.224           612.000
       443   11 Jun 2027 11:30:15.794   11 Jun 2027 11:30:18.139             2.345           712.500
       444   11 Jun 2027 11:31:47.451   11 Jun 2027 11:31:54.343             6.892          2791.000
       445   11 Jun 2027 11:32:35.895   11 Jun 2027 11:32:37.784             1.889           944.500
       446   12 Jun 2027 03:38:36.799   12 Jun 2027 03:38:45.223             8.424          4212.000
       447   12 Jun 2027 03:39:11.585   12 Jun 2027 03:40:21.002            69.417         34708.500
       448   12 Jun 2027 05:15:04.963   12 Jun 2027 05:16:01.281            56.318         28159.000
       449   12 Jun 2027 05:17:33.820   12 Jun 2027 05:18:28.217            54.397         27198.500
       450   12 Jun 2027 06:50:15.673   12 Jun 2027 06:52:29.308           133.635         64838.281
       451   12 Jun 2027 06:55:05.691   12 Jun 2027 06:55:14.050             8.359          3826.719
       452   12 Jun 2027 06:55:54.006   12 Jun 2027 06:56:04.454            10.448           896.937
       453   12 Jun 2027 06:56:16.528   12 Jun 2027 06:56:16.694             0.166            83.000
       454   12 Jun 2027 06:56:22.110   12 Jun 2027 06:56:22.110             0.000             0.000
       455   12 Jun 2027 06:56:31.335   12 Jun 2027 06:56:33.587             2.252           737.500
       456   12 Jun 2027 06:56:52.807   12 Jun 2027 06:56:53.727             0.920           460.000
       457   12 Jun 2027 08:26:34.699   12 Jun 2027 08:26:55.544            20.845          7732.281
       458   12 Jun 2027 08:27:28.721   12 Jun 2027 08:27:29.362             0.641           144.250
       459   12 Jun 2027 08:27:54.376   12 Jun 2027 08:27:57.574             3.198           359.250
       460   12 Jun 2027 08:29:02.400   12 Jun 2027 08:29:06.425             4.025          1114.531
       461   12 Jun 2027 08:29:47.552   12 Jun 2027 08:29:49.080             1.528           588.219
       462   12 Jun 2027 08:30:00.168   12 Jun 2027 08:30:00.574             0.406           203.000
       463   12 Jun 2027 08:30:44.025   12 Jun 2027 08:30:53.569             9.544          1501.344
       464   12 Jun 2027 08:31:06.942   12 Jun 2027 08:31:09.949             3.007           233.094
       465   12 Jun 2027 08:31:38.958   12 Jun 2027 08:31:43.377             4.419           682.625
       466   12 Jun 2027 08:31:50.477   12 Jun 2027 08:31:52.843             2.366            48.375
       467   12 Jun 2027 08:32:22.873   12 Jun 2027 08:32:26.323             3.450           898.250
       468   12 Jun 2027 10:03:58.211   12 Jun 2027 10:04:15.127            16.916          7666.281
       469   12 Jun 2027 10:04:52.636   12 Jun 2027 10:04:57.502             4.866          1171.187
       470   12 Jun 2027 10:05:46.198   12 Jun 2027 10:05:52.545             6.347          1222.344
       471   12 Jun 2027 10:06:16.001   12 Jun 2027 10:06:17.568             1.567           432.844
       472   12 Jun 2027 10:06:24.401   12 Jun 2027 10:06:25.081             0.680           213.531
       473   12 Jun 2027 10:06:26.411   12 Jun 2027 10:06:27.789             1.378            41.562
       474   12 Jun 2027 10:07:25.703   12 Jun 2027 10:07:30.730             5.027          1702.062
       475   12 Jun 2027 10:08:12.648   12 Jun 2027 10:08:18.806             6.158          1270.688
       476   12 Jun 2027 11:40:10.057   12 Jun 2027 11:40:25.870            15.813          6461.500
       477   12 Jun 2027 11:40:36.595   12 Jun 2027 11:40:39.882             3.287           197.906
       478   12 Jun 2027 11:40:42.373   12 Jun 2027 11:40:50.985             8.612            77.844
       479   12 Jun 2027 11:41:24.144   12 Jun 2027 11:41:25.545             1.401           700.500
       480   12 Jun 2027 11:41:59.755   12 Jun 2027 11:42:02.294             2.539          1166.469
       481   12 Jun 2027 11:42:17.594   12 Jun 2027 11:42:19.534             1.940           478.125
       482   12 Jun 2027 11:42:38.368   12 Jun 2027 11:42:38.368             0.000             0.000
       483   12 Jun 2027 11:42:42.747   12 Jun 2027 11:42:46.483             3.736           712.219
       484   12 Jun 2027 11:43:58.741   12 Jun 2027 11:44:04.454             5.713          2258.063
       485   13 Jun 2027 03:50:37.966   13 Jun 2027 03:52:04.070            86.104         43052.000
       486   13 Jun 2027 03:52:45.045   13 Jun 2027 03:53:34.715            49.670         24835.000
       487   13 Jun 2027 05:27:05.742   13 Jun 2027 05:27:45.248            39.506         19753.000
       488   13 Jun 2027 05:29:14.976   13 Jun 2027 05:30:34.871            79.895         39947.500
       489   13 Jun 2027 07:02:18.511   13 Jun 2027 07:03:14.507            55.996         27607.626
       490   13 Jun 2027 07:03:37.433   13 Jun 2027 07:03:43.333             5.900           164.563
       491   13 Jun 2027 07:04:51.141   13 Jun 2027 07:04:55.621             4.480          1296.563
       492   13 Jun 2027 07:04:59.666   13 Jun 2027 07:05:01.748             2.082            43.531
       493   13 Jun 2027 07:05:27.299   13 Jun 2027 07:05:27.299             0.000             0.000
       494   13 Jun 2027 07:05:52.429   13 Jun 2027 07:05:54.723             2.294          1107.625
       495   13 Jun 2027 07:06:39.315   13 Jun 2027 07:06:39.643             0.328           149.187
       496   13 Jun 2027 07:07:28.877   13 Jun 2027 07:07:31.832             2.955           725.625
       497   13 Jun 2027 07:07:57.333   13 Jun 2027 07:07:57.333             0.000             0.000
       498   13 Jun 2027 07:08:22.233   13 Jun 2027 07:08:22.233             0.000             0.000
       499   13 Jun 2027 07:08:22.828   13 Jun 2027 07:08:26.318             3.490          1524.938
       500   13 Jun 2027 07:08:33.311   13 Jun 2027 07:08:35.121             1.810           218.531
       501   13 Jun 2027 08:38:13.708   13 Jun 2027 08:38:39.451            25.743         12071.937
       502   13 Jun 2027 08:39:20.955   13 Jun 2027 08:39:23.159             2.204           299.156
       503   13 Jun 2027 08:40:24.470   13 Jun 2027 08:40:27.642             3.172          1586.000
       504   13 Jun 2027 08:40:53.708   13 Jun 2027 08:40:56.832             3.124          1144.531
       505   13 Jun 2027 08:41:04.208   13 Jun 2027 08:41:06.691             2.483            60.156
       506   13 Jun 2027 08:42:14.979   13 Jun 2027 08:42:19.530             4.551          1701.313
       507   13 Jun 2027 08:43:38.188   13 Jun 2027 08:43:43.765             5.577          2250.781
       508   13 Jun 2027 08:44:16.254   13 Jun 2027 08:44:17.929             1.675           510.844
       509   13 Jun 2027 10:16:12.526   13 Jun 2027 10:16:29.873            17.347          7109.531
       510   13 Jun 2027 10:16:45.534   13 Jun 2027 10:16:47.044             1.510           175.094
       511   13 Jun 2027 10:17:13.869   13 Jun 2027 10:17:14.295             0.426           213.000
       512   13 Jun 2027 10:17:30.470   13 Jun 2027 10:17:33.617             3.147          1130.750
       513   13 Jun 2027 10:18:15.913   13 Jun 2027 10:18:18.877             2.964           997.844
       514   13 Jun 2027 10:18:31.944   13 Jun 2027 10:18:34.839             2.895           317.625
       515   13 Jun 2027 10:18:59.768   13 Jun 2027 10:19:04.107             4.339           475.469
       516   13 Jun 2027 10:19:21.760   13 Jun 2027 10:19:23.671             1.911           499.250
       517   13 Jun 2027 10:20:13.840   13 Jun 2027 10:20:15.585             1.745           872.500
       518   13 Jun 2027 10:20:24.214   13 Jun 2027 10:20:24.435             0.221           110.500
       519   13 Jun 2027 11:52:04.325   13 Jun 2027 11:52:18.356            14.031          6563.750
       520   13 Jun 2027 11:52:42.459   13 Jun 2027 11:52:45.021             2.562           384.375
       521   13 Jun 2027 11:53:03.263   13 Jun 2027 11:53:07.207             3.944           561.937
       522   13 Jun 2027 11:54:05.905   13 Jun 2027 11:54:09.156             3.251          1532.250
       523   13 Jun 2027 11:54:38.860   13 Jun 2027 11:54:44.294             5.434           928.250
       524   13 Jun 2027 11:55:33.944   13 Jun 2027 11:55:46.824            12.880          1551.562
       525   13 Jun 2027 11:55:54.234   13 Jun 2027 11:55:57.985             3.751           231.562
       526   13 Jun 2027 11:56:06.508   13 Jun 2027 11:56:08.638             2.130           190.594
       527   13 Jun 2027 11:56:47.417   13 Jun 2027 11:56:53.183             5.766          1021.563
       528   13 Jun 2027 11:57:02.324   13 Jun 2027 11:57:06.321             3.997           124.437
