uniorb/output/strategy_2/Camera/Camera_KinoSat_111409.txt

KinoSat_111409
-------------------------
    Access    *     Start Time (UTCG)     *     Stop Time (UTCG)  *   Duration (s) *   Data (Mbytes)
         1   01 Jun 2027 04:22:07.998   01 Jun 2027 04:24:25.965           137.967         68983.500
         2   01 Jun 2027 04:25:11.408   01 Jun 2027 04:25:12.974             1.566           783.000
         3   01 Jun 2027 04:25:26.086   01 Jun 2027 04:25:41.597            15.511          7755.500
         4   01 Jun 2027 04:25:51.858   01 Jun 2027 04:26:10.550            18.692          9346.000
         5   01 Jun 2027 05:45:04.722   01 Jun 2027 05:46:30.351            85.629         42814.500
         6   01 Jun 2027 05:47:27.202   01 Jun 2027 05:47:46.847            19.645          9822.500
         7   01 Jun 2027 07:21:38.404   01 Jun 2027 07:24:37.802           179.398         89699.000
         8   01 Jun 2027 08:56:47.315   01 Jun 2027 08:58:52.468           125.153         62576.500
         9   01 Jun 2027 08:59:27.660   01 Jun 2027 08:59:53.868            26.208         13104.000
        10   01 Jun 2027 09:00:18.706   01 Jun 2027 09:00:24.227             5.521          2760.500
        11   01 Jun 2027 09:03:23.555   01 Jun 2027 09:03:34.099            10.544          5272.000
        12   01 Jun 2027 10:33:07.362   01 Jun 2027 10:35:55.046           167.684         83842.000
        13   02 Jun 2027 03:00:21.663   02 Jun 2027 03:00:43.765            22.102         11051.000
        14   02 Jun 2027 03:01:11.758   02 Jun 2027 03:01:36.049            24.291         12145.500
        15   02 Jun 2027 04:33:52.755   02 Jun 2027 04:34:27.332            34.577         17288.500
        16   02 Jun 2027 04:34:41.407   02 Jun 2027 04:36:35.587           114.180         57090.000
        17   02 Jun 2027 04:37:13.312   02 Jun 2027 04:37:13.992             0.680           340.000
        18   02 Jun 2027 05:57:13.945   02 Jun 2027 05:58:19.488            65.543         32771.500
        19   02 Jun 2027 06:00:04.295   02 Jun 2027 06:00:18.927            14.632          7316.000
        20   02 Jun 2027 07:33:49.087   02 Jun 2027 07:36:25.155           156.068         78034.000
        21   02 Jun 2027 09:08:59.200   02 Jun 2027 09:10:26.828            87.628         43814.000
        22   02 Jun 2027 09:10:31.376   02 Jun 2027 09:11:20.815            49.439         24719.500
        23   02 Jun 2027 09:15:19.898   02 Jun 2027 09:15:34.827            14.929          7464.500
        24   02 Jun 2027 10:45:20.042   02 Jun 2027 10:45:44.179            24.137          9254.406
        25   02 Jun 2027 10:47:10.735   02 Jun 2027 10:47:20.421             9.686          2659.000
        26   02 Jun 2027 10:47:43.345   02 Jun 2027 10:47:45.028             1.683           616.469
        27   02 Jun 2027 10:48:32.527   02 Jun 2027 10:48:36.679             4.152          1414.781
        28   02 Jun 2027 10:49:00.165   02 Jun 2027 10:49:02.627             2.462           703.531
        29   02 Jun 2027 10:49:41.962   02 Jun 2027 10:49:50.548             8.586          1137.688
        30   02 Jun 2027 10:50:10.894   02 Jun 2027 10:50:14.528             3.634           532.687
        31   02 Jun 2027 10:51:06.629   02 Jun 2027 10:51:13.014             6.385          1386.969
        32   02 Jun 2027 10:51:13.590   02 Jun 2027 10:51:15.597             2.007            18.000
        33   03 Jun 2027 03:08:41.978   03 Jun 2027 03:11:05.185           143.207         71603.500
        34   03 Jun 2027 03:11:07.533   03 Jun 2027 03:11:15.225             7.692          3846.000
        35   03 Jun 2027 03:11:29.992   03 Jun 2027 03:11:40.863            10.871          5435.500
        36   03 Jun 2027 03:12:47.212   03 Jun 2027 03:12:47.212             0.000             0.000
        37   03 Jun 2027 03:15:05.374   03 Jun 2027 03:15:07.338             1.964           982.000
        38   03 Jun 2027 03:15:19.587   03 Jun 2027 03:15:38.390            18.803          9401.500
        39   03 Jun 2027 03:15:43.851   03 Jun 2027 03:15:48.913             5.062          2531.000
        40   03 Jun 2027 04:45:49.593   03 Jun 2027 04:46:30.098            40.505         20252.500
        41   03 Jun 2027 04:46:47.371   03 Jun 2027 04:48:09.257            81.886         40943.000
        42   03 Jun 2027 06:09:46.933   03 Jun 2027 06:10:11.740            24.807         12359.937
        43   03 Jun 2027 06:12:02.778   03 Jun 2027 06:12:06.224             3.446          1723.000
        44   03 Jun 2027 06:12:09.787   03 Jun 2027 06:12:15.409             5.622          1858.281
        45   03 Jun 2027 07:45:36.959   03 Jun 2027 07:45:46.774             9.815          4558.281
        46   03 Jun 2027 07:46:52.290   03 Jun 2027 07:46:58.895             6.605          1926.938
        47   03 Jun 2027 07:47:19.541   03 Jun 2027 07:47:21.112             1.571           260.969
        48   03 Jun 2027 07:47:52.990   03 Jun 2027 07:47:56.505             3.515           482.469
        49   03 Jun 2027 07:48:22.341   03 Jun 2027 07:48:23.225             0.884           442.000
        50   03 Jun 2027 07:48:57.092   03 Jun 2027 07:48:58.465             1.373           686.500
        51   03 Jun 2027 07:49:45.274   03 Jun 2027 07:49:45.490             0.216           108.000
        52   03 Jun 2027 09:20:29.619   03 Jun 2027 09:20:38.855             9.236          4465.469
        53   03 Jun 2027 09:21:01.582   03 Jun 2027 09:21:02.266             0.684            97.281
        54   03 Jun 2027 09:21:54.640   03 Jun 2027 09:22:00.195             5.555           396.156
        55   03 Jun 2027 09:22:41.182   03 Jun 2027 09:22:48.676             7.494          1280.844
        56   03 Jun 2027 09:23:50.305   03 Jun 2027 09:23:50.305             0.000             0.000
        57   03 Jun 2027 09:24:18.639   03 Jun 2027 09:24:24.086             5.447          2648.750
        58   03 Jun 2027 09:25:17.054   03 Jun 2027 09:25:21.062             4.008           745.125
        59   03 Jun 2027 09:25:25.716   03 Jun 2027 09:25:27.901             2.185           116.469
        60   03 Jun 2027 09:26:22.614   03 Jun 2027 09:26:26.583             3.969          1384.687
        61   03 Jun 2027 09:26:47.275   03 Jun 2027 09:26:47.275             0.000             0.000
        62   03 Jun 2027 09:27:08.321   03 Jun 2027 09:27:12.975             4.654          1304.313
        63   03 Jun 2027 09:27:40.319   03 Jun 2027 09:27:44.048             3.729           659.188
        64   03 Jun 2027 10:56:58.996   03 Jun 2027 10:57:14.475            15.479          6770.188
        65   03 Jun 2027 10:57:46.321   03 Jun 2027 10:57:49.429             3.108           571.063
        66   03 Jun 2027 10:57:55.682   03 Jun 2027 10:57:59.826             4.144            87.250
        67   03 Jun 2027 10:59:01.265   03 Jun 2027 10:59:05.923             4.658          1918.656
        68   03 Jun 2027 10:59:17.015   03 Jun 2027 10:59:19.593             2.578           194.500
        69   03 Jun 2027 10:59:56.216   03 Jun 2027 10:59:57.290             1.074           537.000
        70   03 Jun 2027 11:01:11.713   03 Jun 2027 11:01:17.851             6.138          2724.281
        71   03 Jun 2027 11:02:01.358   03 Jun 2027 11:02:06.255             4.897          1013.313
        72   03 Jun 2027 11:02:13.275   03 Jun 2027 11:02:22.675             9.400            76.500
        73   03 Jun 2027 11:03:13.765   03 Jun 2027 11:03:17.172             3.407          1596.562
        74   04 Jun 2027 03:20:45.957   04 Jun 2027 03:22:56.022           130.065         65032.500
        75   04 Jun 2027 03:24:14.876   04 Jun 2027 03:24:40.520            25.644         12822.000
        76   04 Jun 2027 03:25:28.588   04 Jun 2027 03:25:36.190             7.602          3801.000
        77   04 Jun 2027 03:26:01.466   04 Jun 2027 03:26:25.242            23.776         11888.000
        78   04 Jun 2027 03:27:09.042   04 Jun 2027 03:27:24.520            15.478          7739.000
        79   04 Jun 2027 03:27:49.221   04 Jun 2027 03:27:56.836             7.615          3807.500
        80   04 Jun 2027 04:46:26.264   04 Jun 2027 04:46:49.982            23.718         11859.000
        81   04 Jun 2027 04:57:46.230   04 Jun 2027 04:59:06.970            80.740         39939.000
        82   04 Jun 2027 06:20:21.576   04 Jun 2027 06:20:26.659             5.083          2541.500
        83   04 Jun 2027 06:20:57.006   04 Jun 2027 06:21:04.634             7.628          2504.906
        84   04 Jun 2027 06:21:56.680   04 Jun 2027 06:22:00.270             3.590           414.406
        85   04 Jun 2027 06:22:16.236   04 Jun 2027 06:22:16.939             0.703           351.500
        86   04 Jun 2027 06:22:25.815   04 Jun 2027 06:22:26.891             1.076           398.063
        87   04 Jun 2027 06:23:25.893   04 Jun 2027 06:23:25.893             0.000             0.000
        88   04 Jun 2027 06:23:55.260   04 Jun 2027 06:24:07.580            12.320          2623.500
        89   04 Jun 2027 06:24:53.341   04 Jun 2027 06:24:53.341             0.000             0.000
        90   04 Jun 2027 06:25:01.562   04 Jun 2027 06:25:03.634             2.072          1036.000
        91   04 Jun 2027 07:55:53.080   04 Jun 2027 07:56:01.749             8.669          4307.437
        92   04 Jun 2027 07:57:22.127   04 Jun 2027 07:57:24.396             2.269           971.531
        93   04 Jun 2027 07:58:53.316   04 Jun 2027 07:58:58.846             5.530          2753.750
        94   04 Jun 2027 07:59:07.635   04 Jun 2027 07:59:10.188             2.553            63.719
        95   04 Jun 2027 08:00:20.299   04 Jun 2027 08:00:22.973             2.674           351.750
        96   04 Jun 2027 08:01:10.869   04 Jun 2027 08:01:12.110             1.241           620.500
        97   04 Jun 2027 08:01:38.948   04 Jun 2027 08:01:41.440             2.492          1246.000
        98   04 Jun 2027 09:32:12.735   04 Jun 2027 09:32:22.636             9.901          3974.562
        99   04 Jun 2027 09:33:01.158   04 Jun 2027 09:33:03.535             2.377           761.406
       100   04 Jun 2027 09:33:37.508   04 Jun 2027 09:33:39.823             2.315           945.625
       101   04 Jun 2027 09:35:14.226   04 Jun 2027 09:35:18.080             3.854          1619.344
       102   04 Jun 2027 09:35:44.081   04 Jun 2027 09:35:46.144             2.063           533.063
       103   04 Jun 2027 09:36:15.750   04 Jun 2027 09:36:18.617             2.867           763.313
       104   04 Jun 2027 09:36:32.730   04 Jun 2027 09:36:35.563             2.833           373.437
       105   04 Jun 2027 09:36:51.656   04 Jun 2027 09:36:54.206             2.550           128.844
       106   04 Jun 2027 09:37:29.254   04 Jun 2027 09:37:38.153             8.899          1095.250
       107   04 Jun 2027 09:38:15.279   04 Jun 2027 09:38:19.376             4.097          1139.531
       108   04 Jun 2027 09:39:25.801   04 Jun 2027 09:39:33.758             7.957          2075.781
       109   04 Jun 2027 11:09:19.200   04 Jun 2027 11:09:36.878            17.678          7541.312
       110   04 Jun 2027 11:10:54.902   04 Jun 2027 11:11:00.916             6.014          2410.125
       111   04 Jun 2027 11:11:15.359   04 Jun 2027 11:11:17.583             2.224           408.500
       112   04 Jun 2027 11:11:30.432   04 Jun 2027 11:11:36.394             5.962           386.875
       113   04 Jun 2027 11:11:59.787   04 Jun 2027 11:12:00.543             0.756           378.000
       114   04 Jun 2027 11:12:12.216   04 Jun 2027 11:12:12.216             0.000             0.000
       115   04 Jun 2027 11:12:39.394   04 Jun 2027 11:12:44.040             4.646          1567.125
       116   04 Jun 2027 11:13:00.112   04 Jun 2027 11:13:01.104             0.992           466.687
       117   04 Jun 2027 11:13:25.307   04 Jun 2027 11:13:28.550             3.243           452.219
       118   04 Jun 2027 11:13:59.728   04 Jun 2027 11:14:04.182             4.454           974.312
       119   04 Jun 2027 11:14:29.310   04 Jun 2027 11:14:34.325             5.015           779.625
       120   04 Jun 2027 11:15:24.969   04 Jun 2027 11:15:28.784             3.815          1582.625
       121   05 Jun 2027 03:33:15.886   05 Jun 2027 03:35:44.565           148.679         74339.500
       122   05 Jun 2027 03:36:37.007   05 Jun 2027 03:36:49.529            12.522          6261.000
       123   05 Jun 2027 03:37:20.005   05 Jun 2027 03:37:46.093            26.088         13044.000
       124   05 Jun 2027 03:38:33.910   05 Jun 2027 03:39:10.067            36.157         18078.500
       125   05 Jun 2027 03:39:25.775   05 Jun 2027 03:39:30.281             4.506          2253.000
       126   05 Jun 2027 03:40:01.735   05 Jun 2027 03:40:23.749            22.014         11007.000
       127   05 Jun 2027 04:58:05.524   05 Jun 2027 04:58:25.897            20.373         10186.500
       128   05 Jun 2027 04:59:38.158   05 Jun 2027 04:59:38.158             0.000             0.000
       129   05 Jun 2027 05:09:47.431   05 Jun 2027 05:10:45.238            57.807         28903.500
       130   05 Jun 2027 06:32:04.443   05 Jun 2027 06:32:19.085            14.642          7321.000
       131   05 Jun 2027 06:32:33.895   05 Jun 2027 06:32:37.430             3.535          1580.875
       132   05 Jun 2027 06:32:48.178   05 Jun 2027 06:32:48.475             0.297            77.094
       133   05 Jun 2027 06:34:30.722   05 Jun 2027 06:34:38.359             7.637          2802.937
       134   05 Jun 2027 06:36:07.883   05 Jun 2027 06:36:11.396             3.513          1756.500
       135   05 Jun 2027 06:36:34.927   05 Jun 2027 06:36:38.023             3.096          1426.469
       136   05 Jun 2027 06:36:48.557   05 Jun 2027 06:36:53.226             4.669           199.344
       137   05 Jun 2027 08:07:01.371   05 Jun 2027 08:07:10.979             9.608          3933.344
       138   05 Jun 2027 08:07:35.174   05 Jun 2027 08:07:35.605             0.431           188.344
       139   05 Jun 2027 08:08:26.013   05 Jun 2027 08:08:28.872             2.859           984.813
       140   05 Jun 2027 08:09:14.162   05 Jun 2027 08:09:19.916             5.754          1194.719
       141   05 Jun 2027 08:09:31.337   05 Jun 2027 08:09:31.337             0.000             0.000
       142   05 Jun 2027 08:10:54.024   05 Jun 2027 08:11:01.560             7.536          2852.906
       143   05 Jun 2027 08:12:19.589   05 Jun 2027 08:12:19.589             0.000             0.000
       144   05 Jun 2027 08:12:52.820   05 Jun 2027 08:12:57.006             4.186          1064.375
       145   05 Jun 2027 08:15:00.802   05 Jun 2027 08:15:07.621             6.819          3094.281
       146   05 Jun 2027 08:15:14.159   05 Jun 2027 08:15:15.019             0.860           122.813
       147   05 Jun 2027 09:44:30.761   05 Jun 2027 09:44:42.249            11.488          5201.781
       148   05 Jun 2027 09:45:33.094   05 Jun 2027 09:45:35.810             2.716          1020.000
       149   05 Jun 2027 09:45:47.930   05 Jun 2027 09:45:50.823             2.893           234.562
       150   05 Jun 2027 09:47:19.123   05 Jun 2027 09:47:24.907             5.784          2759.375
       151   05 Jun 2027 09:48:05.548   05 Jun 2027 09:48:05.548             0.000             0.000
       152   05 Jun 2027 09:48:22.615   05 Jun 2027 09:48:29.074             6.459          1466.500
       153   05 Jun 2027 09:49:39.670   05 Jun 2027 09:49:45.627             5.957          1220.937
       154   05 Jun 2027 09:50:43.641   05 Jun 2027 09:50:46.894             3.253          1626.500
       155   05 Jun 2027 09:51:12.274   05 Jun 2027 09:51:14.443             2.169           905.750
       156   05 Jun 2027 11:21:15.380   05 Jun 2027 11:21:29.884            14.504          5683.500
       157   05 Jun 2027 11:22:23.662   05 Jun 2027 11:22:28.486             4.824           253.906
       158   05 Jun 2027 11:22:48.516   05 Jun 2027 11:22:50.213             1.697           552.625
       159   05 Jun 2027 11:23:45.250   05 Jun 2027 11:23:54.462             9.212          1674.500
       160   05 Jun 2027 11:25:00.936   05 Jun 2027 11:25:06.018             5.082          2077.313
       161   05 Jun 2027 11:25:32.279   05 Jun 2027 11:25:34.340             2.061           820.656
       162   05 Jun 2027 11:26:03.544   05 Jun 2027 11:26:07.773             4.229           751.500
       163   05 Jun 2027 11:27:33.232   05 Jun 2027 11:27:41.940             8.708          2668.031
       164   06 Jun 2027 03:45:17.920   06 Jun 2027 03:47:26.704           128.784         64392.000
       165   06 Jun 2027 03:48:32.353   06 Jun 2027 03:48:48.538            16.185          8092.500
       166   06 Jun 2027 03:48:48.811   06 Jun 2027 03:48:56.654             7.843          3921.500
       167   06 Jun 2027 03:49:44.297   06 Jun 2027 03:50:39.430            55.133         27566.500
       168   06 Jun 2027 03:51:11.594   06 Jun 2027 03:51:27.288            15.694          7847.000
       169   06 Jun 2027 03:52:05.859   06 Jun 2027 03:52:16.432            10.573          5286.500
       170   06 Jun 2027 05:09:39.040   06 Jun 2027 05:10:38.406            59.366         29683.000
       171   06 Jun 2027 05:21:54.780   06 Jun 2027 05:22:22.430            27.650         13825.000
       172   06 Jun 2027 06:43:36.506   06 Jun 2027 06:43:48.338            11.832          5704.875
       173   06 Jun 2027 06:45:45.299   06 Jun 2027 06:45:46.761             1.462           731.000
       174   06 Jun 2027 06:46:05.096   06 Jun 2027 06:46:09.644             4.548          1828.750
       175   06 Jun 2027 06:46:47.623   06 Jun 2027 06:46:53.290             5.667           849.437
       176   06 Jun 2027 06:48:05.771   06 Jun 2027 06:48:14.413             8.642          2170.844
       177   06 Jun 2027 06:48:24.239   06 Jun 2027 06:48:25.683             1.444           307.062
       178   06 Jun 2027 08:18:30.100   06 Jun 2027 08:18:43.728            13.628          6341.281
       179   06 Jun 2027 08:19:23.530   06 Jun 2027 08:19:27.517             3.987          1204.750
       180   06 Jun 2027 08:20:37.094   06 Jun 2027 08:20:39.065             1.971           273.906
       181   06 Jun 2027 08:21:39.633   06 Jun 2027 08:21:43.796             4.163          1747.750
       182   06 Jun 2027 08:21:59.431   06 Jun 2027 08:22:00.937             1.506           130.812
       183   06 Jun 2027 08:22:38.596   06 Jun 2027 08:22:52.672            14.076           687.906
       184   06 Jun 2027 08:24:10.170   06 Jun 2027 08:24:16.339             6.169          2369.750
       185   06 Jun 2027 08:25:20.651   06 Jun 2027 08:25:24.021             3.370          1685.000
       186   06 Jun 2027 08:25:24.518   06 Jun 2027 08:25:25.707             1.189           264.781
       187   06 Jun 2027 08:25:29.121   06 Jun 2027 08:25:30.731             1.610            51.187
       188   06 Jun 2027 08:26:21.662   06 Jun 2027 08:26:24.961             3.299          1240.375
       189   06 Jun 2027 08:27:05.926   06 Jun 2027 08:27:11.321             5.395          1280.156
       190   06 Jun 2027 08:27:29.194   06 Jun 2027 08:27:29.605             0.411            61.656
       191   06 Jun 2027 08:27:39.765   06 Jun 2027 08:27:43.864             4.099           314.656
       192   06 Jun 2027 09:56:24.509   06 Jun 2027 09:56:38.390            13.881          6151.281
       193   06 Jun 2027 09:57:16.842   06 Jun 2027 09:57:21.169             4.327           989.906
       194   06 Jun 2027 09:58:08.106   06 Jun 2027 09:58:09.041             0.935           321.781
       195   06 Jun 2027 09:58:25.542   06 Jun 2027 09:58:26.383             0.841           387.156
       196   06 Jun 2027 09:59:24.333   06 Jun 2027 09:59:28.525             4.192          1754.344
       197   06 Jun 2027 09:59:58.603   06 Jun 2027 10:00:02.375             3.772           592.812
       198   06 Jun 2027 10:00:35.370   06 Jun 2027 10:00:38.706             3.336          1031.094
       199   06 Jun 2027 10:01:47.755   06 Jun 2027 10:01:54.067             6.312          2121.969
       200   06 Jun 2027 10:02:02.922   06 Jun 2027 10:02:05.636             2.714           276.719
       201   06 Jun 2027 10:02:16.846   06 Jun 2027 10:02:18.208             1.362           336.219
       202   06 Jun 2027 10:02:28.782   06 Jun 2027 10:02:29.572             0.790           180.844
       203   06 Jun 2027 10:02:37.305   06 Jun 2027 10:02:37.305             0.000             0.000
       204   06 Jun 2027 10:03:13.718   06 Jun 2027 10:03:18.309             4.591          1379.562
       205   06 Jun 2027 11:33:08.655   06 Jun 2027 11:33:23.351            14.696          7248.187
       206   06 Jun 2027 11:33:43.337   06 Jun 2027 11:33:44.964             1.627           624.562
       207   06 Jun 2027 11:34:24.471   06 Jun 2027 11:34:26.409             1.938           681.625
       208   06 Jun 2027 11:35:52.992   06 Jun 2027 11:35:57.137             4.145          1918.219
       209   06 Jun 2027 11:36:30.347   06 Jun 2027 11:36:37.532             7.185          1037.813
       210   06 Jun 2027 11:37:31.584   06 Jun 2027 11:37:35.084             3.500          1189.969
       211   06 Jun 2027 11:38:02.880   06 Jun 2027 11:38:08.724             5.844           855.312
       212   06 Jun 2027 11:38:46.051   06 Jun 2027 11:38:48.531             2.480          1129.656
       213   06 Jun 2027 11:39:08.990   06 Jun 2027 11:39:13.113             4.123           333.562
       214   06 Jun 2027 11:39:31.339   06 Jun 2027 11:39:35.186             3.847           548.250
       215   07 Jun 2027 03:57:43.120   07 Jun 2027 03:59:41.245           118.125         59062.500
       216   07 Jun 2027 04:00:51.138   07 Jun 2027 04:01:19.781            28.643         14321.500
       217   07 Jun 2027 04:01:28.228   07 Jun 2027 04:01:43.471            15.243          7621.500
       218   07 Jun 2027 04:02:19.028   07 Jun 2027 04:02:43.317            24.289         12144.500
       219   07 Jun 2027 05:21:34.941   07 Jun 2027 05:22:44.263            69.322         34661.000
       220   07 Jun 2027 06:57:35.334   07 Jun 2027 06:58:35.712            60.378         30189.000
       221   07 Jun 2027 06:59:05.761   07 Jun 2027 06:59:07.034             1.273           636.500
       222   07 Jun 2027 06:59:42.345   07 Jun 2027 06:59:48.291             5.946          1906.781
       223   07 Jun 2027 07:00:17.609   07 Jun 2027 07:00:17.609             0.000             0.000
       224   07 Jun 2027 08:31:23.296   07 Jun 2027 08:31:32.745             9.449          3987.531
       225   07 Jun 2027 08:32:56.485   07 Jun 2027 08:32:58.002             1.517           582.969
       226   07 Jun 2027 08:33:21.575   07 Jun 2027 08:33:25.090             3.515           146.094
       227   07 Jun 2027 08:33:43.601   07 Jun 2027 08:33:45.738             2.137           107.875
       228   07 Jun 2027 08:33:54.837   07 Jun 2027 08:33:58.502             3.665           284.344
       229   07 Jun 2027 08:36:18.127   07 Jun 2027 08:36:25.958             7.831          3040.656
       230   07 Jun 2027 08:37:19.660   07 Jun 2027 08:37:19.660             0.000             0.000
       231   07 Jun 2027 08:38:07.072   07 Jun 2027 08:38:14.079             7.007          3159.813
       232   07 Jun 2027 08:38:36.287   07 Jun 2027 08:38:39.542             3.255           694.000
       233   07 Jun 2027 08:39:52.303   07 Jun 2027 08:39:54.081             1.778           889.000
       234   07 Jun 2027 10:08:33.316   07 Jun 2027 10:08:49.944            16.628          7869.813
       235   07 Jun 2027 10:09:13.148   07 Jun 2027 10:09:15.093             1.945           274.938
       236   07 Jun 2027 10:09:33.739   07 Jun 2027 10:09:38.580             4.841           412.000
       237   07 Jun 2027 10:12:25.142   07 Jun 2027 10:12:37.340            12.198          4914.313
       238   07 Jun 2027 10:13:20.085   07 Jun 2027 10:13:23.652             3.567          1335.781
       239   07 Jun 2027 10:14:34.109   07 Jun 2027 10:14:37.982             3.873          1906.781
       240   07 Jun 2027 10:15:16.682   07 Jun 2027 10:15:18.673             1.991           995.500
       241   07 Jun 2027 10:15:20.303   07 Jun 2027 10:15:20.560             0.257            62.938
       242   07 Jun 2027 10:15:37.414   07 Jun 2027 10:15:38.808             1.394           526.688
       243   07 Jun 2027 11:45:47.576   07 Jun 2027 11:46:03.173            15.597          7745.312
       244   07 Jun 2027 11:47:31.118   07 Jun 2027 11:47:37.338             6.220          2748.281
       245   07 Jun 2027 11:48:20.035   07 Jun 2027 11:48:23.833             3.798          1172.219
       246   07 Jun 2027 11:48:43.724   07 Jun 2027 11:48:47.819             4.095           571.156
       247   07 Jun 2027 11:49:04.374   07 Jun 2027 11:49:06.961             2.587           425.750
       248   07 Jun 2027 11:49:38.229   07 Jun 2027 11:49:42.710             4.481           971.656
       249   07 Jun 2027 11:50:37.304   07 Jun 2027 11:50:41.801             4.497          1629.719
       250   07 Jun 2027 11:50:52.275   07 Jun 2027 11:50:54.828             2.553           132.656
       251   07 Jun 2027 11:51:30.365   07 Jun 2027 11:51:36.111             5.746          1110.531
       252   08 Jun 2027 04:10:05.433   08 Jun 2027 04:12:19.948           134.515         67257.500
       253   08 Jun 2027 04:12:40.194   08 Jun 2027 04:13:25.843            45.649         22824.500
       254   08 Jun 2027 05:33:27.730   08 Jun 2027 05:34:59.698            91.968         45984.000
       255   08 Jun 2027 07:09:48.579   08 Jun 2027 07:10:36.158            47.579         21287.937
       256   08 Jun 2027 07:10:49.534   08 Jun 2027 07:10:53.779             4.245           329.938
       257   08 Jun 2027 07:11:52.131   08 Jun 2027 07:11:56.198             4.067          1458.844
       258   08 Jun 2027 07:12:03.295   08 Jun 2027 07:12:03.295             0.000             0.000
       259   08 Jun 2027 07:12:20.917   08 Jun 2027 07:12:22.698             1.781           704.500
       260   08 Jun 2027 07:12:50.862   08 Jun 2027 07:12:53.963             3.101           853.656
       261   08 Jun 2027 08:43:50.613   08 Jun 2027 08:43:59.715             9.102          4212.625
       262   08 Jun 2027 08:44:48.368   08 Jun 2027 08:44:50.820             2.452          1183.156
       263   08 Jun 2027 08:45:21.565   08 Jun 2027 08:45:25.448             3.883           124.063
       264   08 Jun 2027 08:45:34.135   08 Jun 2027 08:45:40.968             6.833           154.656
       265   08 Jun 2027 08:46:42.782   08 Jun 2027 08:46:49.504             6.722          1692.813
       266   08 Jun 2027 08:48:49.536   08 Jun 2027 08:48:56.706             7.170          3498.156
       267   08 Jun 2027 08:49:32.262   08 Jun 2027 08:49:34.213             1.951           888.313
       268   08 Jun 2027 08:50:03.975   08 Jun 2027 08:50:09.101             5.126           371.312
       269   08 Jun 2027 08:50:32.014   08 Jun 2027 08:50:33.001             0.987           493.500
       270   08 Jun 2027 08:50:55.522   08 Jun 2027 08:50:56.052             0.530           265.000
       271   08 Jun 2027 08:51:17.971   08 Jun 2027 08:51:21.617             3.646          1155.844
       272   08 Jun 2027 08:51:50.369   08 Jun 2027 08:51:52.494             2.125           773.156
       273   08 Jun 2027 10:20:58.157   08 Jun 2027 10:21:13.247            15.090          5420.344
       274   08 Jun 2027 10:23:00.070   08 Jun 2027 10:23:04.876             4.806          1745.313
       275   08 Jun 2027 10:23:26.755   08 Jun 2027 10:23:29.809             3.054           288.625
       276   08 Jun 2027 10:23:44.346   08 Jun 2027 10:23:46.740             2.394           355.875
       277   08 Jun 2027 10:24:57.614   08 Jun 2027 10:25:02.249             4.635          2018.437
       278   08 Jun 2027 10:25:26.808   08 Jun 2027 10:25:33.403             6.595           637.250
       279   08 Jun 2027 10:26:03.378   08 Jun 2027 10:26:04.864             1.486           605.500
       280   08 Jun 2027 10:26:20.857   08 Jun 2027 10:26:21.445             0.588           269.594
       281   08 Jun 2027 10:27:24.575   08 Jun 2027 10:27:26.716             2.141          1070.500
       282   08 Jun 2027 10:27:38.087   08 Jun 2027 10:27:39.286             1.199           407.375
       283   08 Jun 2027 11:57:56.075   08 Jun 2027 11:58:16.128            20.053          6536.844
       284   08 Jun 2027 11:59:30.564   08 Jun 2027 11:59:39.250             8.686          2142.219
       285   09 Jun 2027 04:22:25.814   09 Jun 2027 04:23:39.635            73.821         36910.500
       286   09 Jun 2027 04:23:56.791   09 Jun 2027 04:25:43.872           107.081         53540.500
       287   09 Jun 2027 04:25:56.149   09 Jun 2027 04:25:56.241             0.092            46.000
       288   09 Jun 2027 04:26:18.430   09 Jun 2027 04:26:27.514             9.084          4542.000
       289   09 Jun 2027 05:45:28.212   09 Jun 2027 05:46:34.266            66.054         33027.000
       290   09 Jun 2027 05:48:00.907   09 Jun 2027 05:48:04.123             3.216          1608.000
       291   09 Jun 2027 07:21:54.792   09 Jun 2027 07:22:56.272            61.480         27938.063
       292   09 Jun 2027 07:23:07.073   09 Jun 2027 07:23:11.643             4.570           132.969
       293   09 Jun 2027 07:23:33.405   09 Jun 2027 07:23:33.405             0.000             0.000
       294   09 Jun 2027 07:23:39.978   09 Jun 2027 07:23:41.644             1.666           606.469
       295   09 Jun 2027 07:24:24.303   09 Jun 2027 07:24:30.595             6.292          1333.094
       296   09 Jun 2027 07:24:58.686   09 Jun 2027 07:24:58.686             0.000             0.000
       297   09 Jun 2027 08:57:03.361   09 Jun 2027 08:57:14.480            11.119          4056.750
       298   09 Jun 2027 08:57:52.483   09 Jun 2027 08:57:55.115             2.632           956.531
       299   09 Jun 2027 08:58:18.809   09 Jun 2027 08:58:18.809             0.000             0.000
       300   09 Jun 2027 08:58:44.412   09 Jun 2027 08:58:51.712             7.300          1162.844
       301   09 Jun 2027 08:58:56.174   09 Jun 2027 08:59:02.524             6.350           133.219
       302   09 Jun 2027 08:59:09.562   09 Jun 2027 08:59:11.180             1.618            67.969
       303   09 Jun 2027 09:00:45.760   09 Jun 2027 09:00:49.141             3.381          1690.500
       304   09 Jun 2027 09:01:09.710   09 Jun 2027 09:01:13.974             4.264          1412.937
       305   09 Jun 2027 09:01:48.988   09 Jun 2027 09:01:50.478             1.490           192.938
       306   09 Jun 2027 09:01:54.148   09 Jun 2027 09:01:54.945             0.797           111.969
       307   09 Jun 2027 09:02:12.491   09 Jun 2027 09:02:19.929             7.438           515.625
       308   09 Jun 2027 09:03:12.137   09 Jun 2027 09:03:15.983             3.846          1305.063
       309   09 Jun 2027 09:03:28.602   09 Jun 2027 09:03:31.583             2.981           252.031
       310   09 Jun 2027 09:03:44.914   09 Jun 2027 09:03:46.709             1.795           322.438
       311   09 Jun 2027 10:33:23.862   09 Jun 2027 10:33:36.998            13.136          6248.531
       312   09 Jun 2027 10:34:09.450   09 Jun 2027 10:34:09.935             0.485           188.219
       313   09 Jun 2027 10:35:01.092   09 Jun 2027 10:35:03.552             2.460           951.375
       314   09 Jun 2027 10:35:28.563   09 Jun 2027 10:35:33.507             4.944           300.875
       315   09 Jun 2027 10:35:45.839   09 Jun 2027 10:35:49.641             3.802           237.375
       316   09 Jun 2027 10:36:29.758   09 Jun 2027 10:36:33.573             3.815          1209.125
       317   09 Jun 2027 10:37:07.060   09 Jun 2027 10:37:08.084             1.024           398.281
       318   09 Jun 2027 10:37:31.344   09 Jun 2027 10:37:32.959             1.615           726.875
       319   09 Jun 2027 10:38:00.868   09 Jun 2027 10:38:04.697             3.829           870.000
       320   09 Jun 2027 10:38:14.167   09 Jun 2027 10:38:16.408             2.241           295.937
       321   09 Jun 2027 10:38:21.658   09 Jun 2027 10:38:22.272             0.614            63.906
       322   09 Jun 2027 10:39:04.544   09 Jun 2027 10:39:06.879             2.335          1089.937
       323   09 Jun 2027 10:39:12.455   09 Jun 2027 10:39:16.511             4.056           174.250
       324   09 Jun 2027 10:39:26.947   09 Jun 2027 10:39:28.621             1.674           326.125
       325   10 Jun 2027 03:00:00.000   10 Jun 2027 03:00:10.701            10.701          5350.500
       326   10 Jun 2027 03:00:16.105   10 Jun 2027 03:00:53.059            36.954         18477.000
       327   10 Jun 2027 04:34:08.879   10 Jun 2027 04:34:43.911            35.032         17516.000
       328   10 Jun 2027 04:34:57.446   10 Jun 2027 04:37:14.576           137.130         68565.000
       329   10 Jun 2027 04:37:33.202   10 Jun 2027 04:37:43.960            10.758          5379.000
       330   10 Jun 2027 04:37:44.812   10 Jun 2027 04:37:44.812             0.000             0.000
       331   10 Jun 2027 05:57:29.272   10 Jun 2027 05:58:24.580            55.308         27654.000
       332   10 Jun 2027 05:58:34.726   10 Jun 2027 05:58:39.829             5.103          2551.500
       333   10 Jun 2027 07:34:05.306   10 Jun 2027 07:34:36.602            31.296         13955.563
       334   10 Jun 2027 07:35:18.475   10 Jun 2027 07:35:21.201             2.726          1037.219
       335   10 Jun 2027 07:36:18.673   10 Jun 2027 07:36:23.018             4.345          1642.906
       336   10 Jun 2027 07:37:05.643   10 Jun 2027 07:37:08.679             3.036          1185.312
       337   10 Jun 2027 09:09:15.513   10 Jun 2027 09:09:24.275             8.762          3950.687
       338   10 Jun 2027 09:10:45.660   10 Jun 2027 09:10:51.188             5.528          2395.562
       339   10 Jun 2027 09:11:38.986   10 Jun 2027 09:11:38.986             0.000             0.000
       340   10 Jun 2027 09:12:11.191   10 Jun 2027 09:12:19.958             8.767          2482.406
       341   10 Jun 2027 09:13:10.866   10 Jun 2027 09:13:19.835             8.969          1496.125
       342   10 Jun 2027 09:13:32.539   10 Jun 2027 09:13:34.472             1.933           365.813
       343   10 Jun 2027 09:13:36.295   10 Jun 2027 09:13:37.095             0.800             6.875
       344   10 Jun 2027 09:14:40.947   10 Jun 2027 09:14:40.947             0.000             0.000
       345   10 Jun 2027 09:15:16.172   10 Jun 2027 09:15:22.244             6.072          1593.500
       346   10 Jun 2027 10:45:33.644   10 Jun 2027 10:45:54.059            20.415          6773.875
       347   10 Jun 2027 10:47:20.534   10 Jun 2027 10:47:24.571             4.037          1833.687
       348   10 Jun 2027 10:47:33.434   10 Jun 2027 10:47:34.985             1.551           198.438
       349   10 Jun 2027 10:48:04.562   10 Jun 2027 10:48:06.259             1.697           775.719
       350   10 Jun 2027 10:48:32.415   10 Jun 2027 10:48:36.267             3.852           703.188
       351   10 Jun 2027 10:48:49.281   10 Jun 2027 10:48:51.331             2.050           406.687
       352   10 Jun 2027 10:49:28.214   10 Jun 2027 10:49:31.662             3.448           554.594
       353   10 Jun 2027 10:50:37.976   10 Jun 2027 10:50:45.162             7.186          2072.312
       354   10 Jun 2027 10:51:06.429   10 Jun 2027 10:51:08.507             2.078           664.594
       355   10 Jun 2027 10:51:17.263   10 Jun 2027 10:51:19.261             1.998           258.531
       356   10 Jun 2027 10:51:28.769   10 Jun 2027 10:51:29.120             0.351           136.844
       357   11 Jun 2027 03:08:58.303   11 Jun 2027 03:11:37.907           159.604         79802.000
       358   11 Jun 2027 03:13:22.346   11 Jun 2027 03:13:26.561             4.215          2107.500
       359   11 Jun 2027 03:13:56.244   11 Jun 2027 03:14:02.140             5.896          2948.000
       360   11 Jun 2027 04:35:21.895   11 Jun 2027 04:35:24.590             2.695          1347.500
       361   11 Jun 2027 04:46:05.391   11 Jun 2027 04:47:50.213           104.822         52411.000
       362   11 Jun 2027 06:10:03.811   11 Jun 2027 06:10:41.085            37.274         18570.375
       363   11 Jun 2027 06:12:24.398   11 Jun 2027 06:12:32.703             8.305          3228.531
       364   11 Jun 2027 07:45:50.851   11 Jun 2027 07:46:01.278            10.427          5192.156
       365   11 Jun 2027 07:46:58.853   11 Jun 2027 07:46:58.853             0.000             0.000
       366   11 Jun 2027 07:47:28.004   11 Jun 2027 07:47:32.710             4.706          2054.125
       367   11 Jun 2027 07:48:13.954   11 Jun 2027 07:48:18.802             4.848          1236.219
       368   11 Jun 2027 07:49:15.328   11 Jun 2027 07:49:15.328             0.000             0.000
       369   11 Jun 2027 07:50:00.828   11 Jun 2027 07:50:02.072             1.244           622.000
       370   11 Jun 2027 09:20:44.490   11 Jun 2027 09:20:53.604             9.114          4541.906
       371   11 Jun 2027 09:21:41.225   11 Jun 2027 09:21:45.060             3.835          1155.250
       372   11 Jun 2027 09:23:12.333   11 Jun 2027 09:23:12.333             0.000             0.000
       373   11 Jun 2027 09:23:45.076   11 Jun 2027 09:23:49.320             4.244          1831.187
       374   11 Jun 2027 09:24:36.760   11 Jun 2027 09:24:36.760             0.000             0.000
       375   11 Jun 2027 09:26:29.921   11 Jun 2027 09:26:41.595            11.674          4873.812
       376   11 Jun 2027 09:27:18.717   11 Jun 2027 09:27:21.162             2.445          1069.719
       377   11 Jun 2027 10:57:15.176   11 Jun 2027 10:57:29.689            14.513          6661.094
       378   11 Jun 2027 10:58:01.809   11 Jun 2027 10:58:05.652             3.843           516.875
       379   11 Jun 2027 10:58:12.415   11 Jun 2027 10:58:13.338             0.923           151.219
       380   11 Jun 2027 10:58:23.108   11 Jun 2027 10:58:24.775             1.667           280.500
       381   11 Jun 2027 10:58:54.856   11 Jun 2027 10:58:57.035             2.179           744.625
       382   11 Jun 2027 10:59:13.094   11 Jun 2027 10:59:17.842             4.748           453.969
       383   11 Jun 2027 10:59:45.150   11 Jun 2027 10:59:47.344             2.194           853.375
       384   11 Jun 2027 10:59:54.261   11 Jun 2027 10:59:59.947             5.686           175.656
       385   11 Jun 2027 11:00:30.204   11 Jun 2027 11:00:32.101             1.897           567.219
       386   11 Jun 2027 11:00:47.663   11 Jun 2027 11:00:48.327             0.664           187.750
       387   11 Jun 2027 11:00:54.641   11 Jun 2027 11:00:54.641             0.000             0.000
       388   11 Jun 2027 11:01:11.466   11 Jun 2027 11:01:13.433             1.967           685.563
       389   11 Jun 2027 11:01:51.910   11 Jun 2027 11:02:00.173             8.263          1154.000
       390   11 Jun 2027 11:02:53.980   11 Jun 2027 11:03:02.580             8.600          1555.063
       391   11 Jun 2027 11:03:08.406   11 Jun 2027 11:03:09.273             0.867           182.063
       392   11 Jun 2027 11:03:14.255   11 Jun 2027 11:03:15.650             1.395           155.687
       393   11 Jun 2027 11:03:31.830   11 Jun 2027 11:03:31.830             0.000             0.000
       394   12 Jun 2027 03:21:02.669   12 Jun 2027 03:23:57.906           175.237         87618.500
       395   12 Jun 2027 03:26:42.713   12 Jun 2027 03:27:17.578            34.865         17432.500
       396   12 Jun 2027 03:28:06.304   12 Jun 2027 03:28:11.653             5.349          2674.500
       397   12 Jun 2027 04:46:39.945   12 Jun 2027 04:47:01.195            21.250         10625.000
       398   12 Jun 2027 04:58:02.624   12 Jun 2027 04:59:19.244            76.620         38199.282
       399   12 Jun 2027 06:20:38.613   12 Jun 2027 06:20:50.917            12.304          5858.906
       400   12 Jun 2027 06:22:12.863   12 Jun 2027 06:22:16.606             3.743          1330.500
       401   12 Jun 2027 06:22:47.251   12 Jun 2027 06:22:50.372             3.121           885.063
       402   12 Jun 2027 06:24:24.341   12 Jun 2027 06:24:31.955             7.614          2596.844
       403   12 Jun 2027 06:25:03.730   12 Jun 2027 06:25:06.136             2.406           923.469
       404   12 Jun 2027 06:25:17.494   12 Jun 2027 06:25:19.264             1.770           263.938
       405   12 Jun 2027 07:56:08.392   12 Jun 2027 07:56:16.526             8.134          3830.969
       406   12 Jun 2027 07:57:43.592   12 Jun 2027 07:57:50.644             7.052          2336.344
       407   12 Jun 2027 07:59:10.810   12 Jun 2027 07:59:16.760             5.950          2382.281
       408   12 Jun 2027 07:59:24.630   12 Jun 2027 07:59:32.037             7.407           134.531
       409   12 Jun 2027 08:01:01.618   12 Jun 2027 08:01:01.618             0.000             0.000
       410   12 Jun 2027 08:01:54.838   12 Jun 2027 08:02:03.793             8.955          2724.281
       411   12 Jun 2027 09:32:29.458   12 Jun 2027 09:32:31.854             2.396          1198.000
       412   12 Jun 2027 09:34:46.788   12 Jun 2027 09:35:02.547            15.759          6287.000
       413   12 Jun 2027 09:36:01.239   12 Jun 2027 09:36:04.079             2.840          1140.750
       414   12 Jun 2027 09:36:29.737   12 Jun 2027 09:36:33.327             3.590           669.875
       415   12 Jun 2027 09:36:52.291   12 Jun 2027 09:37:02.030             9.739           419.281
       416   12 Jun 2027 09:37:07.163   12 Jun 2027 09:37:09.712             2.549           142.125
       417   12 Jun 2027 09:37:44.229   12 Jun 2027 09:37:46.663             2.434          1071.563
       418   12 Jun 2027 09:38:03.016   12 Jun 2027 09:38:04.967             1.951           491.438
       419   12 Jun 2027 09:38:50.741   12 Jun 2027 09:38:56.076             5.335          1374.344
       420   12 Jun 2027 09:39:25.574   12 Jun 2027 09:39:25.574             0.000             0.000
       421   12 Jun 2027 09:39:35.259   12 Jun 2027 09:39:39.023             3.764           929.969
       422   12 Jun 2027 09:39:40.348   12 Jun 2027 09:39:40.596             0.248            41.406
       423   12 Jun 2027 09:40:01.280   12 Jun 2027 09:40:01.374             0.094            47.000
       424   12 Jun 2027 11:09:35.427   12 Jun 2027 11:09:53.269            17.842          5707.969
       425   12 Jun 2027 11:11:00.740   12 Jun 2027 11:11:04.910             4.170          2081.812
       426   12 Jun 2027 11:11:18.058   12 Jun 2027 11:11:23.325             5.267           410.875
       427   12 Jun 2027 11:11:33.057   12 Jun 2027 11:11:36.267             3.210           277.344
       428   12 Jun 2027 11:11:44.472   12 Jun 2027 11:11:48.099             3.627           223.563
       429   12 Jun 2027 11:12:01.755   12 Jun 2027 11:12:03.562             1.807           426.750
       430   12 Jun 2027 11:12:54.105   12 Jun 2027 11:12:59.208             5.103          1187.000
       431   12 Jun 2027 11:13:09.861   12 Jun 2027 11:13:13.483             3.622           256.219
       432   12 Jun 2027 11:13:30.670   12 Jun 2027 11:13:33.390             2.720           505.719
       433   12 Jun 2027 11:13:45.376   12 Jun 2027 11:13:46.633             1.257           197.375
       434   12 Jun 2027 11:14:01.109   12 Jun 2027 11:14:01.109             0.000             0.000
       435   12 Jun 2027 11:14:46.417   12 Jun 2027 11:14:51.109             4.692          1868.250
       436   12 Jun 2027 11:15:53.094   12 Jun 2027 11:15:54.749             1.655           827.500
       437   13 Jun 2027 03:33:32.569   13 Jun 2027 03:35:59.178           146.609         73304.500
       438   13 Jun 2027 03:37:27.240   13 Jun 2027 03:38:03.627            36.387         18193.500
       439   13 Jun 2027 03:38:49.846   13 Jun 2027 03:39:30.738            40.892         20446.000
       440   13 Jun 2027 04:58:22.000   13 Jun 2027 04:59:23.299            61.299         30649.500
       441   13 Jun 2027 05:10:02.416   13 Jun 2027 05:10:33.618            31.202         15077.281
       442   13 Jun 2027 06:32:20.018   13 Jun 2027 06:32:30.737            10.719          5359.500
       443   13 Jun 2027 06:33:02.379   13 Jun 2027 06:33:09.218             6.839          2784.781
       444   13 Jun 2027 06:34:46.637   13 Jun 2027 06:34:52.769             6.132          2848.062
       445   13 Jun 2027 06:36:23.026   13 Jun 2027 06:36:23.026             0.000             0.000
       446   13 Jun 2027 06:36:38.359   13 Jun 2027 06:36:47.474             9.115          2902.812
       447   13 Jun 2027 08:07:15.563   13 Jun 2027 08:07:26.895            11.332          4672.531
       448   13 Jun 2027 08:07:50.252   13 Jun 2027 08:07:53.610             3.358           128.813
       449   13 Jun 2027 08:08:44.858   13 Jun 2027 08:08:50.147             5.289           988.063
       450   13 Jun 2027 08:09:31.353   13 Jun 2027 08:09:37.156             5.803          1201.875
       451   13 Jun 2027 08:09:49.931   13 Jun 2027 08:09:53.362             3.431           382.125
       452   13 Jun 2027 08:10:25.534   13 Jun 2027 08:10:25.534             0.000             0.000
       453   13 Jun 2027 08:10:53.771   13 Jun 2027 08:10:56.860             3.089          1100.406
       454   13 Jun 2027 08:11:23.629   13 Jun 2027 08:11:25.588             1.959           719.687
       455   13 Jun 2027 08:13:23.849   13 Jun 2027 08:13:27.482             3.633          1613.938
       456   13 Jun 2027 08:13:40.645   13 Jun 2027 08:13:41.748             1.103           347.313
       457   13 Jun 2027 08:13:51.625   13 Jun 2027 08:13:56.049             4.424           308.656
       458   13 Jun 2027 08:15:16.395   13 Jun 2027 08:15:24.583             8.188          1501.656
       459   13 Jun 2027 09:44:46.263   13 Jun 2027 09:44:53.742             7.479          3687.781
       460   13 Jun 2027 09:45:48.640   13 Jun 2027 09:45:50.916             2.276           952.125
       461   13 Jun 2027 09:46:05.934   13 Jun 2027 09:46:08.310             2.376           246.625
       462   13 Jun 2027 09:47:15.620   13 Jun 2027 09:47:19.072             3.452          1475.063
       463   13 Jun 2027 09:48:24.667   13 Jun 2027 09:48:33.722             9.055          1032.312
       464   13 Jun 2027 09:48:40.674   13 Jun 2027 09:48:40.674             0.000             0.000
       465   13 Jun 2027 09:49:29.858   13 Jun 2027 09:49:33.864             4.006          1754.250
       466   13 Jun 2027 09:49:45.771   13 Jun 2027 09:49:47.306             1.535           224.000
       467   13 Jun 2027 09:50:17.297   13 Jun 2027 09:50:23.337             6.040           820.625
       468   13 Jun 2027 09:50:57.878   13 Jun 2027 09:50:59.539             1.661           830.500
       469   13 Jun 2027 09:51:04.384   13 Jun 2027 09:51:11.858             7.474           307.813
       470   13 Jun 2027 09:51:58.689   13 Jun 2027 09:52:04.193             5.504          1379.313
       471   13 Jun 2027 09:52:05.256   13 Jun 2027 09:52:05.695             0.439            33.219
       472   13 Jun 2027 11:21:31.470   13 Jun 2027 11:21:45.413            13.943          6103.594
       473   13 Jun 2027 11:22:39.462   13 Jun 2027 11:22:43.583             4.121          1644.375
       474   13 Jun 2027 11:23:41.689   13 Jun 2027 11:23:44.766             3.077          1538.500
       475   13 Jun 2027 11:24:25.399   13 Jun 2027 11:24:27.370             1.971           985.500
       476   13 Jun 2027 11:24:52.579   13 Jun 2027 11:25:00.332             7.753          1297.844
       477   13 Jun 2027 11:25:27.114   13 Jun 2027 11:25:29.002             1.888           836.937
       478   13 Jun 2027 11:25:43.831   13 Jun 2027 11:25:44.895             1.064           463.406
       479   13 Jun 2027 11:25:55.242   13 Jun 2027 11:25:56.339             1.097           192.813
       480   13 Jun 2027 11:27:12.574   13 Jun 2027 11:27:24.266            11.692          2372.813
       481   13 Jun 2027 11:27:43.649   13 Jun 2027 11:27:44.394             0.745           372.500
       482   13 Jun 2027 11:27:48.361   13 Jun 2027 11:27:49.112             0.751            41.094
