uniorb/output/strategy_2/Camera/Camera_KinoSat_110903.txt

KinoSat_110903
-------------------------
    Access    *     Start Time (UTCG)     *     Stop Time (UTCG)  *   Duration (s) *   Data (Mbytes)
         1   01 Jun 2027 03:50:15.773   01 Jun 2027 03:51:08.349            52.576         26288.000
         2   01 Jun 2027 03:51:12.890   01 Jun 2027 03:51:30.541            17.651          8825.500
         3   01 Jun 2027 03:51:39.181   01 Jun 2027 03:51:46.865             7.684          3842.000
         4   01 Jun 2027 05:26:44.006   01 Jun 2027 05:29:44.999           180.993         90496.500
         5   01 Jun 2027 07:01:56.696   01 Jun 2027 07:03:34.982            98.286         49143.000
         6   01 Jun 2027 07:03:41.125   01 Jun 2027 07:05:02.222            81.097         40548.500
         7   01 Jun 2027 07:06:42.136   01 Jun 2027 07:06:44.926             2.790          1395.000
         8   01 Jun 2027 07:07:29.675   01 Jun 2027 07:07:41.325            11.650          5825.000
         9   01 Jun 2027 07:08:34.086   01 Jun 2027 07:08:35.993             1.907           953.500
        10   01 Jun 2027 08:37:51.528   01 Jun 2027 08:40:34.416           162.888         81444.000
        11   01 Jun 2027 08:40:41.885   01 Jun 2027 08:40:51.699             9.814          4907.000
        12   01 Jun 2027 08:42:24.675   01 Jun 2027 08:42:46.723            22.048         11024.000
        13   01 Jun 2027 10:15:48.298   01 Jun 2027 10:17:58.374           130.076         65038.000
        14   01 Jun 2027 10:18:17.969   01 Jun 2027 10:18:33.207            15.238          7619.000
        15   01 Jun 2027 10:19:11.919   01 Jun 2027 10:19:15.255             3.336          1668.000
        16   01 Jun 2027 11:51:41.798   01 Jun 2027 11:53:13.874            92.076         46038.000
        17   01 Jun 2027 11:54:02.797   01 Jun 2027 11:54:22.085            19.288          9644.000
        18   01 Jun 2027 11:55:23.657   01 Jun 2027 11:55:28.969             5.312          2656.000
        19   01 Jun 2027 11:56:38.168   01 Jun 2027 11:56:50.953            12.785          6392.500
        20   02 Jun 2027 04:02:42.259   02 Jun 2027 04:03:32.505            50.246         25123.000
        21   02 Jun 2027 04:04:25.328   02 Jun 2027 04:04:40.333            15.005          7502.500
        22   02 Jun 2027 04:04:54.014   02 Jun 2027 04:04:54.014             0.000             0.000
        23   02 Jun 2027 04:05:21.155   02 Jun 2027 04:05:22.402             1.247           623.500
        24   02 Jun 2027 04:05:31.823   02 Jun 2027 04:05:37.987             6.164          3082.000
        25   02 Jun 2027 05:38:27.156   02 Jun 2027 05:40:27.008           119.852         59926.000
        26   02 Jun 2027 05:41:38.105   02 Jun 2027 05:42:36.390            58.285         29142.500
        27   02 Jun 2027 07:13:10.940   02 Jun 2027 07:15:36.575           145.635         72817.500
        28   02 Jun 2027 07:15:58.811   02 Jun 2027 07:16:22.370            23.559         11779.500
        29   02 Jun 2027 07:16:32.222   02 Jun 2027 07:16:55.659            23.437         11718.500
        30   02 Jun 2027 07:18:41.546   02 Jun 2027 07:19:05.736            24.190         12095.000
        31   02 Jun 2027 07:20:04.864   02 Jun 2027 07:20:24.825            19.961          9980.500
        32   02 Jun 2027 08:49:58.567   02 Jun 2027 08:51:54.276           115.709         56095.656
        33   02 Jun 2027 08:52:06.919   02 Jun 2027 08:52:09.422             2.503           107.000
        34   02 Jun 2027 08:53:44.779   02 Jun 2027 08:53:50.772             5.993          2866.656
        35   02 Jun 2027 08:55:35.688   02 Jun 2027 08:55:37.409             1.721           860.500
        36   02 Jun 2027 08:56:09.571   02 Jun 2027 08:56:10.871             1.300           650.000
        37   02 Jun 2027 10:28:13.849   02 Jun 2027 10:28:33.505            19.656          9828.000
        38   02 Jun 2027 10:28:48.019   02 Jun 2027 10:28:53.663             5.644           556.313
        39   02 Jun 2027 10:30:02.474   02 Jun 2027 10:30:06.559             4.085          1596.563
        40   02 Jun 2027 10:30:09.172   02 Jun 2027 10:30:11.223             2.051            41.719
        41   02 Jun 2027 10:31:49.073   02 Jun 2027 10:31:52.524             3.451          1725.500
        42   03 Jun 2027 04:13:18.064   03 Jun 2027 04:14:18.376            60.312         30156.000
        43   03 Jun 2027 04:14:58.828   03 Jun 2027 04:15:22.504            23.676         11838.000
        44   03 Jun 2027 04:16:30.235   03 Jun 2027 04:16:30.235             0.000             0.000
        45   03 Jun 2027 04:16:56.011   03 Jun 2027 04:17:23.409            27.398         13699.000
        46   03 Jun 2027 05:48:21.954   03 Jun 2027 05:49:38.983            77.029         38514.500
        47   03 Jun 2027 05:50:11.640   03 Jun 2027 05:51:10.239            58.599         29299.500
        48   03 Jun 2027 05:51:21.584   03 Jun 2027 05:51:45.117            23.533         11766.500
        49   03 Jun 2027 05:52:51.652   03 Jun 2027 05:53:00.635             8.983          4491.500
        50   03 Jun 2027 05:54:43.221   03 Jun 2027 05:54:44.548             1.327           663.500
        51   03 Jun 2027 07:25:19.101   03 Jun 2027 07:26:14.449            55.348         27249.594
        52   03 Jun 2027 07:27:17.264   03 Jun 2027 07:27:19.132             1.868           592.500
        53   03 Jun 2027 07:28:34.326   03 Jun 2027 07:28:39.146             4.820          1661.688
        54   03 Jun 2027 07:28:56.924   03 Jun 2027 07:28:59.056             2.132           415.312
        55   03 Jun 2027 07:30:40.256   03 Jun 2027 07:30:43.829             3.573          1786.500
        56   03 Jun 2027 07:30:51.063   03 Jun 2027 07:30:57.810             6.747          1602.063
        57   03 Jun 2027 07:31:07.657   03 Jun 2027 07:31:08.570             0.913            98.063
        58   03 Jun 2027 07:31:41.715   03 Jun 2027 07:31:44.111             2.396          1035.781
        59   03 Jun 2027 07:31:52.968   03 Jun 2027 07:31:57.633             4.665           276.781
        60   03 Jun 2027 09:02:17.789   03 Jun 2027 09:02:38.638            20.849          9679.875
        61   03 Jun 2027 09:03:32.799   03 Jun 2027 09:03:36.071             3.272           225.156
        62   03 Jun 2027 09:03:54.651   03 Jun 2027 09:03:59.822             5.171           239.656
        63   03 Jun 2027 09:04:06.015   03 Jun 2027 09:04:07.471             1.456            25.562
        64   03 Jun 2027 09:04:46.410   03 Jun 2027 09:04:49.634             3.224          1138.125
        65   03 Jun 2027 09:04:58.510   03 Jun 2027 09:05:06.300             7.790           184.094
        66   03 Jun 2027 09:05:12.417   03 Jun 2027 09:05:16.251             3.834           130.125
        67   03 Jun 2027 09:05:51.507   03 Jun 2027 09:05:58.971             7.464          1092.406
        68   03 Jun 2027 09:07:20.158   03 Jun 2027 09:07:22.814             2.656          1328.000
        69   03 Jun 2027 09:07:50.178   03 Jun 2027 09:07:53.870             3.692          1773.625
        70   03 Jun 2027 09:08:21.941   03 Jun 2027 09:08:22.995             1.054           527.000
        71   03 Jun 2027 10:40:12.019   03 Jun 2027 10:40:28.622            16.603          8197.219
        72   03 Jun 2027 10:40:31.790   03 Jun 2027 10:40:36.083             4.293            99.000
        73   03 Jun 2027 10:41:36.611   03 Jun 2027 10:41:41.817             5.206           815.812
        74   03 Jun 2027 10:42:02.121   03 Jun 2027 10:42:03.439             1.318           539.719
        75   03 Jun 2027 10:42:37.144   03 Jun 2027 10:42:45.430             8.286          1053.281
        76   03 Jun 2027 10:42:48.011   03 Jun 2027 10:42:48.676             0.665            47.312
        77   03 Jun 2027 10:43:07.208   03 Jun 2027 10:43:08.656             1.448           377.469
        78   03 Jun 2027 10:43:40.431   03 Jun 2027 10:43:43.398             2.967           915.094
        79   04 Jun 2027 03:02:42.918   04 Jun 2027 03:03:39.965            57.047         28523.500
        80   04 Jun 2027 04:24:47.891   04 Jun 2027 04:26:05.380            77.489         38744.500
        81   04 Jun 2027 04:26:50.374   04 Jun 2027 04:26:58.263             7.889          3944.500
        82   04 Jun 2027 04:27:18.827   04 Jun 2027 04:27:28.631             9.804          4902.000
        83   04 Jun 2027 04:28:15.947   04 Jun 2027 04:28:18.941             2.994          1497.000
        84   04 Jun 2027 04:28:27.717   04 Jun 2027 04:28:32.713             4.996          2498.000
        85   04 Jun 2027 04:28:58.389   04 Jun 2027 04:29:04.397             6.008          3004.000
        86   04 Jun 2027 04:29:51.678   04 Jun 2027 04:29:51.678             0.000             0.000
        87   04 Jun 2027 04:29:52.474   04 Jun 2027 04:29:59.269             6.795          3397.500
        88   04 Jun 2027 05:59:46.923   04 Jun 2027 06:01:56.458           129.535         64767.500
        89   04 Jun 2027 06:03:04.636   04 Jun 2027 06:03:04.636             0.000             0.000
        90   04 Jun 2027 06:03:12.264   04 Jun 2027 06:03:21.804             9.540          4770.000
        91   04 Jun 2027 06:04:09.654   04 Jun 2027 06:04:15.924             6.270          3135.000
        92   04 Jun 2027 06:07:05.758   04 Jun 2027 06:07:19.603            13.845          5482.876
        93   04 Jun 2027 07:37:23.118   04 Jun 2027 07:37:45.675            22.557         11058.344
        94   04 Jun 2027 07:38:58.017   04 Jun 2027 07:39:04.596             6.579          2172.250
        95   04 Jun 2027 07:39:18.106   04 Jun 2027 07:39:19.482             1.376           122.563
        96   04 Jun 2027 07:39:45.568   04 Jun 2027 07:39:48.286             2.718           788.375
        97   04 Jun 2027 07:40:35.085   04 Jun 2027 07:40:37.148             2.063           563.156
        98   04 Jun 2027 07:41:22.636   04 Jun 2027 07:41:26.654             4.018          1330.531
        99   04 Jun 2027 07:41:54.128   04 Jun 2027 07:41:55.404             1.276           442.156
       100   04 Jun 2027 07:42:06.353   04 Jun 2027 07:42:07.868             1.515            58.094
       101   04 Jun 2027 07:42:55.974   04 Jun 2027 07:43:08.495            12.521          1503.312
       102   04 Jun 2027 07:43:30.188   04 Jun 2027 07:43:33.773             3.585           592.406
       103   04 Jun 2027 07:43:40.155   04 Jun 2027 07:43:53.414            13.259           199.437
       104   04 Jun 2027 07:44:04.551   04 Jun 2027 07:44:04.551             0.000             0.000
       105   04 Jun 2027 09:14:06.913   04 Jun 2027 09:14:26.879            19.966          8906.437
       106   04 Jun 2027 09:15:08.561   04 Jun 2027 09:15:12.595             4.034           786.594
       107   04 Jun 2027 09:15:22.882   04 Jun 2027 09:15:24.945             2.063           166.406
       108   04 Jun 2027 09:16:46.193   04 Jun 2027 09:16:59.150            12.957          1618.875
       109   04 Jun 2027 09:18:00.199   04 Jun 2027 09:18:00.958             0.759           379.500
       110   04 Jun 2027 09:19:07.769   04 Jun 2027 09:19:11.782             4.013          2006.500
       111   04 Jun 2027 09:19:46.136   04 Jun 2027 09:19:51.080             4.944          2371.406
       112   04 Jun 2027 10:52:11.435   04 Jun 2027 10:52:27.124            15.689          7540.906
       113   04 Jun 2027 10:53:22.609   04 Jun 2027 10:53:27.735             5.126          1733.906
       114   04 Jun 2027 10:54:13.628   04 Jun 2027 10:54:25.303            11.675          1433.562
       115   04 Jun 2027 10:55:14.149   04 Jun 2027 10:55:19.674             5.525          1362.750
       116   04 Jun 2027 10:55:28.811   04 Jun 2027 10:55:30.605             1.794           285.531
       117   04 Jun 2027 10:55:42.358   04 Jun 2027 10:55:43.730             1.372           285.375
       118   04 Jun 2027 10:55:53.450   04 Jun 2027 10:55:54.881             1.431           301.125
       119   04 Jun 2027 10:56:04.741   04 Jun 2027 10:56:07.170             2.429           112.969
       120   05 Jun 2027 03:02:34.204   05 Jun 2027 03:02:49.026            14.822          7411.000
       121   05 Jun 2027 03:02:58.319   05 Jun 2027 03:03:18.603            20.284         10142.000
       122   05 Jun 2027 03:03:42.046   05 Jun 2027 03:03:59.228            17.182          8591.000
       123   05 Jun 2027 03:15:03.737   05 Jun 2027 03:15:14.143            10.406          5203.000
       124   05 Jun 2027 04:36:24.002   05 Jun 2027 04:39:30.219           186.217         93108.500
       125   05 Jun 2027 04:41:08.818   05 Jun 2027 04:41:24.689            15.871          7935.500
       126   05 Jun 2027 04:41:35.665   05 Jun 2027 04:41:35.665             0.000             0.000
       127   05 Jun 2027 04:41:56.650   05 Jun 2027 04:42:03.093             6.443          3221.500
       128   05 Jun 2027 06:11:17.523   05 Jun 2027 06:12:15.244            57.721         28846.562
       129   05 Jun 2027 06:12:48.687   05 Jun 2027 06:12:55.693             7.006           716.031
       130   05 Jun 2027 06:14:05.808   05 Jun 2027 06:14:09.488             3.680          1760.625
       131   05 Jun 2027 06:14:59.011   05 Jun 2027 06:15:00.120             1.109           554.500
       132   05 Jun 2027 06:15:02.780   05 Jun 2027 06:15:03.375             0.595           297.500
       133   05 Jun 2027 06:15:25.255   05 Jun 2027 06:15:27.801             2.546           982.688
       134   05 Jun 2027 06:17:56.439   05 Jun 2027 06:18:06.258             9.819          4410.156
       135   05 Jun 2027 06:18:29.337   05 Jun 2027 06:18:29.337             0.000             0.000
       136   05 Jun 2027 06:18:33.276   05 Jun 2027 06:18:34.803             1.527           763.500
       137   05 Jun 2027 06:19:08.193   05 Jun 2027 06:19:14.477             6.284          1113.937
       138   05 Jun 2027 06:19:54.078   05 Jun 2027 06:19:57.135             3.057           823.188
       139   05 Jun 2027 07:49:21.313   05 Jun 2027 07:49:41.840            20.527          8393.469
       140   05 Jun 2027 07:49:52.955   05 Jun 2027 07:49:53.332             0.377           184.438
       141   05 Jun 2027 07:50:56.860   05 Jun 2027 07:50:57.078             0.218           109.000
       142   05 Jun 2027 07:51:23.281   05 Jun 2027 07:51:26.570             3.289          1281.532
       143   05 Jun 2027 07:52:00.862   05 Jun 2027 07:52:03.966             3.104          1071.625
       144   05 Jun 2027 07:52:58.448   05 Jun 2027 07:53:01.638             3.190          1595.000
       145   05 Jun 2027 07:53:37.691   05 Jun 2027 07:53:40.690             2.999          1188.031
       146   05 Jun 2027 07:54:02.869   05 Jun 2027 07:54:05.798             2.929           693.094
       147   05 Jun 2027 07:55:23.851   05 Jun 2027 07:55:28.926             5.075          2160.187
       148   05 Jun 2027 09:26:14.530   05 Jun 2027 09:26:34.511            19.981          9420.031
       149   05 Jun 2027 09:26:57.593   05 Jun 2027 09:27:01.781             4.188           311.469
       150   05 Jun 2027 09:28:01.042   05 Jun 2027 09:28:05.392             4.350          1367.281
       151   05 Jun 2027 09:28:36.610   05 Jun 2027 09:28:38.744             2.134           866.625
       152   05 Jun 2027 09:28:39.064   05 Jun 2027 09:28:39.276             0.212            10.000
       153   05 Jun 2027 09:29:49.260   05 Jun 2027 09:29:51.327             2.067           586.437
       154   05 Jun 2027 09:30:20.248   05 Jun 2027 09:30:22.762             2.514           903.781
       155   05 Jun 2027 09:30:26.555   05 Jun 2027 09:30:29.804             3.249           118.531
       156   05 Jun 2027 09:30:39.368   05 Jun 2027 09:30:39.545             0.177            55.937
       157   05 Jun 2027 09:30:55.360   05 Jun 2027 09:30:57.393             2.033           454.344
       158   05 Jun 2027 09:31:02.565   05 Jun 2027 09:31:03.836             1.271            84.937
       159   05 Jun 2027 09:31:49.585   05 Jun 2027 09:31:54.467             4.882          1189.031
       160   05 Jun 2027 09:32:28.654   05 Jun 2027 09:32:33.297             4.643          1059.531
       161   05 Jun 2027 11:03:24.681   05 Jun 2027 11:03:40.491            15.810          6590.500
       162   05 Jun 2027 11:04:10.694   05 Jun 2027 11:04:12.609             1.915           924.187
       163   05 Jun 2027 11:04:32.011   05 Jun 2027 11:04:40.101             8.090           304.875
       164   05 Jun 2027 11:05:19.299   05 Jun 2027 11:05:23.993             4.694          1175.906
       165   05 Jun 2027 11:05:36.624   05 Jun 2027 11:05:37.772             1.148           288.125
       166   05 Jun 2027 11:05:50.991   05 Jun 2027 11:05:53.458             2.467           271.563
       167   05 Jun 2027 11:06:17.451   05 Jun 2027 11:06:20.836             3.385           418.344
       168   05 Jun 2027 11:06:38.997   05 Jun 2027 11:06:40.925             1.928           440.500
       169   05 Jun 2027 11:06:41.857   05 Jun 2027 11:06:45.575             3.718            29.125
       170   05 Jun 2027 11:07:01.638   05 Jun 2027 11:07:04.248             2.610           470.750
       171   05 Jun 2027 11:08:05.737   05 Jun 2027 11:08:11.102             5.365          1921.531
       172   06 Jun 2027 03:14:31.113   06 Jun 2027 03:14:46.416            15.303          7651.500
       173   06 Jun 2027 03:15:36.677   06 Jun 2027 03:15:38.476             1.799           899.500
       174   06 Jun 2027 03:15:48.552   06 Jun 2027 03:16:02.455            13.903          6951.500
       175   06 Jun 2027 03:16:18.860   06 Jun 2027 03:16:40.585            21.725         10862.500
       176   06 Jun 2027 04:50:42.733   06 Jun 2027 04:53:49.296           186.563         93281.500
       177   06 Jun 2027 06:24:16.194   06 Jun 2027 06:25:19.797            63.603         30987.531
       178   06 Jun 2027 06:26:28.420   06 Jun 2027 06:26:29.921             1.501           204.250
       179   06 Jun 2027 06:26:42.865   06 Jun 2027 06:26:46.056             3.191           174.031
       180   06 Jun 2027 06:27:22.666   06 Jun 2027 06:27:24.288             1.622           706.594
       181   06 Jun 2027 06:28:51.648   06 Jun 2027 06:28:59.777             8.129          2487.219
       182   06 Jun 2027 06:30:31.636   06 Jun 2027 06:30:38.550             6.914          2870.594
       183   06 Jun 2027 06:31:10.732   06 Jun 2027 06:31:11.654             0.922           461.000
       184   06 Jun 2027 06:31:42.421   06 Jun 2027 06:31:45.919             3.498          1506.156
       185   06 Jun 2027 06:32:15.468   06 Jun 2027 06:32:18.284             2.816           881.719
       186   06 Jun 2027 06:32:21.377   06 Jun 2027 06:32:24.324             2.947            96.656
       187   06 Jun 2027 06:32:25.564   06 Jun 2027 06:32:28.023             2.459            38.750
       188   06 Jun 2027 06:32:30.607   06 Jun 2027 06:32:35.542             4.935            80.750
       189   06 Jun 2027 06:32:48.778   06 Jun 2027 06:32:49.885             1.107           253.469
       190   06 Jun 2027 08:01:43.274   06 Jun 2027 08:01:59.799            16.525          8070.969
       191   06 Jun 2027 08:03:46.540   06 Jun 2027 08:03:49.388             2.848          1326.656
       192   06 Jun 2027 08:03:58.291   06 Jun 2027 08:04:12.046            13.755           273.063
       193   06 Jun 2027 08:04:13.210   06 Jun 2027 08:04:19.543             6.333            36.375
       194   06 Jun 2027 08:04:51.610   06 Jun 2027 08:04:54.072             2.462           629.437
       195   06 Jun 2027 08:05:25.750   06 Jun 2027 08:05:27.158             1.408           515.688
       196   06 Jun 2027 08:06:22.614   06 Jun 2027 08:06:26.183             3.569          1531.500
       197   06 Jun 2027 08:06:40.398   06 Jun 2027 08:06:41.380             0.982           129.844
       198   06 Jun 2027 08:07:20.738   06 Jun 2027 08:07:23.360             2.622           886.188
       199   06 Jun 2027 08:08:06.057   06 Jun 2027 08:08:11.047             4.990          1334.281
       200   06 Jun 2027 09:38:43.437   06 Jun 2027 09:39:01.257            17.820          8823.437
       201   06 Jun 2027 09:40:35.611   06 Jun 2027 09:40:43.129             7.518          2320.625
       202   06 Jun 2027 09:40:45.194   06 Jun 2027 09:40:45.394             0.200            13.219
       203   06 Jun 2027 09:41:47.208   06 Jun 2027 09:41:47.208             0.000             0.000
       204   06 Jun 2027 09:42:14.944   06 Jun 2027 09:42:19.057             4.113          1572.562
       205   06 Jun 2027 09:43:03.729   06 Jun 2027 09:43:11.283             7.554           978.250
       206   06 Jun 2027 09:43:49.092   06 Jun 2027 09:43:53.371             4.279          1181.531
       207   06 Jun 2027 09:44:12.111   06 Jun 2027 09:44:13.079             0.968           305.906
       208   06 Jun 2027 09:44:17.216   06 Jun 2027 09:44:17.656             0.440            83.562
       209   06 Jun 2027 09:44:22.399   06 Jun 2027 09:44:23.018             0.619           148.219
       210   06 Jun 2027 11:15:37.440   06 Jun 2027 11:15:54.079            16.639          7517.406
       211   06 Jun 2027 11:16:29.555   06 Jun 2027 11:16:31.839             2.284           990.250
       212   06 Jun 2027 11:18:21.304   06 Jun 2027 11:18:27.808             6.504          2893.875
       213   06 Jun 2027 11:18:40.694   06 Jun 2027 11:18:42.436             1.742           359.625
       214   06 Jun 2027 11:20:06.055   06 Jun 2027 11:20:11.758             5.703          2613.094
       215   07 Jun 2027 03:26:21.404   07 Jun 2027 03:27:22.532            61.128         30564.000
       216   07 Jun 2027 03:27:56.254   07 Jun 2027 03:28:00.996             4.742          2371.000
       217   07 Jun 2027 03:28:32.697   07 Jun 2027 03:28:40.117             7.420          3710.000
       218   07 Jun 2027 05:02:48.317   07 Jun 2027 05:06:02.668           194.351         97175.500
       219   07 Jun 2027 06:34:59.053   07 Jun 2027 06:35:07.540             8.487          4243.500
       220   07 Jun 2027 06:36:55.080   07 Jun 2027 06:37:35.193            40.113         19855.687
       221   07 Jun 2027 06:38:20.724   07 Jun 2027 06:38:24.803             4.079            58.625
       222   07 Jun 2027 06:38:46.794   07 Jun 2027 06:38:47.852             1.058           502.969
       223   07 Jun 2027 06:39:10.722   07 Jun 2027 06:39:12.685             1.963           446.375
       224   07 Jun 2027 06:40:58.170   07 Jun 2027 06:41:13.141            14.971          3258.531
       225   07 Jun 2027 06:42:01.337   07 Jun 2027 06:42:09.033             7.696          1506.125
       226   07 Jun 2027 06:42:57.360   07 Jun 2027 06:42:59.892             2.532          1224.562
       227   07 Jun 2027 06:43:03.085   07 Jun 2027 06:43:03.094             0.009             4.500
       228   07 Jun 2027 06:43:21.956   07 Jun 2027 06:43:23.865             1.909           684.719
       229   07 Jun 2027 06:43:35.362   07 Jun 2027 06:43:36.400             1.038           355.687
       230   07 Jun 2027 06:43:39.449   07 Jun 2027 06:43:40.539             1.090            95.281
       231   07 Jun 2027 06:44:14.085   07 Jun 2027 06:44:14.085             0.000             0.000
       232   07 Jun 2027 06:44:14.904   07 Jun 2027 06:44:18.971             4.067          1052.063
       233   07 Jun 2027 06:44:27.575   07 Jun 2027 06:44:36.639             9.064           189.219
       234   07 Jun 2027 08:13:52.998   07 Jun 2027 08:14:13.490            20.492          8754.750
       235   07 Jun 2027 08:15:26.128   07 Jun 2027 08:15:28.131             2.003           890.438
       236   07 Jun 2027 08:16:29.595   07 Jun 2027 08:16:33.384             3.789           346.656
       237   07 Jun 2027 08:16:58.393   07 Jun 2027 08:17:03.955             5.562           505.187
       238   07 Jun 2027 08:17:35.158   07 Jun 2027 08:17:37.580             2.422           827.750
       239   07 Jun 2027 08:18:08.180   07 Jun 2027 08:18:10.507             2.327           625.687
       240   07 Jun 2027 08:18:36.925   07 Jun 2027 08:18:39.173             2.248           577.125
       241   07 Jun 2027 08:19:33.597   07 Jun 2027 08:19:40.541             6.944          1700.750
       242   07 Jun 2027 08:19:55.929   07 Jun 2027 08:20:00.506             4.577           480.875
       243   07 Jun 2027 09:51:09.328   07 Jun 2027 09:51:26.410            17.082          8146.625
       244   07 Jun 2027 09:52:06.151   07 Jun 2027 09:52:10.027             3.876          1047.438
       245   07 Jun 2027 09:53:39.806   07 Jun 2027 09:53:48.622             8.816          2805.594
       246   07 Jun 2027 09:54:25.201   07 Jun 2027 09:54:27.678             2.477           826.187
       247   07 Jun 2027 09:54:38.529   07 Jun 2027 09:54:39.149             0.620           248.688
       248   07 Jun 2027 09:55:40.830   07 Jun 2027 09:55:44.772             3.942          1927.531
       249   07 Jun 2027 09:55:50.113   07 Jun 2027 09:55:55.773             5.660           166.906
       250   07 Jun 2027 11:27:38.419   07 Jun 2027 11:27:55.530            17.111          8099.750
       251   07 Jun 2027 11:28:30.982   07 Jun 2027 11:28:30.982             0.000             0.000
       252   07 Jun 2027 11:28:46.092   07 Jun 2027 11:28:49.712             3.620          1570.250
       253   07 Jun 2027 11:29:52.780   07 Jun 2027 11:29:59.479             6.699          1966.469
       254   07 Jun 2027 11:31:12.068   07 Jun 2027 11:31:16.794             4.726          2162.313
       255   07 Jun 2027 11:31:53.708   07 Jun 2027 11:31:57.103             3.395          1091.563
       256   07 Jun 2027 11:32:19.746   07 Jun 2027 11:32:21.681             1.935           442.000
       257   07 Jun 2027 11:32:38.071   07 Jun 2027 11:32:42.541             4.470           315.344
       258   08 Jun 2027 03:38:29.265   08 Jun 2027 03:39:29.789            60.524         30262.000
       259   08 Jun 2027 03:39:44.727   08 Jun 2027 03:40:01.508            16.781          8390.500
       260   08 Jun 2027 05:14:57.352   08 Jun 2027 05:15:54.037            56.685         28342.500
       261   08 Jun 2027 05:17:26.487   08 Jun 2027 05:18:36.231            69.744         34872.000
       262   08 Jun 2027 06:50:07.931   08 Jun 2027 06:51:56.405           108.474         54237.000
       263   08 Jun 2027 06:52:23.647   08 Jun 2027 06:52:25.615             1.968           973.782
       264   08 Jun 2027 06:53:03.697   08 Jun 2027 06:53:03.697             0.000             0.000
       265   08 Jun 2027 06:53:43.902   08 Jun 2027 06:53:47.067             3.165          1506.781
       266   08 Jun 2027 06:54:57.842   08 Jun 2027 06:55:04.327             6.485          2211.719
       267   08 Jun 2027 06:56:09.266   08 Jun 2027 06:56:12.940             3.674          1629.906
       268   08 Jun 2027 08:26:27.109   08 Jun 2027 08:26:47.073            19.964          7615.000
       269   08 Jun 2027 08:28:05.512   08 Jun 2027 08:28:12.549             7.037          1358.406
       270   08 Jun 2027 08:28:54.772   08 Jun 2027 08:28:58.405             3.633          1095.187
       271   08 Jun 2027 08:29:33.025   08 Jun 2027 08:29:39.128             6.103           357.688
       272   08 Jun 2027 08:30:35.439   08 Jun 2027 08:30:38.716             3.277          1638.500
       273   08 Jun 2027 08:30:50.623   08 Jun 2027 08:30:52.234             1.611           466.625
       274   08 Jun 2027 08:30:59.509   08 Jun 2027 08:31:00.375             0.866           227.344
       275   08 Jun 2027 08:31:31.365   08 Jun 2027 08:31:36.451             5.086           673.437
       276   08 Jun 2027 08:31:42.455   08 Jun 2027 08:31:44.850             2.395            27.906
       277   08 Jun 2027 08:32:14.461   08 Jun 2027 08:32:18.856             4.395           866.219
       278   08 Jun 2027 08:32:41.773   08 Jun 2027 08:32:44.015             2.242           657.281
       279   08 Jun 2027 10:03:50.848   08 Jun 2027 10:04:07.801            16.953          8476.500
       280   08 Jun 2027 10:04:45.314   08 Jun 2027 10:04:55.565            10.251          2019.625
       281   08 Jun 2027 10:05:38.896   08 Jun 2027 10:05:42.876             3.980          1224.062
       282   08 Jun 2027 10:06:10.078   08 Jun 2027 10:06:10.078             0.000             0.000
       283   08 Jun 2027 10:06:30.151   08 Jun 2027 10:06:34.002             3.851          1035.375
       284   08 Jun 2027 10:06:55.364   08 Jun 2027 10:06:55.364             0.000             0.000
       285   08 Jun 2027 10:07:17.034   08 Jun 2027 10:07:20.878             3.844          1344.750
       286   08 Jun 2027 10:07:42.175   08 Jun 2027 10:07:44.842             2.667           323.594
       287   08 Jun 2027 10:08:10.888   08 Jun 2027 10:08:12.061             1.173           586.500
       288   08 Jun 2027 11:40:03.202   08 Jun 2027 11:40:18.084            14.882          6318.781
       289   08 Jun 2027 11:40:32.514   08 Jun 2027 11:40:33.524             1.010           350.625
       290   08 Jun 2027 11:40:51.028   08 Jun 2027 11:40:53.922             2.894           533.219
       291   08 Jun 2027 11:41:54.560   08 Jun 2027 11:41:58.909             4.349          1807.969
       292   08 Jun 2027 11:42:28.007   08 Jun 2027 11:42:30.644             2.637           659.062
       293   08 Jun 2027 11:43:05.863   08 Jun 2027 11:43:08.698             2.835          1092.125
       294   08 Jun 2027 11:43:25.078   08 Jun 2027 11:43:33.379             8.301           122.156
       295   08 Jun 2027 11:43:48.253   08 Jun 2027 11:43:50.277             2.024           464.813
       296   09 Jun 2027 03:50:30.589   09 Jun 2027 03:51:24.194            53.605         26802.500
       297   09 Jun 2027 03:51:28.826   09 Jun 2027 03:51:45.248            16.422          8211.000
       298   09 Jun 2027 03:51:55.770   09 Jun 2027 03:52:01.699             5.929          2964.500
       299   09 Jun 2027 05:26:58.539   09 Jun 2027 05:29:40.791           162.252         81126.000
       300   09 Jun 2027 05:30:00.086   09 Jun 2027 05:30:15.779            15.693          7846.500
       301   09 Jun 2027 05:30:19.153   09 Jun 2027 05:30:27.155             8.002          4001.000
       302   09 Jun 2027 07:02:11.242   09 Jun 2027 07:03:04.999            53.757         26269.782
       303   09 Jun 2027 07:03:49.671   09 Jun 2027 07:03:55.512             5.841          1095.562
       304   09 Jun 2027 07:04:37.686   09 Jun 2027 07:04:42.759             5.073          1317.937
       305   09 Jun 2027 07:04:52.132   09 Jun 2027 07:04:54.164             2.032           234.000
       306   09 Jun 2027 07:06:27.943   09 Jun 2027 07:06:33.855             5.912          2659.813
       307   09 Jun 2027 07:07:20.176   09 Jun 2027 07:07:21.838             1.662           698.625
       308   09 Jun 2027 07:07:49.718   09 Jun 2027 07:07:52.485             2.767           741.281
       309   09 Jun 2027 07:08:27.698   09 Jun 2027 07:08:30.275             2.577          1100.406
       310   09 Jun 2027 07:08:39.813   09 Jun 2027 07:08:41.025             1.212           228.063
       311   09 Jun 2027 08:38:06.317   09 Jun 2027 08:38:28.088            21.771         10107.750
       312   09 Jun 2027 08:39:04.898   09 Jun 2027 08:39:09.252             4.354           684.937
       313   09 Jun 2027 08:39:59.175   09 Jun 2027 08:40:02.719             3.544          1424.969
       314   09 Jun 2027 08:40:46.426   09 Jun 2027 08:40:48.916             2.490           858.125
       315   09 Jun 2027 08:41:11.823   09 Jun 2027 08:41:13.359             1.536           478.750
       316   09 Jun 2027 08:42:07.523   09 Jun 2027 08:42:11.913             4.390          1692.625
       317   09 Jun 2027 08:43:30.792   09 Jun 2027 08:43:35.813             5.021          2259.281
       318   09 Jun 2027 08:43:50.266   09 Jun 2027 08:43:51.226             0.960           272.000
       319   09 Jun 2027 08:44:08.826   09 Jun 2027 08:44:15.156             6.330           550.000
       320   09 Jun 2027 10:16:03.975   09 Jun 2027 10:16:21.787            17.812          7687.938
       321   09 Jun 2027 10:16:32.231   09 Jun 2027 10:16:32.453             0.222           111.000
       322   09 Jun 2027 10:16:39.681   09 Jun 2027 10:16:45.421             5.740           441.250
       323   09 Jun 2027 10:17:07.085   09 Jun 2027 10:17:08.753             1.668           677.000
       324   09 Jun 2027 10:17:10.802   09 Jun 2027 10:17:16.108             5.306            64.031
       325   09 Jun 2027 10:18:04.942   09 Jun 2027 10:18:07.515             2.573           883.469
       326   09 Jun 2027 10:18:16.345   09 Jun 2027 10:18:16.345             0.000             0.000
       327   09 Jun 2027 10:18:18.228   09 Jun 2027 10:18:21.236             3.008           306.375
       328   09 Jun 2027 10:19:30.569   09 Jun 2027 10:19:36.086             5.517          2069.594
       329   09 Jun 2027 11:51:56.820   09 Jun 2027 11:52:11.049            14.229          7073.781
       330   09 Jun 2027 11:52:34.123   09 Jun 2027 11:52:36.506             2.383           370.531
       331   09 Jun 2027 11:53:53.572   09 Jun 2027 11:53:56.177             2.605          1302.500
       332   09 Jun 2027 11:54:11.030   09 Jun 2027 11:54:17.264             6.234          1353.156
       333   09 Jun 2027 11:54:29.159   09 Jun 2027 11:54:30.506             1.347           371.719
       334   09 Jun 2027 11:54:58.144   09 Jun 2027 11:55:02.748             4.604           863.688
       335   09 Jun 2027 11:55:39.102   09 Jun 2027 11:55:39.102             0.000             0.000
       336   09 Jun 2027 11:55:43.933   09 Jun 2027 11:55:45.722             1.789           620.156
       337   09 Jun 2027 11:56:15.715   09 Jun 2027 11:56:18.083             2.368           858.094
       338   09 Jun 2027 11:56:36.433   09 Jun 2027 11:56:38.771             2.338           525.000
       339   09 Jun 2027 11:56:54.905   09 Jun 2027 11:56:57.307             2.402           122.062
       340   10 Jun 2027 04:02:56.938   10 Jun 2027 04:04:01.485            64.547         32273.500
       341   10 Jun 2027 04:04:08.998   10 Jun 2027 04:04:15.943             6.945          3472.500
       342   10 Jun 2027 05:38:41.999   10 Jun 2027 05:40:41.365           119.366         59683.000
       343   10 Jun 2027 05:41:52.504   10 Jun 2027 05:42:16.212            23.708         11854.000
       344   10 Jun 2027 05:42:51.038   10 Jun 2027 05:43:01.416            10.378          5189.000
       345   10 Jun 2027 07:13:25.889   10 Jun 2027 07:14:58.400            92.511         44839.781
       346   10 Jun 2027 07:15:26.739   10 Jun 2027 07:15:28.317             1.578           753.500
       347   10 Jun 2027 07:15:47.221   10 Jun 2027 07:15:48.688             1.467           587.594
       348   10 Jun 2027 07:16:15.095   10 Jun 2027 07:16:19.730             4.635           703.094
       349   10 Jun 2027 07:16:36.962   10 Jun 2027 07:16:38.749             1.787           420.719
       350   10 Jun 2027 07:16:44.893   10 Jun 2027 07:16:45.675             0.782           192.000
       351   10 Jun 2027 07:17:13.918   10 Jun 2027 07:17:13.918             0.000             0.000
       352   10 Jun 2027 07:17:21.064   10 Jun 2027 07:17:25.211             4.147          1056.594
       353   10 Jun 2027 07:18:17.825   10 Jun 2027 07:18:19.297             1.472           736.000
       354   10 Jun 2027 07:18:33.649   10 Jun 2027 07:18:41.289             7.640          1150.656
       355   10 Jun 2027 07:19:23.132   10 Jun 2027 07:19:26.328             3.196           810.406
       356   10 Jun 2027 07:20:20.643   10 Jun 2027 07:20:28.199             7.556          1687.125
       357   10 Jun 2027 07:20:35.345   10 Jun 2027 07:20:36.902             1.557           223.312
       358   10 Jun 2027 08:50:14.074   10 Jun 2027 08:50:36.677            22.603         11155.812
       359   10 Jun 2027 08:51:15.918   10 Jun 2027 08:51:20.860             4.942           217.625
       360   10 Jun 2027 08:52:30.291   10 Jun 2027 08:52:32.388             2.097           469.062
       361   10 Jun 2027 08:52:58.765   10 Jun 2027 08:53:00.722             1.957           233.875
       362   10 Jun 2027 08:53:14.657   10 Jun 2027 08:53:17.179             2.522           277.875
       363   10 Jun 2027 08:53:57.256   10 Jun 2027 08:54:00.077             2.821          1252.406
       364   10 Jun 2027 08:54:38.470   10 Jun 2027 08:54:43.498             5.028          1199.781
       365   10 Jun 2027 08:54:49.968   10 Jun 2027 08:54:53.898             3.930           157.906
       366   10 Jun 2027 08:56:31.628   10 Jun 2027 08:56:34.820             3.192          1596.000
       367   10 Jun 2027 10:28:28.991   10 Jun 2027 10:28:44.762            15.771          7736.969
       368   10 Jun 2027 10:29:26.064   10 Jun 2027 10:29:30.103             4.039          1290.688
       369   10 Jun 2027 10:30:33.743   10 Jun 2027 10:30:37.887             4.144          1322.437
       370   10 Jun 2027 10:31:08.992   10 Jun 2027 10:31:08.992             0.000             0.000
       371   10 Jun 2027 10:32:04.426   10 Jun 2027 10:32:07.373             2.947          1473.500
       372   10 Jun 2027 10:32:18.555   10 Jun 2027 10:32:18.555             0.000             0.000
       373   11 Jun 2027 04:13:32.487   11 Jun 2027 04:14:33.131            60.644         30322.000
       374   11 Jun 2027 04:15:43.115   11 Jun 2027 04:15:49.096             5.981          2990.500
       375   11 Jun 2027 04:16:22.739   11 Jun 2027 04:16:45.044            22.305         11152.500
       376   11 Jun 2027 04:17:04.651   11 Jun 2027 04:17:12.776             8.125          4062.500
       377   11 Jun 2027 04:18:02.862   11 Jun 2027 04:18:07.039             4.177          2088.500
       378   11 Jun 2027 05:48:36.092   11 Jun 2027 05:49:54.292            78.200         39100.000
       379   11 Jun 2027 05:50:26.296   11 Jun 2027 05:51:01.830            35.534         17767.000
       380   11 Jun 2027 05:51:26.243   11 Jun 2027 05:52:14.624            48.381         24190.500
       381   11 Jun 2027 05:53:13.162   11 Jun 2027 05:53:45.533            32.371         16185.500
       382   11 Jun 2027 07:25:34.100   11 Jun 2027 07:26:12.288            38.188         17301.312
       383   11 Jun 2027 07:28:08.421   11 Jun 2027 07:28:10.812             2.391          1166.687
       384   11 Jun 2027 07:28:16.111   11 Jun 2027 07:28:18.661             2.550            81.563
       385   11 Jun 2027 07:28:25.580   11 Jun 2027 07:28:26.516             0.936           101.625
       386   11 Jun 2027 07:28:49.799   11 Jun 2027 07:28:51.299             1.500           672.469
       387   11 Jun 2027 07:29:33.094   11 Jun 2027 07:29:36.299             3.205          1044.531
       388   11 Jun 2027 07:30:55.875   11 Jun 2027 07:30:58.593             2.718          1359.000
       389   11 Jun 2027 07:31:24.244   11 Jun 2027 07:31:32.357             8.113          1423.937
       390   11 Jun 2027 07:32:21.697   11 Jun 2027 07:32:26.885             5.188          1427.844
       391   11 Jun 2027 07:32:31.497   11 Jun 2027 07:32:32.909             1.412            79.250
       392   11 Jun 2027 09:02:32.271   11 Jun 2027 09:02:54.865            22.594          9760.563
       393   11 Jun 2027 09:03:02.562   11 Jun 2027 09:03:04.104             1.542           240.531
       394   11 Jun 2027 09:03:47.805   11 Jun 2027 09:03:52.093             4.288           210.875
       395   11 Jun 2027 09:04:39.999   11 Jun 2027 09:04:49.655             9.656            75.187
       396   11 Jun 2027 09:05:34.100   11 Jun 2027 09:05:39.509             5.409          1059.094
       397   11 Jun 2027 09:06:02.077   11 Jun 2027 09:06:02.334             0.257           128.500
       398   11 Jun 2027 09:06:15.766   11 Jun 2027 09:06:19.149             3.383           864.094
       399   11 Jun 2027 09:06:41.609   11 Jun 2027 09:06:48.425             6.816           587.719
       400   11 Jun 2027 09:07:22.085   11 Jun 2027 09:07:24.677             2.592          1049.531
       401   11 Jun 2027 10:40:27.145   11 Jun 2027 10:40:40.909            13.764          6344.781
       402   11 Jun 2027 10:40:56.499   11 Jun 2027 10:40:59.339             2.840           454.938
       403   11 Jun 2027 10:41:44.307   11 Jun 2027 10:41:50.798             6.491          1348.687
       404   11 Jun 2027 10:42:06.446   11 Jun 2027 10:42:06.446             0.000             0.000
       405   11 Jun 2027 10:42:19.796   11 Jun 2027 10:42:23.582             3.786           826.219
       406   11 Jun 2027 10:42:24.859   11 Jun 2027 10:42:29.234             4.375            39.906
       407   11 Jun 2027 10:43:32.563   11 Jun 2027 10:43:41.009             8.446          1704.187
       408   11 Jun 2027 10:43:51.859   11 Jun 2027 10:43:53.416             1.557           133.094
       409   11 Jun 2027 10:44:06.370   11 Jun 2027 10:44:08.019             1.649           314.437
       410   12 Jun 2027 03:02:57.985   12 Jun 2027 03:03:54.510            56.525         28262.500
       411   12 Jun 2027 04:24:56.823   12 Jun 2027 04:26:20.646            83.823         41911.500
       412   12 Jun 2027 04:27:04.615   12 Jun 2027 04:27:14.406             9.791          4895.500
       413   12 Jun 2027 04:28:46.910   12 Jun 2027 04:28:52.629             5.719          2859.500
       414   12 Jun 2027 04:29:24.829   12 Jun 2027 04:29:39.398            14.569          7284.500
       415   12 Jun 2027 04:29:46.955   12 Jun 2027 04:29:46.955             0.000             0.000
       416   12 Jun 2027 04:30:16.929   12 Jun 2027 04:30:22.022             5.093          2546.500
       417   12 Jun 2027 06:00:01.043   12 Jun 2027 06:01:54.007           112.964         56482.000
       418   12 Jun 2027 06:03:20.730   12 Jun 2027 06:03:26.560             5.830          2915.000
       419   12 Jun 2027 06:04:04.390   12 Jun 2027 06:04:24.734            20.344         10172.000
       420   12 Jun 2027 06:04:56.683   12 Jun 2027 06:05:02.259             5.576          1294.531
       421   12 Jun 2027 06:05:47.027   12 Jun 2027 06:05:51.769             4.742          1085.094
       422   12 Jun 2027 06:08:18.882   12 Jun 2027 06:08:23.793             4.911          2455.500
       423   12 Jun 2027 06:08:30.689   12 Jun 2027 06:08:32.624             1.935           967.500
       424   12 Jun 2027 07:37:37.001   12 Jun 2027 07:37:56.339            19.338          9567.875
       425   12 Jun 2027 07:39:13.957   12 Jun 2027 07:39:19.539             5.582          2146.219
       426   12 Jun 2027 07:39:32.969   12 Jun 2027 07:39:34.463             1.494           142.187
       427   12 Jun 2027 07:40:04.851   12 Jun 2027 07:40:07.543             2.692           944.250
       428   12 Jun 2027 07:40:51.626   12 Jun 2027 07:40:54.218             2.592           614.250
       429   12 Jun 2027 07:41:08.483   12 Jun 2027 07:41:10.118             1.635           445.781
       430   12 Jun 2027 07:42:16.315   12 Jun 2027 07:42:20.518             4.203          2068.656
       431   12 Jun 2027 07:42:23.006   12 Jun 2027 07:42:25.115             2.109            70.625
       432   12 Jun 2027 07:42:47.662   12 Jun 2027 07:42:48.033             0.371            33.406
       433   12 Jun 2027 07:43:28.595   12 Jun 2027 07:43:31.067             2.472           639.000
       434   12 Jun 2027 07:43:40.400   12 Jun 2027 07:43:41.316             0.916           196.375
       435   12 Jun 2027 07:43:54.631   12 Jun 2027 07:43:56.775             2.144           189.187
       436   12 Jun 2027 09:14:21.829   12 Jun 2027 09:14:46.208            24.379         11573.562
       437   12 Jun 2027 09:14:59.578   12 Jun 2027 09:15:02.612             3.034           175.406
       438   12 Jun 2027 09:15:36.613   12 Jun 2027 09:15:37.457             0.844           401.281
       439   12 Jun 2027 09:16:10.717   12 Jun 2027 09:16:14.156             3.439          1039.375
       440   12 Jun 2027 09:16:22.034   12 Jun 2027 09:16:23.248             1.214             7.688
       441   12 Jun 2027 09:16:56.349   12 Jun 2027 09:16:56.811             0.462           231.000
       442   12 Jun 2027 09:17:01.738   12 Jun 2027 09:17:01.738             0.000             0.000
       443   12 Jun 2027 09:17:15.054   12 Jun 2027 09:17:16.676             1.622           587.000
       444   12 Jun 2027 09:18:03.567   12 Jun 2027 09:18:10.698             7.131          1106.031
       445   12 Jun 2027 09:18:18.601   12 Jun 2027 09:18:20.568             1.967           130.438
       446   12 Jun 2027 09:18:35.639   12 Jun 2027 09:18:37.056             1.417           453.406
       447   12 Jun 2027 09:19:28.866   12 Jun 2027 09:19:35.086             6.220          1619.063
       448   12 Jun 2027 09:20:03.657   12 Jun 2027 09:20:05.460             1.803           892.844
       449   12 Jun 2027 10:52:26.556   12 Jun 2027 10:52:41.787            15.231          7615.500
       450   12 Jun 2027 10:54:02.375   12 Jun 2027 10:54:08.954             6.579          3036.938
       451   12 Jun 2027 10:54:57.649   12 Jun 2027 10:55:03.974             6.325          1521.719
       452   12 Jun 2027 10:55:43.026   12 Jun 2027 10:55:45.929             2.903          1131.406
       453   12 Jun 2027 10:55:58.423   12 Jun 2027 10:55:59.199             0.776           308.500
       454   12 Jun 2027 10:56:08.287   12 Jun 2027 10:56:10.936             2.649           284.000
       455   12 Jun 2027 10:56:20.488   12 Jun 2027 10:56:20.840             0.352            50.938
       456   12 Jun 2027 10:56:28.077   12 Jun 2027 10:56:29.137             1.060           195.250
       457   13 Jun 2027 03:02:49.202   13 Jun 2027 03:03:01.948            12.746          6373.000
       458   13 Jun 2027 03:03:51.973   13 Jun 2027 03:03:56.725             4.752          2376.000
       459   13 Jun 2027 03:04:39.330   13 Jun 2027 03:04:43.796             4.466          2233.000
       460   13 Jun 2027 03:15:19.017   13 Jun 2027 03:15:25.058             6.041          3020.500
       461   13 Jun 2027 04:36:38.725   13 Jun 2027 04:39:34.648           175.923         87961.500
       462   13 Jun 2027 04:41:02.957   13 Jun 2027 04:41:39.887            36.930         18465.000
       463   13 Jun 2027 06:11:31.479   13 Jun 2027 06:12:48.287            76.808         38156.157
       464   13 Jun 2027 06:14:23.240   13 Jun 2027 06:14:28.572             5.332          2509.125
       465   13 Jun 2027 06:15:15.983   13 Jun 2027 06:15:18.251             2.268          1062.625
       466   13 Jun 2027 06:17:14.520   13 Jun 2027 06:17:25.226            10.706          3510.844
       467   13 Jun 2027 06:18:12.060   13 Jun 2027 06:18:17.674             5.614          1463.563
       468   13 Jun 2027 06:18:41.351   13 Jun 2027 06:18:44.407             3.056           618.812
       469   13 Jun 2027 06:20:23.951   13 Jun 2027 06:20:30.672             6.721          3045.406
       470   13 Jun 2027 06:20:33.778   13 Jun 2027 06:20:34.698             0.920            83.125
       471   13 Jun 2027 06:20:51.743   13 Jun 2027 06:20:52.651             0.908           349.000
       472   13 Jun 2027 07:49:36.699   13 Jun 2027 07:49:56.407            19.708          9648.719
       473   13 Jun 2027 07:51:40.962   13 Jun 2027 07:51:42.789             1.827           874.375
       474   13 Jun 2027 07:52:26.356   13 Jun 2027 07:52:29.557             3.201           824.750
       475   13 Jun 2027 07:52:51.005   13 Jun 2027 07:52:55.753             4.748            25.969
       476   13 Jun 2027 07:53:27.376   13 Jun 2027 07:53:29.836             2.460           848.719
       477   13 Jun 2027 07:54:11.383   13 Jun 2027 07:54:15.481             4.098           699.813
       478   13 Jun 2027 07:55:38.526   13 Jun 2027 07:55:44.489             5.963          2117.312
       479   13 Jun 2027 09:26:30.019   13 Jun 2027 09:26:49.590            19.571          9754.906
       480   13 Jun 2027 09:27:08.749   13 Jun 2027 09:27:10.183             1.434           178.625
       481   13 Jun 2027 09:27:31.841   13 Jun 2027 09:27:35.295             3.454           474.125
       482   13 Jun 2027 09:28:54.181   13 Jun 2027 09:29:00.114             5.933          2465.187
       483   13 Jun 2027 09:29:10.769   13 Jun 2027 09:29:13.007             2.238           299.594
       484   13 Jun 2027 09:30:07.714   13 Jun 2027 09:30:11.502             3.788          1290.219
       485   13 Jun 2027 09:31:09.842   13 Jun 2027 09:31:11.661             1.819           909.500
       486   13 Jun 2027 09:32:36.374   13 Jun 2027 09:32:43.898             7.524          3539.969
       487   13 Jun 2027 11:03:39.687   13 Jun 2027 11:03:55.732            16.045          7168.969
       488   13 Jun 2027 11:04:04.970   13 Jun 2027 11:04:06.355             1.385           247.938
       489   13 Jun 2027 11:04:23.310   13 Jun 2027 11:04:24.074             0.764           281.375
       490   13 Jun 2027 11:04:36.967   13 Jun 2027 11:04:38.355             1.388           371.969
       491   13 Jun 2027 11:05:04.913   13 Jun 2027 11:05:07.657             2.744           750.125
       492   13 Jun 2027 11:05:58.753   13 Jun 2027 11:06:00.816             2.063           963.687
       493   13 Jun 2027 11:06:53.774   13 Jun 2027 11:06:55.687             1.913           956.500
       494   13 Jun 2027 11:07:02.210   13 Jun 2027 11:07:11.811             9.601           740.312
       495   13 Jun 2027 11:08:21.456   13 Jun 2027 11:08:25.634             4.178          1930.875
