uniorb/output/strategy_2/Camera/Camera_KinoSat_110105.txt

KinoSat_110105
-------------------------
    Access    *     Start Time (UTCG)     *     Stop Time (UTCG)  *   Duration (s) *   Data (Mbytes)
         1   01 Jun 2027 04:06:55.883   01 Jun 2027 04:06:57.442             1.559           779.500
         2   01 Jun 2027 04:07:19.259   01 Jun 2027 04:07:20.275             1.016           508.000
         3   01 Jun 2027 04:08:18.008   01 Jun 2027 04:08:23.080             5.072          2536.000
         4   01 Jun 2027 04:08:48.416   01 Jun 2027 04:08:48.886             0.470           235.000
         5   01 Jun 2027 04:09:08.102   01 Jun 2027 04:09:13.399             5.297          2648.500
         6   01 Jun 2027 04:10:16.118   01 Jun 2027 04:10:21.616             5.498          2749.000
         7   01 Jun 2027 04:12:41.173   01 Jun 2027 04:12:45.212             4.039          2019.500
         8   01 Jun 2027 05:44:55.490   01 Jun 2027 05:45:09.373            13.883          6941.500
         9   01 Jun 2027 05:46:10.783   01 Jun 2027 05:46:18.421             7.638          3819.000
        10   01 Jun 2027 05:47:03.203   01 Jun 2027 05:47:04.868             1.665           832.500
        11   01 Jun 2027 05:47:18.707   01 Jun 2027 05:47:24.560             5.853          2926.500
        12   01 Jun 2027 05:47:47.997   01 Jun 2027 05:47:49.572             1.575           787.500
        13   01 Jun 2027 05:48:19.342   01 Jun 2027 05:48:21.745             2.403          1201.500
        14   01 Jun 2027 05:48:45.013   01 Jun 2027 05:48:52.112             7.099          3549.500
        15   01 Jun 2027 07:18:06.716   01 Jun 2027 07:18:07.894             1.178           589.000
        16   01 Jun 2027 07:18:33.011   01 Jun 2027 07:18:54.173            21.162         10581.000
        17   01 Jun 2027 07:20:20.338   01 Jun 2027 07:20:22.385             2.047          1023.500
        18   01 Jun 2027 07:21:14.896   01 Jun 2027 07:21:16.707             1.811           905.500
        19   01 Jun 2027 07:22:08.622   01 Jun 2027 07:22:13.040             4.418          2209.000
        20   01 Jun 2027 07:22:31.324   01 Jun 2027 07:22:41.154             9.830          4915.000
        21   01 Jun 2027 07:23:04.434   01 Jun 2027 07:23:09.211             4.777          2388.500
        22   01 Jun 2027 07:23:49.007   01 Jun 2027 07:23:54.480             5.473          2736.500
        23   01 Jun 2027 07:25:01.023   01 Jun 2027 07:25:08.526             7.503          3751.500
        24   02 Jun 2027 04:18:59.056   02 Jun 2027 04:19:00.835             1.779           889.500
        25   02 Jun 2027 04:19:32.379   02 Jun 2027 04:19:52.779            20.400         10200.000
        26   02 Jun 2027 04:21:19.122   02 Jun 2027 04:21:26.865             7.743          3871.500
        27   02 Jun 2027 04:22:12.016   02 Jun 2027 04:22:14.785             2.769          1384.500
        28   02 Jun 2027 04:22:44.116   02 Jun 2027 04:22:45.643             1.527           763.500
        29   02 Jun 2027 04:22:52.522   02 Jun 2027 04:22:53.697             1.175           587.500
        30   02 Jun 2027 04:23:32.029   02 Jun 2027 04:23:33.614             1.585           792.500
        31   02 Jun 2027 04:23:42.965   02 Jun 2027 04:23:45.539             2.574          1287.000
        32   02 Jun 2027 04:23:59.220   02 Jun 2027 04:24:00.495             1.275           637.500
        33   02 Jun 2027 04:24:07.226   02 Jun 2027 04:24:19.275            12.049          6024.500
        34   02 Jun 2027 05:56:55.264   02 Jun 2027 05:57:00.894             5.630          2815.000
        35   02 Jun 2027 05:57:26.986   02 Jun 2027 05:57:29.531             2.545          1272.500
        36   02 Jun 2027 05:57:54.092   02 Jun 2027 05:57:55.012             0.920           460.000
        37   02 Jun 2027 05:58:05.045   02 Jun 2027 05:58:09.849             4.804          2402.000
        38   02 Jun 2027 05:58:52.566   02 Jun 2027 05:58:56.424             3.858          1929.000
        39   02 Jun 2027 05:59:37.204   02 Jun 2027 05:59:45.108             7.904          3952.000
        40   02 Jun 2027 06:00:40.655   02 Jun 2027 06:00:41.656             1.001           500.500
        41   02 Jun 2027 07:30:29.779   02 Jun 2027 07:30:38.813             9.034          4517.000
        42   02 Jun 2027 07:31:15.970   02 Jun 2027 07:31:33.494            17.524          8762.000
        43   02 Jun 2027 07:32:54.186   02 Jun 2027 07:33:11.554            17.368          8684.000
        44   02 Jun 2027 07:34:25.912   02 Jun 2027 07:34:28.833             2.921          1460.500
        45   02 Jun 2027 07:34:56.801   02 Jun 2027 07:35:02.133             5.332          2666.000
        46   02 Jun 2027 07:35:49.537   02 Jun 2027 07:35:51.001             1.464           732.000
        47   02 Jun 2027 07:36:38.337   02 Jun 2027 07:36:44.256             5.919          2959.500
        48   02 Jun 2027 07:37:09.622   02 Jun 2027 07:37:10.277             0.655           327.500
        49   02 Jun 2027 07:37:16.751   02 Jun 2027 07:37:28.621            11.870          5935.000
        50   03 Jun 2027 03:00:00.000   03 Jun 2027 03:00:04.264             4.264          2132.000
        51   03 Jun 2027 03:00:05.728   03 Jun 2027 03:00:14.780             9.052          4526.000
        52   03 Jun 2027 03:01:12.072   03 Jun 2027 03:01:20.142             8.070          4035.000
        53   03 Jun 2027 04:30:50.445   03 Jun 2027 04:31:20.048            29.603         14801.500
        54   03 Jun 2027 04:33:15.402   03 Jun 2027 04:33:19.886             4.484          2242.000
        55   03 Jun 2027 04:34:01.269   03 Jun 2027 04:34:01.930             0.661           330.500
        56   03 Jun 2027 04:34:08.422   03 Jun 2027 04:34:10.301             1.879           939.500
        57   03 Jun 2027 04:34:28.932   03 Jun 2027 04:34:41.080            12.148          6074.000
        58   03 Jun 2027 04:35:08.663   03 Jun 2027 04:35:12.195             3.532          1766.000
        59   03 Jun 2027 04:35:56.643   03 Jun 2027 04:35:57.856             1.213           606.500
        60   03 Jun 2027 04:36:06.565   03 Jun 2027 04:36:20.158            13.593          6796.500
        61   03 Jun 2027 06:08:55.995   03 Jun 2027 06:09:01.897             5.902          2951.000
        62   03 Jun 2027 06:09:40.451   03 Jun 2027 06:09:43.947             3.496          1748.000
        63   03 Jun 2027 06:10:07.187   03 Jun 2027 06:10:14.305             7.118          3559.000
        64   03 Jun 2027 06:10:53.209   03 Jun 2027 06:10:54.536             1.327           663.500
        65   03 Jun 2027 06:11:26.409   03 Jun 2027 06:11:27.046             0.637           318.500
        66   03 Jun 2027 06:11:33.346   03 Jun 2027 06:11:38.623             5.277          2638.500
        67   03 Jun 2027 06:12:48.802   03 Jun 2027 06:12:53.988             5.186          2593.000
        68   03 Jun 2027 07:42:47.160   03 Jun 2027 07:42:58.448            11.288          5644.000
        69   03 Jun 2027 07:43:45.686   03 Jun 2027 07:43:48.902             3.216          1608.000
        70   03 Jun 2027 07:44:45.676   03 Jun 2027 07:45:07.428            21.752         10876.000
        71   03 Jun 2027 07:46:44.127   03 Jun 2027 07:46:58.895            14.768          7384.000
        72   03 Jun 2027 07:48:08.109   03 Jun 2027 07:48:13.590             5.481          2740.500
        73   03 Jun 2027 07:49:15.175   03 Jun 2027 07:49:27.099            11.924          5962.000
        74   04 Jun 2027 03:06:09.631   04 Jun 2027 03:06:14.984             5.353          2676.500
        75   04 Jun 2027 03:06:51.106   04 Jun 2027 03:06:58.849             7.743          3871.500
        76   04 Jun 2027 03:07:42.156   04 Jun 2027 03:07:57.860            15.704          7852.000
        77   04 Jun 2027 03:09:00.937   04 Jun 2027 03:09:07.292             6.355          3177.500
        78   04 Jun 2027 03:09:36.145   04 Jun 2027 03:09:38.688             2.543          1271.500
        79   04 Jun 2027 03:10:07.772   04 Jun 2027 03:10:30.737            22.965         11482.500
        80   04 Jun 2027 03:11:28.693   04 Jun 2027 03:11:38.780            10.087          5043.500
        81   04 Jun 2027 03:12:53.863   04 Jun 2027 03:13:02.439             8.576          4288.000
        82   04 Jun 2027 04:43:08.615   04 Jun 2027 04:43:52.724            44.109         22054.500
        83   04 Jun 2027 04:46:37.126   04 Jun 2027 04:46:38.793             1.667           833.500
        84   04 Jun 2027 04:47:20.033   04 Jun 2027 04:47:23.877             3.844          1922.000
        85   04 Jun 2027 04:48:25.137   04 Jun 2027 04:48:27.889             2.752          1376.000
        86   04 Jun 2027 04:49:09.267   04 Jun 2027 04:49:12.329             3.062          1531.000
        87   04 Jun 2027 06:20:09.917   04 Jun 2027 06:20:11.843             1.926           963.000
        88   04 Jun 2027 06:20:46.584   04 Jun 2027 06:20:55.729             9.145          4572.500
        89   04 Jun 2027 06:21:40.008   04 Jun 2027 06:21:54.032            14.024          7012.000
        90   04 Jun 2027 06:23:04.472   04 Jun 2027 06:23:07.111             2.639          1319.500
        91   04 Jun 2027 06:23:23.470   04 Jun 2027 06:23:25.156             1.686           843.000
        92   04 Jun 2027 06:23:51.370   04 Jun 2027 06:23:55.047             3.677          1838.500
        93   04 Jun 2027 06:24:19.051   04 Jun 2027 06:24:23.059             4.008          2004.000
        94   04 Jun 2027 06:24:44.627   04 Jun 2027 06:24:45.106             0.479           239.500
        95   04 Jun 2027 06:24:49.036   04 Jun 2027 06:24:51.396             2.360          1180.000
        96   04 Jun 2027 07:55:13.675   04 Jun 2027 07:55:19.105             5.430          2715.000
        97   04 Jun 2027 07:55:52.919   04 Jun 2027 07:55:55.137             2.218          1109.000
        98   04 Jun 2027 07:56:52.060   04 Jun 2027 07:57:24.396            32.336         16168.000
        99   05 Jun 2027 03:18:36.491   05 Jun 2027 03:18:43.930             7.439          3719.500
       100   05 Jun 2027 03:19:17.752   05 Jun 2027 03:19:22.270             4.518          2259.000
       101   05 Jun 2027 03:20:12.241   05 Jun 2027 03:20:13.896             1.655           827.500
       102   05 Jun 2027 03:20:50.765   05 Jun 2027 03:20:52.009             1.244           622.000
       103   05 Jun 2027 03:21:28.082   05 Jun 2027 03:21:38.600            10.518          5259.000
       104   05 Jun 2027 03:22:18.115   05 Jun 2027 03:22:21.177             3.062          1531.000
       105   05 Jun 2027 03:22:38.338   05 Jun 2027 03:22:45.070             6.732          3366.000
       106   05 Jun 2027 03:23:17.916   05 Jun 2027 03:23:20.475             2.559          1279.500
       107   05 Jun 2027 03:23:53.714   05 Jun 2027 03:23:56.648             2.934          1467.000
       108   05 Jun 2027 03:24:39.669   05 Jun 2027 03:24:39.953             0.284           142.000
       109   05 Jun 2027 03:25:17.645   05 Jun 2027 03:25:17.882             0.237           118.500
       110   05 Jun 2027 04:55:30.279   05 Jun 2027 04:55:50.917            20.638         10319.000
       111   05 Jun 2027 04:57:31.868   05 Jun 2027 04:57:36.139             4.271          2135.500
       112   05 Jun 2027 04:58:12.024   05 Jun 2027 04:58:12.113             0.089            44.500
       113   05 Jun 2027 04:58:53.317   05 Jun 2027 04:58:53.406             0.089            44.500
       114   05 Jun 2027 04:58:58.306   05 Jun 2027 04:59:19.318            21.012         10506.000
       115   05 Jun 2027 05:01:04.117   05 Jun 2027 05:01:08.551             4.434          2217.000
       116   05 Jun 2027 06:32:21.473   05 Jun 2027 06:32:26.506             5.033          2516.500
       117   05 Jun 2027 06:32:53.223   05 Jun 2027 06:33:03.648            10.425          5212.500
       118   05 Jun 2027 06:33:13.846   05 Jun 2027 06:33:15.885             2.039          1019.500
       119   05 Jun 2027 06:33:24.647   05 Jun 2027 06:33:24.864             0.217           108.500
       120   05 Jun 2027 06:34:11.406   05 Jun 2027 06:34:21.081             9.675          4837.500
       121   05 Jun 2027 06:35:29.018   05 Jun 2027 06:35:33.017             3.999          1999.500
       122   05 Jun 2027 06:36:06.677   05 Jun 2027 06:36:09.558             2.881          1440.500
       123   05 Jun 2027 06:36:38.056   05 Jun 2027 06:36:38.574             0.518           259.000
       124   05 Jun 2027 08:09:57.756   05 Jun 2027 08:10:03.002             5.246          2623.000
       125   05 Jun 2027 08:10:29.829   05 Jun 2027 08:10:30.712             0.883           441.500
       126   05 Jun 2027 08:10:47.946   05 Jun 2027 08:11:04.903            16.957          8478.500
       127   06 Jun 2027 03:30:42.648   06 Jun 2027 03:30:48.413             5.765          2882.500
       128   06 Jun 2027 03:31:23.711   06 Jun 2027 03:31:23.731             0.020            10.000
       129   06 Jun 2027 03:31:47.737   06 Jun 2027 03:32:02.094            14.357          7178.500
       130   06 Jun 2027 03:33:13.250   06 Jun 2027 03:33:37.736            24.486         12243.000
       131   06 Jun 2027 03:34:59.397   06 Jun 2027 03:35:16.280            16.883          8441.500
       132   06 Jun 2027 03:36:34.517   06 Jun 2027 03:36:40.915             6.398          3199.000
       133   06 Jun 2027 03:36:52.344   06 Jun 2027 03:36:55.180             2.836          1418.000
       134   06 Jun 2027 05:08:25.240   06 Jun 2027 05:08:34.534             9.294          4647.000
       135   06 Jun 2027 05:10:11.000   06 Jun 2027 05:10:12.813             1.813           906.500
       136   06 Jun 2027 05:10:20.961   06 Jun 2027 05:10:21.665             0.704           352.000
       137   06 Jun 2027 05:11:07.592   06 Jun 2027 05:11:10.259             2.667          1333.500
       138   06 Jun 2027 05:11:46.261   06 Jun 2027 05:11:55.992             9.731          4865.500
       139   06 Jun 2027 05:12:12.815   06 Jun 2027 05:12:28.654            15.839          7919.500
       140   06 Jun 2027 06:44:23.574   06 Jun 2027 06:44:24.394             0.820           410.000
       141   06 Jun 2027 06:44:40.219   06 Jun 2027 06:44:46.149             5.930          2965.000
       142   06 Jun 2027 06:45:35.004   06 Jun 2027 06:45:37.846             2.842          1421.000
       143   06 Jun 2027 06:45:49.821   06 Jun 2027 06:45:53.161             3.340          1670.000
       144   06 Jun 2027 06:46:22.594   06 Jun 2027 06:46:33.141            10.547          5273.500
       145   06 Jun 2027 06:47:22.132   06 Jun 2027 06:47:27.325             5.193          2596.500
       146   06 Jun 2027 06:47:55.816   06 Jun 2027 06:47:59.274             3.458          1729.000
       147   06 Jun 2027 06:48:25.683   06 Jun 2027 06:48:27.267             1.584           792.000
       148   07 Jun 2027 03:43:18.348   07 Jun 2027 03:43:20.616             2.268          1134.000
       149   07 Jun 2027 03:43:26.663   07 Jun 2027 03:43:33.810             7.147          3573.500
       150   07 Jun 2027 03:44:07.924   07 Jun 2027 03:44:22.320            14.396          7198.000
       151   07 Jun 2027 03:45:27.423   07 Jun 2027 03:45:57.142            29.719         14859.500
       152   07 Jun 2027 03:47:53.895   07 Jun 2027 03:48:01.566             7.671          3835.500
       153   07 Jun 2027 03:48:40.780   07 Jun 2027 03:48:43.710             2.930          1465.000
       154   07 Jun 2027 03:49:17.798   07 Jun 2027 03:49:23.159             5.361          2680.500
       155   07 Jun 2027 05:20:31.547   07 Jun 2027 05:20:32.450             0.903           451.500
       156   07 Jun 2027 05:20:42.693   07 Jun 2027 05:20:53.805            11.112          5556.000
       157   07 Jun 2027 05:21:42.764   07 Jun 2027 05:21:46.021             3.257          1628.500
       158   07 Jun 2027 05:22:43.909   07 Jun 2027 05:22:53.797             9.888          4944.000
       159   07 Jun 2027 05:23:33.780   07 Jun 2027 05:23:37.156             3.376          1688.000
       160   07 Jun 2027 05:24:04.363   07 Jun 2027 05:24:11.784             7.421          3710.500
       161   07 Jun 2027 05:24:24.198   07 Jun 2027 05:24:26.785             2.587          1293.500
       162   07 Jun 2027 06:56:49.848   07 Jun 2027 06:56:54.985             5.137          2568.500
       163   07 Jun 2027 06:57:36.055   07 Jun 2027 06:57:38.398             2.343          1171.500
       164   07 Jun 2027 06:57:54.195   07 Jun 2027 06:58:10.098            15.903          7951.500
       165   07 Jun 2027 06:59:37.797   07 Jun 2027 06:59:44.070             6.273          3136.500
       166   07 Jun 2027 07:00:13.100   07 Jun 2027 07:00:15.015             1.915           957.500
       167   07 Jun 2027 07:00:37.797   07 Jun 2027 07:00:56.995            19.198          9599.000
       168   08 Jun 2027 03:54:49.871   08 Jun 2027 03:55:11.236            21.365         10682.500
       169   08 Jun 2027 03:56:39.666   08 Jun 2027 03:56:47.641             7.975          3987.500
       170   08 Jun 2027 03:57:34.250   08 Jun 2027 03:57:39.714             5.464          2732.000
       171   08 Jun 2027 03:58:27.749   08 Jun 2027 03:58:28.984             1.235           617.500
       172   08 Jun 2027 03:58:39.698   08 Jun 2027 03:58:45.643             5.945          2972.500
       173   08 Jun 2027 03:59:13.895   08 Jun 2027 03:59:19.404             5.509          2754.500
       174   08 Jun 2027 03:59:54.195   08 Jun 2027 03:59:54.989             0.794           397.000
       175   08 Jun 2027 04:00:08.260   08 Jun 2027 04:00:12.111             3.851          1925.500
       176   08 Jun 2027 04:00:58.277   08 Jun 2027 04:01:02.666             4.389          2194.500
       177   08 Jun 2027 05:33:09.025   08 Jun 2027 05:33:23.434            14.409          7204.500
       178   08 Jun 2027 05:33:49.218   08 Jun 2027 05:33:55.890             6.672          3336.000
       179   08 Jun 2027 05:36:02.193   08 Jun 2027 05:36:05.745             3.552          1776.000
       180   08 Jun 2027 05:36:43.407   08 Jun 2027 05:36:59.881            16.474          8237.000
       181   08 Jun 2027 07:08:28.608   08 Jun 2027 07:08:42.127            13.519          6759.500
       182   08 Jun 2027 07:09:46.807   08 Jun 2027 07:09:49.076             2.269          1134.500
       183   08 Jun 2027 07:10:11.252   08 Jun 2027 07:10:16.383             5.131          2565.500
       184   08 Jun 2027 07:10:38.292   08 Jun 2027 07:10:44.469             6.177          3088.500
       185   08 Jun 2027 07:11:32.932   08 Jun 2027 07:11:35.626             2.694          1347.000
       186   08 Jun 2027 07:12:16.083   08 Jun 2027 07:12:17.400             1.317           658.500
       187   08 Jun 2027 07:13:07.798   08 Jun 2027 07:13:09.337             1.539           769.500
       188   08 Jun 2027 07:13:33.281   08 Jun 2027 07:13:36.944             3.663          1831.500
       189   08 Jun 2027 07:13:40.816   08 Jun 2027 07:13:42.323             1.507           753.500
       190   09 Jun 2027 04:07:11.002   09 Jun 2027 04:07:13.206             2.204          1102.000
       191   09 Jun 2027 04:07:36.775   09 Jun 2027 04:07:43.100             6.325          3162.500
       192   09 Jun 2027 04:08:12.653   09 Jun 2027 04:08:32.875            20.222         10111.000
       193   09 Jun 2027 04:10:30.230   09 Jun 2027 04:10:36.214             5.984          2992.000
       194   09 Jun 2027 04:12:56.510   09 Jun 2027 04:12:59.496             2.986          1493.000
       195   09 Jun 2027 05:45:10.453   09 Jun 2027 05:45:13.770             3.317          1658.500
       196   09 Jun 2027 05:46:20.491   09 Jun 2027 05:46:20.516             0.025            12.500
       197   09 Jun 2027 05:46:51.235   09 Jun 2027 05:46:54.891             3.656          1828.000
       198   09 Jun 2027 05:47:20.022   09 Jun 2027 05:47:20.131             0.109            54.500
       199   09 Jun 2027 05:47:35.829   09 Jun 2027 05:47:41.599             5.770          2885.000
       200   09 Jun 2027 05:48:07.688   09 Jun 2027 05:48:08.268             0.580           290.000
       201   09 Jun 2027 05:48:28.709   09 Jun 2027 05:48:33.854             5.145          2572.500
       202   09 Jun 2027 05:48:57.585   09 Jun 2027 05:49:03.615             6.030          3015.000
       203   09 Jun 2027 07:18:20.878   09 Jun 2027 07:18:22.707             1.829           914.500
       204   09 Jun 2027 07:18:47.799   09 Jun 2027 07:18:56.347             8.548          4274.000
       205   09 Jun 2027 07:20:05.992   09 Jun 2027 07:20:10.293             4.301          2150.500
       206   09 Jun 2027 07:20:29.264   09 Jun 2027 07:20:33.380             4.116          2058.000
       207   09 Jun 2027 07:20:50.053   09 Jun 2027 07:20:55.226             5.173          2586.500
       208   09 Jun 2027 07:21:20.613   09 Jun 2027 07:21:29.533             8.920          4460.000
       209   09 Jun 2027 07:22:23.247   09 Jun 2027 07:22:27.626             4.379          2189.500
       210   09 Jun 2027 07:23:03.818   09 Jun 2027 07:23:19.249            15.431          7715.500
       211   09 Jun 2027 07:24:10.504   09 Jun 2027 07:24:11.325             0.821           410.500
       212   09 Jun 2027 07:25:31.910   09 Jun 2027 07:25:43.104            11.194          5597.000
       213   10 Jun 2027 04:19:13.682   10 Jun 2027 04:19:18.102             4.420          2210.000
       214   10 Jun 2027 04:19:46.975   10 Jun 2027 04:20:10.238            23.263         11631.500
       215   10 Jun 2027 04:21:35.526   10 Jun 2027 04:21:41.463             5.937          2968.500
       216   10 Jun 2027 04:22:26.856   10 Jun 2027 04:22:29.277             2.421          1210.500
       217   10 Jun 2027 04:23:01.961   10 Jun 2027 04:23:08.248             6.287          3143.500
       218   10 Jun 2027 04:23:34.357   10 Jun 2027 04:23:40.363             6.006          3003.000
       219   10 Jun 2027 04:24:12.351   10 Jun 2027 04:24:18.385             6.034          3017.000
       220   10 Jun 2027 04:24:45.453   10 Jun 2027 04:24:48.359             2.906          1453.000
       221   10 Jun 2027 04:25:18.168   10 Jun 2027 04:25:21.387             3.219          1609.500
       222   10 Jun 2027 05:57:10.060   10 Jun 2027 05:57:11.221             1.161           580.500
       223   10 Jun 2027 05:58:07.962   10 Jun 2027 05:58:10.117             2.155          1077.500
       224   10 Jun 2027 05:58:22.667   10 Jun 2027 05:58:24.557             1.890           945.000
       225   10 Jun 2027 05:58:35.237   10 Jun 2027 05:58:36.773             1.536           768.000
       226   10 Jun 2027 05:59:07.619   10 Jun 2027 05:59:11.551             3.932          1966.000
       227   10 Jun 2027 05:59:51.914   10 Jun 2027 06:00:00.056             8.142          4071.000
       228   10 Jun 2027 06:00:28.106   10 Jun 2027 06:00:50.959            22.853         11426.500
       229   10 Jun 2027 07:30:46.267   10 Jun 2027 07:30:53.592             7.325          3662.500
       230   10 Jun 2027 07:32:13.160   10 Jun 2027 07:32:16.504             3.344          1672.000
       231   10 Jun 2027 07:33:08.884   10 Jun 2027 07:33:27.342            18.458          9229.000
       232   10 Jun 2027 07:34:40.925   10 Jun 2027 07:34:40.925             0.000             0.000
       233   10 Jun 2027 07:34:43.539   10 Jun 2027 07:34:46.377             2.838          1419.000
       234   10 Jun 2027 07:35:16.854   10 Jun 2027 07:35:25.885             9.031          4515.500
       235   10 Jun 2027 07:36:09.094   10 Jun 2027 07:36:09.406             0.312           156.000
       236   10 Jun 2027 07:36:52.969   10 Jun 2027 07:37:12.355            19.386          9693.000
       237   11 Jun 2027 03:00:00.000   11 Jun 2027 03:00:02.626             2.626          1313.000
       238   11 Jun 2027 03:00:13.438   11 Jun 2027 03:00:18.850             5.412          2706.000
       239   11 Jun 2027 03:00:20.157   11 Jun 2027 03:00:29.545             9.388          4694.000
       240   11 Jun 2027 03:01:30.104   11 Jun 2027 03:01:34.772             4.668          2334.000
       241   11 Jun 2027 04:31:05.137   11 Jun 2027 04:31:30.193            25.056         12528.000
       242   11 Jun 2027 04:33:17.940   11 Jun 2027 04:33:21.734             3.794          1897.000
       243   11 Jun 2027 04:33:41.144   11 Jun 2027 04:33:57.737            16.593          8296.500
       244   11 Jun 2027 04:35:27.667   11 Jun 2027 04:35:31.278             3.611          1805.500
       245   11 Jun 2027 04:36:46.115   11 Jun 2027 04:36:59.718            13.603          6801.500
       246   11 Jun 2027 06:09:11.149   11 Jun 2027 06:09:17.884             6.735          3367.500
       247   11 Jun 2027 06:09:56.409   11 Jun 2027 06:09:59.031             2.622          1311.000
       248   11 Jun 2027 06:10:24.802   11 Jun 2027 06:10:31.116             6.314          3157.000
       249   11 Jun 2027 06:11:24.353   11 Jun 2027 06:11:27.335             2.982          1491.000
       250   11 Jun 2027 06:11:44.222   11 Jun 2027 06:11:47.666             3.444          1722.000
       251   11 Jun 2027 06:12:37.189   11 Jun 2027 06:12:43.279             6.090          3045.000
       252   11 Jun 2027 06:13:11.352   11 Jun 2027 06:13:18.929             7.577          3788.500
       253   11 Jun 2027 07:43:02.430   11 Jun 2027 07:43:13.464            11.034          5517.000
       254   11 Jun 2027 07:44:00.638   11 Jun 2027 07:44:03.962             3.324          1662.000
       255   11 Jun 2027 07:45:00.387   11 Jun 2027 07:45:23.185            22.798         11399.000
       256   11 Jun 2027 07:46:59.548   11 Jun 2027 07:47:13.207            13.659          6829.500
       257   11 Jun 2027 07:48:25.710   11 Jun 2027 07:48:27.384             1.674           837.000
       258   11 Jun 2027 07:49:30.199   11 Jun 2027 07:49:41.752            11.553          5776.500
       259   12 Jun 2027 03:06:25.555   12 Jun 2027 03:06:32.358             6.803          3401.500
       260   12 Jun 2027 03:07:27.510   12 Jun 2027 03:07:43.834            16.324          8162.000
       261   12 Jun 2027 03:09:11.976   12 Jun 2027 03:09:14.391             2.415          1207.500
       262   12 Jun 2027 03:09:53.657   12 Jun 2027 03:09:58.178             4.521          2260.500
       263   12 Jun 2027 03:11:10.616   12 Jun 2027 03:11:17.367             6.751          3375.500
       264   12 Jun 2027 03:11:53.304   12 Jun 2027 03:11:55.889             2.585          1292.500
       265   12 Jun 2027 03:12:08.454   12 Jun 2027 03:12:14.563             6.109          3054.500
       266   12 Jun 2027 03:12:50.026   12 Jun 2027 03:12:56.745             6.719          3359.500
       267   12 Jun 2027 03:13:32.744   12 Jun 2027 03:13:33.245             0.501           250.500
       268   12 Jun 2027 04:43:27.524   12 Jun 2027 04:44:27.659            60.135         30067.500
       269   12 Jun 2027 04:48:30.384   12 Jun 2027 04:48:38.926             8.542          4271.000
       270   12 Jun 2027 04:49:28.331   12 Jun 2027 04:49:37.047             8.716          4358.000
       271   12 Jun 2027 06:20:25.134   12 Jun 2027 06:20:27.984             2.850          1425.000
       272   12 Jun 2027 06:21:05.243   12 Jun 2027 06:21:11.656             6.413          3206.500
       273   12 Jun 2027 06:21:45.965   12 Jun 2027 06:21:47.375             1.410           705.000
       274   12 Jun 2027 06:21:55.946   12 Jun 2027 06:21:59.594             3.648          1824.000
       275   12 Jun 2027 06:22:32.109   12 Jun 2027 06:22:33.688             1.579           789.500
       276   12 Jun 2027 06:22:58.566   12 Jun 2027 06:23:06.140             7.574          3787.000
       277   12 Jun 2027 06:23:41.900   12 Jun 2027 06:23:49.157             7.257          3628.500
       278   12 Jun 2027 06:24:37.497   12 Jun 2027 06:24:40.913             3.416          1708.000
       279   12 Jun 2027 06:24:50.353   12 Jun 2027 06:25:00.904            10.551          5275.500
       280   12 Jun 2027 07:55:29.119   12 Jun 2027 07:55:34.743             5.624          2812.000
       281   12 Jun 2027 07:57:07.017   12 Jun 2027 07:57:18.345            11.328          5664.000
       282   12 Jun 2027 07:58:20.223   12 Jun 2027 07:58:32.075            11.852          5926.000
       283   12 Jun 2027 07:59:13.265   12 Jun 2027 07:59:13.265             0.000             0.000
       284   12 Jun 2027 07:59:21.127   12 Jun 2027 07:59:36.190            15.063          7531.500
       285   12 Jun 2027 07:59:44.616   12 Jun 2027 07:59:45.729             1.113           556.500
       286   13 Jun 2027 03:18:51.788   13 Jun 2027 03:19:00.089             8.301          4150.500
       287   13 Jun 2027 03:19:36.348   13 Jun 2027 03:19:41.949             5.601          2800.500
       288   13 Jun 2027 03:20:07.152   13 Jun 2027 03:20:17.604            10.452          5226.000
       289   13 Jun 2027 03:21:06.975   13 Jun 2027 03:21:12.894             5.919          2959.500
       290   13 Jun 2027 03:21:59.003   13 Jun 2027 03:22:03.641             4.638          2319.000
       291   13 Jun 2027 03:22:36.092   13 Jun 2027 03:22:53.080            16.988          8494.000
       292   13 Jun 2027 03:24:09.605   13 Jun 2027 03:24:11.424             1.819           909.500
       293   13 Jun 2027 03:24:32.472   13 Jun 2027 03:24:49.872            17.400          8700.000
       294   13 Jun 2027 04:55:45.462   13 Jun 2027 04:55:59.802            14.340          7170.000
       295   13 Jun 2027 04:56:18.563   13 Jun 2027 04:56:20.235             1.672           836.000
       296   13 Jun 2027 04:57:05.187   13 Jun 2027 04:57:06.507             1.320           660.000
       297   13 Jun 2027 04:57:27.523   13 Jun 2027 04:57:38.111            10.588          5294.000
       298   13 Jun 2027 04:58:35.965   13 Jun 2027 04:58:39.466             3.501          1750.500
       299   13 Jun 2027 04:59:07.318   13 Jun 2027 04:59:08.648             1.330           665.000
       300   13 Jun 2027 04:59:36.789   13 Jun 2027 04:59:42.104             5.315          2657.500
       301   13 Jun 2027 05:00:06.367   13 Jun 2027 05:00:09.069             2.702          1351.000
       302   13 Jun 2027 05:00:56.376   13 Jun 2027 05:01:05.969             9.593          4796.500
       303   13 Jun 2027 06:32:37.293   13 Jun 2027 06:32:42.768             5.475          2737.500
       304   13 Jun 2027 06:33:11.591   13 Jun 2027 06:33:18.441             6.850          3425.000
       305   13 Jun 2027 06:34:17.779   13 Jun 2027 06:34:23.952             6.173          3086.500
       306   13 Jun 2027 06:34:50.640   13 Jun 2027 06:34:50.732             0.092            46.000
       307   13 Jun 2027 06:35:03.658   13 Jun 2027 06:35:19.964            16.306          8153.000
       308   13 Jun 2027 06:35:53.297   13 Jun 2027 06:35:54.620             1.323           661.500
       309   13 Jun 2027 06:37:04.855   13 Jun 2027 06:37:08.182             3.327          1663.500
       310   13 Jun 2027 08:10:18.357   13 Jun 2027 08:10:20.430             2.073          1036.500
       311   13 Jun 2027 08:10:33.890   13 Jun 2027 08:10:44.548            10.658          5329.000
       312   13 Jun 2027 08:11:19.505   13 Jun 2027 08:11:19.505             0.000             0.000
       313   13 Jun 2027 08:11:42.848   13 Jun 2027 08:11:57.214            14.366          7183.000
