uniorb/output/strategy_2/Camera/Camera_KinoSat_111902.txt

KinoSat_111902
-------------------------
    Access    *     Start Time (UTCG)     *     Stop Time (UTCG)  *   Duration (s) *   Data (Mbytes)
         1   01 Jun 2027 03:29:31.061   01 Jun 2027 03:32:46.840           195.779         97889.500
         2   01 Jun 2027 03:33:17.340   01 Jun 2027 03:33:42.368            25.028         12514.000
         3   01 Jun 2027 03:33:53.962   01 Jun 2027 03:33:57.976             4.014          2007.000
         4   01 Jun 2027 03:34:35.341   01 Jun 2027 03:34:35.341             0.000             0.000
         5   01 Jun 2027 03:34:48.067   01 Jun 2027 03:35:04.107            16.040          8020.000
         6   01 Jun 2027 03:35:27.290   01 Jun 2027 03:35:27.622             0.332           166.000
         7   01 Jun 2027 05:07:47.395   01 Jun 2027 05:07:58.502            11.107          5553.500
         8   01 Jun 2027 05:08:49.287   01 Jun 2027 05:11:28.402           159.115         79557.500
         9   01 Jun 2027 05:12:43.927   01 Jun 2027 05:12:43.927             0.000             0.000
        10   01 Jun 2027 05:15:56.432   01 Jun 2027 05:16:29.061            32.629         16314.500
        11   01 Jun 2027 06:45:57.991   01 Jun 2027 06:46:36.408            38.417         19208.500
        12   01 Jun 2027 06:47:04.878   01 Jun 2027 06:47:46.887            42.009         21004.500
        13   01 Jun 2027 06:47:53.033   01 Jun 2027 06:48:13.587            20.554         10277.000
        14   01 Jun 2027 08:10:07.353   01 Jun 2027 08:12:07.964           120.611         60305.500
        15   01 Jun 2027 09:47:15.939   01 Jun 2027 09:48:13.583            57.644         28822.000
        16   01 Jun 2027 09:49:01.971   01 Jun 2027 09:49:20.026            18.055          9027.500
        17   01 Jun 2027 11:20:47.829   01 Jun 2027 11:22:31.939           104.110         52055.000
        18   01 Jun 2027 11:27:25.912   01 Jun 2027 11:27:47.058            21.146         10573.000
        19   02 Jun 2027 03:42:07.327   02 Jun 2027 03:45:28.256           200.929        100464.500
        20   02 Jun 2027 03:46:23.439   02 Jun 2027 03:46:31.350             7.911          3955.500
        21   02 Jun 2027 03:46:35.820   02 Jun 2027 03:46:41.187             5.367          2683.500
        22   02 Jun 2027 03:47:12.843   02 Jun 2027 03:47:12.843             0.000             0.000
        23   02 Jun 2027 03:47:33.316   02 Jun 2027 03:47:34.711             1.395           697.500
        24   02 Jun 2027 05:20:52.757   02 Jun 2027 05:23:30.532           157.775         78887.500
        25   02 Jun 2027 05:25:18.048   02 Jun 2027 05:25:29.432            11.384          5692.000
        26   02 Jun 2027 05:25:42.405   02 Jun 2027 05:26:06.606            24.201         12100.500
        27   02 Jun 2027 05:26:10.429   02 Jun 2027 05:26:17.336             6.907          3453.500
        28   02 Jun 2027 05:27:17.534   02 Jun 2027 05:27:17.534             0.000             0.000
        29   02 Jun 2027 05:27:51.483   02 Jun 2027 05:28:31.479            39.996         19998.000
        30   02 Jun 2027 06:46:54.382   02 Jun 2027 06:47:29.111            34.729         17364.500
        31   02 Jun 2027 06:57:54.476   02 Jun 2027 06:59:17.259            82.783         41391.500
        32   02 Jun 2027 07:00:01.044   02 Jun 2027 07:00:06.103             5.059          2529.500
        33   02 Jun 2027 08:20:54.770   02 Jun 2027 08:22:07.748            72.978         35926.624
        34   02 Jun 2027 09:59:45.346   02 Jun 2027 10:00:20.635            35.289         17644.500
        35   02 Jun 2027 10:00:42.879   02 Jun 2027 10:00:47.736             4.857          1906.187
        36   02 Jun 2027 11:32:21.456   02 Jun 2027 11:32:36.182            14.726          5882.906
        37   02 Jun 2027 11:38:57.924   02 Jun 2027 11:39:22.557            24.633         11217.750
        38   03 Jun 2027 03:54:16.163   03 Jun 2027 03:56:39.789           143.626         71813.000
        39   03 Jun 2027 03:56:45.863   03 Jun 2027 03:57:03.364            17.501          8750.500
        40   03 Jun 2027 03:57:10.727   03 Jun 2027 03:57:20.614             9.887          4943.500
        41   03 Jun 2027 03:58:48.613   03 Jun 2027 03:59:00.158            11.545          5772.500
        42   03 Jun 2027 03:59:44.552   03 Jun 2027 04:00:09.859            25.307         12653.500
        43   03 Jun 2027 05:33:21.044   03 Jun 2027 05:35:20.444           119.400         56971.781
        44   03 Jun 2027 05:38:00.071   03 Jun 2027 05:38:02.778             2.707          1353.500
        45   03 Jun 2027 05:38:33.324   03 Jun 2027 05:38:45.524            12.200          4480.188
        46   03 Jun 2027 05:38:46.503   03 Jun 2027 05:38:46.961             0.458            30.594
        47   03 Jun 2027 05:38:48.073   03 Jun 2027 05:38:48.073             0.000             0.000
        48   03 Jun 2027 05:39:17.798   03 Jun 2027 05:39:17.798             0.000             0.000
        49   03 Jun 2027 05:39:19.459   03 Jun 2027 05:39:23.230             3.771          1015.563
        50   03 Jun 2027 06:58:15.236   03 Jun 2027 06:58:26.845            11.609          5386.719
        51   03 Jun 2027 07:09:57.465   03 Jun 2027 07:10:06.126             8.661          4121.844
        52   03 Jun 2027 07:11:05.056   03 Jun 2027 07:11:08.285             3.229          1431.625
        53   03 Jun 2027 08:32:10.816   03 Jun 2027 08:32:29.378            18.562          9281.000
        54   03 Jun 2027 08:32:47.793   03 Jun 2027 08:32:55.751             7.958          2478.938
        55   03 Jun 2027 08:34:45.475   03 Jun 2027 08:34:52.995             7.520          3423.625
        56   03 Jun 2027 08:37:06.041   03 Jun 2027 08:37:14.581             8.540          3853.312
        57   03 Jun 2027 10:07:18.159   03 Jun 2027 10:07:34.798            16.639          7682.281
        58   03 Jun 2027 10:09:43.975   03 Jun 2027 10:09:43.975             0.000             0.000
        59   03 Jun 2027 10:12:18.419   03 Jun 2027 10:12:18.572             0.153            76.500
        60   03 Jun 2027 11:51:00.090   03 Jun 2027 11:51:53.907            53.817         26908.500
        61   04 Jun 2027 04:06:35.004   04 Jun 2027 04:07:05.998            30.994         15497.000
        62   04 Jun 2027 04:07:07.429   04 Jun 2027 04:10:41.107           213.678        106839.000
        63   04 Jun 2027 04:10:51.382   04 Jun 2027 04:11:04.143            12.761          6380.500
        64   04 Jun 2027 04:11:16.351   04 Jun 2027 04:11:28.095            11.744          5872.000
        65   04 Jun 2027 04:11:35.445   04 Jun 2027 04:11:35.994             0.549           274.500
        66   04 Jun 2027 05:45:31.875   04 Jun 2027 05:46:00.153            28.278         14139.000
        67   04 Jun 2027 05:46:25.486   04 Jun 2027 05:47:21.720            56.234         27734.187
        68   04 Jun 2027 05:49:06.801   04 Jun 2027 05:49:09.062             2.261          1130.500
        69   04 Jun 2027 05:49:23.756   04 Jun 2027 05:49:28.865             5.109          2097.344
        70   04 Jun 2027 05:49:52.200   04 Jun 2027 05:49:52.200             0.000             0.000
        71   04 Jun 2027 05:50:02.260   04 Jun 2027 05:50:08.861             6.601          1043.594
        72   04 Jun 2027 05:51:35.080   04 Jun 2027 05:51:40.339             5.259          2478.531
        73   04 Jun 2027 05:52:20.410   04 Jun 2027 05:52:25.379             4.969          1183.969
        74   04 Jun 2027 07:09:41.399   04 Jun 2027 07:09:59.624            18.225          6543.906
        75   04 Jun 2027 07:10:31.934   04 Jun 2027 07:10:33.834             1.900           913.937
        76   04 Jun 2027 07:11:09.957   04 Jun 2027 07:11:12.166             2.209           887.781
        77   04 Jun 2027 07:21:58.570   04 Jun 2027 07:22:06.368             7.798          3504.937
        78   04 Jun 2027 08:43:55.824   04 Jun 2027 08:44:20.826            25.002         11964.219
        79   04 Jun 2027 08:45:59.431   04 Jun 2027 08:46:03.340             3.909          1586.031
        80   04 Jun 2027 08:46:45.386   04 Jun 2027 08:46:46.992             1.606           356.188
        81   04 Jun 2027 08:48:19.844   04 Jun 2027 08:48:19.844             0.000             0.000
        82   04 Jun 2027 08:48:59.334   04 Jun 2027 08:49:10.295            10.961          3446.906
        83   04 Jun 2027 10:20:35.710   04 Jun 2027 10:20:52.419            16.709          8306.156
        84   04 Jun 2027 10:21:52.000   04 Jun 2027 10:21:56.238             4.238          1861.906
        85   05 Jun 2027 04:19:19.806   05 Jun 2027 04:19:43.408            23.602         11801.000
        86   05 Jun 2027 04:19:46.658   05 Jun 2027 04:21:01.911            75.253         37626.500
        87   05 Jun 2027 04:21:09.329   05 Jun 2027 04:22:50.146           100.817         50408.500
        88   05 Jun 2027 04:23:17.701   05 Jun 2027 04:23:20.821             3.120          1560.000
        89   05 Jun 2027 04:24:39.876   05 Jun 2027 04:24:41.908             2.032          1016.000
        90   05 Jun 2027 05:57:42.501   05 Jun 2027 05:59:58.743           136.242         67433.719
        91   05 Jun 2027 06:00:46.522   05 Jun 2027 06:00:48.509             1.987           993.500
        92   05 Jun 2027 06:01:09.854   05 Jun 2027 06:01:13.550             3.696           981.625
        93   05 Jun 2027 06:01:55.841   05 Jun 2027 06:01:55.841             0.000             0.000
        94   05 Jun 2027 06:02:49.378   05 Jun 2027 06:02:57.126             7.748          2953.688
        95   05 Jun 2027 07:21:45.817   05 Jun 2027 07:22:05.010            19.193          9576.969
        96   05 Jun 2027 07:22:37.657   05 Jun 2027 07:22:39.762             2.105           789.000
        97   05 Jun 2027 07:22:58.293   05 Jun 2027 07:23:04.293             6.000           139.844
        98   05 Jun 2027 07:23:25.226   05 Jun 2027 07:23:26.665             1.439           397.000
        99   05 Jun 2027 07:23:33.404   05 Jun 2027 07:23:39.561             6.157            41.281
       100   05 Jun 2027 08:57:43.268   05 Jun 2027 08:58:06.028            22.760         11380.000
       101   05 Jun 2027 08:58:43.252   05 Jun 2027 08:58:48.739             5.487          1320.531
       102   05 Jun 2027 09:00:06.317   05 Jun 2027 09:00:06.317             0.000             0.000
       103   05 Jun 2027 09:00:22.676   05 Jun 2027 09:00:27.539             4.863          2019.812
       104   05 Jun 2027 10:31:32.663   05 Jun 2027 10:31:45.353            12.690          6222.844
       105   05 Jun 2027 10:33:28.431   05 Jun 2027 10:33:28.431             0.000             0.000
       106   05 Jun 2027 10:33:35.034   05 Jun 2027 10:33:38.653             3.619           998.406
       107   05 Jun 2027 10:34:00.399   05 Jun 2027 10:34:03.146             2.747           154.031
       108   05 Jun 2027 10:36:16.786   05 Jun 2027 10:36:25.338             8.552          4176.250
       109   05 Jun 2027 10:39:25.554   05 Jun 2027 10:39:37.553            11.999          4871.281
       110   06 Jun 2027 03:01:15.466   06 Jun 2027 03:01:21.744             6.278          3139.000
       111   06 Jun 2027 04:31:57.376   06 Jun 2027 04:32:42.111            44.735         22367.500
       112   06 Jun 2027 04:32:51.161   06 Jun 2027 04:33:34.616            43.455         21727.500
       113   06 Jun 2027 04:33:35.919   06 Jun 2027 04:35:21.315           105.396         52698.000
       114   06 Jun 2027 04:36:15.066   06 Jun 2027 04:36:43.881            28.815         14407.500
       115   06 Jun 2027 06:10:17.348   06 Jun 2027 06:12:19.590           122.242         61076.563
       116   06 Jun 2027 06:13:08.176   06 Jun 2027 06:13:08.176             0.000             0.000
       117   06 Jun 2027 06:13:33.307   06 Jun 2027 06:13:38.419             5.112          2221.687
       118   06 Jun 2027 06:14:47.142   06 Jun 2027 06:14:50.873             3.731          1780.938
       119   06 Jun 2027 07:33:40.886   06 Jun 2027 07:34:00.698            19.812          8830.719
       120   06 Jun 2027 07:35:17.136   06 Jun 2027 07:35:21.714             4.578          2206.312
       121   06 Jun 2027 07:35:37.311   06 Jun 2027 07:35:41.567             4.256           373.062
       122   06 Jun 2027 07:35:48.512   06 Jun 2027 07:35:50.543             2.031           150.094
       123   06 Jun 2027 09:10:00.535   06 Jun 2027 09:10:17.433            16.898          8449.000
       124   06 Jun 2027 09:10:40.853   06 Jun 2027 09:10:42.648             1.795           897.500
       125   06 Jun 2027 09:11:29.899   06 Jun 2027 09:11:40.543            10.644          2512.625
       126   06 Jun 2027 09:12:15.802   06 Jun 2027 09:12:18.383             2.581           399.031
       127   06 Jun 2027 09:13:01.919   06 Jun 2027 09:13:06.392             4.473          1144.156
       128   06 Jun 2027 10:44:17.824   06 Jun 2027 10:44:31.489            13.665          6556.000
       129   06 Jun 2027 10:45:32.891   06 Jun 2027 10:45:34.449             1.558           712.906
       130   06 Jun 2027 10:49:26.827   06 Jun 2027 10:49:43.236            16.409          7248.594
       131   06 Jun 2027 10:50:37.343   06 Jun 2027 10:50:39.133             1.790           856.250
       132   06 Jun 2027 10:50:58.397   06 Jun 2027 10:51:00.712             2.315           602.000
       133   06 Jun 2027 10:51:09.843   06 Jun 2027 10:51:10.793             0.950           266.938
       134   06 Jun 2027 10:51:20.895   06 Jun 2027 10:51:21.352             0.457           168.219
       135   06 Jun 2027 10:51:59.447   06 Jun 2027 10:52:02.476             3.029          1190.469
       136   07 Jun 2027 03:05:49.878   07 Jun 2027 03:06:36.730            46.852         23426.000
       137   07 Jun 2027 03:06:41.802   07 Jun 2027 03:06:41.802             0.000             0.000
       138   07 Jun 2027 03:07:25.581   07 Jun 2027 03:08:52.031            86.450         43225.000
       139   07 Jun 2027 03:09:33.703   07 Jun 2027 03:09:40.311             6.608          3304.000
       140   07 Jun 2027 03:11:01.042   07 Jun 2027 03:11:01.720             0.678           339.000
       141   07 Jun 2027 03:11:26.267   07 Jun 2027 03:11:32.542             6.275          3137.500
       142   07 Jun 2027 03:13:01.049   07 Jun 2027 03:13:13.816            12.767          6383.500
       143   07 Jun 2027 03:13:18.105   07 Jun 2027 03:13:21.502             3.397          1698.500
       144   07 Jun 2027 04:43:51.223   07 Jun 2027 04:43:56.839             5.616          2808.000
       145   07 Jun 2027 04:44:09.174   07 Jun 2027 04:46:46.821           157.647         78823.500
       146   07 Jun 2027 04:47:27.460   07 Jun 2027 04:47:39.109            11.649          3676.031
       147   07 Jun 2027 04:49:37.189   07 Jun 2027 04:49:44.486             7.297          3613.781
       148   07 Jun 2027 06:22:15.670   07 Jun 2027 06:22:43.449            27.779         13118.062
       149   07 Jun 2027 06:23:18.186   07 Jun 2027 06:23:18.415             0.229           114.500
       150   07 Jun 2027 06:24:09.229   07 Jun 2027 06:24:17.234             8.005          2219.875
       151   07 Jun 2027 06:25:27.970   07 Jun 2027 06:25:35.526             7.556          1983.531
       152   07 Jun 2027 06:25:45.167   07 Jun 2027 06:25:45.167             0.000             0.000
       153   07 Jun 2027 07:45:31.675   07 Jun 2027 07:45:47.886            16.211          8077.531
       154   07 Jun 2027 07:47:01.052   07 Jun 2027 07:47:01.052             0.000             0.000
       155   07 Jun 2027 07:47:46.746   07 Jun 2027 07:47:58.501            11.755          3386.500
       156   07 Jun 2027 09:22:51.735   07 Jun 2027 09:23:10.682            18.947          8572.594
       157   07 Jun 2027 09:23:24.630   07 Jun 2027 09:23:31.204             6.574            73.375
       158   07 Jun 2027 09:23:35.727   07 Jun 2027 09:23:35.727             0.000             0.000
       159   07 Jun 2027 09:23:44.758   07 Jun 2027 09:23:48.441             3.683           423.563
       160   07 Jun 2027 09:24:01.473   07 Jun 2027 09:24:02.830             1.357           152.094
       161   07 Jun 2027 10:56:30.379   07 Jun 2027 10:56:41.456            11.077          5079.750
       162   07 Jun 2027 10:57:50.372   07 Jun 2027 10:57:57.539             7.167          1847.719
       163   07 Jun 2027 11:00:14.742   07 Jun 2027 11:00:14.742             0.000             0.000
       164   07 Jun 2027 11:00:22.868   07 Jun 2027 11:00:33.038            10.170          4520.813
       165   07 Jun 2027 11:01:59.791   07 Jun 2027 11:02:06.127             6.336          2619.969
       166   07 Jun 2027 11:02:54.732   07 Jun 2027 11:02:55.975             1.243           621.500
       167   07 Jun 2027 11:02:59.123   07 Jun 2027 11:03:00.045             0.922           461.000
       168   07 Jun 2027 11:03:56.938   07 Jun 2027 11:03:57.053             0.115            57.500
       169   08 Jun 2027 03:17:51.637   08 Jun 2027 03:21:12.543           200.906        100453.000
       170   08 Jun 2027 03:22:24.719   08 Jun 2027 03:22:26.608             1.889           944.500
       171   08 Jun 2027 03:22:58.098   08 Jun 2027 03:22:58.206             0.108            54.000
       172   08 Jun 2027 03:23:18.100   08 Jun 2027 03:23:26.233             8.133          4066.500
       173   08 Jun 2027 03:24:22.507   08 Jun 2027 03:24:48.996            26.489         13244.500
       174   08 Jun 2027 04:56:00.152   08 Jun 2027 04:57:01.618            61.466         30733.000
       175   08 Jun 2027 04:57:09.294   08 Jun 2027 04:57:45.353            36.059         17867.906
       176   08 Jun 2027 04:58:42.985   08 Jun 2027 04:58:45.767             2.782           787.906
       177   08 Jun 2027 04:59:43.622   08 Jun 2027 04:59:43.622             0.000             0.000
       178   08 Jun 2027 05:00:08.585   08 Jun 2027 05:00:13.738             5.153          2311.781
       179   08 Jun 2027 05:00:32.269   08 Jun 2027 05:00:34.481             2.212           579.094
       180   08 Jun 2027 05:02:01.431   08 Jun 2027 05:02:07.337             5.906          2130.125
       181   08 Jun 2027 06:34:18.602   08 Jun 2027 06:34:30.836            12.234          6060.406
       182   08 Jun 2027 06:35:19.478   08 Jun 2027 06:35:27.156             7.678          1479.281
       183   08 Jun 2027 06:35:53.001   08 Jun 2027 06:35:54.260             1.259           541.062
       184   08 Jun 2027 06:36:40.591   08 Jun 2027 06:36:43.003             2.412          1062.406
       185   08 Jun 2027 06:37:06.160   08 Jun 2027 06:37:06.160             0.000             0.000
       186   08 Jun 2027 06:37:37.708   08 Jun 2027 06:37:37.708             0.000             0.000
       187   08 Jun 2027 06:37:40.854   08 Jun 2027 06:37:44.239             3.385          1692.500
       188   08 Jun 2027 07:57:41.746   08 Jun 2027 07:58:00.657            18.911          8148.438
       189   08 Jun 2027 07:58:33.017   08 Jun 2027 07:58:34.480             1.463           628.281
       190   08 Jun 2027 07:59:12.963   08 Jun 2027 07:59:14.918             1.955           958.875
       191   08 Jun 2027 08:00:25.380   08 Jun 2027 08:00:29.744             4.364          2163.969
       192   08 Jun 2027 08:00:45.923   08 Jun 2027 08:00:45.923             0.000             0.000
       193   08 Jun 2027 09:35:10.086   08 Jun 2027 09:35:30.394            20.308         10154.000
       194   08 Jun 2027 09:36:42.989   08 Jun 2027 09:36:53.171            10.182          4419.156
       195   08 Jun 2027 11:09:22.501   08 Jun 2027 11:09:37.452            14.951          6201.062
       196   08 Jun 2027 11:12:47.692   08 Jun 2027 11:12:59.015            11.323          5613.156
       197   08 Jun 2027 11:13:09.328   08 Jun 2027 11:13:10.934             1.606            95.000
       198   08 Jun 2027 11:15:37.614   08 Jun 2027 11:15:46.683             9.069          4134.594
       199   09 Jun 2027 03:29:49.629   09 Jun 2027 03:33:32.142           222.513        111256.500
       200   09 Jun 2027 03:34:49.876   09 Jun 2027 03:34:49.876             0.000             0.000
       201   09 Jun 2027 03:34:54.554   09 Jun 2027 03:34:57.123             2.569          1284.500
       202   09 Jun 2027 03:35:02.656   09 Jun 2027 03:35:02.799             0.143            71.500
       203   09 Jun 2027 03:36:29.273   09 Jun 2027 03:36:45.440            16.167          8083.500
       204   09 Jun 2027 05:08:05.967   09 Jun 2027 05:08:13.053             7.086          3543.000
       205   09 Jun 2027 05:09:06.951   09 Jun 2027 05:10:29.526            82.575         41251.437
       206   09 Jun 2027 05:10:48.559   09 Jun 2027 05:10:49.820             1.261           464.906
       207   09 Jun 2027 05:11:08.336   09 Jun 2027 05:11:08.336             0.000             0.000
       208   09 Jun 2027 05:11:45.739   09 Jun 2027 05:11:50.112             4.373          1642.375
       209   09 Jun 2027 05:12:27.356   09 Jun 2027 05:12:32.708             5.352          1125.844
       210   09 Jun 2027 05:13:17.498   09 Jun 2027 05:13:23.278             5.780          1340.375
       211   09 Jun 2027 05:13:33.255   09 Jun 2027 05:13:35.729             2.474           311.781
       212   09 Jun 2027 05:13:47.781   09 Jun 2027 05:13:48.525             0.744           372.000
       213   09 Jun 2027 05:16:09.019   09 Jun 2027 05:16:15.454             6.435          1480.344
       214   09 Jun 2027 06:46:15.618   09 Jun 2027 06:46:27.437            11.819          5408.469
       215   09 Jun 2027 06:46:39.425   09 Jun 2027 06:46:41.505             2.080           374.625
       216   09 Jun 2027 06:47:18.087   09 Jun 2027 06:47:21.508             3.421           973.406
       217   09 Jun 2027 06:47:30.042   09 Jun 2027 06:47:32.506             2.464           266.687
       218   09 Jun 2027 06:47:51.414   09 Jun 2027 06:47:57.502             6.088           375.031
       219   09 Jun 2027 06:48:07.692   09 Jun 2027 06:48:13.216             5.524           167.563
       220   09 Jun 2027 06:49:00.394   09 Jun 2027 06:49:00.394             0.000             0.000
       221   09 Jun 2027 06:49:37.186   09 Jun 2027 06:49:37.186             0.000             0.000
       222   09 Jun 2027 06:49:39.816   09 Jun 2027 06:49:44.495             4.679          2189.500
       223   09 Jun 2027 08:10:22.016   09 Jun 2027 08:10:37.187            15.171          7559.406
       224   09 Jun 2027 08:11:15.043   09 Jun 2027 08:11:17.851             2.808           940.531
       225   09 Jun 2027 09:46:24.924   09 Jun 2027 09:46:49.176            24.252         10775.406
       226   09 Jun 2027 09:47:49.328   09 Jun 2027 09:47:56.128             6.800          1267.000
       227   09 Jun 2027 09:48:24.262   09 Jun 2027 09:48:24.262             0.000             0.000
       228   09 Jun 2027 09:48:31.646   09 Jun 2027 09:48:38.205             6.559           516.875
       229   09 Jun 2027 11:21:04.696   09 Jun 2027 11:21:18.942            14.246          7019.594
       230   09 Jun 2027 11:27:29.960   09 Jun 2027 11:27:55.686            25.726         11118.687
       231   10 Jun 2027 03:42:27.314   10 Jun 2027 03:46:09.157           221.843        110921.500
       232   10 Jun 2027 03:46:37.976   10 Jun 2027 03:46:37.976             0.000             0.000
       233   10 Jun 2027 03:46:47.726   10 Jun 2027 03:47:10.177            22.451         11225.500
       234   10 Jun 2027 05:21:10.796   10 Jun 2027 05:22:36.809            86.013         41639.937
       235   10 Jun 2027 05:23:42.575   10 Jun 2027 05:23:44.916             2.341           898.875
       236   10 Jun 2027 05:24:45.561   10 Jun 2027 05:24:45.561             0.000             0.000
       237   10 Jun 2027 05:25:05.339   10 Jun 2027 05:25:11.902             6.563          2421.000
       238   10 Jun 2027 05:25:32.803   10 Jun 2027 05:25:32.803             0.000             0.000
       239   10 Jun 2027 05:25:42.511   10 Jun 2027 05:25:44.629             2.118           935.469
       240   10 Jun 2027 05:26:24.729   10 Jun 2027 05:26:27.679             2.950          1253.125
       241   10 Jun 2027 05:27:29.092   10 Jun 2027 05:27:34.548             5.456          1317.031
       242   10 Jun 2027 05:27:42.548   10 Jun 2027 05:27:44.127             1.579           250.000
       243   10 Jun 2027 06:47:08.008   10 Jun 2027 06:47:21.794            13.786          6353.656
       244   10 Jun 2027 06:58:12.121   10 Jun 2027 06:58:15.864             3.743          1871.500
       245   10 Jun 2027 06:59:10.620   10 Jun 2027 06:59:15.839             5.219          2151.656
       246   10 Jun 2027 07:00:22.209   10 Jun 2027 07:00:29.476             7.267          2018.656
       247   10 Jun 2027 07:01:01.806   10 Jun 2027 07:01:01.806             0.000             0.000
       248   10 Jun 2027 07:01:19.450   10 Jun 2027 07:01:26.321             6.871           975.500
       249   10 Jun 2027 08:21:10.033   10 Jun 2027 08:21:22.555            12.522          6259.875
       250   10 Jun 2027 08:22:03.604   10 Jun 2027 08:22:07.321             3.717           914.156
       251   10 Jun 2027 08:22:23.654   10 Jun 2027 08:22:26.441             2.787           510.406
       252   10 Jun 2027 08:23:16.398   10 Jun 2027 08:23:19.515             3.117           905.875
       253   10 Jun 2027 09:56:29.413   10 Jun 2027 09:56:46.012            16.599          7676.156
       254   10 Jun 2027 09:58:36.849   10 Jun 2027 09:58:43.285             6.436          2493.469
       255   10 Jun 2027 09:59:30.446   10 Jun 2027 09:59:32.199             1.753           216.906
       256   10 Jun 2027 10:00:49.467   10 Jun 2027 10:00:56.535             7.068          2414.625
       257   10 Jun 2027 10:01:32.295   10 Jun 2027 10:01:32.295             0.000             0.000
       258   10 Jun 2027 11:32:37.810   10 Jun 2027 11:32:51.255            13.445          6403.687
       259   10 Jun 2027 11:36:49.268   10 Jun 2027 11:37:03.831            14.563          6714.188
       260   10 Jun 2027 11:37:29.947   10 Jun 2027 11:37:33.200             3.253           718.187
       261   10 Jun 2027 11:38:10.568   10 Jun 2027 11:38:17.870             7.302           701.344
       262   10 Jun 2027 11:38:52.611   10 Jun 2027 11:38:55.161             2.550          1064.688
       263   10 Jun 2027 11:39:35.771   10 Jun 2027 11:39:40.118             4.347          1269.062
       264   10 Jun 2027 11:40:01.359   10 Jun 2027 11:40:06.905             5.546           570.625
       265   11 Jun 2027 03:54:34.324   11 Jun 2027 03:56:16.047           101.723         50861.500
       266   11 Jun 2027 03:56:29.716   11 Jun 2027 03:58:45.534           135.818         67909.000
       267   11 Jun 2027 03:58:47.975   11 Jun 2027 03:58:54.922             6.947          3473.500
       268   11 Jun 2027 03:59:12.137   11 Jun 2027 03:59:30.337            18.200          9100.000
       269   11 Jun 2027 05:33:40.576   11 Jun 2027 05:34:51.217            70.641         33226.875
       270   11 Jun 2027 05:36:19.680   11 Jun 2027 05:36:20.571             0.891           445.500
       271   11 Jun 2027 05:37:03.652   11 Jun 2027 05:37:06.667             3.015          1507.500
       272   11 Jun 2027 05:37:44.593   11 Jun 2027 05:37:50.286             5.693          2600.688
       273   11 Jun 2027 05:39:01.100   11 Jun 2027 05:39:02.820             1.720           860.000
       274   11 Jun 2027 05:39:36.467   11 Jun 2027 05:39:36.467             0.000             0.000
       275   11 Jun 2027 05:40:25.877   11 Jun 2027 05:40:33.828             7.951          3797.094
       276   11 Jun 2027 06:58:32.146   11 Jun 2027 06:58:44.575            12.429          4889.781
       277   11 Jun 2027 06:59:42.868   11 Jun 2027 06:59:49.189             6.321          1821.656
       278   11 Jun 2027 07:10:14.880   11 Jun 2027 07:10:25.991            11.111          3506.750
       279   11 Jun 2027 08:32:27.664   11 Jun 2027 08:32:45.272            17.608          8804.000
       280   11 Jun 2027 08:34:29.505   11 Jun 2027 08:34:36.953             7.448          3684.594
       281   11 Jun 2027 08:35:20.279   11 Jun 2027 08:35:27.038             6.759           957.781
       282   11 Jun 2027 10:08:21.329   11 Jun 2027 10:08:42.691            21.362          7604.563
       283   11 Jun 2027 10:09:36.424   11 Jun 2027 10:09:39.720             3.296           622.531
       284   11 Jun 2027 10:11:14.066   11 Jun 2027 10:11:16.403             2.337          1168.500
       285   11 Jun 2027 10:12:34.131   11 Jun 2027 10:12:35.109             0.978           489.000
       286   11 Jun 2027 11:51:16.146   11 Jun 2027 11:52:05.799            49.653         24234.312
       287   12 Jun 2027 04:06:53.638   12 Jun 2027 04:08:03.659            70.021         35010.500
       288   12 Jun 2027 04:08:04.828   12 Jun 2027 04:08:19.692            14.864          7432.000
       289   12 Jun 2027 04:08:20.155   12 Jun 2027 04:08:28.434             8.279          4139.500
       290   12 Jun 2027 04:10:30.280   12 Jun 2027 04:11:18.900            48.620         24310.000
       291   12 Jun 2027 04:11:36.420   12 Jun 2027 04:12:08.553            32.133         16066.500
       292   12 Jun 2027 04:12:49.885   12 Jun 2027 04:12:53.435             3.550          1775.000
       293   12 Jun 2027 05:45:41.329   12 Jun 2027 05:48:06.913           145.584         72417.062
       294   12 Jun 2027 05:50:23.816   12 Jun 2027 05:50:32.585             8.769          4278.219
       295   12 Jun 2027 05:51:19.172   12 Jun 2027 05:51:23.253             4.081          1374.531
       296   12 Jun 2027 05:52:39.180   12 Jun 2027 05:52:45.887             6.707          2366.031
       297   12 Jun 2027 07:10:00.731   12 Jun 2027 07:10:17.210            16.479          7947.781
       298   12 Jun 2027 07:10:30.561   12 Jun 2027 07:10:30.561             0.000             0.000
       299   12 Jun 2027 07:10:49.756   12 Jun 2027 07:10:51.817             2.061           923.813
       300   12 Jun 2027 07:11:26.192   12 Jun 2027 07:11:28.189             1.997           896.000
       301   12 Jun 2027 07:12:11.105   12 Jun 2027 07:12:14.073             2.968           348.500
       302   12 Jun 2027 07:22:16.552   12 Jun 2027 07:22:25.554             9.002          4389.188
       303   12 Jun 2027 08:44:13.489   12 Jun 2027 08:44:36.278            22.789          7989.125
       304   12 Jun 2027 08:47:02.056   12 Jun 2027 08:47:08.385             6.329          3153.094
       305   12 Jun 2027 08:48:24.988   12 Jun 2027 08:48:24.988             0.000             0.000
       306   12 Jun 2027 08:48:38.038   12 Jun 2027 08:48:44.896             6.858          2226.812
       307   12 Jun 2027 10:19:03.243   12 Jun 2027 10:19:12.276             9.033          3495.094
       308   12 Jun 2027 10:21:34.615   12 Jun 2027 10:21:36.714             2.099          1049.500
       309   13 Jun 2027 04:19:38.072   13 Jun 2027 04:21:17.634            99.562         49781.000
       310   13 Jun 2027 04:21:39.763   13 Jun 2027 04:23:19.183            99.420         49710.000
       311   13 Jun 2027 04:23:32.585   13 Jun 2027 04:23:35.494             2.909          1454.500
       312   13 Jun 2027 04:24:54.813   13 Jun 2027 04:25:06.745            11.932          5966.000
       313   13 Jun 2027 05:58:01.626   13 Jun 2027 05:59:54.060           112.434         54701.188
       314   13 Jun 2027 06:00:07.937   13 Jun 2027 06:00:11.236             3.299           433.656
       315   13 Jun 2027 06:00:27.150   13 Jun 2027 06:00:31.019             3.869           244.938
       316   13 Jun 2027 06:01:31.037   13 Jun 2027 06:01:31.161             0.124            62.000
       317   13 Jun 2027 06:01:48.972   13 Jun 2027 06:01:55.340             6.368          2164.344
       318   13 Jun 2027 06:02:13.845   13 Jun 2027 06:02:17.634             3.789           544.719
       319   13 Jun 2027 07:22:03.247   13 Jun 2027 07:22:26.489            23.242         10015.625
       320   13 Jun 2027 07:23:15.850   13 Jun 2027 07:23:18.993             3.143          1491.500
       321   13 Jun 2027 07:23:49.884   13 Jun 2027 07:23:54.452             4.568           664.500
       322   13 Jun 2027 08:58:00.858   13 Jun 2027 08:58:22.206            21.348         10674.000
       323   13 Jun 2027 08:58:23.885   13 Jun 2027 08:58:27.790             3.905           509.781
       324   13 Jun 2027 08:59:35.997   13 Jun 2027 08:59:40.719             4.722          2131.469
       325   13 Jun 2027 10:31:50.037   13 Jun 2027 10:32:05.947            15.910          7115.063
       326   13 Jun 2027 10:34:11.380   13 Jun 2027 10:34:16.685             5.305          2065.094
       327   13 Jun 2027 10:34:28.176   13 Jun 2027 10:34:28.176             0.000             0.000
       328   13 Jun 2027 10:36:34.652   13 Jun 2027 10:36:43.987             9.335          4311.469
       329   13 Jun 2027 10:39:41.369   13 Jun 2027 10:39:54.236            12.867          4910.188
