uniorb/output/strategy_2/Camera/Camera_KinoSat_110404.txt

KinoSat_110404
-------------------------
    Access    *     Start Time (UTCG)     *     Stop Time (UTCG)  *   Duration (s) *   Data (Mbytes)
         1   01 Jun 2027 04:01:51.229   01 Jun 2027 04:01:58.770             7.541          3770.500
         2   01 Jun 2027 04:02:27.996   01 Jun 2027 04:02:27.996             0.000             0.000
         3   01 Jun 2027 04:02:33.211   01 Jun 2027 04:02:58.843            25.632         12816.000
         4   01 Jun 2027 04:04:47.740   01 Jun 2027 04:04:49.316             1.576           788.000
         5   01 Jun 2027 04:05:18.224   01 Jun 2027 04:05:18.842             0.618           309.000
         6   01 Jun 2027 04:05:28.537   01 Jun 2027 04:05:33.103             4.566          2283.000
         7   01 Jun 2027 04:05:58.944   01 Jun 2027 04:06:12.655            13.711          6855.500
         8   01 Jun 2027 04:07:27.578   01 Jun 2027 04:07:37.410             9.832          4916.000
         9   01 Jun 2027 04:07:47.354   01 Jun 2027 04:07:49.102             1.748           874.000
        10   01 Jun 2027 05:38:13.400   01 Jun 2027 05:38:17.010             3.610          1805.000
        11   01 Jun 2027 05:38:43.675   01 Jun 2027 05:38:59.162            15.487          7743.500
        12   01 Jun 2027 05:40:04.540   01 Jun 2027 05:40:16.096            11.556          5778.000
        13   01 Jun 2027 05:41:11.655   01 Jun 2027 05:41:13.254             1.599           799.500
        14   01 Jun 2027 05:41:28.211   01 Jun 2027 05:41:36.915             8.704          4352.000
        15   01 Jun 2027 05:42:40.421   01 Jun 2027 05:42:42.272             1.851           925.500
        16   01 Jun 2027 05:43:05.890   01 Jun 2027 05:43:19.332            13.442          6721.000
        17   01 Jun 2027 07:15:41.660   01 Jun 2027 07:15:46.345             4.685          2342.500
        18   01 Jun 2027 07:16:33.590   01 Jun 2027 07:16:37.185             3.595          1797.500
        19   01 Jun 2027 07:16:58.858   01 Jun 2027 07:17:00.654             1.796           898.000
        20   01 Jun 2027 07:18:12.662   01 Jun 2027 07:18:24.426            11.764          5882.000
        21   01 Jun 2027 07:19:22.045   01 Jun 2027 07:19:29.806             7.761          3880.500
        22   01 Jun 2027 07:19:38.456   01 Jun 2027 07:19:41.213             2.757          1378.500
        23   01 Jun 2027 08:51:47.968   01 Jun 2027 08:51:47.986             0.018             9.000
        24   01 Jun 2027 08:52:39.922   01 Jun 2027 08:52:41.238             1.316           658.000
        25   01 Jun 2027 08:53:18.901   01 Jun 2027 08:53:21.870             2.969          1484.500
        26   01 Jun 2027 08:53:43.711   01 Jun 2027 08:53:47.635             3.924          1962.000
        27   01 Jun 2027 08:54:07.527   01 Jun 2027 08:54:26.429            18.902          9451.000
        28   01 Jun 2027 08:55:48.026   01 Jun 2027 08:55:54.242             6.216          3108.000
        29   02 Jun 2027 04:14:00.213   02 Jun 2027 04:14:03.565             3.352          1676.000
        30   02 Jun 2027 04:14:19.653   02 Jun 2027 04:14:29.900            10.247          5123.500
        31   02 Jun 2027 04:15:26.660   02 Jun 2027 04:15:29.720             3.060          1530.000
        32   02 Jun 2027 04:15:58.091   02 Jun 2027 04:16:03.820             5.729          2864.500
        33   02 Jun 2027 04:16:16.251   02 Jun 2027 04:16:17.068             0.817           408.500
        34   02 Jun 2027 04:16:36.049   02 Jun 2027 04:16:40.298             4.249          2124.500
        35   02 Jun 2027 04:17:02.244   02 Jun 2027 04:17:15.074            12.830          6415.000
        36   02 Jun 2027 04:18:52.735   02 Jun 2027 04:18:55.729             2.994          1497.000
        37   02 Jun 2027 04:19:16.666   02 Jun 2027 04:19:21.556             4.890          2445.000
        38   02 Jun 2027 04:19:50.245   02 Jun 2027 04:20:06.013            15.768          7884.000
        39   02 Jun 2027 05:50:13.212   02 Jun 2027 05:50:13.215             0.003             1.500
        40   02 Jun 2027 05:50:35.599   02 Jun 2027 05:50:51.173            15.574          7787.000
        41   02 Jun 2027 05:52:23.762   02 Jun 2027 05:52:23.805             0.043            21.500
        42   02 Jun 2027 05:53:08.647   02 Jun 2027 05:53:19.953            11.306          5653.000
        43   02 Jun 2027 05:54:51.939   02 Jun 2027 05:55:13.507            21.568         10784.000
        44   02 Jun 2027 07:27:48.078   02 Jun 2027 07:27:50.255             2.177          1088.500
        45   02 Jun 2027 07:28:17.330   02 Jun 2027 07:28:20.383             3.053          1526.500
        46   02 Jun 2027 07:28:46.069   02 Jun 2027 07:28:55.688             9.619          4809.500
        47   02 Jun 2027 07:29:48.449   02 Jun 2027 07:29:50.802             2.353          1176.500
        48   02 Jun 2027 07:30:07.668   02 Jun 2027 07:30:10.930             3.262          1631.000
        49   02 Jun 2027 07:31:03.906   02 Jun 2027 07:31:09.429             5.523          2761.500
        50   02 Jun 2027 07:31:18.984   02 Jun 2027 07:31:25.212             6.228          3114.000
        51   02 Jun 2027 07:32:12.784   02 Jun 2027 07:32:14.190             1.406           703.000
        52   02 Jun 2027 09:03:49.774   02 Jun 2027 09:04:02.201            12.427          6213.500
        53   02 Jun 2027 09:04:55.997   02 Jun 2027 09:04:58.479             2.482          1241.000
        54   02 Jun 2027 09:05:30.905   02 Jun 2027 09:05:31.510             0.605           302.500
        55   02 Jun 2027 09:05:35.502   02 Jun 2027 09:05:42.594             7.092          3546.000
        56   02 Jun 2027 09:06:19.548   02 Jun 2027 09:06:21.195             1.647           823.500
        57   02 Jun 2027 09:07:15.117   02 Jun 2027 09:07:22.493             7.376          3688.000
        58   02 Jun 2027 09:07:55.736   02 Jun 2027 09:07:59.288             3.552          1776.000
        59   02 Jun 2027 09:08:25.254   02 Jun 2027 09:08:25.815             0.561           280.500
        60   02 Jun 2027 09:08:36.941   02 Jun 2027 09:08:43.727             6.786          3393.000
        61   03 Jun 2027 04:25:23.918   03 Jun 2027 04:25:42.914            18.996          9498.000
        62   03 Jun 2027 04:26:58.032   03 Jun 2027 04:27:01.330             3.298          1649.000
        63   03 Jun 2027 04:27:26.938   03 Jun 2027 04:27:30.600             3.662          1831.000
        64   03 Jun 2027 04:27:47.494   03 Jun 2027 04:27:54.531             7.037          3518.500
        65   03 Jun 2027 04:28:55.557   03 Jun 2027 04:29:09.166            13.609          6804.500
        66   03 Jun 2027 04:30:26.500   03 Jun 2027 04:30:37.821            11.321          5660.500
        67   03 Jun 2027 04:31:20.048   03 Jun 2027 04:31:21.831             1.783           891.500
        68   03 Jun 2027 04:31:51.183   03 Jun 2027 04:31:59.584             8.401          4200.500
        69   03 Jun 2027 04:32:10.348   03 Jun 2027 04:32:25.825            15.477          7738.500
        70   03 Jun 2027 06:02:00.594   03 Jun 2027 06:02:02.729             2.135          1067.500
        71   03 Jun 2027 06:03:13.073   03 Jun 2027 06:03:26.484            13.411          6705.500
        72   03 Jun 2027 06:04:20.688   03 Jun 2027 06:04:32.441            11.753          5876.500
        73   03 Jun 2027 06:05:04.334   03 Jun 2027 06:05:11.315             6.981          3490.500
        74   03 Jun 2027 06:05:58.212   03 Jun 2027 06:06:03.110             4.898          2449.000
        75   03 Jun 2027 06:06:40.523   03 Jun 2027 06:06:48.149             7.626          3813.000
        76   03 Jun 2027 06:07:13.007   03 Jun 2027 06:07:22.267             9.260          4630.000
        77   03 Jun 2027 07:40:18.486   03 Jun 2027 07:40:26.750             8.264          4132.000
        78   03 Jun 2027 07:41:41.998   03 Jun 2027 07:41:47.405             5.407          2703.500
        79   03 Jun 2027 07:42:18.541   03 Jun 2027 07:42:20.719             2.178          1089.000
        80   03 Jun 2027 07:42:51.556   03 Jun 2027 07:42:59.233             7.677          3838.500
        81   03 Jun 2027 07:43:31.382   03 Jun 2027 07:43:32.869             1.487           743.500
        82   03 Jun 2027 09:13:38.117   03 Jun 2027 09:13:58.365            20.248         10124.000
        83   03 Jun 2027 09:15:37.933   03 Jun 2027 09:15:42.534             4.601          2300.500
        84   03 Jun 2027 09:16:47.822   03 Jun 2027 09:16:53.799             5.977          2988.500
        85   03 Jun 2027 09:17:26.586   03 Jun 2027 09:17:33.212             6.626          3313.000
        86   03 Jun 2027 09:18:11.628   03 Jun 2027 09:18:16.625             4.997          2498.500
        87   03 Jun 2027 09:19:11.747   03 Jun 2027 09:19:13.357             1.610           805.000
        88   03 Jun 2027 09:19:36.937   03 Jun 2027 09:19:37.678             0.741           370.500
        89   03 Jun 2027 09:20:10.825   03 Jun 2027 09:20:12.272             1.447           723.500
        90   03 Jun 2027 09:20:35.364   03 Jun 2027 09:20:36.330             0.966           483.000
        91   03 Jun 2027 09:21:06.925   03 Jun 2027 09:21:07.598             0.673           336.500
        92   04 Jun 2027 03:00:34.951   04 Jun 2027 03:00:41.410             6.459          3229.500
        93   04 Jun 2027 03:01:28.099   04 Jun 2027 03:01:33.525             5.426          2713.000
        94   04 Jun 2027 03:01:59.394   04 Jun 2027 03:02:03.970             4.576          2288.000
        95   04 Jun 2027 03:02:25.262   04 Jun 2027 03:02:27.979             2.717          1358.500
        96   04 Jun 2027 03:02:48.618   04 Jun 2027 03:02:58.536             9.918          4959.000
        97   04 Jun 2027 03:03:44.263   04 Jun 2027 03:03:53.080             8.817          4408.500
        98   04 Jun 2027 03:04:32.788   04 Jun 2027 03:04:37.102             4.314          2157.000
        99   04 Jun 2027 03:04:56.195   04 Jun 2027 03:05:02.681             6.486          3243.000
       100   04 Jun 2027 03:05:44.589   04 Jun 2027 03:05:54.874            10.285          5142.500
       101   04 Jun 2027 03:06:37.775   04 Jun 2027 03:06:51.106            13.331          6665.500
       102   04 Jun 2027 03:06:56.206   04 Jun 2027 03:06:58.849             2.643          1321.500
       103   04 Jun 2027 04:37:18.574   04 Jun 2027 04:37:28.238             9.664          4832.000
       104   04 Jun 2027 04:38:20.296   04 Jun 2027 04:38:32.598            12.302          6151.000
       105   04 Jun 2027 04:39:15.930   04 Jun 2027 04:39:19.191             3.261          1630.500
       106   04 Jun 2027 04:39:24.089   04 Jun 2027 04:39:24.089             0.000             0.000
       107   04 Jun 2027 04:40:04.044   04 Jun 2027 04:40:05.574             1.530           765.000
       108   04 Jun 2027 04:41:04.621   04 Jun 2027 04:41:07.596             2.975          1487.500
       109   04 Jun 2027 04:41:28.013   04 Jun 2027 04:41:32.414             4.401          2200.500
       110   04 Jun 2027 04:42:37.369   04 Jun 2027 04:42:40.986             3.617          1808.500
       111   04 Jun 2027 04:43:10.374   04 Jun 2027 04:43:20.685            10.311          5155.500
       112   04 Jun 2027 04:44:10.066   04 Jun 2027 04:44:32.809            22.743         11371.500
       113   04 Jun 2027 04:44:46.979   04 Jun 2027 04:44:47.507             0.528           264.000
       114   04 Jun 2027 06:14:21.639   04 Jun 2027 06:14:24.666             3.027          1513.500
       115   04 Jun 2027 06:14:52.545   04 Jun 2027 06:15:11.059            18.514          9257.000
       116   04 Jun 2027 06:17:01.327   04 Jun 2027 06:17:09.773             8.446          4223.000
       117   04 Jun 2027 06:17:51.197   04 Jun 2027 06:17:51.301             0.104            52.000
       118   04 Jun 2027 06:18:03.575   04 Jun 2027 06:18:08.526             4.951          2475.500
       119   04 Jun 2027 06:18:40.222   04 Jun 2027 06:18:41.889             1.667           833.500
       120   04 Jun 2027 06:19:06.126   04 Jun 2027 06:19:06.634             0.508           254.000
       121   04 Jun 2027 06:19:38.720   04 Jun 2027 06:19:39.230             0.510           255.000
       122   04 Jun 2027 06:20:11.843   04 Jun 2027 06:20:12.438             0.595           297.500
       123   04 Jun 2027 06:20:15.646   04 Jun 2027 06:20:31.420            15.774          7887.000
       124   04 Jun 2027 07:52:15.838   04 Jun 2027 07:52:20.397             4.559          2279.500
       125   04 Jun 2027 07:53:00.503   04 Jun 2027 07:53:04.610             4.107          2053.500
       126   04 Jun 2027 07:53:31.078   04 Jun 2027 07:53:37.328             6.250          3125.000
       127   04 Jun 2027 07:54:55.225   04 Jun 2027 07:54:55.994             0.769           384.500
       128   04 Jun 2027 07:55:10.787   04 Jun 2027 07:55:14.254             3.467          1733.500
       129   04 Jun 2027 07:55:44.422   04 Jun 2027 07:55:51.974             7.552          3776.000
       130   04 Jun 2027 09:25:29.325   04 Jun 2027 09:25:56.527            27.202         13601.000
       131   04 Jun 2027 09:28:22.914   04 Jun 2027 09:28:32.182             9.268          4634.000
       132   04 Jun 2027 09:29:34.559   04 Jun 2027 09:29:34.893             0.334           167.000
       133   04 Jun 2027 09:29:44.955   04 Jun 2027 09:29:49.401             4.446          2223.000
       134   04 Jun 2027 09:30:12.696   04 Jun 2027 09:30:16.994             4.298          2149.000
       135   04 Jun 2027 09:30:53.778   04 Jun 2027 09:31:07.396            13.618          6809.000
       136   04 Jun 2027 09:32:07.699   04 Jun 2027 09:32:11.933             4.234          2117.000
       137   04 Jun 2027 09:32:29.620   04 Jun 2027 09:32:30.979             1.359           679.500
       138   04 Jun 2027 09:32:41.523   04 Jun 2027 09:33:04.385            22.862         11431.000
       139   05 Jun 2027 03:11:55.124   05 Jun 2027 03:11:57.799             2.675          1337.500
       140   05 Jun 2027 03:12:09.816   05 Jun 2027 03:12:22.029            12.213          6106.500
       141   05 Jun 2027 03:13:49.656   05 Jun 2027 03:13:57.282             7.626          3813.000
       142   05 Jun 2027 03:14:32.249   05 Jun 2027 03:14:32.545             0.296           148.000
       143   05 Jun 2027 03:14:37.376   05 Jun 2027 03:14:44.866             7.490          3745.000
       144   05 Jun 2027 03:15:49.011   05 Jun 2027 03:16:00.590            11.579          5789.500
       145   05 Jun 2027 03:17:29.301   05 Jun 2027 03:17:33.459             4.158          2079.000
       146   05 Jun 2027 03:17:54.739   05 Jun 2027 03:18:01.272             6.533          3266.500
       147   05 Jun 2027 03:18:28.200   05 Jun 2027 03:18:30.543             2.343          1171.500
       148   05 Jun 2027 03:18:37.985   05 Jun 2027 03:18:37.985             0.000             0.000
       149   05 Jun 2027 03:18:40.530   05 Jun 2027 03:18:59.972            19.442          9721.000
       150   05 Jun 2027 03:20:05.072   05 Jun 2027 03:20:06.435             1.363           681.500
       151   05 Jun 2027 04:49:29.561   05 Jun 2027 04:49:49.808            20.247         10123.500
       152   05 Jun 2027 04:51:51.314   05 Jun 2027 04:51:55.557             4.243          2121.500
       153   05 Jun 2027 04:52:08.051   05 Jun 2027 04:52:15.851             7.800          3900.000
       154   05 Jun 2027 04:53:07.073   05 Jun 2027 04:53:13.945             6.872          3436.000
       155   05 Jun 2027 04:54:06.839   05 Jun 2027 04:54:25.668            18.829          9414.500
       156   05 Jun 2027 04:55:37.124   05 Jun 2027 04:55:39.507             2.383          1191.500
       157   05 Jun 2027 04:56:03.229   05 Jun 2027 04:56:12.144             8.915          4457.500
       158   05 Jun 2027 06:26:12.326   05 Jun 2027 06:26:12.704             0.378           189.000
       159   05 Jun 2027 06:26:33.256   05 Jun 2027 06:26:40.337             7.081          3540.500
       160   05 Jun 2027 06:27:09.020   05 Jun 2027 06:27:12.946             3.926          1963.000
       161   05 Jun 2027 06:27:35.654   05 Jun 2027 06:28:02.431            26.777         13388.500
       162   05 Jun 2027 06:29:52.351   05 Jun 2027 06:29:53.105             0.754           377.000
       163   05 Jun 2027 06:30:16.804   05 Jun 2027 06:30:17.807             1.003           501.500
       164   05 Jun 2027 06:30:57.632   05 Jun 2027 06:31:01.264             3.632          1816.000
       165   05 Jun 2027 06:31:11.431   05 Jun 2027 06:31:26.486            15.055          7527.500
       166   05 Jun 2027 06:32:48.475   05 Jun 2027 06:32:48.903             0.428           214.000
       167   05 Jun 2027 08:04:15.693   05 Jun 2027 08:04:22.486             6.793          3396.500
       168   05 Jun 2027 08:05:44.873   05 Jun 2027 08:05:49.116             4.243          2121.500
       169   05 Jun 2027 08:06:37.810   05 Jun 2027 08:06:39.718             1.908           954.000
       170   05 Jun 2027 08:06:51.258   05 Jun 2027 08:06:51.836             0.578           289.000
       171   05 Jun 2027 08:07:06.525   05 Jun 2027 08:07:10.979             4.454          2227.000
       172   05 Jun 2027 08:08:03.524   05 Jun 2027 08:08:15.171            11.647          5823.500
       173   05 Jun 2027 09:37:57.161   05 Jun 2027 09:38:17.315            20.154         10077.000
       174   05 Jun 2027 09:39:43.746   05 Jun 2027 09:39:46.594             2.848          1424.000
       175   05 Jun 2027 09:40:09.680   05 Jun 2027 09:40:21.890            12.210          6105.000
       176   05 Jun 2027 09:41:31.939   05 Jun 2027 09:41:36.522             4.583          2291.500
       177   05 Jun 2027 09:41:58.064   05 Jun 2027 09:42:10.542            12.478          6239.000
       178   05 Jun 2027 09:43:18.205   05 Jun 2027 09:43:20.274             2.069          1034.500
       179   05 Jun 2027 09:43:33.215   05 Jun 2027 09:43:44.576            11.361          5680.500
       180   05 Jun 2027 09:44:32.125   05 Jun 2027 09:44:34.258             2.133          1066.500
       181   06 Jun 2027 03:23:25.513   06 Jun 2027 03:23:26.623             1.110           555.000
       182   06 Jun 2027 03:23:55.057   06 Jun 2027 03:23:59.361             4.304          2152.000
       183   06 Jun 2027 03:24:43.884   06 Jun 2027 03:24:56.869            12.985          6492.500
       184   06 Jun 2027 03:25:35.592   06 Jun 2027 03:25:53.731            18.139          9069.500
       185   06 Jun 2027 03:27:07.275   06 Jun 2027 03:27:07.978             0.703           351.500
       186   06 Jun 2027 03:27:30.934   06 Jun 2027 03:27:36.417             5.483          2741.500
       187   06 Jun 2027 03:27:46.734   06 Jun 2027 03:27:54.167             7.433          3716.500
       188   06 Jun 2027 03:28:37.888   06 Jun 2027 03:28:39.916             2.028          1014.000
       189   06 Jun 2027 03:28:57.992   06 Jun 2027 03:28:58.650             0.658           329.000
       190   06 Jun 2027 03:29:03.747   06 Jun 2027 03:29:03.912             0.165            82.500
       191   06 Jun 2027 03:29:30.637   06 Jun 2027 03:29:30.922             0.285           142.500
       192   06 Jun 2027 03:29:35.782   06 Jun 2027 03:29:37.895             2.113          1056.500
       193   06 Jun 2027 03:30:19.136   06 Jun 2027 03:30:20.442             1.306           653.000
       194   06 Jun 2027 03:31:00.019   06 Jun 2027 03:31:02.937             2.918          1459.000
       195   06 Jun 2027 03:31:54.479   06 Jun 2027 03:31:55.752             1.273           636.500
       196   06 Jun 2027 03:32:03.231   06 Jun 2027 03:32:06.610             3.379          1689.500
       197   06 Jun 2027 05:01:23.780   06 Jun 2027 05:01:36.058            12.278          6139.000
       198   06 Jun 2027 05:02:42.552   06 Jun 2027 05:02:44.997             2.445          1222.500
       199   06 Jun 2027 05:03:25.553   06 Jun 2027 05:03:48.163            22.610         11305.000
       200   06 Jun 2027 05:05:23.312   06 Jun 2027 05:05:29.714             6.402          3201.000
       201   06 Jun 2027 05:05:58.821   06 Jun 2027 05:06:01.264             2.443          1221.500
       202   06 Jun 2027 05:06:06.704   06 Jun 2027 05:06:07.805             1.101           550.500
       203   06 Jun 2027 05:06:22.960   06 Jun 2027 05:06:25.222             2.262          1131.000
       204   06 Jun 2027 05:06:37.942   06 Jun 2027 05:06:44.590             6.648          3324.000
       205   06 Jun 2027 05:07:08.091   06 Jun 2027 05:07:14.359             6.268          3134.000
       206   06 Jun 2027 05:08:14.212   06 Jun 2027 05:08:17.039             2.827          1413.500
       207   06 Jun 2027 06:38:19.596   06 Jun 2027 06:38:26.200             6.604          3302.000
       208   06 Jun 2027 06:38:55.370   06 Jun 2027 06:39:21.063            25.693         12846.500
       209   06 Jun 2027 06:41:09.260   06 Jun 2027 06:41:16.911             7.651          3825.500
       210   06 Jun 2027 06:41:49.506   06 Jun 2027 06:41:50.898             1.392           696.000
       211   06 Jun 2027 06:41:58.455   06 Jun 2027 06:42:00.013             1.558           779.000
       212   06 Jun 2027 06:42:21.738   06 Jun 2027 06:42:22.757             1.019           509.500
       213   06 Jun 2027 06:43:24.055   06 Jun 2027 06:43:38.636            14.581          7290.500
       214   06 Jun 2027 08:16:01.495   06 Jun 2027 08:16:10.241             8.746          4373.000
       215   06 Jun 2027 08:17:50.523   06 Jun 2027 08:17:53.390             2.867          1433.500
       216   06 Jun 2027 08:18:32.487   06 Jun 2027 08:18:37.342             4.855          2427.500
       217   06 Jun 2027 08:19:00.619   06 Jun 2027 08:19:01.950             1.331           665.500
       218   06 Jun 2027 08:19:25.723   06 Jun 2027 08:19:27.517             1.794           897.000
       219   06 Jun 2027 08:19:58.324   06 Jun 2027 08:20:01.655             3.331          1665.500
       220   06 Jun 2027 09:50:17.211   06 Jun 2027 09:50:18.832             1.621           810.500
       221   06 Jun 2027 09:50:49.512   06 Jun 2027 09:51:00.365            10.853          5426.500
       222   06 Jun 2027 09:52:01.488   06 Jun 2027 09:52:14.271            12.783          6391.500
       223   06 Jun 2027 09:54:00.135   06 Jun 2027 09:54:28.203            28.068         14034.000
       224   07 Jun 2027 03:36:19.416   07 Jun 2027 03:36:37.445            18.029          9014.500
       225   07 Jun 2027 03:37:53.630   07 Jun 2027 03:38:00.171             6.541          3270.500
       226   07 Jun 2027 03:39:17.423   07 Jun 2027 03:39:18.428             1.005           502.500
       227   07 Jun 2027 03:39:41.440   07 Jun 2027 03:39:45.088             3.648          1824.000
       228   07 Jun 2027 03:39:57.903   07 Jun 2027 03:40:02.269             4.366          2183.000
       229   07 Jun 2027 03:40:22.266   07 Jun 2027 03:40:25.929             3.663          1831.500
       230   07 Jun 2027 03:40:41.670   07 Jun 2027 03:40:45.401             3.731          1865.500
       231   07 Jun 2027 03:41:10.984   07 Jun 2027 03:41:26.642            15.658          7829.000
       232   07 Jun 2027 03:42:36.833   07 Jun 2027 03:42:45.857             9.024          4512.000
       233   07 Jun 2027 03:43:40.347   07 Jun 2027 03:43:44.272             3.925          1962.500
       234   07 Jun 2027 03:43:57.899   07 Jun 2027 03:44:01.793             3.894          1947.000
       235   07 Jun 2027 05:13:45.116   07 Jun 2027 05:13:55.560            10.444          5222.000
       236   07 Jun 2027 05:14:41.344   07 Jun 2027 05:14:56.324            14.980          7490.000
       237   07 Jun 2027 05:16:21.293   07 Jun 2027 05:16:22.726             1.433           716.500
       238   07 Jun 2027 05:17:07.321   07 Jun 2027 05:17:10.460             3.139          1569.500
       239   07 Jun 2027 05:17:55.741   07 Jun 2027 05:18:15.954            20.213         10106.500
       240   07 Jun 2027 05:20:05.662   07 Jun 2027 05:20:16.252            10.590          5295.000
       241   07 Jun 2027 06:50:48.667   07 Jun 2027 06:50:54.585             5.918          2959.000
       242   07 Jun 2027 06:52:11.211   07 Jun 2027 06:52:11.253             0.042            21.000
       243   07 Jun 2027 06:52:22.431   07 Jun 2027 06:52:26.140             3.709          1854.500
       244   07 Jun 2027 06:52:56.713   07 Jun 2027 06:52:58.862             2.149          1074.500
       245   07 Jun 2027 06:53:21.536   07 Jun 2027 06:53:24.805             3.269          1634.500
       246   07 Jun 2027 06:53:50.849   07 Jun 2027 06:53:53.460             2.611          1305.500
       247   07 Jun 2027 06:54:07.708   07 Jun 2027 06:54:10.321             2.613          1306.500
       248   07 Jun 2027 06:54:23.120   07 Jun 2027 06:54:23.274             0.154            77.000
       249   07 Jun 2027 06:55:25.058   07 Jun 2027 06:55:36.727            11.669          5834.500
       250   07 Jun 2027 06:56:31.037   07 Jun 2027 06:56:37.874             6.837          3418.500
       251   07 Jun 2027 08:27:34.021   07 Jun 2027 08:27:34.111             0.090            45.000
       252   07 Jun 2027 08:27:47.561   07 Jun 2027 08:27:57.338             9.777          4888.500
       253   07 Jun 2027 08:29:15.169   07 Jun 2027 08:29:18.562             3.393          1696.500
       254   07 Jun 2027 08:29:36.096   07 Jun 2027 08:29:39.196             3.100          1550.000
       255   07 Jun 2027 08:29:55.020   07 Jun 2027 08:29:55.214             0.194            97.000
       256   07 Jun 2027 08:30:03.201   07 Jun 2027 08:30:15.953            12.752          6376.000
       257   07 Jun 2027 08:31:12.061   07 Jun 2027 08:31:14.418             2.357          1178.500
       258   07 Jun 2027 10:02:50.172   07 Jun 2027 10:02:53.497             3.325          1662.500
       259   07 Jun 2027 10:04:31.754   07 Jun 2027 10:04:32.230             0.476           238.000
       260   07 Jun 2027 10:04:53.287   07 Jun 2027 10:05:00.959             7.672          3836.000
       261   07 Jun 2027 10:05:39.473   07 Jun 2027 10:05:42.356             2.883          1441.500
       262   07 Jun 2027 10:06:12.007   07 Jun 2027 10:06:28.911            16.904          8452.000
       263   08 Jun 2027 03:48:54.767   08 Jun 2027 03:49:19.520            24.753         12376.500
       264   08 Jun 2027 03:51:08.439   08 Jun 2027 03:51:09.548             1.109           554.500
       265   08 Jun 2027 03:52:09.860   08 Jun 2027 03:52:10.915             1.055           527.500
       266   08 Jun 2027 03:52:18.917   08 Jun 2027 03:52:19.593             0.676           338.000
       267   08 Jun 2027 03:52:23.068   08 Jun 2027 03:52:30.385             7.317          3658.500
       268   08 Jun 2027 03:52:57.801   08 Jun 2027 03:52:59.175             1.374           687.000
       269   08 Jun 2027 03:53:09.036   08 Jun 2027 03:53:21.547            12.511          6255.500
       270   08 Jun 2027 03:54:02.382   08 Jun 2027 03:54:24.276            21.894         10947.000
       271   08 Jun 2027 03:55:57.966   08 Jun 2027 03:56:02.696             4.730          2365.000
       272   08 Jun 2027 03:56:35.600   08 Jun 2027 03:56:41.832             6.232          3116.000
       273   08 Jun 2027 05:25:57.719   08 Jun 2027 05:26:11.481            13.762          6881.000
       274   08 Jun 2027 05:27:08.177   08 Jun 2027 05:27:39.970            31.793         15896.500
       275   08 Jun 2027 05:29:46.540   08 Jun 2027 05:30:03.865            17.325          8662.500
       276   08 Jun 2027 05:31:03.114   08 Jun 2027 05:31:03.114             0.000             0.000
       277   08 Jun 2027 05:31:42.939   08 Jun 2027 05:31:53.749            10.810          5405.000
       278   08 Jun 2027 07:02:54.716   08 Jun 2027 07:03:06.011            11.295          5647.500
       279   08 Jun 2027 07:04:07.128   08 Jun 2027 07:04:07.507             0.379           189.500
       280   08 Jun 2027 07:05:14.138   08 Jun 2027 07:05:15.937             1.799           899.500
       281   08 Jun 2027 07:06:22.603   08 Jun 2027 07:06:25.242             2.639          1319.500
       282   08 Jun 2027 07:07:18.945   08 Jun 2027 07:07:19.360             0.415           207.500
       283   08 Jun 2027 07:07:20.327   08 Jun 2027 07:07:29.918             9.591          4795.500
       284   08 Jun 2027 08:39:40.381   08 Jun 2027 08:39:42.426             2.045          1022.500
       285   08 Jun 2027 08:40:07.683   08 Jun 2027 08:40:08.317             0.634           317.000
       286   08 Jun 2027 08:40:18.251   08 Jun 2027 08:40:28.602            10.351          5175.500
       287   08 Jun 2027 08:41:26.632   08 Jun 2027 08:41:31.890             5.258          2629.000
       288   08 Jun 2027 08:42:42.433   08 Jun 2027 08:42:45.015             2.582          1291.000
       289   08 Jun 2027 08:43:43.516   08 Jun 2027 08:43:43.591             0.075            37.500
       290   08 Jun 2027 08:44:08.967   08 Jun 2027 08:44:14.273             5.306          2653.000
       291   08 Jun 2027 10:17:54.348   08 Jun 2027 10:17:54.856             0.508           254.000
       292   08 Jun 2027 10:18:46.947   08 Jun 2027 10:18:47.746             0.799           399.500
       293   09 Jun 2027 04:02:06.270   09 Jun 2027 04:02:13.620             7.350          3675.000
       294   09 Jun 2027 04:02:44.739   09 Jun 2027 04:02:48.499             3.760          1880.000
       295   09 Jun 2027 04:03:13.347   09 Jun 2027 04:03:28.214            14.867          7433.500
       296   09 Jun 2027 04:04:37.753   09 Jun 2027 04:04:44.668             6.915          3457.500
       297   09 Jun 2027 04:04:47.731   09 Jun 2027 04:04:49.828             2.097          1048.500
       298   09 Jun 2027 04:05:32.048   09 Jun 2027 04:05:32.956             0.908           454.000
       299   09 Jun 2027 04:06:30.809   09 Jun 2027 04:06:41.137            10.328          5164.000
       300   09 Jun 2027 04:07:28.716   09 Jun 2027 04:07:31.000             2.284          1142.000
       301   09 Jun 2027 04:08:04.575   09 Jun 2027 04:08:09.131             4.556          2278.000
       302   09 Jun 2027 04:08:35.864   09 Jun 2027 04:08:39.249             3.385          1692.500
       303   09 Jun 2027 05:38:28.393   09 Jun 2027 05:38:31.937             3.544          1772.000
       304   09 Jun 2027 05:39:00.876   09 Jun 2027 05:39:14.226            13.350          6675.000
       305   09 Jun 2027 05:40:09.784   09 Jun 2027 05:40:18.801             9.017          4508.500
       306   09 Jun 2027 05:41:06.390   09 Jun 2027 05:41:13.789             7.399          3699.500
       307   09 Jun 2027 05:41:55.759   09 Jun 2027 05:41:58.861             3.102          1551.000
       308   09 Jun 2027 05:43:03.293   09 Jun 2027 05:43:04.650             1.357           678.500
       309   09 Jun 2027 05:43:41.422   09 Jun 2027 05:43:41.556             0.134            67.000
       310   09 Jun 2027 05:43:43.872   09 Jun 2027 05:43:47.204             3.332          1666.000
       311   09 Jun 2027 05:44:03.767   09 Jun 2027 05:44:06.663             2.896          1448.000
       312   09 Jun 2027 07:15:56.136   09 Jun 2027 07:15:57.167             1.031           515.500
       313   09 Jun 2027 07:16:28.951   09 Jun 2027 07:16:39.272            10.321          5160.500
       314   09 Jun 2027 07:18:27.774   09 Jun 2027 07:18:39.214            11.440          5720.000
       315   09 Jun 2027 07:19:36.497   09 Jun 2027 07:19:45.569             9.072          4536.000
       316   09 Jun 2027 07:19:52.891   09 Jun 2027 07:19:55.808             2.917          1458.500
       317   09 Jun 2027 08:52:03.007   09 Jun 2027 08:52:08.243             5.236          2618.000
       318   09 Jun 2027 08:53:20.458   09 Jun 2027 08:53:26.134             5.676          2838.000
       319   09 Jun 2027 08:53:50.027   09 Jun 2027 08:53:56.340             6.313          3156.500
       320   09 Jun 2027 08:54:43.387   09 Jun 2027 08:54:43.440             0.053            26.500
       321   09 Jun 2027 08:55:24.060   09 Jun 2027 08:55:28.910             4.850          2425.000
       322   09 Jun 2027 08:55:53.624   09 Jun 2027 08:55:56.304             2.680          1340.000
       323   09 Jun 2027 08:56:10.103   09 Jun 2027 08:56:10.461             0.358           179.000
       324   10 Jun 2027 04:14:14.810   10 Jun 2027 04:14:18.367             3.557          1778.500
       325   10 Jun 2027 04:14:34.544   10 Jun 2027 04:14:46.663            12.119          6059.500
       326   10 Jun 2027 04:15:42.148   10 Jun 2027 04:15:46.954             4.806          2403.000
       327   10 Jun 2027 04:16:08.099   10 Jun 2027 04:16:21.603            13.504          6752.000
       328   10 Jun 2027 04:17:29.674   10 Jun 2027 04:17:33.777             4.103          2051.500
       329   10 Jun 2027 04:18:02.832   10 Jun 2027 04:18:19.890            17.058          8529.000
       330   10 Jun 2027 04:19:39.424   10 Jun 2027 04:19:46.975             7.551          3775.500
       331   10 Jun 2027 04:20:17.150   10 Jun 2027 04:20:23.034             5.884          2942.000
       332   10 Jun 2027 05:50:13.256   10 Jun 2027 05:50:18.269             5.013          2506.500
       333   10 Jun 2027 05:51:06.567   10 Jun 2027 05:51:10.756             4.189          2094.500
       334   10 Jun 2027 05:51:47.367   10 Jun 2027 05:51:52.751             5.384          2692.000
       335   10 Jun 2027 05:51:54.216   10 Jun 2027 05:51:58.531             4.315          2157.500
       336   10 Jun 2027 05:52:39.017   10 Jun 2027 05:52:42.443             3.426          1713.000
       337   10 Jun 2027 05:53:23.564   10 Jun 2027 05:53:34.689            11.125          5562.500
       338   10 Jun 2027 05:54:09.130   10 Jun 2027 05:54:09.443             0.313           156.500
       339   10 Jun 2027 05:54:30.270   10 Jun 2027 05:54:39.635             9.365          4682.500
       340   10 Jun 2027 05:55:53.890   10 Jun 2027 05:55:55.225             1.335           667.500
       341   10 Jun 2027 05:56:03.629   10 Jun 2027 05:56:06.124             2.495          1247.500
       342   10 Jun 2027 07:28:02.600   10 Jun 2027 07:28:04.675             2.075          1037.500
       343   10 Jun 2027 07:28:35.590   10 Jun 2027 07:28:43.481             7.891          3945.500
       344   10 Jun 2027 07:29:35.563   10 Jun 2027 07:29:42.559             6.996          3498.000
       345   10 Jun 2027 07:30:36.695   10 Jun 2027 07:30:37.983             1.288           644.000
       346   10 Jun 2027 07:30:53.592   10 Jun 2027 07:31:01.541             7.949          3974.500
       347   10 Jun 2027 07:31:48.098   10 Jun 2027 07:31:55.057             6.959          3479.500
       348   10 Jun 2027 07:32:27.680   10 Jun 2027 07:32:29.349             1.669           834.500
       349   10 Jun 2027 09:04:04.494   10 Jun 2027 09:04:17.110            12.616          6308.000
       350   10 Jun 2027 09:05:13.195   10 Jun 2027 09:05:15.112             1.917           958.500
       351   10 Jun 2027 09:05:45.953   10 Jun 2027 09:05:46.367             0.414           207.000
       352   10 Jun 2027 09:05:51.765   10 Jun 2027 09:05:57.246             5.481          2740.500
       353   10 Jun 2027 09:06:34.742   10 Jun 2027 09:06:38.259             3.517          1758.500
       354   10 Jun 2027 09:07:30.362   10 Jun 2027 09:07:37.422             7.060          3530.000
       355   10 Jun 2027 09:08:14.420   10 Jun 2027 09:08:15.499             1.079           539.500
       356   10 Jun 2027 09:08:19.599   10 Jun 2027 09:08:27.518             7.919          3959.500
       357   11 Jun 2027 04:25:37.742   11 Jun 2027 04:26:11.443            33.701         16850.500
       358   11 Jun 2027 04:27:33.166   11 Jun 2027 04:27:41.854             8.688          4344.000
       359   11 Jun 2027 04:29:34.187   11 Jun 2027 04:29:41.246             7.059          3529.500
       360   11 Jun 2027 04:30:18.995   11 Jun 2027 04:30:33.060            14.065          7032.500
       361   11 Jun 2027 04:31:43.186   11 Jun 2027 04:32:06.641            23.455         11727.500
       362   11 Jun 2027 06:02:15.500   11 Jun 2027 06:02:17.447             1.947           973.500
       363   11 Jun 2027 06:03:28.553   11 Jun 2027 06:03:40.903            12.350          6175.000
       364   11 Jun 2027 06:04:51.171   11 Jun 2027 06:05:03.039            11.868          5934.000
       365   11 Jun 2027 06:05:56.515   11 Jun 2027 06:05:56.970             0.455           227.500
       366   11 Jun 2027 06:06:01.846   11 Jun 2027 06:06:05.304             3.458          1729.000
       367   11 Jun 2027 06:06:19.717   11 Jun 2027 06:06:27.868             8.151          4075.500
       368   11 Jun 2027 06:07:21.195   11 Jun 2027 06:07:27.622             6.427          3213.500
       369   11 Jun 2027 06:07:31.423   11 Jun 2027 06:07:36.771             5.348          2674.000
       370   11 Jun 2027 07:40:33.397   11 Jun 2027 07:40:43.237             9.840          4920.000
       371   11 Jun 2027 07:41:56.617   11 Jun 2027 07:42:03.263             6.646          3323.000
       372   11 Jun 2027 07:42:33.300   11 Jun 2027 07:42:35.794             2.494          1247.000
       373   11 Jun 2027 07:43:05.782   11 Jun 2027 07:43:13.828             8.046          4023.000
       374   11 Jun 2027 07:43:47.038   11 Jun 2027 07:43:47.723             0.685           342.500
       375   11 Jun 2027 07:43:50.478   11 Jun 2027 07:44:00.638            10.160          5080.000
       376   11 Jun 2027 09:13:52.522   11 Jun 2027 09:14:13.171            20.649         10324.500
       377   11 Jun 2027 09:15:52.481   11 Jun 2027 09:16:04.053            11.572          5786.000
       378   11 Jun 2027 09:17:08.271   11 Jun 2027 09:17:09.993             1.722           861.000
       379   11 Jun 2027 09:17:42.521   11 Jun 2027 09:17:43.015             0.494           247.000
       380   11 Jun 2027 09:18:29.374   11 Jun 2027 09:18:33.741             4.367          2183.500
       381   11 Jun 2027 09:19:28.614   11 Jun 2027 09:19:31.961             3.347          1673.500
       382   11 Jun 2027 09:19:50.838   11 Jun 2027 09:19:51.501             0.663           331.500
       383   11 Jun 2027 09:20:03.635   11 Jun 2027 09:20:05.820             2.185          1092.500
       384   11 Jun 2027 09:20:25.877   11 Jun 2027 09:20:27.617             1.740           870.000
       385   11 Jun 2027 09:20:51.400   11 Jun 2027 09:20:53.430             2.030          1015.000
       386   11 Jun 2027 09:21:02.727   11 Jun 2027 09:21:03.237             0.510           255.000
       387   12 Jun 2027 03:00:49.247   12 Jun 2027 03:00:57.536             8.289          4144.500
       388   12 Jun 2027 03:01:46.184   12 Jun 2027 03:01:48.377             2.193          1096.500
       389   12 Jun 2027 03:02:31.889   12 Jun 2027 03:02:37.866             5.977          2988.500
       390   12 Jun 2027 03:03:13.456   12 Jun 2027 03:03:15.660             2.204          1102.000
       391   12 Jun 2027 03:03:39.863   12 Jun 2027 03:03:44.215             4.352          2176.000
       392   12 Jun 2027 03:04:13.314   12 Jun 2027 03:04:24.817            11.503          5751.500
       393   12 Jun 2027 03:05:28.277   12 Jun 2027 03:05:36.288             8.011          4005.500
       394   12 Jun 2027 03:07:18.440   12 Jun 2027 03:07:19.507             1.067           533.500
       395   12 Jun 2027 04:37:33.656   12 Jun 2027 04:37:42.013             8.357          4178.500
       396   12 Jun 2027 04:38:35.176   12 Jun 2027 04:38:45.440            10.264          5132.000
       397   12 Jun 2027 04:39:27.854   12 Jun 2027 04:39:28.687             0.833           416.500
       398   12 Jun 2027 04:39:44.929   12 Jun 2027 04:39:49.402             4.473          2236.500
       399   12 Jun 2027 04:40:08.929   12 Jun 2027 04:40:18.585             9.656          4828.000
       400   12 Jun 2027 04:41:16.067   12 Jun 2027 04:41:19.367             3.300          1650.000
       401   12 Jun 2027 04:41:43.028   12 Jun 2027 04:41:47.103             4.075          2037.500
       402   12 Jun 2027 04:41:55.760   12 Jun 2027 04:41:57.273             1.513           756.500
       403   12 Jun 2027 04:42:14.874   12 Jun 2027 04:42:21.614             6.740          3370.000
       404   12 Jun 2027 04:44:47.083   12 Jun 2027 04:44:49.607             2.524          1262.000
       405   12 Jun 2027 04:45:01.667   12 Jun 2027 04:45:02.157             0.490           245.000
       406   12 Jun 2027 06:14:36.355   12 Jun 2027 06:14:38.709             2.354          1177.000
       407   12 Jun 2027 06:15:25.176   12 Jun 2027 06:15:25.902             0.726           363.000
       408   12 Jun 2027 06:15:35.394   12 Jun 2027 06:15:35.760             0.366           183.000
       409   12 Jun 2027 06:15:56.459   12 Jun 2027 06:16:15.500            19.041          9520.500
       410   12 Jun 2027 06:17:58.221   12 Jun 2027 06:18:05.461             7.240          3620.000
       411   12 Jun 2027 06:18:55.880   12 Jun 2027 06:18:57.336             1.456           728.000
       412   12 Jun 2027 06:19:17.873   12 Jun 2027 06:19:21.263             3.390          1695.000
       413   12 Jun 2027 06:19:54.191   12 Jun 2027 06:19:56.687             2.496          1248.000
       414   12 Jun 2027 06:20:30.500   12 Jun 2027 06:20:45.809            15.309          7654.500
       415   12 Jun 2027 07:52:30.434   12 Jun 2027 07:52:35.622             5.188          2594.000
       416   12 Jun 2027 07:53:15.319   12 Jun 2027 07:53:23.997             8.678          4339.000
       417   12 Jun 2027 07:54:00.880   12 Jun 2027 07:54:05.410             4.530          2265.000
       418   12 Jun 2027 07:54:17.484   12 Jun 2027 07:54:22.904             5.420          2710.000
       419   12 Jun 2027 07:55:56.133   12 Jun 2027 07:55:58.635             2.502          1251.000
       420   12 Jun 2027 07:56:18.309   12 Jun 2027 07:56:20.356             2.047          1023.500
       421   12 Jun 2027 09:25:44.630   12 Jun 2027 09:26:11.322            26.692         13346.000
       422   12 Jun 2027 09:28:37.363   12 Jun 2027 09:28:46.658             9.295          4647.500
       423   12 Jun 2027 09:29:50.220   12 Jun 2027 09:29:53.640             3.420          1710.000
       424   12 Jun 2027 09:30:38.750   12 Jun 2027 09:30:40.543             1.793           896.500
       425   12 Jun 2027 09:31:08.491   12 Jun 2027 09:31:23.602            15.111          7555.500
       426   12 Jun 2027 09:32:40.804   12 Jun 2027 09:32:46.369             5.565          2782.500
       427   12 Jun 2027 09:33:22.931   12 Jun 2027 09:33:24.446             1.515           757.500
       428   13 Jun 2027 03:12:09.485   13 Jun 2027 03:12:12.787             3.302          1651.000
       429   13 Jun 2027 03:12:41.793   13 Jun 2027 03:12:49.756             7.963          3981.500
       430   13 Jun 2027 03:13:14.589   13 Jun 2027 03:13:14.589             0.000             0.000
       431   13 Jun 2027 03:13:27.366   13 Jun 2027 03:13:49.397            22.031         11015.500
       432   13 Jun 2027 03:15:21.776   13 Jun 2027 03:15:22.170             0.394           197.000
       433   13 Jun 2027 03:15:52.261   13 Jun 2027 03:15:56.102             3.841          1920.500
       434   13 Jun 2027 03:16:24.591   13 Jun 2027 03:16:31.225             6.634          3317.000
       435   13 Jun 2027 03:17:24.037   13 Jun 2027 03:17:33.492             9.455          4727.500
       436   13 Jun 2027 03:19:18.688   13 Jun 2027 03:19:20.814             2.126          1063.000
       437   13 Jun 2027 03:20:16.448   13 Jun 2027 03:20:17.527             1.079           539.500
       438   13 Jun 2027 03:20:26.581   13 Jun 2027 03:20:29.674             3.093          1546.500
       439   13 Jun 2027 04:49:43.876   13 Jun 2027 04:49:49.318             5.442          2721.000
       440   13 Jun 2027 04:50:51.985   13 Jun 2027 04:50:54.419             2.434          1217.000
       441   13 Jun 2027 04:51:07.290   13 Jun 2027 04:51:08.214             0.924           462.000
       442   13 Jun 2027 04:51:23.564   13 Jun 2027 04:51:38.615            15.051          7525.500
       443   13 Jun 2027 04:52:43.470   13 Jun 2027 04:52:44.812             1.342           671.000
       444   13 Jun 2027 04:52:55.906   13 Jun 2027 04:53:03.485             7.579          3789.500
       445   13 Jun 2027 04:53:46.296   13 Jun 2027 04:53:46.807             0.511           255.500
       446   13 Jun 2027 04:53:51.872   13 Jun 2027 04:53:53.080             1.208           604.000
       447   13 Jun 2027 04:54:11.836   13 Jun 2027 04:54:21.058             9.222          4611.000
       448   13 Jun 2027 04:55:01.658   13 Jun 2027 04:55:10.632             8.974          4487.000
       449   13 Jun 2027 04:55:51.471   13 Jun 2027 04:55:54.019             2.548          1274.000
       450   13 Jun 2027 04:56:22.823   13 Jun 2027 04:56:29.163             6.340          3170.000
       451   13 Jun 2027 06:26:26.647   13 Jun 2027 06:26:27.274             0.627           313.500
       452   13 Jun 2027 06:26:47.497   13 Jun 2027 06:26:55.568             8.071          4035.500
       453   13 Jun 2027 06:28:29.408   13 Jun 2027 06:28:57.284            27.876         13938.000
       454   13 Jun 2027 06:31:12.980   13 Jun 2027 06:31:15.908             2.928          1464.000
       455   13 Jun 2027 06:31:28.410   13 Jun 2027 06:31:41.797            13.387          6693.500
       456   13 Jun 2027 06:33:04.348   13 Jun 2027 06:33:05.478             1.130           565.000
       457   13 Jun 2027 08:04:30.462   13 Jun 2027 08:04:30.836             0.374           187.000
       458   13 Jun 2027 08:04:52.256   13 Jun 2027 08:05:01.687             9.431          4715.500
       459   13 Jun 2027 08:05:58.196   13 Jun 2027 08:06:03.267             5.071          2535.500
       460   13 Jun 2027 08:06:49.376   13 Jun 2027 08:06:52.563             3.187          1593.500
       461   13 Jun 2027 08:07:14.919   13 Jun 2027 08:07:15.407             0.488           244.000
       462   13 Jun 2027 08:07:26.895   13 Jun 2027 08:07:27.771             0.876           438.000
       463   13 Jun 2027 08:07:40.358   13 Jun 2027 08:07:49.807             9.449          4724.500
       464   13 Jun 2027 08:08:30.129   13 Jun 2027 08:08:39.702             9.573          4786.500
       465   13 Jun 2027 09:38:12.500   13 Jun 2027 09:38:31.977            19.477          9738.500
       466   13 Jun 2027 09:39:57.843   13 Jun 2027 09:40:01.431             3.588          1794.000
       467   13 Jun 2027 09:40:23.940   13 Jun 2027 09:40:36.398            12.458          6229.000
       468   13 Jun 2027 09:41:44.565   13 Jun 2027 09:41:51.380             6.815          3407.500
       469   13 Jun 2027 09:42:42.402   13 Jun 2027 09:42:53.898            11.496          5748.000
       470   13 Jun 2027 09:44:08.380   13 Jun 2027 09:44:15.026             6.646          3323.000
