uniorb/output/strategy_2/Camera/Camera_KinoSat_111107.txt

KinoSat_111107
-------------------------
    Access    *     Start Time (UTCG)     *     Stop Time (UTCG)  *   Duration (s) *   Data (Mbytes)
         1   01 Jun 2027 03:16:31.469   01 Jun 2027 03:17:02.638            31.169         15584.500
         2   01 Jun 2027 03:17:37.927   01 Jun 2027 03:17:47.456             9.529          4764.500
         3   01 Jun 2027 03:17:52.818   01 Jun 2027 03:20:22.827           150.009         75004.500
         4   01 Jun 2027 04:39:53.125   01 Jun 2027 04:40:40.623            47.498         23749.000
         5   01 Jun 2027 04:41:37.131   01 Jun 2027 04:41:41.809             4.678          2339.000
         6   01 Jun 2027 04:42:44.381   01 Jun 2027 04:42:44.381             0.000             0.000
         7   01 Jun 2027 04:42:54.243   01 Jun 2027 04:43:01.981             7.738          3869.000
         8   01 Jun 2027 06:16:25.909   01 Jun 2027 06:16:30.910             5.001          2500.500
         9   01 Jun 2027 06:16:39.829   01 Jun 2027 06:19:20.342           160.513         80256.500
        10   01 Jun 2027 06:19:46.890   01 Jun 2027 06:19:54.458             7.568          3784.000
        11   01 Jun 2027 07:51:36.379   01 Jun 2027 07:54:06.698           150.319         75159.500
        12   01 Jun 2027 07:56:00.622   01 Jun 2027 07:56:15.169            14.547          7273.500
        13   01 Jun 2027 07:56:42.065   01 Jun 2027 07:56:42.725             0.660           330.000
        14   01 Jun 2027 07:58:00.238   01 Jun 2027 07:58:12.243            12.005          6002.500
        15   01 Jun 2027 09:27:58.174   01 Jun 2027 09:30:11.848           133.674         66837.000
        16   01 Jun 2027 09:30:31.285   01 Jun 2027 09:30:52.332            21.047         10523.500
        17   01 Jun 2027 11:05:16.158   01 Jun 2027 11:06:47.803            91.645         45822.500
        18   01 Jun 2027 11:07:16.241   01 Jun 2027 11:07:23.878             7.637          3818.500
        19   01 Jun 2027 11:08:20.758   01 Jun 2027 11:08:35.497            14.739          7369.500
        20   01 Jun 2027 11:09:27.529   01 Jun 2027 11:09:36.818             9.289          4644.500
        21   02 Jun 2027 03:28:28.161   02 Jun 2027 03:29:07.142            38.981         19490.500
        22   02 Jun 2027 03:29:29.590   02 Jun 2027 03:31:28.247           118.657         59328.500
        23   02 Jun 2027 03:31:44.383   02 Jun 2027 03:32:01.005            16.622          8311.000
        24   02 Jun 2027 04:52:22.705   02 Jun 2027 04:52:58.931            36.226         18113.000
        25   02 Jun 2027 04:53:28.884   02 Jun 2027 04:53:45.871            16.987          8493.500
        26   02 Jun 2027 06:28:17.569   02 Jun 2027 06:28:44.515            26.946         13473.000
        27   02 Jun 2027 06:29:05.756   02 Jun 2027 06:29:24.775            19.019          9509.500
        28   02 Jun 2027 06:30:32.799   02 Jun 2027 06:32:21.287           108.488         54244.000
        29   02 Jun 2027 08:03:11.845   02 Jun 2027 08:05:51.147           159.302         79651.000
        30   02 Jun 2027 08:09:51.089   02 Jun 2027 08:10:07.719            16.630          7833.313
        31   02 Jun 2027 08:10:17.020   02 Jun 2027 08:10:20.251             3.231           139.312
        32   02 Jun 2027 09:39:33.566   02 Jun 2027 09:39:56.818            23.252         10180.344
        33   02 Jun 2027 09:40:36.714   02 Jun 2027 09:40:37.881             1.167           270.062
        34   02 Jun 2027 09:41:33.605   02 Jun 2027 09:41:39.921             6.316          1741.375
        35   02 Jun 2027 09:41:58.785   02 Jun 2027 09:42:00.932             2.147           490.000
        36   02 Jun 2027 09:42:16.209   02 Jun 2027 09:42:17.851             1.642           477.406
        37   02 Jun 2027 09:42:55.647   02 Jun 2027 09:43:02.381             6.734           966.063
        38   02 Jun 2027 09:44:38.004   02 Jun 2027 09:44:44.038             6.034          2988.219
        39   02 Jun 2027 09:45:02.711   02 Jun 2027 09:45:04.386             1.675           583.531
        40   02 Jun 2027 11:17:50.478   02 Jun 2027 11:18:06.666            16.188          7774.812
        41   02 Jun 2027 11:19:32.933   02 Jun 2027 11:19:38.412             5.479          2533.781
        42   02 Jun 2027 11:19:57.815   02 Jun 2027 11:19:59.713             1.898           606.344
        43   02 Jun 2027 11:20:04.350   02 Jun 2027 11:20:05.325             0.975           111.812
        44   02 Jun 2027 11:21:03.460   02 Jun 2027 11:21:09.413             5.953          1816.719
        45   02 Jun 2027 11:21:28.848   02 Jun 2027 11:21:35.809             6.961           607.344
        46   02 Jun 2027 11:21:37.572   02 Jun 2027 11:21:38.472             0.900            55.094
        47   02 Jun 2027 11:21:42.159   02 Jun 2027 11:21:42.352             0.193            96.500
        48   03 Jun 2027 03:29:08.387   03 Jun 2027 03:30:06.010            57.623         28811.500
        49   03 Jun 2027 03:40:24.246   03 Jun 2027 03:42:04.989           100.743         50371.500
        50   03 Jun 2027 03:43:01.855   03 Jun 2027 03:43:31.772            29.917         14958.500
        51   03 Jun 2027 05:03:00.206   03 Jun 2027 05:04:08.119            67.913         33956.500
        52   03 Jun 2027 05:07:10.748   03 Jun 2027 05:07:10.748             0.000             0.000
        53   03 Jun 2027 06:38:34.879   03 Jun 2027 06:39:18.206            43.327         21663.500
        54   03 Jun 2027 06:40:01.344   03 Jun 2027 06:40:13.976            12.632          5742.718
        55   03 Jun 2027 06:41:25.534   03 Jun 2027 06:41:25.534             0.000             0.000
        56   03 Jun 2027 06:41:31.796   03 Jun 2027 06:41:37.908             6.112          2431.875
        57   03 Jun 2027 06:42:11.004   03 Jun 2027 06:42:11.004             0.000             0.000
        58   03 Jun 2027 06:42:49.498   03 Jun 2027 06:42:55.724             6.226          2237.188
        59   03 Jun 2027 06:43:36.338   03 Jun 2027 06:43:40.629             4.291          1245.438
        60   03 Jun 2027 06:44:19.807   03 Jun 2027 06:44:29.053             9.246          1043.687
        61   03 Jun 2027 08:14:47.323   03 Jun 2027 08:14:56.727             9.404          4277.281
        62   03 Jun 2027 08:15:49.492   03 Jun 2027 08:16:02.310            12.818           935.375
        63   03 Jun 2027 08:16:15.386   03 Jun 2027 08:16:17.332             1.946           269.687
        64   03 Jun 2027 08:16:44.600   03 Jun 2027 08:16:50.396             5.796           703.063
        65   03 Jun 2027 08:17:09.889   03 Jun 2027 08:17:13.768             3.879           592.000
        66   03 Jun 2027 08:17:54.302   03 Jun 2027 08:17:57.221             2.919           833.844
        67   03 Jun 2027 08:19:40.753   03 Jun 2027 08:19:47.644             6.891          2890.813
        68   03 Jun 2027 08:19:56.698   03 Jun 2027 08:19:57.835             1.137           282.938
        69   03 Jun 2027 08:20:11.756   03 Jun 2027 08:20:13.208             1.452           435.031
        70   03 Jun 2027 08:20:48.816   03 Jun 2027 08:20:52.729             3.913           991.750
        71   03 Jun 2027 08:21:06.690   03 Jun 2027 08:21:08.947             2.257           436.281
        72   03 Jun 2027 08:21:18.829   03 Jun 2027 08:21:19.624             0.795           150.906
        73   03 Jun 2027 08:21:43.780   03 Jun 2027 08:21:47.966             4.186           633.156
        74   03 Jun 2027 08:22:21.735   03 Jun 2027 08:22:21.926             0.191            95.500
        75   03 Jun 2027 09:51:53.702   03 Jun 2027 09:52:12.079            18.377          8358.906
        76   03 Jun 2027 09:52:43.525   03 Jun 2027 09:52:46.295             2.770           627.375
        77   03 Jun 2027 09:54:26.061   03 Jun 2027 09:54:31.255             5.194          1641.750
        78   03 Jun 2027 09:55:32.854   03 Jun 2027 09:55:39.986             7.132          1923.469
        79   03 Jun 2027 09:56:07.793   03 Jun 2027 09:56:09.230             1.437           718.500
        80   03 Jun 2027 09:56:46.464   03 Jun 2027 09:56:49.016             2.552          1245.625
        81   03 Jun 2027 09:58:14.514   03 Jun 2027 09:58:15.907             1.393           696.500
        82   03 Jun 2027 11:29:51.742   03 Jun 2027 11:30:04.958            13.216          6608.000
        83   03 Jun 2027 11:30:07.675   03 Jun 2027 11:30:08.354             0.679           339.500
        84   03 Jun 2027 11:30:15.415   03 Jun 2027 11:30:16.596             1.181           507.594
        85   03 Jun 2027 11:30:46.068   03 Jun 2027 11:30:51.571             5.503           921.000
        86   03 Jun 2027 11:31:58.579   03 Jun 2027 11:32:00.424             1.845           829.813
        87   03 Jun 2027 11:32:03.792   03 Jun 2027 11:32:04.079             0.287            70.500
        88   03 Jun 2027 11:32:22.753   03 Jun 2027 11:32:22.753             0.000             0.000
        89   03 Jun 2027 11:32:40.062   03 Jun 2027 11:32:42.172             2.110          1055.000
        90   03 Jun 2027 11:33:41.875   03 Jun 2027 11:33:46.368             4.493          1935.188
        91   04 Jun 2027 03:40:43.244   04 Jun 2027 03:41:01.434            18.190          9095.000
        92   04 Jun 2027 03:41:52.366   04 Jun 2027 03:42:02.163             9.797          4898.500
        93   04 Jun 2027 03:52:26.787   04 Jun 2027 03:53:33.798            67.011         33505.500
        94   04 Jun 2027 05:14:42.159   04 Jun 2027 05:15:48.887            66.728         33364.000
        95   04 Jun 2027 05:16:39.427   04 Jun 2027 05:17:51.359            71.932         35966.000
        96   04 Jun 2027 05:18:52.606   04 Jun 2027 05:18:52.606             0.000             0.000
        97   04 Jun 2027 05:19:00.769   04 Jun 2027 05:19:13.159            12.390          6195.000
        98   04 Jun 2027 06:49:41.681   04 Jun 2027 06:50:44.838            63.157         30560.157
        99   04 Jun 2027 06:51:04.181   04 Jun 2027 06:51:06.637             2.456           381.531
       100   04 Jun 2027 06:51:45.338   04 Jun 2027 06:51:45.338             0.000             0.000
       101   04 Jun 2027 06:52:05.669   04 Jun 2027 06:52:14.973             9.304          1675.531
       102   04 Jun 2027 06:53:26.166   04 Jun 2027 06:53:33.538             7.372          2060.719
       103   04 Jun 2027 06:54:48.101   04 Jun 2027 06:54:55.761             7.660          2330.094
       104   04 Jun 2027 06:56:01.275   04 Jun 2027 06:56:05.546             4.271          1652.344
       105   04 Jun 2027 06:56:14.948   04 Jun 2027 06:56:18.904             3.956           184.656
       106   04 Jun 2027 06:57:38.437   04 Jun 2027 06:57:40.255             1.818           909.000
       107   04 Jun 2027 08:27:07.311   04 Jun 2027 08:27:16.621             9.310          4417.156
       108   04 Jun 2027 08:27:51.701   04 Jun 2027 08:27:56.752             5.051           920.906
       109   04 Jun 2027 08:28:05.284   04 Jun 2027 08:28:08.007             2.723           189.938
       110   04 Jun 2027 08:28:18.197   04 Jun 2027 08:28:20.752             2.555           318.438
       111   04 Jun 2027 08:30:05.926   04 Jun 2027 08:30:12.153             6.227          2472.656
       112   04 Jun 2027 08:30:36.133   04 Jun 2027 08:30:41.599             5.466           325.719
       113   04 Jun 2027 08:31:05.762   04 Jun 2027 08:31:09.315             3.553           732.719
       114   04 Jun 2027 08:31:56.608   04 Jun 2027 08:31:59.796             3.188          1477.906
       115   04 Jun 2027 08:32:45.417   04 Jun 2027 08:32:48.452             3.035          1230.375
       116   04 Jun 2027 08:32:59.656   04 Jun 2027 08:33:03.285             3.629           121.125
       117   04 Jun 2027 10:03:54.471   04 Jun 2027 10:04:15.870            21.399          8197.969
       118   04 Jun 2027 10:04:47.138   04 Jun 2027 10:04:50.309             3.171           965.594
       119   04 Jun 2027 10:05:09.579   04 Jun 2027 10:05:10.727             1.148           287.781
       120   04 Jun 2027 10:05:28.024   04 Jun 2027 10:05:29.061             1.037           186.594
       121   04 Jun 2027 10:06:16.010   04 Jun 2027 10:06:17.145             1.135           561.219
       122   04 Jun 2027 10:06:47.233   04 Jun 2027 10:06:49.946             2.713           648.031
       123   04 Jun 2027 10:07:17.308   04 Jun 2027 10:07:17.940             0.632           255.812
       124   04 Jun 2027 10:08:02.968   04 Jun 2027 10:08:04.404             1.436           718.000
       125   04 Jun 2027 10:08:47.213   04 Jun 2027 10:08:57.680            10.467          1552.937
       126   04 Jun 2027 10:10:10.801   04 Jun 2027 10:10:15.196             4.395          2040.312
       127   04 Jun 2027 11:41:52.207   04 Jun 2027 11:42:06.166            13.959          6469.750
       128   04 Jun 2027 11:42:44.293   04 Jun 2027 11:42:46.508             2.215           771.438
       129   04 Jun 2027 11:43:56.474   04 Jun 2027 11:44:00.949             4.475          2186.437
       130   04 Jun 2027 11:44:29.149   04 Jun 2027 11:44:33.732             4.583           835.188
       131   04 Jun 2027 11:44:43.843   04 Jun 2027 11:44:44.494             0.651           315.969
       132   04 Jun 2027 11:45:11.790   04 Jun 2027 11:45:18.192             6.402           853.000
       133   04 Jun 2027 11:45:39.556   04 Jun 2027 11:45:39.556             0.000             0.000
       134   05 Jun 2027 03:52:15.447   05 Jun 2027 03:53:28.845            73.398         36699.000
       135   05 Jun 2027 04:04:28.094   05 Jun 2027 04:04:59.712            31.618         15809.000
       136   05 Jun 2027 05:26:22.198   05 Jun 2027 05:27:35.515            73.317         36658.500
       137   05 Jun 2027 05:28:25.146   05 Jun 2027 05:29:33.613            68.467         34233.500
       138   05 Jun 2027 05:29:56.767   05 Jun 2027 05:30:30.982            34.215         17107.500
       139   05 Jun 2027 07:01:10.458   05 Jun 2027 07:01:50.772            40.314         19299.781
       140   05 Jun 2027 07:02:07.870   05 Jun 2027 07:02:09.739             1.869           301.656
       141   05 Jun 2027 07:03:05.312   05 Jun 2027 07:03:09.699             4.387          1299.219
       142   05 Jun 2027 07:03:37.532   05 Jun 2027 07:03:42.150             4.618           731.312
       143   05 Jun 2027 07:04:28.623   05 Jun 2027 07:04:35.212             6.589          1296.406
       144   05 Jun 2027 07:04:42.054   05 Jun 2027 07:04:43.701             1.647           122.969
       145   05 Jun 2027 07:05:01.445   05 Jun 2027 07:05:01.445             0.000             0.000
       146   05 Jun 2027 07:05:10.583   05 Jun 2027 07:05:13.484             2.901           812.125
       147   05 Jun 2027 07:06:13.818   05 Jun 2027 07:06:18.134             4.316          1753.844
       148   05 Jun 2027 07:07:11.472   05 Jun 2027 07:07:14.447             2.975           671.594
       149   05 Jun 2027 07:07:49.253   05 Jun 2027 07:07:53.317             4.064           521.750
       150   05 Jun 2027 07:08:38.693   05 Jun 2027 07:08:39.253             0.560           280.000
       151   05 Jun 2027 07:09:31.292   05 Jun 2027 07:09:31.336             0.044            22.000
       152   05 Jun 2027 07:09:48.953   05 Jun 2027 07:09:54.562             5.609          2804.500
       153   05 Jun 2027 08:39:01.365   05 Jun 2027 08:39:15.752            14.387          6607.750
       154   05 Jun 2027 08:41:00.736   05 Jun 2027 08:41:04.764             4.028          2008.750
       155   05 Jun 2027 08:41:39.544   05 Jun 2027 08:41:43.205             3.661          1042.469
       156   05 Jun 2027 08:42:00.069   05 Jun 2027 08:42:01.582             1.513           506.344
       157   05 Jun 2027 08:43:12.909   05 Jun 2027 08:43:15.868             2.959           590.656
       158   05 Jun 2027 08:44:15.271   05 Jun 2027 08:44:21.645             6.374          1801.594
       159   05 Jun 2027 08:44:57.031   05 Jun 2027 08:45:00.659             3.628           658.156
       160   05 Jun 2027 08:45:08.769   05 Jun 2027 08:45:09.155             0.386           184.406
       161   05 Jun 2027 08:45:45.786   05 Jun 2027 08:45:47.596             1.810           409.000
       162   05 Jun 2027 08:46:12.702   05 Jun 2027 08:46:14.977             2.275           306.812
       163   05 Jun 2027 08:46:24.328   05 Jun 2027 08:46:24.977             0.649           292.219
       164   05 Jun 2027 10:15:46.037   05 Jun 2027 10:16:07.041            21.004          7917.281
       165   05 Jun 2027 10:16:17.600   05 Jun 2027 10:16:23.294             5.694            52.812
       166   05 Jun 2027 10:18:28.962   05 Jun 2027 10:18:34.948             5.986          2144.719
       167   05 Jun 2027 10:19:00.360   05 Jun 2027 10:19:02.676             2.316           794.125
       168   05 Jun 2027 10:19:58.988   05 Jun 2027 10:20:04.023             5.035          1562.844
       169   05 Jun 2027 10:20:36.514   05 Jun 2027 10:20:37.703             1.189           594.500
       170   05 Jun 2027 10:21:19.999   05 Jun 2027 10:21:23.611             3.612          1675.781
       171   05 Jun 2027 10:21:33.380   05 Jun 2027 10:21:38.570             5.190           139.937
       172   05 Jun 2027 10:21:51.773   05 Jun 2027 10:21:52.286             0.513           229.219
       173   05 Jun 2027 10:22:10.432   05 Jun 2027 10:22:12.045             1.613           357.219
       174   05 Jun 2027 10:22:25.831   05 Jun 2027 10:22:26.998             1.167           323.000
       175   05 Jun 2027 11:53:54.844   05 Jun 2027 11:54:10.031            15.187          6398.594
       176   05 Jun 2027 11:54:21.724   05 Jun 2027 11:54:24.486             2.762           365.406
       177   05 Jun 2027 11:55:45.085   05 Jun 2027 11:55:50.166             5.081          2204.781
       178   05 Jun 2027 11:56:20.629   05 Jun 2027 11:56:23.040             2.411           827.156
       179   05 Jun 2027 11:57:37.773   05 Jun 2027 11:57:42.046             4.273          2136.500
       180   05 Jun 2027 11:57:48.248   05 Jun 2027 11:57:50.792             2.544           232.781
       181   06 Jun 2027 04:04:13.114   06 Jun 2027 04:05:28.403            75.289         37644.500
       182   06 Jun 2027 04:05:57.451   06 Jun 2027 04:06:07.435             9.984          4992.000
       183   06 Jun 2027 05:40:10.635   06 Jun 2027 05:43:14.183           183.548         91774.000
       184   06 Jun 2027 07:13:58.982   06 Jun 2027 07:14:54.048            55.066         26121.562
       185   06 Jun 2027 07:15:22.954   06 Jun 2027 07:15:24.372             1.418           528.594
       186   06 Jun 2027 07:16:30.559   06 Jun 2027 07:16:33.935             3.376           737.781
       187   06 Jun 2027 07:16:47.181   06 Jun 2027 07:16:48.435             1.254           361.531
       188   06 Jun 2027 07:17:12.714   06 Jun 2027 07:17:14.074             1.360           247.625
       189   06 Jun 2027 07:18:34.779   06 Jun 2027 07:18:43.953             9.174          2142.250
       190   06 Jun 2027 07:19:14.435   06 Jun 2027 07:19:18.927             4.492           783.125
       191   06 Jun 2027 07:20:40.787   06 Jun 2027 07:20:45.614             4.827          2100.625
       192   06 Jun 2027 07:21:40.883   06 Jun 2027 07:21:44.321             3.438          1557.156
       193   06 Jun 2027 07:22:25.786   06 Jun 2027 07:22:28.863             3.077          1129.094
       194   06 Jun 2027 08:51:08.540   06 Jun 2027 08:51:22.160            13.620          6497.219
       195   06 Jun 2027 08:52:32.577   06 Jun 2027 08:52:36.397             3.820          1405.656
       196   06 Jun 2027 08:53:08.252   06 Jun 2027 08:53:12.639             4.387           528.781
       197   06 Jun 2027 08:53:44.007   06 Jun 2027 08:53:44.007             0.000             0.000
       198   06 Jun 2027 08:53:52.934   06 Jun 2027 08:53:58.607             5.673          1259.219
       199   06 Jun 2027 08:55:07.629   06 Jun 2027 08:55:12.952             5.323          1637.656
       200   06 Jun 2027 08:55:45.397   06 Jun 2027 08:55:47.683             2.286          1013.906
       201   06 Jun 2027 08:57:00.821   06 Jun 2027 08:57:07.695             6.874          2236.312
       202   06 Jun 2027 08:57:47.091   06 Jun 2027 08:57:47.346             0.255            77.094
       203   06 Jun 2027 08:57:50.075   06 Jun 2027 08:57:56.166             6.091            85.281
       204   06 Jun 2027 08:58:16.969   06 Jun 2027 08:58:16.969             0.000             0.000
       205   06 Jun 2027 08:58:27.434   06 Jun 2027 08:58:27.435             0.001             0.500
       206   06 Jun 2027 10:28:11.927   06 Jun 2027 10:28:17.373             5.446          2723.000
       207   06 Jun 2027 10:28:37.020   06 Jun 2027 10:28:51.364            14.344          5444.625
       208   06 Jun 2027 10:30:25.971   06 Jun 2027 10:30:30.285             4.314          1991.531
       209   06 Jun 2027 10:31:56.751   06 Jun 2027 10:31:59.949             3.198          1599.000
       210   06 Jun 2027 10:32:11.225   06 Jun 2027 10:32:16.393             5.168          1455.438
       211   06 Jun 2027 10:33:06.259   06 Jun 2027 10:33:16.152             9.893          1556.563
       212   06 Jun 2027 10:33:39.294   06 Jun 2027 10:33:39.294             0.000             0.000
       213   06 Jun 2027 10:33:56.340   06 Jun 2027 10:33:59.510             3.170          1255.875
       214   07 Jun 2027 04:16:05.659   07 Jun 2027 04:17:36.467            90.808         45404.000
       215   07 Jun 2027 04:17:55.159   07 Jun 2027 04:17:55.562             0.403           201.500
       216   07 Jun 2027 04:18:11.517   07 Jun 2027 04:18:35.555            24.038         12019.000
       217   07 Jun 2027 05:52:27.999   07 Jun 2027 05:55:09.752           161.753         80876.500
       218   07 Jun 2027 07:26:20.195   07 Jun 2027 07:27:08.229            48.034         23607.187
       219   07 Jun 2027 07:28:14.396   07 Jun 2027 07:28:17.503             3.107          1508.625
       220   07 Jun 2027 07:28:23.501   07 Jun 2027 07:28:26.469             2.968           187.437
       221   07 Jun 2027 07:28:41.797   07 Jun 2027 07:28:43.639             1.842           369.937
       222   07 Jun 2027 07:29:55.181   07 Jun 2027 07:30:02.512             7.331          1820.125
       223   07 Jun 2027 07:30:26.850   07 Jun 2027 07:30:30.540             3.690           530.406
       224   07 Jun 2027 07:31:15.755   07 Jun 2027 07:31:24.974             9.219           865.250
       225   07 Jun 2027 07:32:14.385   07 Jun 2027 07:32:18.266             3.881          1427.969
       226   07 Jun 2027 07:32:23.579   07 Jun 2027 07:32:25.381             1.802            63.875
       227   07 Jun 2027 07:32:51.679   07 Jun 2027 07:32:55.424             3.745           285.281
       228   07 Jun 2027 07:33:42.133   07 Jun 2027 07:33:43.571             1.438           719.000
       229   07 Jun 2027 07:34:04.835   07 Jun 2027 07:34:10.416             5.581          1405.156
       230   07 Jun 2027 09:03:35.189   07 Jun 2027 09:03:47.887            12.698          6015.781
       231   07 Jun 2027 09:04:49.787   07 Jun 2027 09:04:51.168             1.381           573.812
       232   07 Jun 2027 09:06:19.140   07 Jun 2027 09:06:23.667             4.527           631.094
       233   07 Jun 2027 09:06:30.036   07 Jun 2027 09:06:32.451             2.415            73.812
       234   07 Jun 2027 09:06:32.483   07 Jun 2027 09:06:33.647             1.164             1.000
       235   07 Jun 2027 09:06:58.335   07 Jun 2027 09:07:01.076             2.741           456.344
       236   07 Jun 2027 09:08:00.862   07 Jun 2027 09:08:04.765             3.903          1452.844
       237   07 Jun 2027 09:08:51.023   07 Jun 2027 09:08:54.474             3.451          1445.563
       238   07 Jun 2027 09:09:48.577   07 Jun 2027 09:09:51.494             2.917          1458.500
       239   07 Jun 2027 10:40:36.777   07 Jun 2027 10:40:51.421            14.644          6626.750
       240   07 Jun 2027 10:42:11.619   07 Jun 2027 10:42:16.002             4.383           696.187
       241   07 Jun 2027 10:42:16.407   07 Jun 2027 10:42:16.533             0.126            12.656
       242   07 Jun 2027 10:42:30.686   07 Jun 2027 10:42:35.015             4.329           442.281
       243   07 Jun 2027 10:43:02.431   07 Jun 2027 10:43:07.941             5.510           856.750
       244   07 Jun 2027 10:43:40.038   07 Jun 2027 10:43:41.743             1.705           474.906
       245   07 Jun 2027 10:44:31.169   07 Jun 2027 10:44:40.099             8.930          1456.062
       246   07 Jun 2027 10:45:12.948   07 Jun 2027 10:45:15.280             2.332          1026.531
       247   07 Jun 2027 10:45:27.456   07 Jun 2027 10:45:29.271             1.815           211.094
       248   07 Jun 2027 10:45:59.689   07 Jun 2027 10:46:00.880             1.191           595.500
       249   08 Jun 2027 03:04:24.526   08 Jun 2027 03:05:43.590            79.064         39532.000
       250   08 Jun 2027 03:05:48.916   08 Jun 2027 03:06:14.948            26.032         13016.000
       251   08 Jun 2027 03:07:10.826   08 Jun 2027 03:07:26.908            16.082          8041.000
       252   08 Jun 2027 03:07:32.010   08 Jun 2027 03:07:58.425            26.415         13207.500
       253   08 Jun 2027 03:08:04.502   08 Jun 2027 03:08:04.502             0.000             0.000
       254   08 Jun 2027 04:27:54.677   08 Jun 2027 04:28:39.813            45.136         22568.000
       255   08 Jun 2027 04:29:12.035   08 Jun 2027 04:29:20.888             8.853          4426.500
       256   08 Jun 2027 06:04:31.389   08 Jun 2027 06:06:36.673           125.284         62642.000
       257   08 Jun 2027 06:07:01.428   08 Jun 2027 06:07:06.996             5.568          1563.562
       258   08 Jun 2027 06:07:27.252   08 Jun 2027 06:07:28.276             1.024           506.281
       259   08 Jun 2027 06:07:40.491   08 Jun 2027 06:07:41.418             0.927           179.781
       260   08 Jun 2027 07:39:37.992   08 Jun 2027 07:39:51.821            13.829          6609.531
       261   08 Jun 2027 07:40:14.131   08 Jun 2027 07:40:18.605             4.474           642.094
       262   08 Jun 2027 07:40:24.744   08 Jun 2027 07:40:25.996             1.252           169.687
       263   08 Jun 2027 07:41:55.766   08 Jun 2027 07:42:01.365             5.599          2156.625
       264   08 Jun 2027 07:42:27.016   08 Jun 2027 07:42:30.280             3.264           575.219
       265   08 Jun 2027 07:43:19.910   08 Jun 2027 07:43:22.130             2.220          1062.094
       266   08 Jun 2027 07:43:33.054   08 Jun 2027 07:43:33.565             0.511           240.187
       267   08 Jun 2027 07:43:48.355   08 Jun 2027 07:44:00.681            12.326           342.156
       268   08 Jun 2027 07:44:51.966   08 Jun 2027 07:44:53.783             1.817           565.281
       269   08 Jun 2027 07:45:30.108   08 Jun 2027 07:45:31.140             1.032           516.000
       270   08 Jun 2027 07:45:58.391   08 Jun 2027 07:45:58.391             0.000             0.000
       271   08 Jun 2027 07:46:19.465   08 Jun 2027 07:46:26.876             7.411          2129.312
       272   08 Jun 2027 09:15:58.635   08 Jun 2027 09:16:15.632            16.997          8273.687
       273   08 Jun 2027 09:17:09.584   08 Jun 2027 09:17:14.960             5.376           648.094
       274   08 Jun 2027 09:17:46.105   08 Jun 2027 09:17:50.109             4.004           766.625
       275   08 Jun 2027 09:18:29.864   08 Jun 2027 09:18:30.294             0.430           215.000
       276   08 Jun 2027 09:18:31.707   08 Jun 2027 09:18:35.377             3.670           900.656
       277   08 Jun 2027 09:19:21.516   08 Jun 2027 09:19:24.088             2.572          1190.531
       278   08 Jun 2027 09:19:50.487   08 Jun 2027 09:19:54.257             3.770           824.969
       279   08 Jun 2027 09:20:06.466   08 Jun 2027 09:20:06.466             0.000             0.000
       280   08 Jun 2027 09:20:06.690   08 Jun 2027 09:20:08.592             1.902           388.531
       281   08 Jun 2027 09:20:35.268   08 Jun 2027 09:20:37.958             2.690           833.625
       282   08 Jun 2027 09:21:38.686   08 Jun 2027 09:21:43.055             4.369          1731.687
       283   08 Jun 2027 09:22:19.752   08 Jun 2027 09:22:22.015             2.263           993.344
       284   08 Jun 2027 10:53:28.716   08 Jun 2027 10:53:42.919            14.203          6687.625
       285   08 Jun 2027 10:54:15.240   08 Jun 2027 10:54:17.700             2.460           959.094
       286   08 Jun 2027 10:54:34.497   08 Jun 2027 10:54:36.899             2.402           524.906
       287   08 Jun 2027 10:54:50.272   08 Jun 2027 10:54:56.608             6.336           363.625
       288   08 Jun 2027 10:55:14.416   08 Jun 2027 10:55:17.384             2.968           479.969
       289   08 Jun 2027 10:55:36.415   08 Jun 2027 10:55:38.267             1.852           594.719
       290   08 Jun 2027 10:55:50.392   08 Jun 2027 10:55:51.425             1.033           297.000
       291   08 Jun 2027 10:56:00.869   08 Jun 2027 10:56:02.911             2.042           292.562
       292   08 Jun 2027 10:56:12.616   08 Jun 2027 10:56:14.500             1.884            81.937
       293   08 Jun 2027 10:56:31.477   08 Jun 2027 10:56:35.697             4.220           530.531
       294   08 Jun 2027 10:57:28.684   08 Jun 2027 10:57:34.664             5.980          1655.844
       295   09 Jun 2027 03:17:36.415   09 Jun 2027 03:20:37.910           181.495         90747.500
       296   09 Jun 2027 04:40:08.133   09 Jun 2027 04:40:55.513            47.380         23690.000
       297   09 Jun 2027 04:40:59.690   09 Jun 2027 04:41:00.142             0.452           226.000
       298   09 Jun 2027 04:41:09.435   09 Jun 2027 04:41:16.513             7.078          3539.000
       299   09 Jun 2027 04:41:32.289   09 Jun 2027 04:41:44.003            11.714          5857.000
       300   09 Jun 2027 06:16:42.044   09 Jun 2027 06:16:46.063             4.019          2009.500
       301   09 Jun 2027 06:16:54.365   09 Jun 2027 06:17:57.437            63.072         30883.500
       302   09 Jun 2027 06:19:00.315   09 Jun 2027 06:19:00.315             0.000             0.000
       303   09 Jun 2027 06:19:03.036   09 Jun 2027 06:19:08.700             5.664          1837.031
       304   09 Jun 2027 06:19:16.205   09 Jun 2027 06:19:19.709             3.504           215.563
       305   09 Jun 2027 06:19:46.061   09 Jun 2027 06:19:47.757             1.696           758.062
       306   09 Jun 2027 07:51:51.778   09 Jun 2027 07:52:01.134             9.356          4471.875
       307   09 Jun 2027 07:52:12.850   09 Jun 2027 07:52:18.379             5.529           110.688
       308   09 Jun 2027 07:53:20.013   09 Jun 2027 07:53:25.605             5.592           858.063
       309   09 Jun 2027 07:54:02.921   09 Jun 2027 07:54:03.206             0.285           142.500
       310   09 Jun 2027 07:54:03.638   09 Jun 2027 07:54:07.769             4.131           564.500
       311   09 Jun 2027 07:54:22.749   09 Jun 2027 07:54:26.587             3.838           384.500
       312   09 Jun 2027 07:55:06.301   09 Jun 2027 07:55:08.290             1.989           627.250
       313   09 Jun 2027 07:55:19.317   09 Jun 2027 07:55:22.367             3.050           184.562
       314   09 Jun 2027 07:56:58.983   09 Jun 2027 07:57:06.786             7.803          3019.250
       315   09 Jun 2027 07:57:16.579   09 Jun 2027 07:57:17.505             0.926           306.031
       316   09 Jun 2027 07:57:49.991   09 Jun 2027 07:57:51.819             1.828           710.312
       317   09 Jun 2027 09:28:13.151   09 Jun 2027 09:28:25.743            12.592          5855.031
       318   09 Jun 2027 09:29:57.003   09 Jun 2027 09:29:58.799             1.796           592.969
       319   09 Jun 2027 09:30:28.646   09 Jun 2027 09:30:32.149             3.503           932.719
       320   09 Jun 2027 09:31:17.515   09 Jun 2027 09:31:20.021             2.506          1253.000
       321   09 Jun 2027 09:31:41.543   09 Jun 2027 09:31:41.543             0.000             0.000
       322   09 Jun 2027 09:31:55.329   09 Jun 2027 09:31:56.250             0.921           460.500
       323   09 Jun 2027 09:32:22.596   09 Jun 2027 09:32:28.722             6.126          1566.031
       324   09 Jun 2027 09:32:36.276   09 Jun 2027 09:32:37.577             1.301           236.062
       325   09 Jun 2027 09:33:20.558   09 Jun 2027 09:33:26.628             6.070          1218.531
       326   09 Jun 2027 09:33:41.937   09 Jun 2027 09:33:44.820             2.883           478.406
       327   09 Jun 2027 09:34:18.917   09 Jun 2027 09:34:21.431             2.514          1065.531
       328   09 Jun 2027 11:05:31.221   09 Jun 2027 11:05:47.330            16.109          7369.594
       329   09 Jun 2027 11:05:58.495   09 Jun 2027 11:05:59.401             0.906           249.000
       330   09 Jun 2027 11:06:53.566   09 Jun 2027 11:07:03.122             9.556          1462.469
       331   09 Jun 2027 11:07:11.958   09 Jun 2027 11:07:16.211             4.253            73.687
       332   09 Jun 2027 11:07:52.402   09 Jun 2027 11:07:58.183             5.781           880.937
       333   09 Jun 2027 11:08:16.038   09 Jun 2027 11:08:17.793             1.755           481.000
       334   09 Jun 2027 11:08:38.623   09 Jun 2027 11:08:41.476             2.853           619.500
       335   09 Jun 2027 11:08:51.022   09 Jun 2027 11:08:52.801             1.779           153.031
       336   09 Jun 2027 11:10:00.867   09 Jun 2027 11:10:04.084             3.217          1608.500
       337   10 Jun 2027 03:28:43.620   10 Jun 2027 03:29:22.623            39.003         19501.500
       338   10 Jun 2027 03:29:44.519   10 Jun 2027 03:32:16.362           151.843         75921.500
       339   10 Jun 2027 04:52:09.990   10 Jun 2027 04:53:03.738            53.748         26874.000
       340   10 Jun 2027 06:28:32.445   10 Jun 2027 06:29:39.314            66.869         32533.563
       341   10 Jun 2027 06:29:44.241   10 Jun 2027 06:29:44.701             0.460           106.500
       342   10 Jun 2027 06:30:39.191   10 Jun 2027 06:30:39.191             0.000             0.000
       343   10 Jun 2027 06:30:58.701   10 Jun 2027 06:31:04.317             5.616          2310.125
       344   10 Jun 2027 06:31:19.448   10 Jun 2027 06:31:21.569             2.121           472.844
       345   10 Jun 2027 06:32:36.485   10 Jun 2027 06:32:37.910             1.425           712.500
       346   10 Jun 2027 08:03:26.029   10 Jun 2027 08:03:34.903             8.874          4437.000
       347   10 Jun 2027 08:03:36.179   10 Jun 2027 08:03:36.745             0.566           283.000
       348   10 Jun 2027 08:04:56.413   10 Jun 2027 08:05:02.731             6.318          2541.125
       349   10 Jun 2027 08:05:18.370   10 Jun 2027 08:05:19.067             0.697             7.625
       350   10 Jun 2027 08:05:20.091   10 Jun 2027 08:05:22.677             2.586            32.000
       351   10 Jun 2027 08:05:41.105   10 Jun 2027 08:05:42.441             1.336           352.969
       352   10 Jun 2027 08:06:16.629   10 Jun 2027 08:06:17.817             1.188           404.187
       353   10 Jun 2027 08:06:53.391   10 Jun 2027 08:07:00.023             6.632           711.750
       354   10 Jun 2027 08:07:28.065   10 Jun 2027 08:07:31.447             3.382           876.312
       355   10 Jun 2027 08:08:13.355   10 Jun 2027 08:08:17.658             4.303          1309.625
       356   10 Jun 2027 08:09:12.085   10 Jun 2027 08:09:17.389             5.304          1468.406
       357   10 Jun 2027 08:10:02.285   10 Jun 2027 08:10:06.153             3.868          1403.000
       358   10 Jun 2027 09:39:49.815   10 Jun 2027 09:40:11.824            22.009          9050.219
       359   10 Jun 2027 09:40:51.654   10 Jun 2027 09:40:53.169             1.515           265.656
       360   10 Jun 2027 09:41:49.403   10 Jun 2027 09:41:54.495             5.092          1741.625
       361   10 Jun 2027 09:43:10.427   10 Jun 2027 09:43:11.815             1.388           631.031
       362   10 Jun 2027 09:43:18.606   10 Jun 2027 09:43:19.474             0.868           212.219
       363   10 Jun 2027 09:44:11.007   10 Jun 2027 09:44:14.197             3.190          1559.094
       364   10 Jun 2027 09:44:30.033   10 Jun 2027 09:44:34.247             4.214           331.031
       365   10 Jun 2027 09:44:59.482   10 Jun 2027 09:45:00.608             1.126           420.875
       366   10 Jun 2027 09:45:15.427   10 Jun 2027 09:45:16.403             0.976           264.938
       367   10 Jun 2027 09:45:58.122   10 Jun 2027 09:46:01.901             3.779          1279.312
       368   10 Jun 2027 11:18:06.261   10 Jun 2027 11:18:25.104            18.843          7560.813
       369   10 Jun 2027 11:18:43.795   10 Jun 2027 11:18:43.795             0.000             0.000
       370   10 Jun 2027 11:19:48.347   10 Jun 2027 11:19:54.482             6.135          2513.781
       371   10 Jun 2027 11:20:17.468   10 Jun 2027 11:20:19.162             1.694           661.844
       372   10 Jun 2027 11:21:10.335   10 Jun 2027 11:21:14.103             3.768          1548.938
       373   10 Jun 2027 11:21:25.221   10 Jun 2027 11:21:35.923            10.702           181.250
       374   10 Jun 2027 11:21:42.579   10 Jun 2027 11:21:43.608             1.029           208.000
       375   10 Jun 2027 11:21:51.721   10 Jun 2027 11:21:52.840             1.119           253.531
       376   11 Jun 2027 03:29:22.286   11 Jun 2027 03:29:41.400            19.114          9557.000
       377   11 Jun 2027 03:29:55.082   11 Jun 2027 03:29:55.082             0.000             0.000
       378   11 Jun 2027 03:40:39.544   11 Jun 2027 03:42:20.226           100.682         50341.000
       379   11 Jun 2027 03:43:19.069   11 Jun 2027 03:43:46.036            26.967         13483.500
       380   11 Jun 2027 05:03:15.209   11 Jun 2027 05:05:05.646           110.437         55218.500
       381   11 Jun 2027 06:38:50.120   11 Jun 2027 06:39:36.407            46.287         23143.500
       382   11 Jun 2027 06:40:16.493   11 Jun 2027 06:40:22.786             6.293          3090.187
       383   11 Jun 2027 06:42:29.503   11 Jun 2027 06:42:37.038             7.535          3686.375
       384   11 Jun 2027 06:43:07.660   11 Jun 2027 06:43:09.662             2.002           594.219
       385   11 Jun 2027 06:43:49.181   11 Jun 2027 06:43:53.106             3.925          1234.969
       386   11 Jun 2027 06:44:31.687   11 Jun 2027 06:44:34.993             3.306          1205.656
       387   11 Jun 2027 06:44:51.742   11 Jun 2027 06:44:51.960             0.218           109.000
       388   11 Jun 2027 08:15:03.010   11 Jun 2027 08:15:12.150             9.140          4154.187
       389   11 Jun 2027 08:15:37.487   11 Jun 2027 08:15:38.760             1.273           109.875
       390   11 Jun 2027 08:17:18.424   11 Jun 2027 08:17:18.424             0.000             0.000
       391   11 Jun 2027 08:17:21.657   11 Jun 2027 08:17:26.395             4.738          2341.312
       392   11 Jun 2027 08:18:08.294   11 Jun 2027 08:18:10.740             2.446           800.062
       393   11 Jun 2027 08:18:23.176   11 Jun 2027 08:18:25.188             2.012           305.406
       394   11 Jun 2027 08:18:32.385   11 Jun 2027 08:18:33.439             1.054           224.906
       395   11 Jun 2027 08:19:26.528   11 Jun 2027 08:19:36.621            10.093          1659.031
       396   11 Jun 2027 08:20:03.686   11 Jun 2027 08:20:09.302             5.616           487.562
       397   11 Jun 2027 08:20:50.433   11 Jun 2027 08:20:57.216             6.783          1223.469
       398   11 Jun 2027 08:21:20.326   11 Jun 2027 08:21:21.308             0.982           491.000
       399   11 Jun 2027 08:21:44.426   11 Jun 2027 08:21:51.936             7.510           953.625
       400   11 Jun 2027 08:22:34.792   11 Jun 2027 08:22:37.319             2.527          1118.312
       401   11 Jun 2027 09:52:09.336   11 Jun 2027 09:52:30.669            21.333          9389.813
       402   11 Jun 2027 09:53:42.033   11 Jun 2027 09:53:47.354             5.321          1337.594
       403   11 Jun 2027 09:54:43.936   11 Jun 2027 09:54:47.604             3.668          1724.125
       404   11 Jun 2027 09:55:37.959   11 Jun 2027 09:55:39.623             1.664           670.656
       405   11 Jun 2027 09:56:11.266   11 Jun 2027 09:56:13.956             2.690           938.969
       406   11 Jun 2027 09:56:47.581   11 Jun 2027 09:56:49.694             2.113          1013.594
       407   11 Jun 2027 09:57:18.536   11 Jun 2027 09:57:23.153             4.617           901.312
       408   11 Jun 2027 09:57:55.718   11 Jun 2027 09:57:58.731             3.013           287.375
       409   11 Jun 2027 09:58:10.658   11 Jun 2027 09:58:12.263             1.605           263.031
       410   11 Jun 2027 09:58:29.096   11 Jun 2027 09:58:31.099             2.003           414.000
       411   11 Jun 2027 11:30:07.213   11 Jun 2027 11:30:21.495            14.282          7045.094
       412   11 Jun 2027 11:30:30.595   11 Jun 2027 11:30:31.241             0.646           284.375
       413   11 Jun 2027 11:31:02.295   11 Jun 2027 11:31:08.896             6.601           970.438
       414   11 Jun 2027 11:31:50.931   11 Jun 2027 11:31:54.343             3.412           982.469
       415   11 Jun 2027 11:32:18.733   11 Jun 2027 11:32:18.733             0.000             0.000
       416   11 Jun 2027 11:32:37.784   11 Jun 2027 11:32:40.940             3.156          1238.687
       417   11 Jun 2027 11:33:57.757   11 Jun 2027 11:34:02.930             5.173          1942.531
       418   12 Jun 2027 03:40:58.492   12 Jun 2027 03:41:16.725            18.233          9116.500
       419   12 Jun 2027 03:42:06.991   12 Jun 2027 03:42:17.414            10.423          5211.500
       420   12 Jun 2027 03:52:42.049   12 Jun 2027 03:53:44.058            62.009         31004.500
       421   12 Jun 2027 05:14:57.607   12 Jun 2027 05:16:03.922            66.315         33157.500
       422   12 Jun 2027 05:16:54.514   12 Jun 2027 05:18:05.788            71.274         35637.000
       423   12 Jun 2027 05:19:08.414   12 Jun 2027 05:19:28.878            20.464         10232.000
       424   12 Jun 2027 06:49:56.667   12 Jun 2027 06:50:52.933            56.266         28133.000
       425   12 Jun 2027 06:51:07.774   12 Jun 2027 06:51:11.589             3.815           926.875
       426   12 Jun 2027 06:51:27.919   12 Jun 2027 06:51:27.919             0.000             0.000
       427   12 Jun 2027 06:52:02.923   12 Jun 2027 06:52:03.810             0.887           443.500
       428   12 Jun 2027 06:52:30.980   12 Jun 2027 06:52:35.102             4.122          2005.750
       429   12 Jun 2027 06:53:42.754   12 Jun 2027 06:53:51.622             8.868          2025.312
       430   12 Jun 2027 06:55:03.580   12 Jun 2027 06:55:05.691             2.111          1055.500
       431   12 Jun 2027 06:55:25.815   12 Jun 2027 06:55:33.545             7.730          1822.062
       432   12 Jun 2027 06:55:50.773   12 Jun 2027 06:55:50.773             0.000             0.000
       433   12 Jun 2027 06:56:43.231   12 Jun 2027 06:56:45.706             2.475          1237.500
       434   12 Jun 2027 06:57:10.580   12 Jun 2027 06:57:14.681             4.101          1595.938
       435   12 Jun 2027 08:27:23.017   12 Jun 2027 08:27:33.044            10.027          4521.656
       436   12 Jun 2027 08:28:09.132   12 Jun 2027 08:28:12.784             3.652           914.969
       437   12 Jun 2027 08:29:57.216   12 Jun 2027 08:30:07.452            10.236          1735.188
       438   12 Jun 2027 08:30:24.377   12 Jun 2027 08:30:25.090             0.713           199.781
       439   12 Jun 2027 08:30:53.569   12 Jun 2027 08:30:53.569             0.000             0.000
       440   12 Jun 2027 08:31:28.154   12 Jun 2027 08:31:34.664             6.510          1412.188
       441   12 Jun 2027 08:31:54.129   12 Jun 2027 08:31:56.454             2.325           474.094
       442   12 Jun 2027 08:32:55.134   12 Jun 2027 08:32:58.451             3.317          1516.375
       443   12 Jun 2027 08:33:11.741   12 Jun 2027 08:33:11.741             0.000             0.000
       444   12 Jun 2027 08:33:17.885   12 Jun 2027 08:33:19.156             1.271           607.312
       445   12 Jun 2027 08:33:44.694   12 Jun 2027 08:33:50.188             5.494           798.063
       446   12 Jun 2027 08:33:59.900   12 Jun 2027 08:34:07.886             7.986            89.406
       447   12 Jun 2027 10:04:09.578   12 Jun 2027 10:04:25.485            15.907          6655.219
       448   12 Jun 2027 10:05:43.009   12 Jun 2027 10:05:45.783             2.774           222.562
       449   12 Jun 2027 10:06:31.237   12 Jun 2027 10:06:32.449             1.212           504.750
       450   12 Jun 2027 10:07:03.495   12 Jun 2027 10:07:07.066             3.571           687.188
       451   12 Jun 2027 10:07:39.407   12 Jun 2027 10:07:51.237            11.830           428.250
       452   12 Jun 2027 10:07:59.632   12 Jun 2027 10:08:01.373             1.741           262.344
       453   12 Jun 2027 10:08:11.350   12 Jun 2027 10:08:12.648             1.298           143.375
       454   12 Jun 2027 10:09:01.868   12 Jun 2027 10:09:05.519             3.651          1538.125
       455   12 Jun 2027 10:10:26.079   12 Jun 2027 10:10:31.930             5.851          2011.594
       456   12 Jun 2027 11:42:07.776   12 Jun 2027 11:42:23.469            15.693          6908.188
       457   12 Jun 2027 11:42:58.610   12 Jun 2027 11:43:02.887             4.277           753.812
       458   12 Jun 2027 11:44:12.087   12 Jun 2027 11:44:17.197             5.110          2162.500
       459   12 Jun 2027 11:44:46.338   12 Jun 2027 11:44:50.232             3.894           910.656
       460   12 Jun 2027 11:45:33.681   12 Jun 2027 11:45:35.435             1.754           877.000
       461   13 Jun 2027 03:52:31.114   13 Jun 2027 03:53:44.074            72.960         36480.000
       462   13 Jun 2027 04:04:43.638   13 Jun 2027 04:05:15.183            31.545         15772.500
       463   13 Jun 2027 05:26:35.897   13 Jun 2027 05:27:50.762            74.865         37432.500
       464   13 Jun 2027 05:28:39.969   13 Jun 2027 05:29:50.594            70.625         35312.500
       465   13 Jun 2027 05:30:18.283   13 Jun 2027 05:30:45.193            26.910         13455.000
       466   13 Jun 2027 07:01:24.741   13 Jun 2027 07:02:05.961            41.220         19389.656
       467   13 Jun 2027 07:02:38.242   13 Jun 2027 07:02:40.418             2.176           740.344
       468   13 Jun 2027 07:03:32.167   13 Jun 2027 07:03:36.128             3.961           338.688
       469   13 Jun 2027 07:04:09.651   13 Jun 2027 07:04:11.796             2.145          1006.813
       470   13 Jun 2027 07:05:51.980   13 Jun 2027 07:05:53.477             1.497           748.500
       471   13 Jun 2027 07:06:28.303   13 Jun 2027 07:06:34.353             6.050          2477.969
       472   13 Jun 2027 07:07:06.613   13 Jun 2027 07:07:17.249            10.636           981.812
       473   13 Jun 2027 07:07:36.476   13 Jun 2027 07:07:42.559             6.083           267.094
       474   13 Jun 2027 07:08:57.151   13 Jun 2027 07:09:08.496            11.345          2029.031
       475   13 Jun 2027 07:09:19.149   13 Jun 2027 07:09:21.865             2.716           214.656
       476   13 Jun 2027 07:09:49.086   13 Jun 2027 07:09:51.711             2.625           850.656
       477   13 Jun 2027 07:10:35.428   13 Jun 2027 07:10:38.750             3.322          1366.156
       478   13 Jun 2027 08:39:17.172   13 Jun 2027 08:39:31.020            13.848          6863.875
       479   13 Jun 2027 08:40:14.083   13 Jun 2027 08:40:16.436             2.353          1003.813
       480   13 Jun 2027 08:41:02.283   13 Jun 2027 08:41:06.691             4.408          1396.094
       481   13 Jun 2027 08:41:27.906   13 Jun 2027 08:41:29.157             1.251           334.000
       482   13 Jun 2027 08:42:07.984   13 Jun 2027 08:42:10.234             2.250           494.844
       483   13 Jun 2027 08:42:48.513   13 Jun 2027 08:42:52.387             3.874          1196.219
       484   13 Jun 2027 08:43:32.906   13 Jun 2027 08:43:38.188             5.282           760.531
       485   13 Jun 2027 08:45:11.409   13 Jun 2027 08:45:15.380             3.971          1671.250
       486   13 Jun 2027 08:45:47.578   13 Jun 2027 08:45:50.894             3.316           791.531
       487   13 Jun 2027 08:45:59.496   13 Jun 2027 08:46:00.953             1.457           267.344
       488   13 Jun 2027 08:46:17.765   13 Jun 2027 08:46:19.119             1.354           523.281
       489   13 Jun 2027 08:46:40.208   13 Jun 2027 08:46:41.878             1.670           659.031
       490   13 Jun 2027 10:16:01.363   13 Jun 2027 10:16:21.939            20.576          8338.125
       491   13 Jun 2027 10:17:04.686   13 Jun 2027 10:17:07.977             3.291          1335.844
       492   13 Jun 2027 10:17:36.624   13 Jun 2027 10:17:40.300             3.676           895.219
       493   13 Jun 2027 10:18:44.664   13 Jun 2027 10:18:51.232             6.568           569.156
       494   13 Jun 2027 10:19:16.220   13 Jun 2027 10:19:17.889             1.669           780.875
       495   13 Jun 2027 10:20:01.040   13 Jun 2027 10:20:02.303             1.263           631.500
       496   13 Jun 2027 10:20:12.246   13 Jun 2027 10:20:13.385             1.139           569.500
       497   13 Jun 2027 10:20:21.977   13 Jun 2027 10:20:24.214             2.237           673.781
       498   13 Jun 2027 10:21:02.831   13 Jun 2027 10:21:06.035             3.204          1206.781
       499   13 Jun 2027 10:22:00.579   13 Jun 2027 10:22:04.236             3.657          1449.875
       500   13 Jun 2027 10:22:31.724   13 Jun 2027 10:22:40.478             8.754           728.687
       501   13 Jun 2027 11:54:11.301   13 Jun 2027 11:54:35.033            23.732          7536.500
       502   13 Jun 2027 11:54:44.294   13 Jun 2027 11:54:44.784             0.490           240.656
       503   13 Jun 2027 11:54:53.279   13 Jun 2027 11:54:57.608             4.329           265.469
       504   13 Jun 2027 11:55:46.824   13 Jun 2027 11:55:51.312             4.488          1436.500
       505   13 Jun 2027 11:56:44.707   13 Jun 2027 11:56:53.183             8.476          1668.594
