uniorb/output/strategy_2/Camera/Camera_KinoSat_111803.txt

KinoSat_111803
-------------------------
    Access    *     Start Time (UTCG)     *     Stop Time (UTCG)  *   Duration (s) *   Data (Mbytes)
         1   01 Jun 2027 03:24:26.552   01 Jun 2027 03:27:03.974           157.422         78711.000
         2   01 Jun 2027 03:27:07.224   01 Jun 2027 03:27:27.481            20.257         10128.500
         3   01 Jun 2027 03:27:45.131   01 Jun 2027 03:28:05.479            20.348         10174.000
         4   01 Jun 2027 03:28:45.893   01 Jun 2027 03:29:07.184            21.291         10645.500
         5   01 Jun 2027 03:29:20.066   01 Jun 2027 03:29:32.378            12.312          6156.000
         6   01 Jun 2027 03:29:44.216   01 Jun 2027 03:30:07.414            23.198         11599.000
         7   01 Jun 2027 03:30:25.765   01 Jun 2027 03:30:34.774             9.009          4504.500
         8   01 Jun 2027 03:30:36.608   01 Jun 2027 03:30:45.359             8.751          4375.500
         9   01 Jun 2027 05:03:25.045   01 Jun 2027 05:03:41.456            16.411          8205.500
        10   01 Jun 2027 05:04:17.384   01 Jun 2027 05:06:20.684           123.300         61650.000
        11   01 Jun 2027 05:06:24.368   01 Jun 2027 05:06:40.084            15.716          7858.000
        12   01 Jun 2027 05:07:37.112   01 Jun 2027 05:07:39.051             1.939           969.500
        13   01 Jun 2027 05:10:15.030   01 Jun 2027 05:10:45.664            30.634         15317.000
        14   01 Jun 2027 06:28:35.116   01 Jun 2027 06:29:04.094            28.978         14489.000
        15   01 Jun 2027 06:40:09.281   01 Jun 2027 06:41:09.728            60.447         30223.500
        16   01 Jun 2027 08:02:45.189   01 Jun 2027 08:03:43.721            58.532         29266.000
        17   01 Jun 2027 08:04:22.144   01 Jun 2027 08:05:42.511            80.367         40183.500
        18   01 Jun 2027 08:06:05.041   01 Jun 2027 08:06:16.758            11.717          5858.500
        19   01 Jun 2027 09:37:53.933   01 Jun 2027 09:38:37.476            43.543         21771.500
        20   01 Jun 2027 09:39:59.763   01 Jun 2027 09:40:28.386            28.623         14311.500
        21   01 Jun 2027 09:41:15.136   01 Jun 2027 09:41:15.136             0.000             0.000
        22   01 Jun 2027 09:42:53.739   01 Jun 2027 09:43:35.876            42.137         21068.500
        23   01 Jun 2027 09:43:55.723   01 Jun 2027 09:44:02.923             7.200          3600.000
        24   01 Jun 2027 11:19:23.426   01 Jun 2027 11:21:23.422           119.996         59998.000
        25   01 Jun 2027 11:22:06.632   01 Jun 2027 11:22:06.704             0.072            36.000
        26   02 Jun 2027 03:36:42.476   02 Jun 2027 03:38:06.004            83.528         41764.000
        27   02 Jun 2027 03:38:08.325   02 Jun 2027 03:38:51.793            43.468         21734.000
        28   02 Jun 2027 03:39:07.362   02 Jun 2027 03:39:31.020            23.658         11829.000
        29   02 Jun 2027 03:41:07.135   02 Jun 2027 03:42:24.898            77.763         38881.500
        30   02 Jun 2027 05:15:41.596   02 Jun 2027 05:15:55.085            13.489          6744.500
        31   02 Jun 2027 05:16:24.815   02 Jun 2027 05:17:48.457            83.642         41821.000
        32   02 Jun 2027 05:19:03.713   02 Jun 2027 05:19:41.143            37.430         18715.000
        33   02 Jun 2027 05:20:21.195   02 Jun 2027 05:20:56.223            35.028         17514.000
        34   02 Jun 2027 05:22:29.100   02 Jun 2027 05:22:42.776            13.676          6838.000
        35   02 Jun 2027 06:39:53.430   02 Jun 2027 06:40:23.772            30.342         15171.000
        36   02 Jun 2027 06:40:59.572   02 Jun 2027 06:41:05.826             6.254          3127.000
        37   02 Jun 2027 06:41:46.344   02 Jun 2027 06:41:56.612            10.268          5134.000
        38   02 Jun 2027 06:52:06.771   02 Jun 2027 06:52:48.421            41.650         20825.000
        39   02 Jun 2027 08:14:20.893   02 Jun 2027 08:15:28.737            67.844         33922.000
        40   02 Jun 2027 08:16:17.395   02 Jun 2027 08:16:33.117            15.722          7521.219
        41   02 Jun 2027 08:17:13.683   02 Jun 2027 08:17:15.997             2.314           955.062
        42   02 Jun 2027 08:17:45.957   02 Jun 2027 08:17:47.740             1.783           436.125
        43   02 Jun 2027 09:49:13.985   02 Jun 2027 09:49:32.229            18.244          6742.219
        44   02 Jun 2027 09:52:26.027   02 Jun 2027 09:52:36.712            10.685          4834.656
        45   02 Jun 2027 11:26:48.841   02 Jun 2027 11:27:10.416            21.575          9917.344
        46   02 Jun 2027 11:27:32.766   02 Jun 2027 11:27:33.993             1.227           426.406
        47   02 Jun 2027 11:27:42.006   02 Jun 2027 11:27:42.714             0.708           139.719
        48   02 Jun 2027 11:32:58.956   02 Jun 2027 11:33:14.575            15.619          7809.500
        49   02 Jun 2027 11:33:37.659   02 Jun 2027 11:33:40.291             2.632          1177.156
        50   03 Jun 2027 03:49:01.762   03 Jun 2027 03:49:14.909            13.147          6573.500
        51   03 Jun 2027 03:49:29.138   03 Jun 2027 03:50:59.897            90.759         45379.500
        52   03 Jun 2027 03:51:08.429   03 Jun 2027 03:52:57.988           109.559         54779.500
        53   03 Jun 2027 03:53:29.685   03 Jun 2027 03:53:34.288             4.603          2301.500
        54   03 Jun 2027 03:54:15.372   03 Jun 2027 03:54:35.895            20.523         10261.500
        55   03 Jun 2027 03:54:51.739   03 Jun 2027 03:54:58.460             6.721          3360.500
        56   03 Jun 2027 05:28:25.573   03 Jun 2027 05:29:43.628            78.055         38912.532
        57   03 Jun 2027 05:30:01.003   03 Jun 2027 05:30:04.844             3.841           454.656
        58   03 Jun 2027 05:30:55.944   03 Jun 2027 05:30:59.906             3.962          1103.125
        59   03 Jun 2027 05:31:10.330   03 Jun 2027 05:31:12.798             2.468           317.094
        60   03 Jun 2027 05:32:49.168   03 Jun 2027 05:32:57.486             8.318          3011.563
        61   03 Jun 2027 06:51:59.501   03 Jun 2027 06:52:17.720            18.219          8397.750
        62   03 Jun 2027 06:52:49.765   03 Jun 2027 06:52:52.390             2.625           821.844
        63   03 Jun 2027 07:04:31.787   03 Jun 2027 07:04:33.549             1.762           881.000
        64   03 Jun 2027 08:25:49.802   03 Jun 2027 08:26:04.874            15.072          6300.687
        65   03 Jun 2027 08:27:04.009   03 Jun 2027 08:27:07.746             3.737          1178.531
        66   03 Jun 2027 08:28:21.674   03 Jun 2027 08:28:21.674             0.000             0.000
        67   03 Jun 2027 08:28:53.589   03 Jun 2027 08:28:59.853             6.264          2397.187
        68   03 Jun 2027 08:30:18.024   03 Jun 2027 08:30:23.015             4.991          1768.281
        69   03 Jun 2027 08:31:00.179   03 Jun 2027 08:31:04.714             4.535           667.281
        70   03 Jun 2027 10:00:44.370   03 Jun 2027 10:00:44.991             0.621           310.500
        71   03 Jun 2027 10:01:39.335   03 Jun 2027 10:01:52.281            12.946          5108.188
        72   03 Jun 2027 10:03:01.643   03 Jun 2027 10:03:04.163             2.520           641.219
        73   03 Jun 2027 10:03:41.989   03 Jun 2027 10:03:41.989             0.000             0.000
        74   03 Jun 2027 10:06:33.507   03 Jun 2027 10:06:43.547            10.040          5020.000
        75   03 Jun 2027 10:09:43.975   03 Jun 2027 10:09:58.938            14.963          6763.688
        76   03 Jun 2027 11:38:44.616   03 Jun 2027 11:38:59.624            15.008          6144.687
        77   03 Jun 2027 11:44:29.785   03 Jun 2027 11:44:51.987            22.202         10093.469
        78   03 Jun 2027 11:45:58.081   03 Jun 2027 11:46:02.091             4.010          1907.875
        79   04 Jun 2027 04:01:39.584   04 Jun 2027 04:01:46.803             7.219          3609.500
        80   04 Jun 2027 04:02:01.027   04 Jun 2027 04:03:02.336            61.309         30654.500
        81   04 Jun 2027 04:03:07.183   04 Jun 2027 04:05:46.552           159.369         79684.500
        82   04 Jun 2027 04:06:20.745   04 Jun 2027 04:06:45.779            25.034         12517.000
        83   04 Jun 2027 05:40:25.849   04 Jun 2027 05:41:15.283            49.434         24717.000
        84   04 Jun 2027 05:41:38.890   04 Jun 2027 05:42:09.996            31.106         15553.000
        85   04 Jun 2027 05:43:31.912   04 Jun 2027 05:43:41.758             9.846          4824.438
        86   04 Jun 2027 05:44:45.291   04 Jun 2027 05:44:45.291             0.000             0.000
        87   04 Jun 2027 07:03:55.904   04 Jun 2027 07:04:18.238            22.334          8356.750
        88   04 Jun 2027 07:05:08.960   04 Jun 2027 07:05:12.143             3.183          1585.062
        89   04 Jun 2027 07:06:10.522   04 Jun 2027 07:06:13.194             2.672          1336.000
        90   04 Jun 2027 08:40:08.383   04 Jun 2027 08:40:14.813             6.430          3215.000
        91   04 Jun 2027 08:40:38.787   04 Jun 2027 08:40:38.787             0.000             0.000
        92   04 Jun 2027 08:40:51.516   04 Jun 2027 08:40:59.863             8.347          3837.219
        93   04 Jun 2027 08:42:58.491   04 Jun 2027 08:42:58.491             0.000             0.000
        94   04 Jun 2027 10:13:41.269   04 Jun 2027 10:13:57.395            16.126          5775.500
        95   04 Jun 2027 10:18:32.994   04 Jun 2027 10:18:47.792            14.798          7215.125
        96   04 Jun 2027 10:21:21.758   04 Jun 2027 10:21:29.808             8.050          3741.063
        97   04 Jun 2027 10:21:50.450   04 Jun 2027 10:21:52.000             1.550           444.500
        98   04 Jun 2027 10:22:15.581   04 Jun 2027 10:22:15.742             0.161            80.500
        99   04 Jun 2027 11:51:07.061   04 Jun 2027 11:51:22.017            14.956          7478.000
       100   04 Jun 2027 11:51:56.015   04 Jun 2027 11:52:00.750             4.735          1596.187
       101   04 Jun 2027 11:53:29.153   04 Jun 2027 11:53:35.092             5.939          2057.531
       102   04 Jun 2027 11:53:37.841   04 Jun 2027 11:53:37.963             0.122            61.000
       103   04 Jun 2027 11:54:21.686   04 Jun 2027 11:54:26.874             5.188          1391.250
       104   04 Jun 2027 11:55:00.159   04 Jun 2027 11:55:05.634             5.475           626.969
       105   04 Jun 2027 11:55:30.407   04 Jun 2027 11:55:33.729             3.322           258.156
       106   04 Jun 2027 11:55:38.385   04 Jun 2027 11:55:40.746             2.361           134.781
       107   04 Jun 2027 11:56:23.699   04 Jun 2027 11:56:28.296             4.597          1342.281
       108   04 Jun 2027 11:56:57.570   04 Jun 2027 11:57:00.930             3.360           866.344
       109   04 Jun 2027 11:57:05.212   04 Jun 2027 11:57:07.378             2.166           133.813
       110   04 Jun 2027 11:57:25.774   04 Jun 2027 11:57:27.111             1.337           574.875
       111   05 Jun 2027 04:14:06.263   05 Jun 2027 04:14:23.436            17.173          8586.500
       112   05 Jun 2027 04:15:01.203   05 Jun 2027 04:17:32.220           151.017         75508.500
       113   05 Jun 2027 04:17:56.856   05 Jun 2027 04:18:16.762            19.906          9953.000
       114   05 Jun 2027 04:18:54.887   05 Jun 2027 04:18:54.887             0.000             0.000
       115   05 Jun 2027 04:19:29.970   05 Jun 2027 04:19:49.708            19.738          9869.000
       116   05 Jun 2027 04:19:59.140   05 Jun 2027 04:20:17.052            17.912          8956.000
       117   05 Jun 2027 05:52:07.110   05 Jun 2027 05:53:34.216            87.106         43553.000
       118   05 Jun 2027 05:54:20.289   05 Jun 2027 05:54:42.156            21.867         10716.500
       119   05 Jun 2027 05:56:23.373   05 Jun 2027 05:56:23.939             0.566           283.000
       120   05 Jun 2027 07:15:47.554   05 Jun 2027 07:16:00.331            12.777          6356.344
       121   05 Jun 2027 07:17:10.271   05 Jun 2027 07:17:15.931             5.660          1852.250
       122   05 Jun 2027 07:17:49.143   05 Jun 2027 07:17:53.140             3.997           612.406
       123   05 Jun 2027 08:52:14.625   05 Jun 2027 08:52:38.771            24.146          8695.687
       124   05 Jun 2027 08:54:58.625   05 Jun 2027 08:54:58.625             0.000             0.000
       125   05 Jun 2027 10:24:25.747   05 Jun 2027 10:24:32.350             6.603          3301.500
       126   05 Jun 2027 10:26:42.597   05 Jun 2027 10:26:57.881            15.284          6732.688
       127   05 Jun 2027 10:29:25.382   05 Jun 2027 10:29:31.867             6.485          2471.437
       128   05 Jun 2027 10:30:14.715   05 Jun 2027 10:30:18.095             3.380          1010.313
       129   05 Jun 2027 10:31:25.985   05 Jun 2027 10:31:25.985             0.000             0.000
       130   05 Jun 2027 10:33:03.085   05 Jun 2027 10:33:10.029             6.944          3472.000
       131   05 Jun 2027 10:33:12.104   05 Jun 2027 10:33:15.868             3.764          1257.781
       132   05 Jun 2027 10:34:03.146   05 Jun 2027 10:34:09.146             6.000          1084.844
       133   06 Jun 2027 04:26:12.378   06 Jun 2027 04:27:15.500            63.122         31561.000
       134   06 Jun 2027 04:27:22.521   06 Jun 2027 04:29:04.170           101.649         50824.500
       135   06 Jun 2027 04:29:33.199   06 Jun 2027 04:30:30.639            57.440         28720.000
       136   06 Jun 2027 04:31:01.753   06 Jun 2027 04:31:31.203            29.450         14725.000
       137   06 Jun 2027 06:05:20.729   06 Jun 2027 06:06:59.172            98.443         48835.219
       138   06 Jun 2027 06:07:49.811   06 Jun 2027 06:07:54.507             4.696          1558.875
       139   06 Jun 2027 06:08:52.781   06 Jun 2027 06:08:54.081             1.300           650.000
       140   06 Jun 2027 07:27:53.925   06 Jun 2027 07:28:00.938             7.013          3506.500
       141   06 Jun 2027 07:29:11.345   06 Jun 2027 07:29:21.996            10.651          3966.875
       142   06 Jun 2027 07:29:35.566   06 Jun 2027 07:29:37.336             1.770           329.750
       143   06 Jun 2027 09:04:43.854   06 Jun 2027 09:04:56.919            13.065          6107.750
       144   06 Jun 2027 09:06:38.488   06 Jun 2027 09:06:43.549             5.061          2416.813
       145   06 Jun 2027 09:07:22.139   06 Jun 2027 09:07:24.510             2.371          1128.750
       146   06 Jun 2027 10:40:01.954   06 Jun 2027 10:40:01.954             0.000             0.000
       147   06 Jun 2027 10:40:37.165   06 Jun 2027 10:40:51.620            14.455          7079.312
       148   06 Jun 2027 10:41:52.255   06 Jun 2027 10:41:53.404             1.149             9.344
       149   06 Jun 2027 10:42:14.466   06 Jun 2027 10:42:19.583             5.117           439.531
       150   06 Jun 2027 10:45:34.872   06 Jun 2027 10:45:44.283             9.411          4705.500
       151   06 Jun 2027 10:46:05.670   06 Jun 2027 10:46:10.464             4.794          1754.125
       152   06 Jun 2027 10:46:14.261   06 Jun 2027 10:46:14.845             0.584           118.656
       153   07 Jun 2027 03:00:06.337   07 Jun 2027 03:00:26.793            20.456         10228.000
       154   07 Jun 2027 03:00:46.798   07 Jun 2027 03:01:09.563            22.765         11382.500
       155   07 Jun 2027 03:01:22.120   07 Jun 2027 03:01:38.604            16.484          8242.000
       156   07 Jun 2027 03:01:47.209   07 Jun 2027 03:01:47.209             0.000             0.000
       157   07 Jun 2027 03:01:50.492   07 Jun 2027 03:02:03.944            13.452          6726.000
       158   07 Jun 2027 03:03:41.347   07 Jun 2027 03:03:42.191             0.844           422.000
       159   07 Jun 2027 03:03:49.004   07 Jun 2027 03:03:57.431             8.427          4213.500
       160   07 Jun 2027 03:04:34.147   07 Jun 2027 03:04:36.219             2.072          1036.000
       161   07 Jun 2027 03:04:36.793   07 Jun 2027 03:05:00.358            23.565         11782.500
       162   07 Jun 2027 03:06:13.855   07 Jun 2027 03:06:31.480            17.625          8812.500
       163   07 Jun 2027 04:38:16.994   07 Jun 2027 04:38:58.407            41.413         20706.500
       164   07 Jun 2027 04:39:20.545   07 Jun 2027 04:40:37.170            76.625         38312.500
       165   07 Jun 2027 04:41:03.279   07 Jun 2027 04:41:19.167            15.888          7944.000
       166   07 Jun 2027 04:41:33.942   07 Jun 2027 04:41:52.462            18.520          9260.000
       167   07 Jun 2027 04:42:21.631   07 Jun 2027 04:43:01.102            39.471         19735.500
       168   07 Jun 2027 04:44:22.821   07 Jun 2027 04:44:24.825             2.004          1002.000
       169   07 Jun 2027 06:16:49.872   07 Jun 2027 06:16:59.020             9.148          4574.000
       170   07 Jun 2027 06:17:00.601   07 Jun 2027 06:17:06.227             5.626          2813.000
       171   07 Jun 2027 06:17:34.858   07 Jun 2027 06:17:41.412             6.554          3192.781
       172   07 Jun 2027 06:18:39.430   07 Jun 2027 06:18:45.805             6.375          1690.125
       173   07 Jun 2027 06:19:16.706   07 Jun 2027 06:19:18.597             1.891           232.344
       174   07 Jun 2027 06:19:51.900   07 Jun 2027 06:19:54.231             2.331           918.531
       175   07 Jun 2027 07:39:56.811   07 Jun 2027 07:40:09.776            12.965          6239.031
       176   07 Jun 2027 07:40:37.318   07 Jun 2027 07:40:39.968             2.650           514.063
       177   07 Jun 2027 07:41:16.663   07 Jun 2027 07:41:18.493             1.830           718.781
       178   07 Jun 2027 07:42:33.203   07 Jun 2027 07:42:39.468             6.265          2199.469
       179   07 Jun 2027 09:16:25.403   07 Jun 2027 09:16:34.418             9.015          4176.031
       180   07 Jun 2027 10:51:37.830   07 Jun 2027 10:51:49.653            11.823          5911.500
       181   07 Jun 2027 10:53:02.686   07 Jun 2027 10:53:02.686             0.000             0.000
       182   07 Jun 2027 10:53:34.325   07 Jun 2027 10:53:46.030            11.705          5619.031
       183   07 Jun 2027 10:53:52.935   07 Jun 2027 10:53:55.209             2.274            31.250
       184   07 Jun 2027 10:55:12.819   07 Jun 2027 10:55:18.495             5.676          1834.563
       185   07 Jun 2027 10:55:23.404   07 Jun 2027 10:55:24.374             0.970           153.406
       186   07 Jun 2027 10:55:29.455   07 Jun 2027 10:55:32.363             2.908           158.781
       187   07 Jun 2027 10:55:49.687   07 Jun 2027 10:55:50.700             1.013           457.156
       188   07 Jun 2027 10:56:30.562   07 Jun 2027 10:56:34.199             3.637          1194.687
       189   07 Jun 2027 10:57:13.209   07 Jun 2027 10:57:13.209             0.000             0.000
       190   07 Jun 2027 10:57:45.139   07 Jun 2027 10:57:50.372             5.233          1881.719
       191   07 Jun 2027 10:58:07.003   07 Jun 2027 10:58:09.708             2.705           519.719
       192   08 Jun 2027 03:12:04.111   08 Jun 2027 03:12:18.940            14.829          7414.500
       193   08 Jun 2027 03:12:20.036   08 Jun 2027 03:15:01.207           161.171         80585.500
       194   08 Jun 2027 03:15:21.221   08 Jun 2027 03:15:30.564             9.343          4671.500
       195   08 Jun 2027 03:17:46.495   08 Jun 2027 03:17:55.042             8.547          4273.500
       196   08 Jun 2027 03:18:28.515   08 Jun 2027 03:18:35.218             6.703          3351.500
       197   08 Jun 2027 04:51:21.600   08 Jun 2027 04:52:46.170            84.570         42285.000
       198   08 Jun 2027 04:53:28.277   08 Jun 2027 04:53:47.509            19.232          9536.813
       199   08 Jun 2027 04:54:11.766   08 Jun 2027 04:54:14.942             3.176           538.344
       200   08 Jun 2027 04:56:03.870   08 Jun 2027 04:56:12.244             8.374          2835.656
       201   08 Jun 2027 04:57:31.232   08 Jun 2027 04:57:35.803             4.571          1713.250
       202   08 Jun 2027 04:58:17.772   08 Jun 2027 04:58:21.016             3.244          1177.813
       203   08 Jun 2027 06:17:33.733   08 Jun 2027 06:17:43.955            10.222          4860.688
       204   08 Jun 2027 06:28:25.558   08 Jun 2027 06:28:34.049             8.491          3630.188
       205   08 Jun 2027 06:29:25.629   08 Jun 2027 06:29:27.306             1.677           838.500
       206   08 Jun 2027 06:29:36.160   08 Jun 2027 06:29:38.325             2.165          1050.062
       207   08 Jun 2027 06:30:32.362   08 Jun 2027 06:30:35.516             3.154          1268.437
       208   08 Jun 2027 06:31:12.815   08 Jun 2027 06:31:15.526             2.711          1165.594
       209   08 Jun 2027 07:52:23.756   08 Jun 2027 07:52:42.317            18.561          8232.156
       210   08 Jun 2027 07:52:56.159   08 Jun 2027 07:53:03.763             7.604           241.625
       211   08 Jun 2027 07:54:27.340   08 Jun 2027 07:54:32.376             5.036          2337.812
       212   08 Jun 2027 07:54:47.880   08 Jun 2027 07:54:50.213             2.333           453.000
       213   08 Jun 2027 09:28:24.231   08 Jun 2027 09:28:24.231             0.000             0.000
       214   08 Jun 2027 09:28:28.523   08 Jun 2027 09:28:41.600            13.077          6437.813
       215   08 Jun 2027 09:30:44.485   08 Jun 2027 09:30:52.939             8.454          3674.781
       216   08 Jun 2027 11:02:52.157   08 Jun 2027 11:03:02.309            10.152          5076.000
       217   08 Jun 2027 11:03:32.500   08 Jun 2027 11:03:32.500             0.000             0.000
       218   08 Jun 2027 11:05:32.383   08 Jun 2027 11:05:47.882            15.499          6390.938
       219   08 Jun 2027 11:06:19.484   08 Jun 2027 11:06:21.601             2.117           987.562
       220   08 Jun 2027 11:09:48.071   08 Jun 2027 11:10:02.609            14.538          6452.188
       221   08 Jun 2027 11:10:17.382   08 Jun 2027 11:10:19.691             2.309           461.656
       222   09 Jun 2027 03:24:44.347   09 Jun 2027 03:26:42.931           118.584         59292.000
       223   09 Jun 2027 03:27:18.447   09 Jun 2027 03:28:06.578            48.131         24065.500
       224   09 Jun 2027 03:28:24.241   09 Jun 2027 03:29:01.883            37.642         18821.000
       225   09 Jun 2027 03:29:21.816   09 Jun 2027 03:29:34.637            12.821          6410.500
       226   09 Jun 2027 03:29:42.066   09 Jun 2027 03:29:42.066             0.000             0.000
       227   09 Jun 2027 03:29:58.937   09 Jun 2027 03:30:12.391            13.454          6727.000
       228   09 Jun 2027 03:30:31.442   09 Jun 2027 03:30:40.772             9.330          4665.000
       229   09 Jun 2027 05:03:43.940   09 Jun 2027 05:04:41.659            57.719         28859.500
       230   09 Jun 2027 05:04:57.453   09 Jun 2027 05:05:21.935            24.482         10613.875
       231   09 Jun 2027 05:05:51.005   09 Jun 2027 05:05:53.254             2.249           834.062
       232   09 Jun 2027 05:06:03.844   09 Jun 2027 05:06:04.970             1.126           226.125
       233   09 Jun 2027 05:06:38.031   09 Jun 2027 05:06:39.399             1.368           262.000
       234   09 Jun 2027 05:07:05.035   09 Jun 2027 05:07:06.454             1.419           547.031
       235   09 Jun 2027 05:08:38.215   09 Jun 2027 05:08:38.766             0.551           275.500
       236   09 Jun 2027 05:09:09.370   09 Jun 2027 05:09:17.381             8.011          3507.875
       237   09 Jun 2027 05:09:29.113   09 Jun 2027 05:09:32.225             3.112           366.625
       238   09 Jun 2027 05:09:45.431   09 Jun 2027 05:09:46.493             1.062           107.563
       239   09 Jun 2027 05:09:51.743   09 Jun 2027 05:09:54.622             2.879           104.437
       240   09 Jun 2027 06:28:48.198   09 Jun 2027 06:29:03.154            14.956          5406.938
       241   09 Jun 2027 06:40:26.820   09 Jun 2027 06:40:28.282             1.462           731.000
       242   09 Jun 2027 06:40:40.262   09 Jun 2027 06:40:46.936             6.674          2652.375
       243   09 Jun 2027 06:41:28.456   09 Jun 2027 06:41:30.344             1.888           944.000
       244   09 Jun 2027 08:02:59.862   09 Jun 2027 08:03:13.422            13.560          6687.156
       245   09 Jun 2027 08:05:12.484   09 Jun 2027 08:05:22.756            10.272          3638.875
       246   09 Jun 2027 08:06:32.988   09 Jun 2027 08:06:39.447             6.459          2101.531
       247   09 Jun 2027 08:06:53.025   09 Jun 2027 08:06:54.165             1.140           150.187
       248   09 Jun 2027 09:38:03.230   09 Jun 2027 09:38:04.803             1.573           786.500
       249   09 Jun 2027 09:42:44.606   09 Jun 2027 09:43:10.125            25.519         12553.563
       250   09 Jun 2027 09:43:34.222   09 Jun 2027 09:43:38.667             4.445           675.125
       251   09 Jun 2027 09:44:09.562   09 Jun 2027 09:44:09.562             0.000             0.000
       252   09 Jun 2027 11:17:59.827   09 Jun 2027 11:18:15.184            15.357          7678.500
       253   09 Jun 2027 11:21:34.162   09 Jun 2027 11:21:53.421            19.259          8456.625
       254   09 Jun 2027 11:22:02.481   09 Jun 2027 11:22:04.815             2.334           176.813
       255   09 Jun 2027 11:22:08.280   09 Jun 2027 11:22:15.095             6.815           108.281
       256   10 Jun 2027 03:37:00.794   10 Jun 2027 03:39:18.691           137.897         68948.500
       257   10 Jun 2027 03:41:21.859   10 Jun 2027 03:42:40.600            78.741         39370.500
       258   10 Jun 2027 03:42:48.769   10 Jun 2027 03:42:56.381             7.612          3806.000
       259   10 Jun 2027 05:16:03.580   10 Jun 2027 05:17:23.739            80.159         40079.500
       260   10 Jun 2027 05:18:14.967   10 Jun 2027 05:18:22.836             7.869          3534.843
       261   10 Jun 2027 05:19:31.966   10 Jun 2027 05:19:34.868             2.902          1146.906
       262   10 Jun 2027 05:20:22.589   10 Jun 2027 05:20:22.589             0.000             0.000
       263   10 Jun 2027 05:20:36.129   10 Jun 2027 05:20:39.488             3.359          1167.500
       264   10 Jun 2027 05:21:15.547   10 Jun 2027 05:21:16.570             1.023           147.125
       265   10 Jun 2027 05:21:43.800   10 Jun 2027 05:21:46.019             2.219           850.937
       266   10 Jun 2027 05:22:37.567   10 Jun 2027 05:22:43.058             5.491          1583.437
       267   10 Jun 2027 06:40:09.178   10 Jun 2027 06:40:31.684            22.506          7393.500
       268   10 Jun 2027 06:40:56.283   10 Jun 2027 06:40:57.942             1.659           524.531
       269   10 Jun 2027 06:41:16.113   10 Jun 2027 06:41:23.115             7.002           562.031
       270   10 Jun 2027 06:52:24.196   10 Jun 2027 06:52:31.945             7.749          2959.188
       271   10 Jun 2027 08:14:29.605   10 Jun 2027 08:14:45.008            15.403          7679.406
       272   10 Jun 2027 08:14:55.184   10 Jun 2027 08:14:55.184             0.000             0.000
       273   10 Jun 2027 08:15:33.540   10 Jun 2027 08:15:38.991             5.451          1274.688
       274   10 Jun 2027 08:17:11.890   10 Jun 2027 08:17:23.239            11.349          2903.094
       275   10 Jun 2027 08:18:31.908   10 Jun 2027 08:18:37.773             5.865          1903.313
       276   10 Jun 2027 08:19:01.835   10 Jun 2027 08:19:04.103             2.268           676.563
       277   10 Jun 2027 09:49:27.924   10 Jun 2027 09:49:39.352            11.428          4627.875
       278   10 Jun 2027 09:50:49.513   10 Jun 2027 09:50:49.908             0.395           197.500
       279   10 Jun 2027 09:51:03.469   10 Jun 2027 09:51:03.469             0.000             0.000
       280   10 Jun 2027 09:54:15.407   10 Jun 2027 09:54:15.407             0.000             0.000
       281   10 Jun 2027 09:56:00.000   10 Jun 2027 09:56:10.184            10.185          5092.500
       282   10 Jun 2027 11:28:50.402   10 Jun 2027 11:29:18.501            28.099         13559.656
       283   10 Jun 2027 11:33:14.414   10 Jun 2027 11:33:29.644            15.230          6501.250
       284   10 Jun 2027 11:33:54.833   10 Jun 2027 11:33:59.327             4.494           779.437
       285   11 Jun 2027 03:49:26.439   11 Jun 2027 03:49:32.268             5.829          2914.500
       286   11 Jun 2027 03:49:47.262   11 Jun 2027 03:51:14.680            87.418         43709.000
       287   11 Jun 2027 03:52:57.465   11 Jun 2027 03:54:52.758           115.293         57646.500
       288   11 Jun 2027 05:28:08.197   11 Jun 2027 05:29:56.068           107.871         53668.188
       289   11 Jun 2027 05:30:05.972   11 Jun 2027 05:30:06.887             0.915           166.625
       290   11 Jun 2027 05:32:00.926   11 Jun 2027 05:32:01.520             0.594           297.000
       291   11 Jun 2027 05:32:07.613   11 Jun 2027 05:32:12.783             5.170          2431.031
       292   11 Jun 2027 05:32:25.664   11 Jun 2027 05:32:27.437             1.773           402.531
       293   11 Jun 2027 05:33:48.616   11 Jun 2027 05:33:48.616             0.000             0.000
       294   11 Jun 2027 06:52:16.319   11 Jun 2027 06:52:26.935            10.616          5253.500
       295   11 Jun 2027 06:52:50.045   11 Jun 2027 06:52:51.381             1.336           346.406
       296   11 Jun 2027 06:53:24.737   11 Jun 2027 06:53:28.879             4.142           547.531
       297   11 Jun 2027 06:54:01.589   11 Jun 2027 06:54:05.904             4.315           495.844
       298   11 Jun 2027 08:26:05.863   11 Jun 2027 08:26:19.881            14.018          6859.250
       299   11 Jun 2027 08:26:58.393   11 Jun 2027 08:27:00.906             2.513           180.781
       300   11 Jun 2027 08:28:04.993   11 Jun 2027 08:28:07.793             2.800          1342.000
       301   11 Jun 2027 08:29:07.671   11 Jun 2027 08:29:10.602             2.931          1465.500
       302   11 Jun 2027 08:31:15.654   11 Jun 2027 08:31:27.656            12.002          4285.094
       303   11 Jun 2027 10:00:58.377   11 Jun 2027 10:01:02.290             3.913          1956.500
       304   11 Jun 2027 10:01:55.014   11 Jun 2027 10:02:04.112             9.098          3482.125
       305   11 Jun 2027 10:02:34.346   11 Jun 2027 10:02:37.414             3.068           846.188
       306   11 Jun 2027 10:03:03.999   11 Jun 2027 10:03:12.754             8.755           830.781
       307   11 Jun 2027 10:06:51.166   11 Jun 2027 10:06:59.084             7.918          3959.000
       308   11 Jun 2027 10:09:59.889   11 Jun 2027 10:10:23.601            23.712          8261.531
       309   11 Jun 2027 11:39:03.795   11 Jun 2027 11:39:19.887            16.092          6490.000
       310   11 Jun 2027 11:39:36.404   11 Jun 2027 11:39:41.180             4.776           516.156
       311   11 Jun 2027 11:40:19.114   11 Jun 2027 11:40:27.079             7.965          1018.875
       312   11 Jun 2027 11:40:47.909   11 Jun 2027 11:40:48.421             0.512           104.219
       313   11 Jun 2027 11:42:00.035   11 Jun 2027 11:42:06.864             6.829          1801.094
       314   11 Jun 2027 11:43:17.139   11 Jun 2027 11:43:21.400             4.261          1305.812
       315   11 Jun 2027 11:43:29.177   11 Jun 2027 11:43:30.286             1.109           243.031
       316   11 Jun 2027 11:43:36.729   11 Jun 2027 11:43:37.265             0.536           191.125
       317   11 Jun 2027 11:44:44.017   11 Jun 2027 11:44:49.565             5.548          1905.781
       318   11 Jun 2027 11:45:47.823   11 Jun 2027 11:45:52.348             4.525          1379.594
       319   11 Jun 2027 11:46:29.401   11 Jun 2027 11:46:30.683             1.282           641.000
       320   12 Jun 2027 04:01:57.738   12 Jun 2027 04:02:00.555             2.817          1408.500
       321   12 Jun 2027 04:02:19.380   12 Jun 2027 04:03:19.082            59.702         29851.000
       322   12 Jun 2027 04:03:24.191   12 Jun 2027 04:06:03.568           159.377         79688.500
       323   12 Jun 2027 04:06:23.507   12 Jun 2027 04:06:23.624             0.117            58.500
       324   12 Jun 2027 04:06:45.106   12 Jun 2027 04:06:54.388             9.282          4641.000
       325   12 Jun 2027 04:07:18.679   12 Jun 2027 04:07:37.799            19.120          9560.000
       326   12 Jun 2027 05:40:44.862   12 Jun 2027 05:42:02.725            77.863         38931.500
       327   12 Jun 2027 05:42:29.770   12 Jun 2027 05:42:45.115            15.345          6676.407
       328   12 Jun 2027 05:44:04.555   12 Jun 2027 05:44:14.675            10.120          1709.750
       329   12 Jun 2027 05:45:19.047   12 Jun 2027 05:45:22.104             3.057          1426.500
       330   12 Jun 2027 07:04:14.305   12 Jun 2027 07:04:31.948            17.643          6639.219
       331   12 Jun 2027 07:05:26.222   12 Jun 2027 07:05:26.222             0.000             0.000
       332   12 Jun 2027 07:05:27.804   12 Jun 2027 07:05:30.761             2.957          1478.500
       333   12 Jun 2027 07:06:28.386   12 Jun 2027 07:06:31.144             2.758          1379.000
       334   12 Jun 2027 08:40:14.926   12 Jun 2027 08:40:39.141            24.215         10984.688
       335   12 Jun 2027 08:40:51.240   12 Jun 2027 08:40:55.286             4.046           148.187
       336   12 Jun 2027 08:41:08.457   12 Jun 2027 08:41:08.457             0.000             0.000
       337   12 Jun 2027 08:41:33.444   12 Jun 2027 08:41:38.281             4.837          1104.062
       338   12 Jun 2027 08:42:51.888   12 Jun 2027 08:42:57.777             5.889          1944.594
       339   12 Jun 2027 08:43:31.705   12 Jun 2027 08:43:34.739             3.034          1010.312
       340   12 Jun 2027 10:13:58.599   12 Jun 2027 10:14:09.313            10.714          3257.719
       341   12 Jun 2027 10:16:33.413   12 Jun 2027 10:16:34.363             0.950           475.000
       342   12 Jun 2027 10:18:50.593   12 Jun 2027 10:19:05.788            15.195          6698.875
       343   12 Jun 2027 10:21:36.714   12 Jun 2027 10:21:44.866             8.152          3725.563
       344   12 Jun 2027 10:22:03.661   12 Jun 2027 10:22:06.159             2.498           480.688
       345   12 Jun 2027 10:22:14.619   12 Jun 2027 10:22:16.532             1.913           264.375
       346   12 Jun 2027 11:51:26.923   12 Jun 2027 11:51:46.259            19.336          7747.531
       347   12 Jun 2027 11:53:34.835   12 Jun 2027 11:53:35.157             0.322           161.000
       348   12 Jun 2027 11:54:39.736   12 Jun 2027 11:54:50.788            11.052          5025.906
       349   12 Jun 2027 11:55:52.387   12 Jun 2027 11:55:56.656             4.269          1721.969
       350   12 Jun 2027 11:56:40.217   12 Jun 2027 11:56:44.066             3.849          1348.500
       351   12 Jun 2027 11:56:55.050   12 Jun 2027 11:56:55.050             0.000             0.000
       352   12 Jun 2027 11:57:12.793   12 Jun 2027 11:57:14.726             1.933           878.719
       353   12 Jun 2027 11:57:20.424   12 Jun 2027 11:57:23.130             2.706            94.875
       354   12 Jun 2027 11:57:38.986   12 Jun 2027 11:57:41.472             2.486           495.500
       355   12 Jun 2027 11:58:10.520   12 Jun 2027 11:58:12.820             2.300           857.688
       356   13 Jun 2027 04:14:22.211   13 Jun 2027 04:14:50.241            28.030         14015.000
       357   13 Jun 2027 04:14:54.254   13 Jun 2027 04:17:31.586           157.332         78666.000
       358   13 Jun 2027 04:17:59.440   13 Jun 2027 04:18:05.452             6.012          3006.000
       359   13 Jun 2027 04:18:53.561   13 Jun 2027 04:19:23.665            30.104         15052.000
       360   13 Jun 2027 04:19:45.598   13 Jun 2027 04:20:05.028            19.430          9715.000
       361   13 Jun 2027 05:52:24.641   13 Jun 2027 05:53:16.340            51.699         25849.500
       362   13 Jun 2027 05:53:19.845   13 Jun 2027 05:53:54.469            34.624         17312.000
       363   13 Jun 2027 05:54:38.904   13 Jun 2027 05:54:41.860             2.956          1478.000
       364   13 Jun 2027 05:54:46.864   13 Jun 2027 05:54:55.063             8.199          3796.594
       365   13 Jun 2027 05:56:40.722   13 Jun 2027 05:56:45.568             4.846          2423.000
       366   13 Jun 2027 05:56:52.829   13 Jun 2027 05:56:54.674             1.845           794.406
       367   13 Jun 2027 07:16:04.107   13 Jun 2027 07:16:18.440            14.333          6983.563
       368   13 Jun 2027 07:17:27.513   13 Jun 2027 07:17:34.630             7.117          1912.281
       369   13 Jun 2027 07:18:03.862   13 Jun 2027 07:18:09.880             6.018           557.031
       370   13 Jun 2027 08:52:30.981   13 Jun 2027 08:52:52.156            21.175          8143.594
       371   13 Jun 2027 08:53:18.121   13 Jun 2027 08:53:22.178             4.057           811.406
       372   13 Jun 2027 08:55:01.757   13 Jun 2027 08:55:12.426            10.669          2528.656
       373   13 Jun 2027 10:24:39.615   13 Jun 2027 10:24:50.070            10.455          5227.500
       374   13 Jun 2027 10:28:26.296   13 Jun 2027 10:28:27.532             1.236           618.000
       375   13 Jun 2027 10:28:34.874   13 Jun 2027 10:28:49.083            14.209          6726.969
       376   13 Jun 2027 10:30:01.779   13 Jun 2027 10:30:05.537             3.758           766.406
       377   13 Jun 2027 10:31:10.331   13 Jun 2027 10:31:15.908             5.577          1926.500
       378   13 Jun 2027 10:33:47.690   13 Jun 2027 10:33:55.732             8.042          3937.344
       379   13 Jun 2027 10:34:28.176   13 Jun 2027 10:34:30.461             2.285          1013.875
