uniorb/output/strategy_2/Camera/Camera_KinoSat_111202.txt

KinoSat_111202
-------------------------
    Access    *     Start Time (UTCG)     *     Stop Time (UTCG)  *   Duration (s) *   Data (Mbytes)
         1   01 Jun 2027 03:49:35.183   01 Jun 2027 03:50:02.193            27.010         13505.000
         2   01 Jun 2027 04:00:30.828   01 Jun 2027 04:03:58.506           207.678        103839.000
         3   01 Jun 2027 05:24:27.806   01 Jun 2027 05:25:03.559            35.753         17876.500
         4   01 Jun 2027 05:25:33.401   01 Jun 2027 05:25:39.051             5.650          2825.000
         5   01 Jun 2027 05:25:48.477   01 Jun 2027 05:26:04.842            16.365          8182.500
         6   01 Jun 2027 07:00:12.696   01 Jun 2027 07:02:05.393           112.697         56348.500
         7   01 Jun 2027 07:03:09.745   01 Jun 2027 07:04:07.266            57.521         28760.500
         8   01 Jun 2027 07:04:16.140   01 Jun 2027 07:04:20.409             4.269          2134.500
         9   01 Jun 2027 08:34:56.531   01 Jun 2027 08:38:13.958           197.427         98713.500
        10   01 Jun 2027 08:41:50.861   01 Jun 2027 08:42:27.127            36.266         18133.000
        11   01 Jun 2027 10:11:44.588   01 Jun 2027 10:13:57.967           133.379         66689.500
        12   01 Jun 2027 10:14:14.561   01 Jun 2027 10:14:28.889            14.328          7164.000
        13   01 Jun 2027 11:49:59.568   01 Jun 2027 11:50:57.713            58.145         29072.500
        14   01 Jun 2027 11:51:30.938   01 Jun 2027 11:52:08.116            37.178         18589.000
        15   01 Jun 2027 11:52:57.968   01 Jun 2027 11:53:01.009             3.041          1520.500
        16   01 Jun 2027 11:53:13.874   01 Jun 2027 11:53:36.975            23.101         11550.500
        17   02 Jun 2027 04:00:51.337   02 Jun 2027 04:02:12.691            81.354         40677.000
        18   02 Jun 2027 04:12:30.703   02 Jun 2027 04:13:57.226            86.523         43261.500
        19   02 Jun 2027 05:35:03.405   02 Jun 2027 05:36:03.980            60.575         30287.500
        20   02 Jun 2027 05:36:44.612   02 Jun 2027 05:37:39.659            55.047         27523.500
        21   02 Jun 2027 05:37:56.794   02 Jun 2027 05:37:56.794             0.000             0.000
        22   02 Jun 2027 05:38:59.562   02 Jun 2027 05:39:06.433             6.871          3435.500
        23   02 Jun 2027 07:10:06.879   02 Jun 2027 07:11:24.978            78.099         39049.500
        24   02 Jun 2027 07:11:57.146   02 Jun 2027 07:13:56.001           118.855         59427.500
        25   02 Jun 2027 08:47:04.839   02 Jun 2027 08:49:00.359           115.520         54935.750
        26   02 Jun 2027 08:51:54.959   02 Jun 2027 08:52:02.580             7.621          3810.500
        27   02 Jun 2027 08:52:50.834   02 Jun 2027 08:52:59.313             8.479          2773.812
        28   02 Jun 2027 08:53:42.428   02 Jun 2027 08:53:44.779             2.351          1175.500
        29   02 Jun 2027 08:54:23.174   02 Jun 2027 08:54:25.267             2.093          1046.500
        30   02 Jun 2027 08:54:26.803   02 Jun 2027 08:54:29.053             2.250           373.187
        31   02 Jun 2027 10:24:03.055   02 Jun 2027 10:24:22.104            19.049          9524.500
        32   02 Jun 2027 10:24:56.086   02 Jun 2027 10:25:00.211             4.125          1155.969
        33   02 Jun 2027 10:25:48.287   02 Jun 2027 10:25:51.058             2.771           841.688
        34   02 Jun 2027 10:26:39.273   02 Jun 2027 10:26:41.925             2.652            38.344
        35   02 Jun 2027 10:27:34.301   02 Jun 2027 10:27:42.078             7.777          1636.750
        36   02 Jun 2027 10:28:46.059   02 Jun 2027 10:28:53.663             7.604          1999.406
        37   02 Jun 2027 10:29:21.182   02 Jun 2027 10:29:23.914             2.732           654.281
        38   03 Jun 2027 04:12:12.436   03 Jun 2027 04:13:29.631            77.195         38597.500
        39   03 Jun 2027 04:24:28.770   03 Jun 2027 04:25:24.391            55.621         27810.500
        40   03 Jun 2027 05:46:27.746   03 Jun 2027 05:47:51.398            83.652         41826.000
        41   03 Jun 2027 05:48:35.661   03 Jun 2027 05:49:17.359            41.698         20849.000
        42   03 Jun 2027 05:49:43.990   03 Jun 2027 05:49:43.990             0.000             0.000
        43   03 Jun 2027 05:50:40.328   03 Jun 2027 05:50:56.473            16.145          8072.500
        44   03 Jun 2027 07:21:31.744   03 Jun 2027 07:22:22.882            51.138         25069.250
        45   03 Jun 2027 07:23:21.972   03 Jun 2027 07:23:26.361             4.389          1692.875
        46   03 Jun 2027 07:23:56.855   03 Jun 2027 07:23:57.909             1.054           266.687
        47   03 Jun 2027 07:24:31.913   03 Jun 2027 07:24:35.811             3.898          1062.625
        48   03 Jun 2027 07:25:20.401   03 Jun 2027 07:25:20.401             0.000             0.000
        49   03 Jun 2027 07:25:46.587   03 Jun 2027 07:25:50.581             3.994          1816.875
        50   03 Jun 2027 07:26:53.583   03 Jun 2027 07:26:58.304             4.721          1351.938
        51   03 Jun 2027 07:27:17.264   03 Jun 2027 07:27:19.132             1.868           592.500
        52   03 Jun 2027 07:27:41.640   03 Jun 2027 07:27:45.968             4.328           190.938
        53   03 Jun 2027 07:28:43.114   03 Jun 2027 07:28:47.460             4.346          1785.812
        54   03 Jun 2027 07:28:54.337   03 Jun 2027 07:28:56.924             2.587           166.188
        55   03 Jun 2027 07:30:07.633   03 Jun 2027 07:30:09.526             1.893           946.500
        56   03 Jun 2027 08:59:07.837   03 Jun 2027 08:59:18.881            11.044          5403.438
        57   03 Jun 2027 09:00:01.301   03 Jun 2027 09:00:05.185             3.884          1059.531
        58   03 Jun 2027 09:00:27.721   03 Jun 2027 09:00:32.483             4.762           701.344
        59   03 Jun 2027 09:01:02.020   03 Jun 2027 09:01:04.710             2.690           392.406
        60   03 Jun 2027 09:01:29.877   03 Jun 2027 09:01:31.627             1.750           786.469
        61   03 Jun 2027 09:03:26.960   03 Jun 2027 09:03:36.071             9.111          3238.281
        62   03 Jun 2027 09:03:46.982   03 Jun 2027 09:03:54.651             7.669           196.125
        63   03 Jun 2027 09:04:45.352   03 Jun 2027 09:04:48.232             2.880          1440.000
        64   03 Jun 2027 09:05:06.300   03 Jun 2027 09:05:06.300             0.000             0.000
        65   03 Jun 2027 09:05:16.251   03 Jun 2027 09:05:18.691             2.440          1020.000
        66   03 Jun 2027 09:06:08.270   03 Jun 2027 09:06:11.488             3.218          1549.344
        67   03 Jun 2027 09:06:20.448   03 Jun 2027 09:06:21.915             1.467           261.469
        68   03 Jun 2027 09:06:32.671   03 Jun 2027 09:06:32.902             0.231           115.500
        69   03 Jun 2027 10:35:52.657   03 Jun 2027 10:36:08.551            15.894          7947.000
        70   03 Jun 2027 10:36:10.931   03 Jun 2027 10:36:14.396             3.465          1484.219
        71   03 Jun 2027 10:37:10.725   03 Jun 2027 10:37:22.497            11.772          1415.156
        72   03 Jun 2027 10:38:38.087   03 Jun 2027 10:38:44.226             6.139          2086.219
        73   03 Jun 2027 10:38:47.004   03 Jun 2027 10:38:47.282             0.278            86.812
        74   03 Jun 2027 10:39:04.035   03 Jun 2027 10:39:06.272             2.237           523.531
        75   03 Jun 2027 10:39:46.514   03 Jun 2027 10:39:54.461             7.947          1123.562
        76   03 Jun 2027 10:40:05.234   03 Jun 2027 10:40:06.666             1.432           336.656
        77   03 Jun 2027 10:40:37.562   03 Jun 2027 10:40:42.961             5.399           965.500
        78   03 Jun 2027 10:41:15.724   03 Jun 2027 10:41:19.147             3.423          1023.844
        79   03 Jun 2027 10:41:56.976   03 Jun 2027 10:42:00.221             3.245          1182.156
        80   03 Jun 2027 10:42:26.762   03 Jun 2027 10:42:28.716             1.954           770.031
        81   04 Jun 2027 03:00:08.210   04 Jun 2027 03:00:53.601            45.391         22695.500
        82   04 Jun 2027 03:01:30.914   04 Jun 2027 03:01:33.350             2.436          1218.000
        83   04 Jun 2027 03:02:07.685   04 Jun 2027 03:02:51.771            44.086         22043.000
        84   04 Jun 2027 03:03:49.120   04 Jun 2027 03:04:01.691            12.571          6285.500
        85   04 Jun 2027 03:04:05.268   04 Jun 2027 03:04:24.876            19.608          9804.000
        86   04 Jun 2027 03:04:32.967   04 Jun 2027 03:04:52.024            19.057          9528.500
        87   04 Jun 2027 04:24:20.112   04 Jun 2027 04:25:06.770            46.658         23329.000
        88   04 Jun 2027 04:26:13.753   04 Jun 2027 04:26:14.644             0.891           445.500
        89   04 Jun 2027 04:36:51.513   04 Jun 2027 04:36:55.894             4.381          2190.500
        90   04 Jun 2027 05:58:09.624   04 Jun 2027 06:00:38.487           148.863         74123.094
        91   04 Jun 2027 07:33:02.254   04 Jun 2027 07:33:17.339            15.085          6794.906
        92   04 Jun 2027 07:34:06.840   04 Jun 2027 07:34:09.517             2.677           999.531
        93   04 Jun 2027 07:35:15.958   04 Jun 2027 07:35:20.937             4.979          1985.656
        94   04 Jun 2027 07:36:09.113   04 Jun 2027 07:36:12.118             3.005          1254.281
        95   04 Jun 2027 07:36:25.788   04 Jun 2027 07:36:28.732             2.944           303.844
        96   04 Jun 2027 07:37:22.686   04 Jun 2027 07:37:27.335             4.649          1304.750
        97   04 Jun 2027 07:38:11.265   04 Jun 2027 07:38:11.265             0.000             0.000
        98   04 Jun 2027 07:38:46.913   04 Jun 2027 07:38:53.206             6.293          2177.219
        99   04 Jun 2027 07:39:20.340   04 Jun 2027 07:39:22.063             1.723           697.594
       100   04 Jun 2027 07:39:43.493   04 Jun 2027 07:39:45.568             2.075            16.125
       101   04 Jun 2027 07:40:05.775   04 Jun 2027 07:40:07.176             1.401           631.469
       102   04 Jun 2027 07:40:17.319   04 Jun 2027 07:40:21.619             4.300           172.281
       103   04 Jun 2027 07:40:47.636   04 Jun 2027 07:40:52.393             4.757           392.219
       104   04 Jun 2027 07:41:48.045   04 Jun 2027 07:41:54.128             6.083          1695.469
       105   04 Jun 2027 07:42:05.628   04 Jun 2027 07:42:06.353             0.725           359.375
       106   04 Jun 2027 07:42:29.807   04 Jun 2027 07:42:33.001             3.194           319.094
       107   04 Jun 2027 09:11:07.633   04 Jun 2027 09:11:25.061            17.428          7651.844
       108   04 Jun 2027 09:12:28.294   04 Jun 2027 09:12:30.513             2.219          1094.688
       109   04 Jun 2027 09:13:27.077   04 Jun 2027 09:13:29.500             2.423          1129.875
       110   04 Jun 2027 09:13:57.446   04 Jun 2027 09:13:59.223             1.777           791.063
       111   04 Jun 2027 09:15:20.040   04 Jun 2027 09:15:26.829             6.789          2525.531
       112   04 Jun 2027 09:15:54.389   04 Jun 2027 09:15:58.125             3.736           861.250
       113   04 Jun 2027 09:16:07.000   04 Jun 2027 09:16:08.015             1.015            46.344
       114   04 Jun 2027 09:16:31.325   04 Jun 2027 09:16:33.101             1.776           728.437
       115   04 Jun 2027 09:16:42.109   04 Jun 2027 09:16:42.109             0.000             0.000
       116   04 Jun 2027 09:16:45.891   04 Jun 2027 09:16:46.884             0.993           399.687
       117   04 Jun 2027 09:18:00.199   04 Jun 2027 09:18:04.774             4.575          1879.531
       118   04 Jun 2027 09:18:20.166   04 Jun 2027 09:18:21.911             1.745           453.375
       119   04 Jun 2027 09:18:22.214   04 Jun 2027 09:18:24.393             2.179             9.469
       120   04 Jun 2027 10:48:00.994   04 Jun 2027 10:48:14.137            13.143          6537.625
       121   04 Jun 2027 10:48:33.430   04 Jun 2027 10:48:34.470             1.040           452.812
       122   04 Jun 2027 10:48:36.297   04 Jun 2027 10:48:36.896             0.599            57.094
       123   04 Jun 2027 10:49:32.134   04 Jun 2027 10:49:45.163            13.029           877.250
       124   04 Jun 2027 10:50:19.164   04 Jun 2027 10:50:24.471             5.307           755.281
       125   04 Jun 2027 10:50:59.165   04 Jun 2027 10:51:00.448             1.283           641.500
       126   04 Jun 2027 10:51:55.046   04 Jun 2027 10:51:57.862             2.816          1408.000
       127   04 Jun 2027 10:52:11.099   04 Jun 2027 10:52:12.780             1.681           818.813
       128   04 Jun 2027 10:52:45.804   04 Jun 2027 10:52:47.864             2.060           932.500
       129   04 Jun 2027 10:52:55.278   04 Jun 2027 10:52:57.883             2.605           231.687
       130   04 Jun 2027 10:53:46.886   04 Jun 2027 10:53:50.299             3.413           948.000
       131   05 Jun 2027 03:12:33.504   05 Jun 2027 03:15:55.059           201.555        100777.500
       132   05 Jun 2027 03:16:02.147   05 Jun 2027 03:16:16.201            14.054          7027.000
       133   05 Jun 2027 04:36:16.609   05 Jun 2027 04:36:56.202            39.593         19796.500
       134   05 Jun 2027 04:37:13.936   05 Jun 2027 04:37:32.075            18.139          9069.500
       135   05 Jun 2027 06:12:28.821   05 Jun 2027 06:13:27.273            58.452         26902.906
       136   05 Jun 2027 06:14:24.841   05 Jun 2027 06:14:29.952             5.111          1799.000
       137   05 Jun 2027 07:46:02.168   05 Jun 2027 07:46:16.642            14.474          4332.250
       138   05 Jun 2027 07:47:28.570   05 Jun 2027 07:47:31.490             2.920           378.625
       139   05 Jun 2027 07:48:32.346   05 Jun 2027 07:48:34.979             2.633          1036.938
       140   05 Jun 2027 07:49:47.053   05 Jun 2027 07:49:52.955             5.902          2126.719
       141   05 Jun 2027 07:50:57.078   05 Jun 2027 07:51:04.566             7.488          2003.844
       142   05 Jun 2027 07:51:42.846   05 Jun 2027 07:51:44.239             1.393           696.500
       143   05 Jun 2027 07:52:41.399   05 Jun 2027 07:52:43.749             2.350          1175.000
       144   05 Jun 2027 07:53:01.638   05 Jun 2027 07:53:04.448             2.810          1213.031
       145   05 Jun 2027 07:53:36.928   05 Jun 2027 07:53:37.691             0.763           381.500
       146   05 Jun 2027 07:53:55.500   05 Jun 2027 07:54:00.056             4.556          1190.000
       147   05 Jun 2027 07:54:14.725   05 Jun 2027 07:54:19.173             4.448           370.500
       148   05 Jun 2027 07:54:19.485   05 Jun 2027 07:54:19.552             0.067             9.750
       149   05 Jun 2027 09:23:30.472   05 Jun 2027 09:23:43.375            12.903          6197.594
       150   05 Jun 2027 09:24:00.487   05 Jun 2027 09:24:01.755             1.268           502.562
       151   05 Jun 2027 09:24:23.312   05 Jun 2027 09:24:25.267             1.955           665.406
       152   05 Jun 2027 09:25:35.580   05 Jun 2027 09:25:38.610             3.030           174.906
       153   05 Jun 2027 09:25:52.691   05 Jun 2027 09:25:53.643             0.952           341.000
       154   05 Jun 2027 09:27:01.781   05 Jun 2027 09:27:05.611             3.830          1355.656
       155   05 Jun 2027 09:27:17.289   05 Jun 2027 09:27:18.331             1.042           219.344
       156   05 Jun 2027 09:27:42.260   05 Jun 2027 09:27:43.869             1.609           673.812
       157   05 Jun 2027 09:28:19.280   05 Jun 2027 09:28:21.516             2.236           716.031
       158   05 Jun 2027 09:28:38.744   05 Jun 2027 09:28:40.857             2.113           363.594
       159   05 Jun 2027 09:29:41.152   05 Jun 2027 09:29:49.260             8.108          1712.437
       160   05 Jun 2027 09:29:51.327   05 Jun 2027 09:29:52.038             0.711            64.594
       161   05 Jun 2027 09:30:13.808   05 Jun 2027 09:30:17.899             4.091           680.313
       162   05 Jun 2027 11:00:29.288   05 Jun 2027 11:00:50.227            20.939          5810.219
       163   05 Jun 2027 11:02:00.289   05 Jun 2027 11:02:08.606             8.317          1812.625
       164   05 Jun 2027 11:02:25.121   05 Jun 2027 11:02:26.968             1.847           217.250
       165   05 Jun 2027 11:02:59.558   05 Jun 2027 11:03:00.891             1.333            39.250
       166   05 Jun 2027 11:03:36.060   05 Jun 2027 11:03:40.491             4.431           764.531
       167   05 Jun 2027 11:03:50.400   05 Jun 2027 11:03:51.547             1.147           225.313
       168   05 Jun 2027 11:04:08.301   05 Jun 2027 11:04:10.694             2.393           323.938
       169   05 Jun 2027 11:04:23.827   05 Jun 2027 11:04:24.381             0.554           169.219
       170   05 Jun 2027 11:04:49.031   05 Jun 2027 11:04:51.067             2.036           742.156
       171   05 Jun 2027 11:05:39.963   05 Jun 2027 11:05:43.156             3.193          1528.000
       172   05 Jun 2027 11:06:04.258   05 Jun 2027 11:06:06.994             2.736           479.719
       173   06 Jun 2027 03:24:28.307   06 Jun 2027 03:28:08.980           220.673        110336.500
       174   06 Jun 2027 04:48:07.332   06 Jun 2027 04:48:40.425            33.093         16546.500
       175   06 Jun 2027 04:49:12.112   06 Jun 2027 04:49:33.033            20.921         10460.500
       176   06 Jun 2027 06:24:34.220   06 Jun 2027 06:25:23.474            49.254         23244.407
       177   06 Jun 2027 06:26:21.884   06 Jun 2027 06:26:27.033             5.149          1825.312
       178   06 Jun 2027 06:26:37.296   06 Jun 2027 06:26:38.666             1.370           277.375
       179   06 Jun 2027 06:27:08.944   06 Jun 2027 06:27:10.845             1.901           814.969
       180   06 Jun 2027 07:56:43.720   06 Jun 2027 07:56:53.515             9.795          4897.500
       181   06 Jun 2027 07:58:41.175   06 Jun 2027 07:58:46.412             5.237           904.094
       182   06 Jun 2027 07:59:31.743   06 Jun 2027 07:59:35.609             3.866           478.719
       183   06 Jun 2027 08:00:31.700   06 Jun 2027 08:00:31.700             0.000             0.000
       184   06 Jun 2027 08:00:34.230   06 Jun 2027 08:00:35.355             1.125           310.500
       185   06 Jun 2027 08:02:00.044   06 Jun 2027 08:02:05.219             5.175          2411.656
       186   06 Jun 2027 08:02:24.486   06 Jun 2027 08:02:25.533             1.047           163.188
       187   06 Jun 2027 08:03:26.070   06 Jun 2027 08:03:26.070             0.000             0.000
       188   06 Jun 2027 08:03:49.553   06 Jun 2027 08:03:56.742             7.189          1693.562
       189   06 Jun 2027 08:05:09.248   06 Jun 2027 08:05:14.460             5.212          2217.406
       190   06 Jun 2027 08:05:33.606   06 Jun 2027 08:05:35.877             2.271           342.938
       191   06 Jun 2027 08:05:59.601   06 Jun 2027 08:06:01.783             2.182           531.594
       192   06 Jun 2027 08:06:26.246   06 Jun 2027 08:06:30.622             4.376           567.594
       193   06 Jun 2027 09:35:39.613   06 Jun 2027 09:35:54.488            14.875          5931.281
       194   06 Jun 2027 09:36:51.137   06 Jun 2027 09:36:53.097             1.960           109.375
       195   06 Jun 2027 09:37:00.002   06 Jun 2027 09:37:00.943             0.941           214.156
       196   06 Jun 2027 09:37:18.602   06 Jun 2027 09:37:22.052             3.450           551.844
       197   06 Jun 2027 09:38:21.083   06 Jun 2027 09:38:25.034             3.951          1140.094
       198   06 Jun 2027 09:38:50.586   06 Jun 2027 09:38:53.571             2.985           646.688
       199   06 Jun 2027 09:40:07.049   06 Jun 2027 09:40:10.807             3.758          1788.875
       200   06 Jun 2027 09:40:44.771   06 Jun 2027 09:40:45.394             0.623           286.250
       201   06 Jun 2027 09:41:40.547   06 Jun 2027 09:41:44.280             3.733          1712.000
       202   06 Jun 2027 09:41:50.851   06 Jun 2027 09:41:52.398             1.547           205.344
       203   06 Jun 2027 09:42:15.718   06 Jun 2027 09:42:19.057             3.339           286.063
       204   06 Jun 2027 09:42:19.965   06 Jun 2027 09:42:20.353             0.388            28.375
       205   06 Jun 2027 11:12:59.114   06 Jun 2027 11:13:13.552            14.438          6960.000
       206   06 Jun 2027 11:14:26.536   06 Jun 2027 11:14:30.361             3.825          1471.562
       207   06 Jun 2027 11:15:31.781   06 Jun 2027 11:15:37.440             5.659          1919.375
       208   06 Jun 2027 11:15:57.867   06 Jun 2027 11:15:57.867             0.000             0.000
       209   06 Jun 2027 11:16:29.555   06 Jun 2027 11:16:33.310             3.755          1619.781
       210   06 Jun 2027 11:17:37.638   06 Jun 2027 11:17:44.993             7.355          1459.906
       211   07 Jun 2027 03:37:41.784   07 Jun 2027 03:39:43.752           121.968         60984.000
       212   07 Jun 2027 03:40:10.811   07 Jun 2027 03:40:44.797            33.986         16993.000
       213   07 Jun 2027 05:00:15.500   07 Jun 2027 05:01:54.238            98.738         49369.000
       214   07 Jun 2027 06:36:43.775   07 Jun 2027 06:37:32.958            49.183         23447.968
       215   07 Jun 2027 06:39:21.503   07 Jun 2027 06:39:28.970             7.467          2890.188
       216   07 Jun 2027 06:39:55.908   07 Jun 2027 06:39:59.881             3.973           810.500
       217   07 Jun 2027 08:11:54.724   07 Jun 2027 08:12:06.449            11.725          4397.688
       218   07 Jun 2027 08:12:54.120   07 Jun 2027 08:13:04.568            10.448          1179.156
       219   07 Jun 2027 08:13:27.836   07 Jun 2027 08:13:30.519             2.683           397.250
       220   07 Jun 2027 08:13:39.059   07 Jun 2027 08:13:39.221             0.162            65.000
       221   07 Jun 2027 08:14:27.239   07 Jun 2027 08:14:34.166             6.927          1394.313
       222   07 Jun 2027 08:15:26.769   07 Jun 2027 08:15:31.168             4.399          1064.438
       223   07 Jun 2027 08:16:18.502   07 Jun 2027 08:16:22.783             4.281           921.281
       224   07 Jun 2027 08:16:28.606   07 Jun 2027 08:16:29.149             0.543           181.969
       225   07 Jun 2027 08:16:52.243   07 Jun 2027 08:16:57.523             5.280           707.750
       226   07 Jun 2027 08:17:08.670   07 Jun 2027 08:17:10.141             1.471           348.344
       227   07 Jun 2027 08:17:57.475   07 Jun 2027 08:18:01.296             3.821          1479.188
       228   07 Jun 2027 08:18:29.479   07 Jun 2027 08:18:32.610             3.131           880.719
       229   07 Jun 2027 09:48:13.540   07 Jun 2027 09:48:32.169            18.629          9102.531
       230   07 Jun 2027 09:49:01.750   07 Jun 2027 09:49:12.869            11.119           196.813
       231   07 Jun 2027 09:49:19.510   07 Jun 2027 09:49:25.623             6.113           202.500
       232   07 Jun 2027 09:50:19.803   07 Jun 2027 09:50:23.771             3.968           702.875
       233   07 Jun 2027 09:50:28.964   07 Jun 2027 09:50:29.360             0.396           141.031
       234   07 Jun 2027 09:51:08.742   07 Jun 2027 09:51:14.218             5.476          1155.812
       235   07 Jun 2027 09:51:55.868   07 Jun 2027 09:52:01.206             5.338           920.563
       236   07 Jun 2027 09:52:12.766   07 Jun 2027 09:52:13.891             1.125           206.719
       237   07 Jun 2027 09:52:50.781   07 Jun 2027 09:52:52.216             1.435           630.406
       238   07 Jun 2027 09:53:52.570   07 Jun 2027 09:53:58.763             6.193          1886.062
       239   07 Jun 2027 09:54:03.014   07 Jun 2027 09:54:05.080             2.066           122.375
       240   07 Jun 2027 11:25:36.699   07 Jun 2027 11:25:53.829            17.130          5976.250
       241   07 Jun 2027 11:26:15.938   07 Jun 2027 11:26:19.115             3.177           660.750
       242   07 Jun 2027 11:27:06.080   07 Jun 2027 11:27:09.378             3.298          1467.656
       243   07 Jun 2027 11:27:21.227   07 Jun 2027 11:27:22.992             1.765           328.875
       244   07 Jun 2027 11:27:29.653   07 Jun 2027 11:27:33.681             4.028           205.750
       245   07 Jun 2027 11:28:21.846   07 Jun 2027 11:28:24.816             2.970          1397.469
       246   07 Jun 2027 11:28:59.591   07 Jun 2027 11:29:01.618             2.027           894.031
       247   07 Jun 2027 11:29:17.919   07 Jun 2027 11:29:23.437             5.518           476.125
       248   08 Jun 2027 03:48:49.363   08 Jun 2027 03:49:27.079            37.716         18858.000
       249   08 Jun 2027 03:49:55.870   08 Jun 2027 03:52:12.584           136.714         68357.000
       250   08 Jun 2027 05:12:16.613   08 Jun 2027 05:13:53.521            96.908         48454.000
       251   08 Jun 2027 05:14:09.684   08 Jun 2027 05:14:21.340            11.656          5828.000
       252   08 Jun 2027 06:48:44.105   08 Jun 2027 06:49:17.717            33.612         15327.781
       253   08 Jun 2027 06:50:00.435   08 Jun 2027 06:50:06.963             6.528           967.406
       254   08 Jun 2027 06:50:45.638   08 Jun 2027 06:50:52.401             6.763          1067.281
       255   08 Jun 2027 06:51:25.282   08 Jun 2027 06:51:27.684             2.402           794.000
       256   08 Jun 2027 06:51:56.405   08 Jun 2027 06:51:56.717             0.312           156.000
       257   08 Jun 2027 08:23:56.932   08 Jun 2027 08:24:08.586            11.654          5547.562
       258   08 Jun 2027 08:24:15.025   08 Jun 2027 08:24:17.076             2.051           196.063
       259   08 Jun 2027 08:26:03.454   08 Jun 2027 08:26:06.846             3.392          1082.062
       260   08 Jun 2027 08:26:12.895   08 Jun 2027 08:26:14.094             1.199           189.031
       261   08 Jun 2027 08:26:41.689   08 Jun 2027 08:26:47.073             5.384           597.156
       262   08 Jun 2027 08:26:50.325   08 Jun 2027 08:26:51.278             0.953            44.031
       263   08 Jun 2027 08:27:22.043   08 Jun 2027 08:27:24.133             2.090           166.437
       264   08 Jun 2027 08:28:00.416   08 Jun 2027 08:28:05.512             5.096           917.938
       265   08 Jun 2027 08:28:26.289   08 Jun 2027 08:28:28.095             1.806           336.469
       266   08 Jun 2027 08:29:45.353   08 Jun 2027 08:29:49.139             3.786          1597.094
       267   08 Jun 2027 08:30:13.603   08 Jun 2027 08:30:15.498             1.895           733.938
       268   08 Jun 2027 09:59:52.310   08 Jun 2027 10:00:07.992            15.682          7151.844
       269   08 Jun 2027 10:01:22.877   08 Jun 2027 10:01:28.763             5.886           644.062
       270   08 Jun 2027 10:01:34.996   08 Jun 2027 10:01:40.387             5.391            98.281
       271   08 Jun 2027 10:02:37.381   08 Jun 2027 10:02:41.073             3.692          1065.281
       272   08 Jun 2027 10:03:34.907   08 Jun 2027 10:03:39.852             4.945          1258.000
       273   08 Jun 2027 10:04:17.383   08 Jun 2027 10:04:23.343             5.960          1172.844
       274   08 Jun 2027 10:04:55.565   08 Jun 2027 10:04:58.578             3.013           994.937
       275   08 Jun 2027 10:05:38.896   08 Jun 2027 10:05:42.876             3.980          1224.062
       276   08 Jun 2027 10:06:08.737   08 Jun 2027 10:06:10.078             1.341           447.844
       277   08 Jun 2027 11:37:51.315   08 Jun 2027 11:38:09.141            17.826          8382.344
       278   08 Jun 2027 11:38:46.524   08 Jun 2027 11:38:51.205             4.681          1151.563
       279   08 Jun 2027 11:39:17.097   08 Jun 2027 11:39:23.674             6.577           322.969
       280   08 Jun 2027 11:39:54.320   08 Jun 2027 11:39:56.311             1.991           418.406
       281   08 Jun 2027 11:40:47.292   08 Jun 2027 11:40:51.028             3.736          1566.531
       282   08 Jun 2027 11:41:15.836   08 Jun 2027 11:41:15.836             0.000             0.000
       283   08 Jun 2027 11:41:48.113   08 Jun 2027 11:41:52.574             4.461          1783.906
       284   09 Jun 2027 03:49:49.267   09 Jun 2027 03:50:18.285            29.018         14509.000
       285   09 Jun 2027 04:00:46.372   09 Jun 2027 04:04:14.829           208.457        104228.500
       286   09 Jun 2027 05:24:42.897   09 Jun 2027 05:25:17.111            34.214         17107.000
       287   09 Jun 2027 05:25:57.503   09 Jun 2027 05:26:21.487            23.984         11992.000
       288   09 Jun 2027 07:00:28.395   09 Jun 2027 07:00:46.409            18.014          9007.000
       289   09 Jun 2027 07:01:00.054   09 Jun 2027 07:01:05.136             5.082          2541.000
       290   09 Jun 2027 07:02:20.028   09 Jun 2027 07:02:41.958            21.930          9456.313
       291   09 Jun 2027 07:03:17.613   09 Jun 2027 07:03:17.613             0.000             0.000
       292   09 Jun 2027 07:03:44.591   09 Jun 2027 07:03:49.542             4.951          1899.969
       293   09 Jun 2027 07:04:37.566   09 Jun 2027 07:04:37.566             0.000             0.000
       294   09 Jun 2027 08:35:12.245   09 Jun 2027 08:35:23.333            11.088          4260.219
       295   09 Jun 2027 08:35:46.985   09 Jun 2027 08:35:48.216             1.231           440.812
       296   09 Jun 2027 08:36:13.924   09 Jun 2027 08:36:18.017             4.093           734.781
       297   09 Jun 2027 08:38:30.950   09 Jun 2027 08:38:35.263             4.313          1924.531
       298   09 Jun 2027 08:38:43.703   09 Jun 2027 08:38:46.846             3.143           167.781
       299   09 Jun 2027 08:38:59.111   09 Jun 2027 08:39:01.362             2.251           347.719
       300   09 Jun 2027 08:39:33.163   09 Jun 2027 08:39:42.733             9.570           960.344
       301   09 Jun 2027 08:40:18.966   09 Jun 2027 08:40:21.050             2.084           618.469
       302   09 Jun 2027 08:40:56.503   09 Jun 2027 08:40:59.001             2.498           314.906
       303   09 Jun 2027 08:41:10.179   09 Jun 2027 08:41:11.823             1.644           209.687
       304   09 Jun 2027 08:42:02.636   09 Jun 2027 08:42:04.388             1.752           876.000
       305   09 Jun 2027 08:42:06.049   09 Jun 2027 08:42:07.523             1.474           737.000
       306   09 Jun 2027 08:42:18.495   09 Jun 2027 08:42:24.102             5.607           369.687
       307   09 Jun 2027 08:42:39.514   09 Jun 2027 08:42:40.566             1.052           201.781
       308   09 Jun 2027 10:12:02.012   09 Jun 2027 10:12:18.845            16.833          8080.219
       309   09 Jun 2027 10:13:55.370   09 Jun 2027 10:13:59.134             3.764          1474.437
       310   09 Jun 2027 10:14:47.158   09 Jun 2027 10:14:50.542             3.384          1238.125
       311   09 Jun 2027 10:15:41.111   09 Jun 2027 10:15:44.368             3.257          1088.813
       312   09 Jun 2027 10:16:32.453   09 Jun 2027 10:16:36.941             4.488          1502.656
       313   09 Jun 2027 10:17:08.753   09 Jun 2027 10:17:10.802             2.049           956.000
       314   09 Jun 2027 10:18:13.288   09 Jun 2027 10:18:17.867             4.579          1952.687
       315   09 Jun 2027 11:50:13.905   09 Jun 2027 11:50:28.267            14.362          6568.094
       316   09 Jun 2027 11:52:06.190   09 Jun 2027 11:52:13.419             7.229          3060.094
       317   09 Jun 2027 11:52:33.503   09 Jun 2027 11:52:34.123             0.620           310.000
       318   09 Jun 2027 11:52:43.444   09 Jun 2027 11:52:52.878             9.434           334.938
       319   09 Jun 2027 11:53:14.604   09 Jun 2027 11:53:15.623             1.019           509.500
       320   09 Jun 2027 11:53:23.867   09 Jun 2027 11:53:28.688             4.821           373.031
       321   10 Jun 2027 04:01:06.997   10 Jun 2027 04:02:05.995            58.998         29499.000
       322   10 Jun 2027 04:02:28.112   10 Jun 2027 04:02:29.349             1.237           618.500
       323   10 Jun 2027 04:12:46.911   10 Jun 2027 04:14:12.451            85.540         42770.000
       324   10 Jun 2027 05:35:17.922   10 Jun 2027 05:36:19.251            61.329         30664.500
       325   10 Jun 2027 05:37:00.098   10 Jun 2027 05:37:54.164            54.066         27033.000
       326   10 Jun 2027 05:39:24.144   10 Jun 2027 05:39:35.508            11.364          5682.000
       327   10 Jun 2027 07:10:21.304   10 Jun 2027 07:11:11.603            50.299         24168.938
       328   10 Jun 2027 07:11:39.097   10 Jun 2027 07:11:40.602             1.505           688.812
       329   10 Jun 2027 07:13:06.631   10 Jun 2027 07:13:14.168             7.537          1963.250
       330   10 Jun 2027 07:14:03.605   10 Jun 2027 07:14:06.800             3.195          1185.219
       331   10 Jun 2027 07:15:14.037   10 Jun 2027 07:15:14.145             0.108            54.000
       332   10 Jun 2027 07:15:40.866   10 Jun 2027 07:15:46.420             5.554          2770.625
       333   10 Jun 2027 07:16:23.499   10 Jun 2027 07:16:26.529             3.030          1133.687
       334   10 Jun 2027 07:16:44.893   10 Jun 2027 07:16:44.893             0.000             0.000
       335   10 Jun 2027 07:16:47.253   10 Jun 2027 07:16:48.287             1.034           265.750
       336   10 Jun 2027 08:47:20.273   10 Jun 2027 08:47:33.578            13.305          4262.438
       337   10 Jun 2027 08:48:15.273   10 Jun 2027 08:48:18.591             3.318          1009.031
       338   10 Jun 2027 08:48:35.419   10 Jun 2027 08:48:39.494             4.075           496.531
       339   10 Jun 2027 08:49:40.858   10 Jun 2027 08:49:44.224             3.366          1191.688
       340   10 Jun 2027 08:50:35.236   10 Jun 2027 08:50:36.677             1.441           400.781
       341   10 Jun 2027 08:51:08.954   10 Jun 2027 08:51:11.159             2.205           612.531
       342   10 Jun 2027 08:51:48.581   10 Jun 2027 08:51:53.438             4.857          1020.719
       343   10 Jun 2027 08:52:21.186   10 Jun 2027 08:52:23.152             1.966           262.531
       344   10 Jun 2027 08:52:57.711   10 Jun 2027 08:52:58.765             1.054           399.625
       345   10 Jun 2027 08:53:17.179   10 Jun 2027 08:53:20.230             3.051           575.438
       346   10 Jun 2027 08:53:51.504   10 Jun 2027 08:53:54.075             2.571           930.437
       347   10 Jun 2027 08:54:22.885   10 Jun 2027 08:54:30.159             7.274           800.906
       348   10 Jun 2027 10:24:18.310   10 Jun 2027 10:24:35.632            17.322          8638.469
       349   10 Jun 2027 10:25:13.295   10 Jun 2027 10:25:17.038             3.743          1124.500
       350   10 Jun 2027 10:26:55.218   10 Jun 2027 10:27:01.988             6.770          2276.125
       351   10 Jun 2027 10:27:16.128   10 Jun 2027 10:27:19.906             3.778           133.344
       352   10 Jun 2027 10:27:31.196   10 Jun 2027 10:27:38.431             7.235           274.375
       353   10 Jun 2027 10:28:02.205   10 Jun 2027 10:28:03.025             0.820            16.531
       354   10 Jun 2027 10:29:02.814   10 Jun 2027 10:29:10.958             8.144          1729.406
       355   10 Jun 2027 10:30:05.926   10 Jun 2027 10:30:08.893             2.967          1119.469
       356   11 Jun 2027 04:12:27.982   11 Jun 2027 04:13:57.198            89.216         44608.000
       357   11 Jun 2027 04:14:39.242   11 Jun 2027 04:14:39.242             0.000             0.000
       358   11 Jun 2027 04:24:44.321   11 Jun 2027 04:25:39.702            55.381         27690.500
       359   11 Jun 2027 05:46:42.839   11 Jun 2027 05:48:07.176            84.337         42168.500
       360   11 Jun 2027 05:48:50.720   11 Jun 2027 05:49:42.318            51.598         25799.000
       361   11 Jun 2027 07:21:44.521   11 Jun 2027 07:22:27.042            42.521         21169.156
       362   11 Jun 2027 07:23:19.249   11 Jun 2027 07:23:20.646             1.397           698.500
       363   11 Jun 2027 07:24:16.502   11 Jun 2027 07:24:22.574             6.072          2678.469
       364   11 Jun 2027 07:25:54.085   11 Jun 2027 07:25:58.618             4.533          2000.687
       365   11 Jun 2027 07:27:14.276   11 Jun 2027 07:27:18.926             4.650          2220.844
       366   11 Jun 2027 07:28:22.328   11 Jun 2027 07:28:25.580             3.252          1479.812
       367   11 Jun 2027 07:28:29.507   11 Jun 2027 07:28:31.708             2.201           122.719
       368   11 Jun 2027 07:28:40.704   11 Jun 2027 07:28:40.704             0.000             0.000
       369   11 Jun 2027 07:29:17.312   11 Jun 2027 07:29:20.991             3.679          1425.125
       370   11 Jun 2027 07:29:54.078   11 Jun 2027 07:29:56.871             2.793           923.312
       371   11 Jun 2027 07:30:20.641   11 Jun 2027 07:30:20.641             0.000             0.000
       372   11 Jun 2027 08:59:22.228   11 Jun 2027 08:59:33.590            11.362          5528.844
       373   11 Jun 2027 08:59:59.983   11 Jun 2027 09:00:04.598             4.615           824.781
       374   11 Jun 2027 09:02:16.124   11 Jun 2027 09:02:25.023             8.899          3655.375
       375   11 Jun 2027 09:03:41.555   11 Jun 2027 09:03:47.180             5.625          2391.625
       376   11 Jun 2027 09:04:37.593   11 Jun 2027 09:04:49.655            12.062          1555.875
       377   11 Jun 2027 09:06:02.334   11 Jun 2027 09:06:06.382             4.048          2024.000
       378   11 Jun 2027 09:06:26.794   11 Jun 2027 09:06:28.968             2.174           643.750
       379   11 Jun 2027 09:06:39.798   11 Jun 2027 09:06:40.815             1.017           161.813
       380   11 Jun 2027 10:36:08.321   11 Jun 2027 10:36:23.713            15.392          6417.188
       381   11 Jun 2027 10:36:27.646   11 Jun 2027 10:36:29.524             1.878           122.906
       382   11 Jun 2027 10:37:17.613   11 Jun 2027 10:37:20.848             3.235          1502.781
       383   11 Jun 2027 10:38:19.029   11 Jun 2027 10:38:23.008             3.979          1291.188
       384   11 Jun 2027 10:39:25.951   11 Jun 2027 10:39:29.696             3.745          1642.813
       385   11 Jun 2027 10:39:43.869   11 Jun 2027 10:39:45.747             1.878           430.406
       386   11 Jun 2027 10:40:22.929   11 Jun 2027 10:40:25.352             2.423          1110.063
       387   11 Jun 2027 10:40:54.150   11 Jun 2027 10:40:56.499             2.349           899.937
       388   11 Jun 2027 10:41:40.789   11 Jun 2027 10:41:44.307             3.518          1384.063
       389   11 Jun 2027 10:42:23.582   11 Jun 2027 10:42:23.998             0.416           208.000
       390   11 Jun 2027 10:42:38.029   11 Jun 2027 10:42:42.372             4.343          1457.813
       391   12 Jun 2027 03:00:24.923   12 Jun 2027 03:00:59.189            34.266         17133.000
       392   12 Jun 2027 03:01:46.598   12 Jun 2027 03:02:25.094            38.496         19248.000
       393   12 Jun 2027 03:02:51.979   12 Jun 2027 03:02:53.082             1.103           551.500
       394   12 Jun 2027 03:03:34.794   12 Jun 2027 03:04:03.668            28.874         14437.000
       395   12 Jun 2027 03:04:23.010   12 Jun 2027 03:04:25.716             2.706          1353.000
       396   12 Jun 2027 03:04:43.200   12 Jun 2027 03:04:49.867             6.667          3333.500
       397   12 Jun 2027 04:24:35.856   12 Jun 2027 04:25:46.392            70.536         35268.000
       398   12 Jun 2027 04:37:08.291   12 Jun 2027 04:37:11.308             3.017          1508.500
       399   12 Jun 2027 05:58:25.300   12 Jun 2027 06:00:08.548           103.248         51624.000
       400   12 Jun 2027 06:01:10.007   12 Jun 2027 06:01:23.855            13.848          6924.000
       401   12 Jun 2027 06:02:02.722   12 Jun 2027 06:02:11.923             9.201          4600.500
       402   12 Jun 2027 06:03:09.647   12 Jun 2027 06:03:20.730            11.083          5541.500
       403   12 Jun 2027 07:33:17.304   12 Jun 2027 07:33:46.177            28.873         11497.688
       404   12 Jun 2027 07:34:23.551   12 Jun 2027 07:34:26.990             3.439           978.750
       405   12 Jun 2027 07:36:14.391   12 Jun 2027 07:36:20.244             5.853          1584.844
       406   12 Jun 2027 07:36:31.264   12 Jun 2027 07:36:33.719             2.455           128.656
       407   12 Jun 2027 07:37:54.081   12 Jun 2027 07:37:57.488             3.407          1691.875
       408   12 Jun 2027 07:39:13.957   12 Jun 2027 07:39:19.539             5.582          2146.219
       409   12 Jun 2027 07:40:55.409   12 Jun 2027 07:41:01.263             5.854          2576.250
       410   12 Jun 2027 07:41:20.732   12 Jun 2027 07:41:23.783             3.051           524.469
       411   12 Jun 2027 07:42:00.534   12 Jun 2027 07:42:02.969             2.435          1126.906
       412   12 Jun 2027 07:42:19.071   12 Jun 2027 07:42:20.518             1.447           487.062
       413   12 Jun 2027 07:42:46.593   12 Jun 2027 07:42:47.662             1.069           380.000
       414   12 Jun 2027 09:11:23.081   12 Jun 2027 09:11:39.944            16.863          6032.094
       415   12 Jun 2027 09:12:25.653   12 Jun 2027 09:12:28.727             3.074          1004.281
       416   12 Jun 2027 09:13:06.388   12 Jun 2027 09:13:07.912             1.524           638.406
       417   12 Jun 2027 09:13:29.187   12 Jun 2027 09:13:30.586             1.399           613.781
       418   12 Jun 2027 09:15:37.543   12 Jun 2027 09:15:46.195             8.652          2668.469
       419   12 Jun 2027 09:17:01.036   12 Jun 2027 09:17:14.313            13.277          1572.469
       420   12 Jun 2027 09:17:23.564   12 Jun 2027 09:17:24.495             0.931           215.250
       421   12 Jun 2027 09:18:14.743   12 Jun 2027 09:18:18.601             3.858          1570.250
       422   12 Jun 2027 09:18:21.130   12 Jun 2027 09:18:22.937             1.807            79.031
       423   12 Jun 2027 10:48:17.615   12 Jun 2027 10:48:31.852            14.237          6549.812
       424   12 Jun 2027 10:48:49.891   12 Jun 2027 10:48:53.888             3.997           489.500
       425   12 Jun 2027 10:49:36.231   12 Jun 2027 10:49:44.386             8.155          1319.375
       426   12 Jun 2027 10:50:51.541   12 Jun 2027 10:50:57.961             6.420          1958.688
       427   12 Jun 2027 10:51:05.192   12 Jun 2027 10:51:10.992             5.800           197.844
       428   12 Jun 2027 10:52:14.302   12 Jun 2027 10:52:18.949             4.647          1978.437
       429   12 Jun 2027 10:53:37.411   12 Jun 2027 10:53:40.645             3.234          1617.000
       430   12 Jun 2027 10:54:06.047   12 Jun 2027 10:54:08.954             2.907          1453.500
       431   13 Jun 2027 03:12:49.833   13 Jun 2027 03:15:21.065           151.232         75616.000
       432   13 Jun 2027 03:15:48.402   13 Jun 2027 03:16:22.903            34.501         17250.500
       433   13 Jun 2027 04:36:31.870   13 Jun 2027 04:37:25.024            53.154         26577.000
       434   13 Jun 2027 04:37:31.015   13 Jun 2027 04:37:47.537            16.522          8261.000
       435   13 Jun 2027 06:12:44.716   13 Jun 2027 06:13:57.044            72.328         35838.281
       436   13 Jun 2027 06:14:41.979   13 Jun 2027 06:14:45.449             3.470          1174.031
       437   13 Jun 2027 06:15:22.173   13 Jun 2027 06:15:22.984             0.811           405.500
       438   13 Jun 2027 06:15:51.066   13 Jun 2027 06:15:53.721             2.655          1291.656
       439   13 Jun 2027 07:46:17.971   13 Jun 2027 07:46:31.131            13.160          4900.469
       440   13 Jun 2027 07:48:41.141   13 Jun 2027 07:48:43.840             2.699           796.219
       441   13 Jun 2027 07:50:03.746   13 Jun 2027 07:50:09.883             6.137          2334.719
       442   13 Jun 2027 07:51:12.982   13 Jun 2027 07:51:18.435             5.453          1971.844
       443   13 Jun 2027 07:51:42.789   13 Jun 2027 07:51:45.513             2.724            57.094
       444   13 Jun 2027 07:52:59.882   13 Jun 2027 07:53:03.859             3.977          1816.687
       445   13 Jun 2027 07:53:17.319   13 Jun 2027 07:53:18.703             1.384           234.844
       446   13 Jun 2027 07:53:29.836   13 Jun 2027 07:53:29.836             0.000             0.000
       447   13 Jun 2027 07:53:34.915   13 Jun 2027 07:53:42.363             7.448           378.250
       448   13 Jun 2027 07:54:11.383   13 Jun 2027 07:54:15.481             4.098           699.813
       449   13 Jun 2027 07:54:30.772   13 Jun 2027 07:54:34.000             3.228           398.406
       450   13 Jun 2027 07:54:36.308   13 Jun 2027 07:54:36.871             0.563            72.125
       451   13 Jun 2027 09:23:49.418   13 Jun 2027 09:24:10.460            21.042          6106.000
       452   13 Jun 2027 09:24:23.686   13 Jun 2027 09:24:24.250             0.564           253.219
       453   13 Jun 2027 09:24:55.366   13 Jun 2027 09:24:56.793             1.427           543.688
       454   13 Jun 2027 09:25:50.552   13 Jun 2027 09:25:54.154             3.602            78.469
       455   13 Jun 2027 09:26:10.550   13 Jun 2027 09:26:10.550             0.000             0.000
       456   13 Jun 2027 09:27:38.157   13 Jun 2027 09:27:51.958            13.801          3168.906
       457   13 Jun 2027 09:28:35.734   13 Jun 2027 09:28:38.815             3.081           754.906
       458   13 Jun 2027 09:29:15.682   13 Jun 2027 09:29:18.245             2.563           789.094
       459   13 Jun 2027 09:29:45.561   13 Jun 2027 09:29:50.569             5.008           853.625
       460   13 Jun 2027 09:30:11.502   13 Jun 2027 09:30:15.686             4.184           409.656
       461   13 Jun 2027 09:30:33.166   13 Jun 2027 09:30:33.175             0.009             4.500
       462   13 Jun 2027 09:30:34.752   13 Jun 2027 09:30:35.265             0.513           256.500
       463   13 Jun 2027 11:00:45.535   13 Jun 2027 11:01:06.487            20.952          7801.625
       464   13 Jun 2027 11:02:37.001   13 Jun 2027 11:02:40.133             3.132           755.531
       465   13 Jun 2027 11:03:57.036   13 Jun 2027 11:04:04.970             7.934          2332.750
       466   13 Jun 2027 11:04:24.074   13 Jun 2027 11:04:27.530             3.456           597.000
       467   13 Jun 2027 11:04:38.802   13 Jun 2027 11:04:39.900             1.098           134.688
       468   13 Jun 2027 11:04:48.326   13 Jun 2027 11:04:48.931             0.605           263.312
       469   13 Jun 2027 11:05:27.915   13 Jun 2027 11:05:29.859             1.944           951.219
       470   13 Jun 2027 11:06:19.165   13 Jun 2027 11:06:22.671             3.506          1540.813
