uniorb/output/strategy_2/Camera/Camera_KinoSat_112008.txt

KinoSat_112008
-------------------------
    Access    *     Start Time (UTCG)     *     Stop Time (UTCG)  *   Duration (s) *   Data (Mbytes)
         1   01 Jun 2027 04:03:58.695   01 Jun 2027 04:04:20.556            21.861         10930.500
         2   01 Jun 2027 04:04:23.784   01 Jun 2027 04:04:54.676            30.892         15446.000
         3   01 Jun 2027 04:05:17.205   01 Jun 2027 04:07:19.259           122.054         61027.000
         4   01 Jun 2027 04:07:52.285   01 Jun 2027 04:08:18.008            25.723         12861.500
         5   01 Jun 2027 04:08:31.735   01 Jun 2027 04:08:46.990            15.255          7627.500
         6   01 Jun 2027 04:08:54.936   01 Jun 2027 04:09:02.507             7.571          3785.500
         7   01 Jun 2027 04:10:57.540   01 Jun 2027 04:10:57.935             0.395           197.500
         8   01 Jun 2027 05:43:16.364   01 Jun 2027 05:44:54.895            98.531         49265.500
         9   01 Jun 2027 05:45:10.669   01 Jun 2027 05:45:40.273            29.604         14802.000
        10   01 Jun 2027 05:46:02.863   01 Jun 2027 05:46:09.831             6.968          3484.000
        11   01 Jun 2027 05:46:20.594   01 Jun 2027 05:46:36.279            15.685          7842.500
        12   01 Jun 2027 05:47:24.560   01 Jun 2027 05:47:24.560             0.000             0.000
        13   01 Jun 2027 05:47:49.572   01 Jun 2027 05:48:19.342            29.770         14885.000
        14   01 Jun 2027 05:49:52.216   01 Jun 2027 05:49:52.216             0.000             0.000
        15   01 Jun 2027 05:50:10.677   01 Jun 2027 05:50:12.439             1.762           881.000
        16   01 Jun 2027 07:09:36.438   01 Jun 2027 07:09:45.556             9.118          4559.000
        17   01 Jun 2027 07:20:21.473   01 Jun 2027 07:22:24.522           123.049         61524.500
        18   01 Jun 2027 07:23:09.211   01 Jun 2027 07:23:13.804             4.593          2296.500
        19   01 Jun 2027 07:23:48.157   01 Jun 2027 07:23:49.007             0.850           425.000
        20   01 Jun 2027 08:44:21.188   01 Jun 2027 08:45:15.477            54.289         27144.500
        21   01 Jun 2027 11:55:23.936   01 Jun 2027 11:55:35.712            11.776          5888.000
        22   02 Jun 2027 04:16:39.291   02 Jun 2027 04:21:13.210           273.919        136959.500
        23   02 Jun 2027 04:21:37.523   02 Jun 2027 04:23:02.572            85.049         42524.500
        24   02 Jun 2027 05:55:37.335   02 Jun 2027 05:57:53.645           136.310         68155.000
        25   02 Jun 2027 05:58:03.040   02 Jun 2027 05:58:32.219            29.179         14589.500
        26   02 Jun 2027 05:58:56.424   02 Jun 2027 05:59:18.586            22.162         11081.000
        27   02 Jun 2027 06:01:07.208   02 Jun 2027 06:01:16.395             9.187          4593.500
        28   02 Jun 2027 06:02:26.964   02 Jun 2027 06:03:01.331            34.367         17183.500
        29   02 Jun 2027 07:20:52.958   02 Jun 2027 07:22:04.431            71.473         35736.500
        30   02 Jun 2027 07:32:21.929   02 Jun 2027 07:33:33.442            71.513         35756.500
        31   02 Jun 2027 08:54:59.691   02 Jun 2027 08:55:58.750            59.059         29529.500
        32   02 Jun 2027 08:56:35.507   02 Jun 2027 08:57:15.532            40.025         20012.500
        33   03 Jun 2027 04:28:55.252   03 Jun 2027 04:28:55.557             0.305           152.500
        34   03 Jun 2027 04:29:26.286   03 Jun 2027 04:30:19.095            52.809         26404.500
        35   03 Jun 2027 04:30:22.192   03 Jun 2027 04:33:49.857           207.665        103832.500
        36   03 Jun 2027 04:33:52.434   03 Jun 2027 04:33:58.158             5.724          2862.000
        37   03 Jun 2027 06:07:53.505   03 Jun 2027 06:08:51.555            58.050         29025.000
        38   03 Jun 2027 06:10:02.111   03 Jun 2027 06:10:32.551            30.440         15134.188
        39   03 Jun 2027 06:11:12.394   03 Jun 2027 06:11:15.193             2.799          1221.312
        40   03 Jun 2027 06:12:27.658   03 Jun 2027 06:12:32.603             4.945          1914.031
        41   03 Jun 2027 06:12:56.165   03 Jun 2027 06:12:56.696             0.531           265.500
        42   03 Jun 2027 06:13:24.766   03 Jun 2027 06:13:26.952             2.186           912.562
        43   03 Jun 2027 06:14:42.281   03 Jun 2027 06:14:51.601             9.320          2090.875
        44   03 Jun 2027 07:32:07.633   03 Jun 2027 07:32:32.675            25.042          8011.125
        45   03 Jun 2027 07:33:05.194   03 Jun 2027 07:33:08.033             2.839          1016.219
        46   03 Jun 2027 07:34:13.655   03 Jun 2027 07:34:14.776             1.121           560.500
        47   03 Jun 2027 07:44:19.854   03 Jun 2027 07:44:27.113             7.259          2621.406
        48   03 Jun 2027 07:45:07.428   03 Jun 2027 07:45:09.698             2.270           679.750
        49   03 Jun 2027 09:06:35.786   03 Jun 2027 09:07:04.842            29.056         14528.000
        50   03 Jun 2027 09:08:31.545   03 Jun 2027 09:08:40.267             8.722          3115.938
        51   03 Jun 2027 09:09:03.270   03 Jun 2027 09:09:10.017             6.747           289.406
        52   03 Jun 2027 09:10:21.242   03 Jun 2027 09:10:25.997             4.755          2068.844
        53   03 Jun 2027 09:10:43.269   03 Jun 2027 09:10:44.830             1.561           539.750
        54   03 Jun 2027 09:11:29.412   03 Jun 2027 09:11:32.468             3.056          1379.688
        55   03 Jun 2027 09:11:38.374   03 Jun 2027 09:11:41.256             2.882           184.562
        56   03 Jun 2027 10:41:28.748   03 Jun 2027 10:41:41.817            13.069          4693.281
        57   03 Jun 2027 10:42:13.756   03 Jun 2027 10:42:17.276             3.520           524.375
        58   03 Jun 2027 10:44:46.025   03 Jun 2027 10:45:00.608            14.583          4648.406
        59   03 Jun 2027 10:45:40.889   03 Jun 2027 10:45:41.571             0.682           341.000
        60   03 Jun 2027 10:48:21.614   03 Jun 2027 10:48:33.593            11.979          5793.031
        61   03 Jun 2027 10:48:48.325   03 Jun 2027 10:48:49.050             0.725           362.500
        62   04 Jun 2027 03:04:09.423   04 Jun 2027 03:04:37.102            27.679         13839.500
        63   04 Jun 2027 03:04:39.652   04 Jun 2027 03:05:02.681            23.029         11514.500
        64   04 Jun 2027 03:05:08.194   04 Jun 2027 03:05:29.983            21.789         10894.500
        65   04 Jun 2027 03:05:55.364   04 Jun 2027 03:06:37.775            42.411         21205.500
        66   04 Jun 2027 03:06:58.849   04 Jun 2027 03:07:02.769             3.920          1960.000
        67   04 Jun 2027 03:07:06.259   04 Jun 2027 03:07:08.613             2.354          1177.000
        68   04 Jun 2027 03:07:57.860   04 Jun 2027 03:08:18.803            20.943         10471.500
        69   04 Jun 2027 03:09:07.292   04 Jun 2027 03:09:07.352             0.060            30.000
        70   04 Jun 2027 03:09:42.563   04 Jun 2027 03:09:43.237             0.674           337.000
        71   04 Jun 2027 03:10:54.605   04 Jun 2027 03:11:30.526            35.921         17960.500
        72   04 Jun 2027 04:41:14.555   04 Jun 2027 04:41:27.825            13.270          6635.000
        73   04 Jun 2027 04:41:41.753   04 Jun 2027 04:42:07.517            25.764         12882.000
        74   04 Jun 2027 04:44:32.809   04 Jun 2027 04:44:46.979            14.170          7085.000
        75   04 Jun 2027 04:44:55.926   04 Jun 2027 04:46:11.629            75.703         37851.500
        76   04 Jun 2027 06:20:00.052   04 Jun 2027 06:21:12.446            72.394         35693.875
        77   04 Jun 2027 06:21:32.307   04 Jun 2027 06:21:33.049             0.742           148.094
        78   04 Jun 2027 06:22:09.265   04 Jun 2027 06:22:09.265             0.000             0.000
        79   04 Jun 2027 06:22:13.699   04 Jun 2027 06:22:16.236             2.537          1052.844
        80   04 Jun 2027 06:22:47.208   04 Jun 2027 06:22:50.014             2.806           561.219
        81   04 Jun 2027 06:23:25.156   04 Jun 2027 06:23:25.156             0.000             0.000
        82   04 Jun 2027 06:23:51.370   04 Jun 2027 06:23:55.047             3.677          1838.500
        83   04 Jun 2027 06:24:19.051   04 Jun 2027 06:24:23.059             4.008           783.406
        84   04 Jun 2027 06:25:44.634   04 Jun 2027 06:25:49.459             4.825          1875.219
        85   04 Jun 2027 07:44:13.653   04 Jun 2027 07:44:34.227            20.574          7971.375
        86   04 Jun 2027 07:45:06.982   04 Jun 2027 07:45:06.982             0.000             0.000
        87   04 Jun 2027 07:45:26.699   04 Jun 2027 07:45:32.976             6.277          1171.531
        88   04 Jun 2027 07:56:43.466   04 Jun 2027 07:56:47.288             3.822          1911.000
        89   04 Jun 2027 09:18:04.774   04 Jun 2027 09:18:50.819            46.045         20313.531
        90   04 Jun 2027 09:21:13.853   04 Jun 2027 09:21:22.826             8.973          4391.844
        91   04 Jun 2027 09:21:42.578   04 Jun 2027 09:21:46.650             4.072           229.250
        92   04 Jun 2027 09:22:23.443   04 Jun 2027 09:22:25.917             2.474          1084.875
        93   04 Jun 2027 09:23:27.084   04 Jun 2027 09:23:32.488             5.404          1369.938
        94   04 Jun 2027 10:54:04.291   04 Jun 2027 10:54:25.303            21.012          6358.688
        95   04 Jun 2027 10:56:00.424   04 Jun 2027 10:56:03.406             2.982          1131.969
        96   04 Jun 2027 10:56:31.432   04 Jun 2027 10:56:38.898             7.466           116.313
        97   04 Jun 2027 11:00:35.532   04 Jun 2027 11:00:52.023            16.491          7281.156
        98   04 Jun 2027 11:01:35.460   04 Jun 2027 11:01:36.542             1.082           523.031
        99   04 Jun 2027 11:01:50.985   04 Jun 2027 11:01:51.791             0.806           393.969
       100   04 Jun 2027 11:02:04.386   04 Jun 2027 11:02:04.959             0.573           286.500
       101   05 Jun 2027 03:16:08.081   05 Jun 2027 03:16:41.353            33.272         16636.000
       102   05 Jun 2027 03:16:44.525   05 Jun 2027 03:17:25.786            41.261         20630.500
       103   05 Jun 2027 03:18:24.200   05 Jun 2027 03:18:24.200             0.000             0.000
       104   05 Jun 2027 03:18:30.543   05 Jun 2027 03:20:12.241           101.698         50849.000
       105   05 Jun 2027 03:20:26.820   05 Jun 2027 03:21:05.937            39.117         19558.500
       106   05 Jun 2027 03:21:42.457   05 Jun 2027 03:21:52.691            10.234          5117.000
       107   05 Jun 2027 03:21:56.823   05 Jun 2027 03:22:38.338            41.515         20757.500
       108   05 Jun 2027 03:23:03.162   05 Jun 2027 03:23:17.916            14.754          7377.000
       109   05 Jun 2027 03:23:20.475   05 Jun 2027 03:23:25.521             5.046          2523.000
       110   05 Jun 2027 04:56:05.917   05 Jun 2027 04:57:23.499            77.582         38772.469
       111   05 Jun 2027 04:57:36.139   05 Jun 2027 04:57:36.139             0.000             0.000
       112   05 Jun 2027 04:57:52.607   05 Jun 2027 04:57:54.709             2.102           753.844
       113   05 Jun 2027 04:58:24.245   05 Jun 2027 04:58:28.467             4.222           875.250
       114   05 Jun 2027 04:59:25.122   05 Jun 2027 04:59:28.805             3.683          1113.500
       115   05 Jun 2027 06:32:48.903   05 Jun 2027 06:33:27.524            38.621         18961.187
       116   05 Jun 2027 06:34:01.537   05 Jun 2027 06:34:07.483             5.946           833.562
       117   05 Jun 2027 06:34:48.983   05 Jun 2027 06:34:58.590             9.607          1179.187
       118   05 Jun 2027 06:35:33.017   05 Jun 2027 06:35:36.401             3.384           865.000
       119   05 Jun 2027 06:36:47.393   05 Jun 2027 06:36:53.226             5.833          2187.813
       120   05 Jun 2027 07:56:09.639   05 Jun 2027 07:56:22.412            12.773          6293.656
       121   05 Jun 2027 07:57:29.317   05 Jun 2027 07:57:33.073             3.756          1424.844
       122   05 Jun 2027 09:32:09.571   05 Jun 2027 09:32:45.460            35.889         16998.906
       123   05 Jun 2027 09:33:06.929   05 Jun 2027 09:33:06.929             0.000             0.000
       124   05 Jun 2027 09:33:10.220   05 Jun 2027 09:33:11.809             1.589           116.125
       125   05 Jun 2027 09:33:19.510   05 Jun 2027 09:33:24.125             4.615           240.656
       126   05 Jun 2027 09:34:51.595   05 Jun 2027 09:34:51.595             0.000             0.000
       127   05 Jun 2027 11:05:53.458   05 Jun 2027 11:06:06.994            13.536          6278.875
       128   05 Jun 2027 11:08:29.797   05 Jun 2027 11:08:32.443             2.646          1323.000
       129   05 Jun 2027 11:12:03.088   05 Jun 2027 11:12:03.088             0.000             0.000
       130   05 Jun 2027 11:13:19.969   05 Jun 2027 11:13:43.782            23.813          9691.156
       131   05 Jun 2027 11:13:56.135   05 Jun 2027 11:14:03.811             7.676           386.031
       132   06 Jun 2027 03:28:12.496   06 Jun 2027 03:28:57.992            45.496         22748.000
       133   06 Jun 2027 03:29:12.818   06 Jun 2027 03:29:28.522            15.704          7852.000
       134   06 Jun 2027 03:30:05.342   06 Jun 2027 03:31:00.019            54.677         27338.500
       135   06 Jun 2027 03:31:29.809   06 Jun 2027 03:31:37.139             7.330          3665.000
       136   06 Jun 2027 03:31:42.858   06 Jun 2027 03:31:47.737             4.879          2439.500
       137   06 Jun 2027 03:32:02.167   06 Jun 2027 03:33:13.250            71.083         35541.500
       138   06 Jun 2027 03:35:13.639   06 Jun 2027 03:35:42.616            28.977         14488.500
       139   06 Jun 2027 05:06:19.491   06 Jun 2027 05:06:47.675            28.184         14092.000
       140   06 Jun 2027 05:06:51.674   06 Jun 2027 05:07:06.661            14.987          7493.500
       141   06 Jun 2027 05:08:22.180   06 Jun 2027 05:09:26.124            63.944         31972.000
       142   06 Jun 2027 05:10:38.353   06 Jun 2027 05:10:46.664             8.311          3282.250
       143   06 Jun 2027 05:10:55.787   06 Jun 2027 05:10:55.787             0.000             0.000
       144   06 Jun 2027 05:11:27.409   06 Jun 2027 05:11:30.386             2.977          1273.281
       145   06 Jun 2027 05:11:44.777   06 Jun 2027 05:11:46.261             1.484           331.438
       146   06 Jun 2027 05:12:02.476   06 Jun 2027 05:12:02.997             0.521            87.250
       147   06 Jun 2027 05:12:08.688   06 Jun 2027 05:12:10.497             1.809            47.031
       148   06 Jun 2027 06:44:20.201   06 Jun 2027 06:44:45.897            25.696         11916.938
       149   06 Jun 2027 06:45:37.846   06 Jun 2027 06:45:40.463             2.617           941.750
       150   06 Jun 2027 06:46:36.368   06 Jun 2027 06:46:44.143             7.775          1747.031
       151   06 Jun 2027 06:47:52.311   06 Jun 2027 06:47:59.274             6.963          2040.625
       152   06 Jun 2027 06:48:00.601   06 Jun 2027 06:48:01.008             0.407            41.469
       153   06 Jun 2027 06:48:30.110   06 Jun 2027 06:48:30.110             0.000             0.000
       154   06 Jun 2027 08:08:01.325   06 Jun 2027 08:08:14.388            13.063          6520.000
       155   06 Jun 2027 08:10:18.780   06 Jun 2027 08:10:28.796            10.016          3208.969
       156   06 Jun 2027 09:44:24.454   06 Jun 2027 09:44:47.832            23.378         11689.000
       157   06 Jun 2027 11:16:37.192   06 Jun 2027 11:16:48.585            11.393          5696.500
       158   06 Jun 2027 11:18:30.547   06 Jun 2027 11:18:47.338            16.791          7149.500
       159   06 Jun 2027 11:19:27.087   06 Jun 2027 11:19:30.661             3.574           918.000
       160   06 Jun 2027 11:21:11.441   06 Jun 2027 11:21:17.318             5.877          1790.563
       161   06 Jun 2027 11:21:50.504   06 Jun 2027 11:21:52.690             2.186           138.062
       162   06 Jun 2027 11:25:14.045   06 Jun 2027 11:25:22.911             8.866          4433.000
       163   06 Jun 2027 11:25:26.210   06 Jun 2027 11:25:30.644             4.434           988.344
       164   06 Jun 2027 11:26:05.215   06 Jun 2027 11:26:10.778             5.563          1080.344
       165   06 Jun 2027 11:26:24.982   06 Jun 2027 11:26:27.769             2.787           386.656
       166   07 Jun 2027 03:40:15.721   07 Jun 2027 03:41:30.276            74.555         37277.500
       167   07 Jun 2027 03:41:33.222   07 Jun 2027 03:44:01.793           148.571         74285.500
       168   07 Jun 2027 03:44:17.751   07 Jun 2027 03:45:00.411            42.660         21330.000
       169   07 Jun 2027 03:45:56.466   07 Jun 2027 03:46:37.375            40.909         18681.656
       170   07 Jun 2027 05:18:25.605   07 Jun 2027 05:18:55.789            30.184         15092.000
       171   07 Jun 2027 05:19:22.043   07 Jun 2027 05:19:29.168             7.125          3562.500
       172   07 Jun 2027 05:19:36.449   07 Jun 2027 05:20:05.662            29.213         14606.500
       173   07 Jun 2027 05:20:16.252   07 Jun 2027 05:20:23.484             7.232          1432.625
       174   07 Jun 2027 05:20:39.378   07 Jun 2027 05:20:41.112             1.734           351.500
       175   07 Jun 2027 05:21:54.909   07 Jun 2027 05:21:54.909             0.000             0.000
       176   07 Jun 2027 05:22:16.146   07 Jun 2027 05:22:20.586             4.440          2035.531
       177   07 Jun 2027 05:22:32.895   07 Jun 2027 05:22:34.207             1.312           316.656
       178   07 Jun 2027 05:23:27.771   07 Jun 2027 05:23:32.180             4.409          1527.875
       179   07 Jun 2027 05:23:33.780   07 Jun 2027 05:23:34.392             0.612            50.000
       180   07 Jun 2027 06:57:34.083   07 Jun 2027 06:57:44.424            10.341          5170.500
       181   07 Jun 2027 06:58:14.840   07 Jun 2027 06:58:20.048             5.208          2484.469
       182   07 Jun 2027 06:59:37.410   07 Jun 2027 06:59:37.797             0.387           193.500
       183   07 Jun 2027 07:00:28.750   07 Jun 2027 07:00:36.884             8.134          3279.656
       184   07 Jun 2027 08:20:06.262   07 Jun 2027 08:20:25.027            18.765          8212.063
       185   07 Jun 2027 08:21:31.856   07 Jun 2027 08:21:31.856             0.000             0.000
       186   07 Jun 2027 08:22:49.890   07 Jun 2027 08:22:59.345             9.455          4515.594
       187   07 Jun 2027 09:56:35.262   07 Jun 2027 09:56:42.383             7.121          3560.500
       188   07 Jun 2027 11:31:41.838   07 Jun 2027 11:32:02.243            20.405         10202.500
       189   07 Jun 2027 11:33:11.061   07 Jun 2027 11:33:29.446            18.385          9092.906
       190   07 Jun 2027 11:34:05.379   07 Jun 2027 11:34:10.370             4.991           404.656
       191   07 Jun 2027 11:34:41.756   07 Jun 2027 11:34:44.635             2.879           932.250
       192   07 Jun 2027 11:35:05.515   07 Jun 2027 11:35:11.992             6.477           652.500
       193   07 Jun 2027 11:38:19.726   07 Jun 2027 11:38:27.618             7.892          3946.000
       194   08 Jun 2027 03:52:13.896   08 Jun 2027 03:55:25.383           191.487         95743.500
       195   08 Jun 2027 03:55:29.816   08 Jun 2027 03:56:03.262            33.446         16723.000
       196   08 Jun 2027 03:56:19.350   08 Jun 2027 03:56:39.666            20.316         10158.000
       197   08 Jun 2027 03:56:48.735   08 Jun 2027 03:56:51.696             2.961          1480.500
       198   08 Jun 2027 03:58:28.984   08 Jun 2027 03:58:28.984             0.000             0.000
       199   08 Jun 2027 03:58:39.698   08 Jun 2027 03:58:43.544             3.846          1923.000
       200   08 Jun 2027 05:30:29.986   08 Jun 2027 05:31:11.356            41.370         20685.000
       201   08 Jun 2027 05:32:01.034   08 Jun 2027 05:32:58.954            57.920         28960.000
       202   08 Jun 2027 05:33:29.316   08 Jun 2027 05:33:29.316             0.000             0.000
       203   08 Jun 2027 05:34:18.312   08 Jun 2027 05:34:26.538             8.226          3379.376
       204   08 Jun 2027 05:36:05.745   08 Jun 2027 05:36:16.560            10.815          2987.906
       205   08 Jun 2027 07:08:43.126   08 Jun 2027 07:08:53.931            10.805          4818.906
       206   08 Jun 2027 07:08:56.756   08 Jun 2027 07:09:00.034             3.278            51.250
       207   08 Jun 2027 07:11:19.544   08 Jun 2027 07:11:28.602             9.058          3787.687
       208   08 Jun 2027 07:11:36.716   08 Jun 2027 07:11:37.571             0.855           118.250
       209   08 Jun 2027 07:11:57.352   08 Jun 2027 07:11:58.373             1.021           459.406
       210   08 Jun 2027 07:12:05.019   08 Jun 2027 07:12:05.019             0.000             0.000
       211   08 Jun 2027 08:32:02.290   08 Jun 2027 08:32:22.066            19.776          9309.969
       212   08 Jun 2027 08:33:29.146   08 Jun 2027 08:33:31.937             2.791          1314.750
       213   08 Jun 2027 08:34:33.609   08 Jun 2027 08:34:33.609             0.000             0.000
       214   08 Jun 2027 08:35:01.746   08 Jun 2027 08:35:03.608             1.862           931.000
       215   08 Jun 2027 10:08:57.666   08 Jun 2027 10:08:57.666             0.000             0.000
       216   08 Jun 2027 11:43:52.806   08 Jun 2027 11:44:09.126            16.320          8160.000
       217   08 Jun 2027 11:45:59.549   08 Jun 2027 11:46:49.282            49.733         24866.500
       218   08 Jun 2027 11:47:27.262   08 Jun 2027 11:47:30.245             2.983          1259.375
       219   08 Jun 2027 11:48:16.639   08 Jun 2027 11:48:20.234             3.595          1055.812
       220   08 Jun 2027 11:49:17.196   08 Jun 2027 11:49:21.620             4.424          1655.031
       221   08 Jun 2027 11:50:18.712   08 Jun 2027 11:50:24.319             5.607          1784.125
       222   09 Jun 2027 04:04:17.294   09 Jun 2027 04:05:32.048            74.754         37377.000
       223   09 Jun 2027 04:06:50.708   09 Jun 2027 04:08:39.387           108.679         54339.500
       224   09 Jun 2027 04:09:03.432   09 Jun 2027 04:09:17.369            13.937          6968.500
       225   09 Jun 2027 04:10:02.169   09 Jun 2027 04:10:02.169             0.000             0.000
       226   09 Jun 2027 04:10:23.310   09 Jun 2027 04:10:30.230             6.920          3460.000
       227   09 Jun 2027 04:10:36.214   09 Jun 2027 04:10:46.496            10.282          5141.000
       228   09 Jun 2027 05:43:34.694   09 Jun 2027 05:45:41.142           126.448         62906.063
       229   09 Jun 2027 05:45:55.134   09 Jun 2027 05:45:55.996             0.862           337.844
       230   09 Jun 2027 05:46:34.873   09 Jun 2027 05:46:39.416             4.543          1214.906
       231   09 Jun 2027 05:47:06.462   09 Jun 2027 05:47:06.462             0.000             0.000
       232   09 Jun 2027 05:47:41.599   09 Jun 2027 05:47:42.591             0.992           496.000
       233   09 Jun 2027 05:47:53.304   09 Jun 2027 05:47:58.072             4.768          1412.656
       234   09 Jun 2027 05:48:08.268   09 Jun 2027 05:48:09.416             1.148           153.094
       235   09 Jun 2027 05:50:08.116   09 Jun 2027 05:50:08.428             0.312           156.000
       236   09 Jun 2027 05:50:28.696   09 Jun 2027 05:50:35.893             7.197          3236.344
       237   09 Jun 2027 07:09:50.688   09 Jun 2027 07:10:07.429            16.741          6305.312
       238   09 Jun 2027 07:20:39.015   09 Jun 2027 07:20:47.382             8.367          3318.937
       239   09 Jun 2027 07:20:55.226   09 Jun 2027 07:20:58.412             3.186           161.656
       240   09 Jun 2027 07:21:47.667   09 Jun 2027 07:21:47.667             0.000             0.000
       241   09 Jun 2027 07:22:17.726   09 Jun 2027 07:22:23.047             5.321          1862.937
       242   09 Jun 2027 07:23:28.546   09 Jun 2027 07:23:33.405             4.859          2045.125
       243   09 Jun 2027 08:44:37.767   09 Jun 2027 08:44:57.743            19.976          9983.031
       244   09 Jun 2027 08:45:16.709   09 Jun 2027 08:45:19.775             3.066           390.125
       245   09 Jun 2027 08:46:56.131   09 Jun 2027 08:47:03.728             7.597          2592.438
       246   09 Jun 2027 11:58:58.502   09 Jun 2027 11:59:12.442            13.940          6970.000
       247   10 Jun 2027 04:16:57.572   10 Jun 2027 04:21:01.764           244.192        122096.000
       248   10 Jun 2027 04:21:30.526   10 Jun 2027 04:21:32.676             2.150          1075.000
       249   10 Jun 2027 04:21:51.701   10 Jun 2027 04:21:55.032             3.331          1665.500
       250   10 Jun 2027 04:21:59.477   10 Jun 2027 04:22:03.960             4.483          2241.500
       251   10 Jun 2027 04:22:29.277   10 Jun 2027 04:22:29.277             0.000             0.000
       252   10 Jun 2027 05:55:56.638   10 Jun 2027 05:56:57.731            61.093         30546.500
       253   10 Jun 2027 05:57:11.221   10 Jun 2027 05:57:40.111            28.890         14445.000
       254   10 Jun 2027 05:58:02.163   10 Jun 2027 05:58:07.962             5.799          2899.500
       255   10 Jun 2027 05:58:28.058   10 Jun 2027 05:58:35.237             7.179          3589.500
       256   10 Jun 2027 05:58:36.773   10 Jun 2027 05:58:46.953            10.180          4256.656
       257   10 Jun 2027 05:59:11.551   10 Jun 2027 05:59:12.841             1.290           645.000
       258   10 Jun 2027 06:00:05.987   10 Jun 2027 06:00:09.772             3.785          1784.500
       259   10 Jun 2027 06:00:20.626   10 Jun 2027 06:00:22.426             1.800            39.719
       260   10 Jun 2027 06:01:31.290   10 Jun 2027 06:01:35.562             4.272          2070.937
       261   10 Jun 2027 06:02:17.964   10 Jun 2027 06:02:20.535             2.571          1076.156
       262   10 Jun 2027 07:21:06.076   10 Jun 2027 07:21:21.260            15.184          7282.812
       263   10 Jun 2027 07:21:45.559   10 Jun 2027 07:21:47.996             2.437           506.969
       264   10 Jun 2027 07:32:40.207   10 Jun 2027 07:32:47.429             7.222          3010.437
       265   10 Jun 2027 07:33:27.342   10 Jun 2027 07:33:37.075             9.733           576.812
       266   10 Jun 2027 08:55:15.857   10 Jun 2027 08:55:38.609            22.752         11376.000
       267   10 Jun 2027 08:57:33.180   10 Jun 2027 08:57:42.981             9.801          4053.031
       268   10 Jun 2027 08:59:51.463   10 Jun 2027 08:59:57.354             5.891          2945.500
       269   10 Jun 2027 10:34:09.627   10 Jun 2027 10:34:09.627             0.000             0.000
       270   11 Jun 2027 04:29:13.913   11 Jun 2027 04:29:14.793             0.880           440.000
       271   11 Jun 2027 04:29:41.246   11 Jun 2027 04:30:38.060            56.814         28407.000
       272   11 Jun 2027 04:30:38.442   11 Jun 2027 04:33:17.940           159.498         79749.000
       273   11 Jun 2027 04:33:32.625   11 Jun 2027 04:33:39.924             7.299          3649.500
       274   11 Jun 2027 04:34:04.146   11 Jun 2027 04:34:28.446            24.300         12150.000
       275   11 Jun 2027 04:34:55.745   11 Jun 2027 04:35:09.613            13.868          6934.000
       276   11 Jun 2027 06:08:14.195   11 Jun 2027 06:09:33.528            79.333         38817.344
       277   11 Jun 2027 06:09:59.031   11 Jun 2027 06:09:59.031             0.000             0.000
       278   11 Jun 2027 06:10:24.802   11 Jun 2027 06:10:24.802             0.000             0.000
       279   11 Jun 2027 06:10:40.833   11 Jun 2027 06:10:47.213             6.380          1992.656
       280   11 Jun 2027 06:11:27.335   11 Jun 2027 06:11:30.281             2.946          1171.094
       281   11 Jun 2027 06:12:11.949   11 Jun 2027 06:12:15.533             3.584           896.937
       282   11 Jun 2027 06:13:10.736   11 Jun 2027 06:13:11.352             0.616           308.000
       283   11 Jun 2027 06:13:18.929   11 Jun 2027 06:13:23.753             4.824           977.125
       284   11 Jun 2027 06:13:51.710   11 Jun 2027 06:13:53.237             1.527           424.000
       285   11 Jun 2027 06:15:00.379   11 Jun 2027 06:15:07.068             6.689          1512.531
       286   11 Jun 2027 07:32:24.364   11 Jun 2027 07:32:37.748            13.384          6040.687
       287   11 Jun 2027 07:33:27.636   11 Jun 2027 07:33:31.127             3.491          1154.687
       288   11 Jun 2027 07:34:31.954   11 Jun 2027 07:34:35.098             3.144          1503.062
       289   11 Jun 2027 07:44:37.646   11 Jun 2027 07:44:45.227             7.581          3702.469
       290   11 Jun 2027 07:45:23.185   11 Jun 2027 07:45:26.323             3.138           712.438
       291   11 Jun 2027 09:06:51.553   11 Jun 2027 09:07:16.759            25.206         12603.000
       292   11 Jun 2027 09:08:48.300   11 Jun 2027 09:08:59.535            11.235          5336.406
       293   11 Jun 2027 09:09:21.130   11 Jun 2027 09:09:31.816            10.686           267.812
       294   11 Jun 2027 09:10:37.170   11 Jun 2027 09:10:37.170             0.000             0.000
       295   11 Jun 2027 09:12:09.178   11 Jun 2027 09:12:11.675             2.497          1248.500
       296   11 Jun 2027 10:42:33.563   11 Jun 2027 10:42:49.688            16.125          7645.719
       297   12 Jun 2027 03:04:26.508   12 Jun 2027 03:05:04.277            37.769         18884.500
       298   12 Jun 2027 03:05:23.235   12 Jun 2027 03:05:52.135            28.900         14450.000
       299   12 Jun 2027 03:06:16.266   12 Jun 2027 03:06:23.046             6.780          3390.000
       300   12 Jun 2027 03:06:32.358   12 Jun 2027 03:06:52.850            20.492         10246.000
       301   12 Jun 2027 03:07:25.563   12 Jun 2027 03:07:27.510             1.947           973.500
       302   12 Jun 2027 03:07:52.812   12 Jun 2027 03:08:49.615            56.803         28401.500
       303   12 Jun 2027 03:09:21.473   12 Jun 2027 03:09:22.035             0.562           281.000
       304   12 Jun 2027 03:10:13.505   12 Jun 2027 03:10:16.476             2.971          1485.500
       305   12 Jun 2027 03:10:33.628   12 Jun 2027 03:10:47.641            14.013          7006.500
       306   12 Jun 2027 03:10:58.798   12 Jun 2027 03:11:10.616            11.818          5909.000
       307   12 Jun 2027 04:41:33.128   12 Jun 2027 04:41:45.796            12.668          6334.000
       308   12 Jun 2027 04:42:21.614   12 Jun 2027 04:43:58.741            97.127         48563.500
       309   12 Jun 2027 04:44:41.989   12 Jun 2027 04:44:47.083             5.094          2547.000
       310   12 Jun 2027 04:44:49.607   12 Jun 2027 04:45:01.667            12.060          6030.000
       311   12 Jun 2027 06:20:20.986   12 Jun 2027 06:21:19.319            58.333         28576.875
       312   12 Jun 2027 06:21:26.131   12 Jun 2027 06:21:27.078             0.947           122.375
       313   12 Jun 2027 06:21:47.375   12 Jun 2027 06:21:47.674             0.299            44.062
       314   12 Jun 2027 06:21:59.594   12 Jun 2027 06:22:00.692             1.098           372.500
       315   12 Jun 2027 06:22:33.688   12 Jun 2027 06:22:38.895             5.207           582.062
       316   12 Jun 2027 06:23:34.743   12 Jun 2027 06:23:34.949             0.206           103.000
       317   12 Jun 2027 06:23:40.319   12 Jun 2027 06:23:41.900             1.581           790.500
       318   12 Jun 2027 06:24:09.584   12 Jun 2027 06:24:14.193             4.609          1848.281
       319   12 Jun 2027 06:24:34.629   12 Jun 2027 06:24:34.629             0.000             0.000
       320   12 Jun 2027 06:25:36.540   12 Jun 2027 06:25:47.323            10.783          2573.344
       321   12 Jun 2027 06:26:37.131   12 Jun 2027 06:26:38.553             1.422           711.000
       322   12 Jun 2027 06:26:48.330   12 Jun 2027 06:26:52.298             3.968          1151.031
       323   12 Jun 2027 07:44:30.462   12 Jun 2027 07:44:48.787            18.325          7394.250
       324   12 Jun 2027 07:45:45.150   12 Jun 2027 07:45:48.033             2.883          1248.406
       325   12 Jun 2027 09:18:20.568   12 Jun 2027 09:19:06.174            45.606         19518.844
       326   12 Jun 2027 09:20:51.314   12 Jun 2027 09:20:58.627             7.313          3171.531
       327   12 Jun 2027 09:21:22.896   12 Jun 2027 09:21:24.323             1.427           676.719
       328   12 Jun 2027 10:53:15.032   12 Jun 2027 10:53:30.415            15.383          7650.406
       329   12 Jun 2027 10:53:53.050   12 Jun 2027 10:53:57.928             4.878           265.156
       330   12 Jun 2027 10:55:44.401   12 Jun 2027 10:55:44.401             0.000             0.000
       331   12 Jun 2027 10:56:21.678   12 Jun 2027 10:56:30.344             8.666          3794.594
       332   12 Jun 2027 10:57:42.864   12 Jun 2027 10:57:52.697             9.833          1725.719
       333   12 Jun 2027 10:58:23.884   12 Jun 2027 10:58:26.596             2.712           708.312
       334   12 Jun 2027 10:59:00.116   12 Jun 2027 10:59:05.344             5.228          1047.500
       335   12 Jun 2027 11:02:15.431   12 Jun 2027 11:02:30.010            14.579          5940.219
       336   13 Jun 2027 03:16:25.886   13 Jun 2027 03:16:56.190            30.304         15152.000
       337   13 Jun 2027 03:16:59.592   13 Jun 2027 03:17:40.353            40.761         20380.500
       338   13 Jun 2027 03:18:52.907   13 Jun 2027 03:20:07.152            74.245         37122.500
       339   13 Jun 2027 03:20:22.644   13 Jun 2027 03:20:27.024             4.380          2190.000
       340   13 Jun 2027 03:21:54.214   13 Jun 2027 03:22:59.479            65.265         32632.500
       341   13 Jun 2027 03:24:11.424   13 Jun 2027 03:24:12.257             0.833           416.500
       342   13 Jun 2027 04:54:11.040   13 Jun 2027 04:54:14.495             3.455          1727.500
       343   13 Jun 2027 04:54:32.515   13 Jun 2027 04:55:32.921            60.406         30203.000
       344   13 Jun 2027 04:55:37.853   13 Jun 2027 04:56:33.741            55.888         27682.094
       345   13 Jun 2027 04:59:27.342   13 Jun 2027 04:59:36.597             9.255          4627.500
       346   13 Jun 2027 06:32:57.643   13 Jun 2027 06:33:31.924            34.281         16904.000
       347   13 Jun 2027 06:33:53.109   13 Jun 2027 06:33:53.109             0.000             0.000
       348   13 Jun 2027 06:33:55.068   13 Jun 2027 06:33:56.420             1.352           619.500
       349   13 Jun 2027 06:34:27.551   13 Jun 2027 06:34:28.845             1.294           625.656
       350   13 Jun 2027 06:35:21.524   13 Jun 2027 06:35:29.172             7.648          1646.219
       351   13 Jun 2027 06:36:16.456   13 Jun 2027 06:36:19.838             3.382          1164.312
       352   13 Jun 2027 06:36:53.452   13 Jun 2027 06:36:56.300             2.848            22.187
       353   13 Jun 2027 06:37:29.637   13 Jun 2027 06:37:34.076             4.439           774.438
       354   13 Jun 2027 07:56:26.970   13 Jun 2027 07:56:43.630            16.660          8310.438
       355   13 Jun 2027 07:57:47.126   13 Jun 2027 07:57:52.377             5.251          1484.906
       356   13 Jun 2027 09:32:39.229   13 Jun 2027 09:33:23.805            44.576         16458.469
       357   13 Jun 2027 09:33:25.585   13 Jun 2027 09:33:26.076             0.491            40.375
       358   13 Jun 2027 09:34:18.453   13 Jun 2027 09:34:18.453             0.000             0.000
       359   13 Jun 2027 09:34:56.795   13 Jun 2027 09:35:06.094             9.299          2743.219
       360   13 Jun 2027 11:06:12.357   13 Jun 2027 11:06:32.612            20.255          8959.563
       361   13 Jun 2027 11:08:15.235   13 Jun 2027 11:08:15.235             0.000             0.000
       362   13 Jun 2027 11:12:19.452   13 Jun 2027 11:12:19.452             0.000             0.000
       363   13 Jun 2027 11:13:07.181   13 Jun 2027 11:13:30.824            23.643         10238.344
       364   13 Jun 2027 11:14:22.933   13 Jun 2027 11:14:26.984             4.051          1449.531
