uniorb/output/strategy_2/Camera/Camera_KinoSat_111608.txt

KinoSat_111608
-------------------------
    Access    *     Start Time (UTCG)     *     Stop Time (UTCG)  *   Duration (s) *   Data (Mbytes)
         1   01 Jun 2027 04:23:12.039   01 Jun 2027 04:25:51.858           159.819         79909.500
         2   01 Jun 2027 04:26:11.721   01 Jun 2027 04:26:11.721             0.000             0.000
         3   01 Jun 2027 04:26:30.757   01 Jun 2027 04:27:01.433            30.676         15338.000
         4   01 Jun 2027 04:27:17.176   01 Jun 2027 04:27:59.436            42.260         21130.000
         5   01 Jun 2027 04:29:11.031   01 Jun 2027 04:29:16.190             5.159          2579.500
         6   01 Jun 2027 04:29:16.281   01 Jun 2027 04:29:42.022            25.741         12870.500
         7   01 Jun 2027 05:48:01.693   01 Jun 2027 05:48:09.865             8.172          4086.000
         8   01 Jun 2027 05:49:15.995   01 Jun 2027 05:49:34.299            18.304          9152.000
         9   01 Jun 2027 05:59:41.574   01 Jun 2027 06:00:40.278            58.704         29352.000
        10   01 Jun 2027 07:21:59.387   01 Jun 2027 07:23:05.724            66.337         33168.500
        11   01 Jun 2027 07:23:53.309   01 Jun 2027 07:25:14.175            80.866         40433.000
        12   01 Jun 2027 07:26:36.813   01 Jun 2027 07:26:36.813             0.000             0.000
        13   01 Jun 2027 08:56:53.815   01 Jun 2027 08:58:54.297           120.482         60241.000
        14   01 Jun 2027 08:59:01.380   01 Jun 2027 08:59:17.875            16.495          8247.500
        15   01 Jun 2027 10:34:25.515   01 Jun 2027 10:36:07.849           102.334         51167.000
        16   01 Jun 2027 10:40:15.979   01 Jun 2027 10:40:54.094            38.115         19057.500
        17   01 Jun 2027 10:41:44.853   01 Jun 2027 10:41:45.328             0.475           237.500
        18   02 Jun 2027 03:00:00.000   02 Jun 2027 03:00:21.663            21.663         10831.500
        19   02 Jun 2027 03:00:39.145   02 Jun 2027 03:00:43.765             4.620          2310.000
        20   02 Jun 2027 03:01:11.758   02 Jun 2027 03:01:14.879             3.121          1560.500
        21   02 Jun 2027 03:01:24.153   02 Jun 2027 03:01:39.095            14.942          7471.000
        22   02 Jun 2027 03:02:01.732   02 Jun 2027 03:02:07.023             5.291          2645.500
        23   02 Jun 2027 04:35:16.108   02 Jun 2027 04:37:58.979           162.871         81435.500
        24   02 Jun 2027 04:38:30.177   02 Jun 2027 04:39:17.829            47.652         23826.000
        25   02 Jun 2027 04:39:50.613   02 Jun 2027 04:39:50.613             0.000             0.000
        26   02 Jun 2027 04:42:09.881   02 Jun 2027 04:42:10.954             1.073           536.500
        27   02 Jun 2027 05:59:35.246   02 Jun 2027 06:00:08.241            32.995         16497.500
        28   02 Jun 2027 06:00:18.927   02 Jun 2027 06:00:21.020             2.093          1046.500
        29   02 Jun 2027 06:00:38.448   02 Jun 2027 06:00:44.570             6.122          3061.000
        30   02 Jun 2027 06:01:23.819   02 Jun 2027 06:01:34.726            10.907          5453.500
        31   02 Jun 2027 06:11:55.818   02 Jun 2027 06:12:15.840            20.022         10011.000
        32   02 Jun 2027 07:33:31.242   02 Jun 2027 07:34:51.410            80.168         40084.000
        33   02 Jun 2027 07:35:39.700   02 Jun 2027 07:36:25.155            45.455         22727.500
        34   02 Jun 2027 07:38:37.671   02 Jun 2027 07:38:48.299            10.628          5314.000
        35   02 Jun 2027 09:08:24.465   02 Jun 2027 09:09:52.097            87.632         43816.000
        36   02 Jun 2027 09:10:26.828   02 Jun 2027 09:10:43.627            16.799          8399.500
        37   02 Jun 2027 09:15:20.927   02 Jun 2027 09:16:12.822            51.895         25947.500
        38   02 Jun 2027 10:46:20.528   02 Jun 2027 10:46:26.606             6.078          3039.000
        39   02 Jun 2027 10:46:46.389   02 Jun 2027 10:46:46.389             0.000             0.000
        40   02 Jun 2027 10:50:47.561   02 Jun 2027 10:51:13.014            25.453         11869.217
        41   02 Jun 2027 10:51:51.597   02 Jun 2027 10:51:52.616             1.019           509.500
        42   02 Jun 2027 10:52:11.109   02 Jun 2027 10:52:21.381            10.272          1256.125
        43   02 Jun 2027 10:53:01.534   02 Jun 2027 10:53:07.942             6.408          1166.781
        44   03 Jun 2027 03:09:10.954   03 Jun 2027 03:09:24.244            13.290          6645.000
        45   03 Jun 2027 03:09:34.099   03 Jun 2027 03:10:34.976            60.877         30438.500
        46   03 Jun 2027 03:10:44.093   03 Jun 2027 03:11:05.714            21.621         10810.500
        47   03 Jun 2027 03:11:20.419   03 Jun 2027 03:12:40.738            80.319         40159.500
        48   03 Jun 2027 04:47:42.370   03 Jun 2027 04:49:01.625            79.255         39627.500
        49   03 Jun 2027 04:49:41.765   03 Jun 2027 04:50:26.613            44.848         22256.719
        50   03 Jun 2027 04:51:19.906   03 Jun 2027 04:51:23.546             3.640          1615.438
        51   03 Jun 2027 06:11:31.044   03 Jun 2027 06:11:53.486            22.442         10421.031
        52   03 Jun 2027 06:13:36.229   03 Jun 2027 06:13:40.446             4.217          2108.500
        53   03 Jun 2027 07:47:30.752   03 Jun 2027 07:47:51.038            20.286          8573.156
        54   03 Jun 2027 07:48:23.225   03 Jun 2027 07:48:31.903             8.678           944.844
        55   03 Jun 2027 07:50:38.179   03 Jun 2027 07:50:48.633            10.454          3640.719
        56   03 Jun 2027 09:21:18.272   03 Jun 2027 09:21:25.641             7.369          3457.438
        57   03 Jun 2027 09:22:04.546   03 Jun 2027 09:22:05.529             0.983           309.562
        58   03 Jun 2027 09:23:44.495   03 Jun 2027 09:23:49.308             4.813          2369.906
        59   03 Jun 2027 09:26:12.839   03 Jun 2027 09:26:22.614             9.775          4454.188
        60   03 Jun 2027 09:26:56.767   03 Jun 2027 09:27:00.816             4.049          1059.563
        61   03 Jun 2027 09:27:05.248   03 Jun 2027 09:27:08.321             3.073            53.250
        62   03 Jun 2027 09:28:00.366   03 Jun 2027 09:28:04.100             3.734          1480.969
        63   03 Jun 2027 09:29:03.446   03 Jun 2027 09:29:08.021             4.575          1822.437
        64   03 Jun 2027 10:58:32.848   03 Jun 2027 10:58:55.454            22.606          7764.531
        65   03 Jun 2027 11:02:49.834   03 Jun 2027 11:02:49.834             0.000             0.000
        66   03 Jun 2027 11:03:23.934   03 Jun 2027 11:03:37.681            13.747          6622.563
        67   03 Jun 2027 11:03:40.781   03 Jun 2027 11:03:41.835             1.054            44.562
        68   03 Jun 2027 11:04:52.688   03 Jun 2027 11:04:57.195             4.507          2194.437
        69   03 Jun 2027 11:05:14.309   03 Jun 2027 11:05:16.250             1.941           534.813
        70   03 Jun 2027 11:05:22.027   03 Jun 2027 11:05:27.393             5.366           180.531
        71   04 Jun 2027 03:21:45.205   04 Jun 2027 03:22:12.340            27.135         13567.500
        72   04 Jun 2027 03:22:23.197   04 Jun 2027 03:24:01.385            98.188         49094.000
        73   04 Jun 2027 03:24:48.223   04 Jun 2027 03:25:20.619            32.396         16198.000
        74   04 Jun 2027 03:25:36.190   04 Jun 2027 03:25:49.199            13.009          6504.500
        75   04 Jun 2027 03:26:26.710   04 Jun 2027 03:26:51.153            24.443         12221.500
        76   04 Jun 2027 03:27:08.435   04 Jun 2027 03:27:14.508             6.073          3036.500
        77   04 Jun 2027 05:00:01.340   04 Jun 2027 05:01:34.641            93.301         46650.500
        78   04 Jun 2027 05:01:44.547   04 Jun 2027 05:01:51.010             6.463          1937.312
        79   04 Jun 2027 05:02:06.733   04 Jun 2027 05:02:09.547             2.814           457.438
        80   04 Jun 2027 05:02:27.331   04 Jun 2027 05:02:27.331             0.000             0.000
        81   04 Jun 2027 05:02:42.641   04 Jun 2027 05:02:44.366             1.725           553.750
        82   04 Jun 2027 05:03:56.773   04 Jun 2027 05:04:01.323             4.550          2090.313
        83   04 Jun 2027 05:04:33.273   04 Jun 2027 05:04:35.594             2.321           634.875
        84   04 Jun 2027 06:23:23.166   04 Jun 2027 06:23:37.445            14.279          5250.063
        85   04 Jun 2027 06:24:41.141   04 Jun 2027 06:24:41.141             0.000             0.000
        86   04 Jun 2027 06:24:47.017   04 Jun 2027 06:24:51.396             4.379          1617.406
        87   04 Jun 2027 06:25:01.562   04 Jun 2027 06:25:01.562             0.000             0.000
        88   04 Jun 2027 06:25:52.554   04 Jun 2027 06:25:54.013             1.459           729.500
        89   04 Jun 2027 07:59:44.795   04 Jun 2027 08:00:03.354            18.559          7204.188
        90   04 Jun 2027 08:00:18.234   04 Jun 2027 08:00:20.299             2.065            61.625
        91   04 Jun 2027 08:01:36.199   04 Jun 2027 08:01:38.948             2.749          1374.500
        92   04 Jun 2027 08:01:41.440   04 Jun 2027 08:01:43.908             2.468          1075.250
        93   04 Jun 2027 08:02:50.731   04 Jun 2027 08:02:54.044             3.313           848.187
        94   04 Jun 2027 09:32:03.312   04 Jun 2027 09:32:10.802             7.490          3325.687
        95   04 Jun 2027 09:32:36.793   04 Jun 2027 09:32:37.520             0.727           363.500
        96   04 Jun 2027 09:35:27.023   04 Jun 2027 09:35:40.441            13.418          4868.437
        97   04 Jun 2027 09:36:20.780   04 Jun 2027 09:36:20.780             0.000             0.000
        98   04 Jun 2027 09:37:02.493   04 Jun 2027 09:37:08.748             6.255          2450.375
        99   04 Jun 2027 09:37:40.104   04 Jun 2027 09:37:41.582             1.478           366.500
       100   04 Jun 2027 09:40:04.963   04 Jun 2027 09:40:15.618            10.655          4371.969
       101   04 Jun 2027 09:40:48.078   04 Jun 2027 09:40:50.931             2.853          1014.375
       102   04 Jun 2027 09:41:19.429   04 Jun 2027 09:41:22.706             3.277           890.563
       103   04 Jun 2027 09:41:33.661   04 Jun 2027 09:41:36.372             2.711           342.344
       104   04 Jun 2027 09:41:42.119   04 Jun 2027 09:41:44.354             2.235           121.000
       105   04 Jun 2027 11:10:54.029   04 Jun 2027 11:11:07.707            13.678          6533.750
       106   04 Jun 2027 11:11:15.497   04 Jun 2027 11:11:17.583             2.086           240.281
       107   04 Jun 2027 11:11:28.406   04 Jun 2027 11:11:30.432             2.026           287.688
       108   04 Jun 2027 11:11:45.393   04 Jun 2027 11:11:47.243             1.850           467.531
       109   04 Jun 2027 11:12:30.863   04 Jun 2027 11:12:39.394             8.531           971.125
       110   04 Jun 2027 11:13:01.713   04 Jun 2027 11:13:03.178             1.465           125.063
       111   04 Jun 2027 11:13:36.789   04 Jun 2027 11:13:42.201             5.412           721.688
       112   04 Jun 2027 11:14:04.997   04 Jun 2027 11:14:07.031             2.034           677.781
       113   04 Jun 2027 11:15:14.874   04 Jun 2027 11:15:20.211             5.337          2120.094
       114   04 Jun 2027 11:16:11.864   04 Jun 2027 11:16:14.099             2.235          1117.500
       115   04 Jun 2027 11:16:49.174   04 Jun 2027 11:16:54.401             5.227          1592.750
       116   04 Jun 2027 11:17:14.906   04 Jun 2027 11:17:17.319             2.413           640.781
       117   05 Jun 2027 03:33:52.246   05 Jun 2027 03:34:29.032            36.786         18393.000
       118   05 Jun 2027 03:34:58.950   05 Jun 2027 03:36:35.802            96.852         48426.000
       119   05 Jun 2027 03:36:49.529   05 Jun 2027 03:38:15.077            85.548         42774.000
       120   05 Jun 2027 03:38:31.516   05 Jun 2027 03:38:33.910             2.394          1197.000
       121   05 Jun 2027 03:39:10.067   05 Jun 2027 03:39:15.898             5.831          2915.500
       122   05 Jun 2027 03:39:30.281   05 Jun 2027 03:39:37.670             7.389          3694.500
       123   05 Jun 2027 03:39:57.603   05 Jun 2027 03:40:01.735             4.132          2066.000
       124   05 Jun 2027 05:12:53.796   05 Jun 2027 05:13:58.724            64.928         32284.187
       125   05 Jun 2027 05:15:15.262   05 Jun 2027 05:15:15.262             0.000             0.000
       126   05 Jun 2027 05:15:19.330   05 Jun 2027 05:15:24.038             4.708          1842.312
       127   05 Jun 2027 05:15:45.862   05 Jun 2027 05:15:47.872             2.010           682.000
       128   05 Jun 2027 06:35:26.617   05 Jun 2027 06:35:40.249            13.632          5965.000
       129   05 Jun 2027 06:36:48.557   05 Jun 2027 06:36:53.226             4.669          1991.406
       130   05 Jun 2027 06:37:23.088   05 Jun 2027 06:37:27.116             4.028           839.469
       131   05 Jun 2027 06:37:36.185   05 Jun 2027 06:37:36.185             0.000             0.000
       132   05 Jun 2027 08:11:52.029   05 Jun 2027 08:11:58.783             6.754          3298.437
       133   05 Jun 2027 08:12:44.493   05 Jun 2027 08:12:45.301             0.808           404.000
       134   05 Jun 2027 08:12:58.790   05 Jun 2027 08:13:03.020             4.230           905.406
       135   05 Jun 2027 08:13:36.184   05 Jun 2027 08:13:36.184             0.000             0.000
       136   05 Jun 2027 08:14:25.664   05 Jun 2027 08:14:32.825             7.161          1855.250
       137   05 Jun 2027 09:47:35.687   05 Jun 2027 09:47:48.576            12.889          5948.563
       138   05 Jun 2027 09:48:45.481   05 Jun 2027 09:48:53.281             7.800          1506.844
       139   05 Jun 2027 09:49:02.416   05 Jun 2027 09:49:02.751             0.335            51.500
       140   05 Jun 2027 09:52:16.371   05 Jun 2027 09:52:29.109            12.738          5784.625
       141   05 Jun 2027 09:52:56.065   05 Jun 2027 09:52:59.530             3.465           842.375
       142   05 Jun 2027 09:53:15.927   05 Jun 2027 09:53:17.059             1.132           504.094
       143   05 Jun 2027 09:53:37.828   05 Jun 2027 09:53:39.325             1.497           629.906
       144   05 Jun 2027 11:23:21.831   05 Jun 2027 11:23:34.436            12.605          5673.719
       145   05 Jun 2027 11:26:07.855   05 Jun 2027 11:26:21.060            13.205          4456.406
       146   05 Jun 2027 11:26:56.504   05 Jun 2027 11:26:59.428             2.924           700.812
       147   05 Jun 2027 11:27:41.940   05 Jun 2027 11:27:47.160             5.220          1300.813
       148   05 Jun 2027 11:28:55.942   05 Jun 2027 11:28:59.718             3.776          1888.000
       149   05 Jun 2027 11:29:04.059   05 Jun 2027 11:29:05.945             1.886           397.094
       150   05 Jun 2027 11:29:33.589   05 Jun 2027 11:29:35.569             1.980           611.250
       151   06 Jun 2027 03:45:49.290   06 Jun 2027 03:46:38.981            49.691         24845.500
       152   06 Jun 2027 03:46:55.992   06 Jun 2027 03:48:30.005            94.013         47006.500
       153   06 Jun 2027 03:49:30.529   06 Jun 2027 03:50:29.504            58.975         29487.500
       154   06 Jun 2027 03:50:31.155   06 Jun 2027 03:50:39.430             8.275          4137.500
       155   06 Jun 2027 03:50:50.572   06 Jun 2027 03:51:11.594            21.022         10511.000
       156   06 Jun 2027 05:24:03.617   06 Jun 2027 05:24:40.804            37.187         18593.500
       157   06 Jun 2027 05:24:53.404   06 Jun 2027 05:25:25.425            32.021         16010.500
       158   06 Jun 2027 05:26:14.638   06 Jun 2027 05:26:17.604             2.966          1483.000
       159   06 Jun 2027 05:26:52.137   06 Jun 2027 05:26:55.527             3.390          1695.000
       160   06 Jun 2027 05:27:21.745   06 Jun 2027 05:27:26.042             4.297          1922.969
       161   06 Jun 2027 05:27:35.161   06 Jun 2027 05:27:36.599             1.438           284.969
       162   06 Jun 2027 06:47:24.287   06 Jun 2027 06:47:34.253             9.966          4806.281
       163   06 Jun 2027 06:48:42.933   06 Jun 2027 06:48:50.254             7.321          2130.187
       164   06 Jun 2027 06:50:06.527   06 Jun 2027 06:50:17.849            11.322          2383.531
       165   06 Jun 2027 08:24:01.542   06 Jun 2027 08:24:09.566             8.024          2728.875
       166   06 Jun 2027 08:24:46.923   06 Jun 2027 08:24:50.805             3.882          1148.531
       167   06 Jun 2027 08:25:27.483   06 Jun 2027 08:25:29.121             1.638           213.500
       168   06 Jun 2027 08:26:27.447   06 Jun 2027 08:26:27.447             0.000             0.000
       169   06 Jun 2027 08:27:02.656   06 Jun 2027 08:27:11.321             8.665          2922.969
       170   06 Jun 2027 09:59:11.460   06 Jun 2027 09:59:24.239            12.779          5818.000
       171   06 Jun 2027 10:00:24.085   06 Jun 2027 10:00:28.157             4.072          1867.250
       172   06 Jun 2027 10:00:39.852   06 Jun 2027 10:00:39.863             0.011             5.500
       173   06 Jun 2027 10:00:50.723   06 Jun 2027 10:00:50.723             0.000             0.000
       174   06 Jun 2027 10:02:06.087   06 Jun 2027 10:02:06.087             0.000             0.000
       175   06 Jun 2027 10:04:16.595   06 Jun 2027 10:04:38.041            21.446          6907.438
       176   06 Jun 2027 10:05:07.838   06 Jun 2027 10:05:08.452             0.614           300.469
       177   06 Jun 2027 10:05:47.549   06 Jun 2027 10:05:47.550             0.001             0.500
       178   06 Jun 2027 11:35:28.979   06 Jun 2027 11:35:47.411            18.432          6108.375
       179   06 Jun 2027 11:36:20.670   06 Jun 2027 11:36:26.663             5.993           835.000
       180   06 Jun 2027 11:36:59.475   06 Jun 2027 11:37:00.563             1.088           160.094
       181   06 Jun 2027 11:37:16.960   06 Jun 2027 11:37:21.973             5.013           443.438
       182   06 Jun 2027 11:37:35.510   06 Jun 2027 11:37:39.309             3.799           423.031
       183   06 Jun 2027 11:38:58.643   06 Jun 2027 11:39:04.030             5.387          2320.625
       184   06 Jun 2027 11:39:21.145   06 Jun 2027 11:39:21.997             0.852           379.844
       185   07 Jun 2027 03:58:54.833   07 Jun 2027 04:00:51.138           116.305         58152.500
       186   07 Jun 2027 04:01:01.994   07 Jun 2027 04:01:31.291            29.297         14648.500
       187   07 Jun 2027 04:01:43.471   07 Jun 2027 04:02:19.028            35.557         17778.500
       188   07 Jun 2027 04:05:48.134   07 Jun 2027 04:05:59.096            10.962          5481.000
       189   07 Jun 2027 05:25:15.733   07 Jun 2027 05:25:24.153             8.420          4210.000
       190   07 Jun 2027 05:36:00.860   07 Jun 2027 05:36:42.998            42.138         21069.000
       191   07 Jun 2027 05:36:48.743   07 Jun 2027 05:37:19.248            30.505         15252.500
       192   07 Jun 2027 05:37:41.848   07 Jun 2027 05:38:07.783            25.935         12967.500
       193   07 Jun 2027 05:38:16.692   07 Jun 2027 05:38:22.559             5.867          2933.500
       194   07 Jun 2027 05:39:26.752   07 Jun 2027 05:39:27.965             1.213           606.500
       195   07 Jun 2027 07:00:00.586   07 Jun 2027 07:00:15.015            14.429          6459.593
       196   07 Jun 2027 07:02:06.756   07 Jun 2027 07:02:15.664             8.908          3410.844
       197   07 Jun 2027 07:02:32.784   07 Jun 2027 07:02:35.645             2.861           168.437
       198   07 Jun 2027 08:35:45.440   07 Jun 2027 08:35:55.928            10.488          4680.906
       199   07 Jun 2027 08:36:48.352   07 Jun 2027 08:36:48.352             0.000             0.000
       200   07 Jun 2027 08:37:52.501   07 Jun 2027 08:37:57.798             5.297          2648.500
       201   07 Jun 2027 08:39:05.888   07 Jun 2027 08:39:12.693             6.805          2935.063
       202   07 Jun 2027 10:10:37.308   07 Jun 2027 10:10:48.719            11.411          5237.344
       203   07 Jun 2027 10:11:27.521   07 Jun 2027 10:11:35.265             7.744          1157.094
       204   07 Jun 2027 10:12:37.340   07 Jun 2027 10:12:46.477             9.137           744.969
       205   07 Jun 2027 10:17:24.525   07 Jun 2027 10:17:41.111            16.586          7984.094
       206   07 Jun 2027 11:47:12.223   07 Jun 2027 11:47:27.079            14.856          6113.781
       207   07 Jun 2027 11:47:39.628   07 Jun 2027 11:47:42.524             2.896           265.938
       208   07 Jun 2027 11:47:59.759   07 Jun 2027 11:48:00.554             0.795           182.781
       209   07 Jun 2027 11:48:17.755   07 Jun 2027 11:48:18.869             1.114           434.813
       210   07 Jun 2027 11:48:35.470   07 Jun 2027 11:48:42.350             6.880           251.188
       211   07 Jun 2027 11:49:07.136   07 Jun 2027 11:49:12.472             5.336            86.313
       212   07 Jun 2027 11:49:50.472   07 Jun 2027 11:49:53.140             2.668           988.469
       213   07 Jun 2027 11:51:11.896   07 Jun 2027 11:51:17.538             5.642          2086.969
       214   07 Jun 2027 11:51:20.593   07 Jun 2027 11:51:22.060             1.467            95.469
       215   07 Jun 2027 11:51:30.365   07 Jun 2027 11:51:30.365             0.000             0.000
       216   07 Jun 2027 11:51:47.257   07 Jun 2027 11:51:58.075            10.818           787.406
       217   07 Jun 2027 11:52:55.203   07 Jun 2027 11:52:58.287             3.084          1542.000
       218   08 Jun 2027 04:11:15.446   08 Jun 2027 04:14:02.935           167.489         83744.500
       219   08 Jun 2027 04:15:14.187   08 Jun 2027 04:15:30.859            16.672          8336.000
       220   08 Jun 2027 04:16:22.154   08 Jun 2027 04:16:35.986            13.832          6916.000
       221   08 Jun 2027 04:18:04.440   08 Jun 2027 04:18:37.394            32.954         16477.000
       222   08 Jun 2027 05:36:32.880   08 Jun 2027 05:37:22.458            49.578         24789.000
       223   08 Jun 2027 05:47:59.222   08 Jun 2027 05:48:42.939            43.717         21738.969
       224   08 Jun 2027 05:48:59.679   08 Jun 2027 05:49:02.562             2.883           278.875
       225   08 Jun 2027 05:49:21.044   08 Jun 2027 05:49:22.210             1.166           548.906
       226   08 Jun 2027 07:10:38.625   08 Jun 2027 07:10:53.779            15.154          6934.781
       227   08 Jun 2027 07:12:14.256   08 Jun 2027 07:12:16.083             1.827           359.406
       228   08 Jun 2027 07:14:06.392   08 Jun 2027 07:14:18.596            12.204          3296.094
       229   08 Jun 2027 07:14:58.022   08 Jun 2027 07:15:00.728             2.706           860.406
       230   08 Jun 2027 08:45:59.734   08 Jun 2027 08:46:08.096             8.362          4124.906
       231   08 Jun 2027 08:47:30.837   08 Jun 2027 08:47:34.421             3.584          1097.625
       232   08 Jun 2027 08:49:32.093   08 Jun 2027 08:49:40.487             8.394          3182.156
       233   08 Jun 2027 08:50:38.189   08 Jun 2027 08:50:39.938             1.749           426.344
       234   08 Jun 2027 08:51:25.628   08 Jun 2027 08:51:30.719             5.091           940.812
       235   08 Jun 2027 08:51:49.267   08 Jun 2027 08:51:50.369             1.102           517.031
       236   08 Jun 2027 10:22:27.799   08 Jun 2027 10:22:40.009            12.210          5046.062
       237   08 Jun 2027 10:24:25.715   08 Jun 2027 10:24:34.010             8.295          3110.938
       238   08 Jun 2027 10:25:44.002   08 Jun 2027 10:25:54.813            10.811          2062.406
       239   08 Jun 2027 10:26:53.488   08 Jun 2027 10:27:02.787             9.299          1823.937
       240   08 Jun 2027 10:27:32.351   08 Jun 2027 10:27:34.229             1.878           923.875
       241   08 Jun 2027 10:27:45.462   08 Jun 2027 10:27:50.019             4.557           330.812
       242   08 Jun 2027 10:29:17.154   08 Jun 2027 10:29:25.598             8.444          2531.500
       243   08 Jun 2027 10:29:41.077   08 Jun 2027 10:29:46.973             5.896           279.187
       244   08 Jun 2027 11:59:33.759   08 Jun 2027 11:59:49.114            15.355          7677.500
       245   09 Jun 2027 04:23:29.648   09 Jun 2027 04:24:13.533            43.885         21942.500
       246   09 Jun 2027 04:24:30.790   09 Jun 2027 04:26:46.459           135.669         67834.500
       247   09 Jun 2027 04:27:29.238   09 Jun 2027 04:28:13.478            44.240         22120.000
       248   09 Jun 2027 04:29:08.775   09 Jun 2027 04:29:25.832            17.057          8528.500
       249   09 Jun 2027 04:29:33.870   09 Jun 2027 04:29:33.870             0.000             0.000
       250   09 Jun 2027 04:30:18.736   09 Jun 2027 04:30:35.329            16.593          8296.500
       251   09 Jun 2027 05:47:46.878   09 Jun 2027 05:48:21.113            34.235         17117.500
       252   09 Jun 2027 05:49:54.282   09 Jun 2027 05:49:54.967             0.685           342.500
       253   09 Jun 2027 05:59:58.522   09 Jun 2027 06:00:44.786            46.264         22774.126
       254   09 Jun 2027 07:22:14.981   09 Jun 2027 07:22:27.626            12.645          5935.594
       255   09 Jun 2027 07:23:20.571   09 Jun 2027 07:23:21.751             1.180           590.000
       256   09 Jun 2027 07:24:55.897   09 Jun 2027 07:24:58.686             2.789          1394.500
       257   09 Jun 2027 07:25:48.347   09 Jun 2027 07:25:54.203             5.856          2382.594
       258   09 Jun 2027 07:26:33.364   09 Jun 2027 07:26:38.339             4.975           874.687
       259   09 Jun 2027 07:27:08.378   09 Jun 2027 07:27:12.254             3.876           902.969
       260   09 Jun 2027 08:57:08.785   09 Jun 2027 08:57:16.945             8.160          3750.187
       261   09 Jun 2027 08:58:07.201   09 Jun 2027 08:58:11.211             4.010          1259.437
       262   09 Jun 2027 08:58:18.333   09 Jun 2027 08:58:18.809             0.476           140.406
       263   09 Jun 2027 08:58:44.412   09 Jun 2027 08:58:44.412             0.000             0.000
       264   09 Jun 2027 08:59:27.019   09 Jun 2027 08:59:31.320             4.301          2131.563
       265   09 Jun 2027 09:03:00.304   09 Jun 2027 09:03:15.983            15.679          6474.594
       266   09 Jun 2027 09:03:45.155   09 Jun 2027 09:03:45.155             0.000             0.000
       267   09 Jun 2027 09:03:53.423   09 Jun 2027 09:03:57.280             3.857           368.656
       268   09 Jun 2027 09:05:12.599   09 Jun 2027 09:05:15.821             3.222          1237.406
       269   09 Jun 2027 10:34:42.271   09 Jun 2027 10:34:54.595            12.324          5665.656
       270   09 Jun 2027 10:35:23.320   09 Jun 2027 10:35:28.563             5.243           666.594
       271   09 Jun 2027 10:36:41.945   09 Jun 2027 10:36:45.066             3.121           903.219
       272   09 Jun 2027 10:37:41.777   09 Jun 2027 10:37:42.735             0.958            51.438
       273   09 Jun 2027 10:38:49.501   09 Jun 2027 10:38:57.192             7.691          2086.437
       274   09 Jun 2027 10:39:41.875   09 Jun 2027 10:39:45.892             4.017          1396.344
       275   09 Jun 2027 10:40:06.482   09 Jun 2027 10:40:10.447             3.965           443.469
       276   09 Jun 2027 10:40:53.102   09 Jun 2027 10:40:56.407             3.305          1251.688
       277   09 Jun 2027 10:41:10.460   09 Jun 2027 10:41:11.680             1.220           196.437
       278   09 Jun 2027 10:41:16.035   09 Jun 2027 10:41:16.869             0.834             2.438
       279   09 Jun 2027 10:41:44.534   09 Jun 2027 10:41:50.749             6.215           662.687
       280   10 Jun 2027 03:00:00.000   10 Jun 2027 03:00:16.515            16.515          8257.500
       281   10 Jun 2027 03:00:59.078   10 Jun 2027 03:01:01.019             1.941           970.500
       282   10 Jun 2027 03:01:06.612   10 Jun 2027 03:01:24.847            18.235          9117.500
       283   10 Jun 2027 03:02:17.445   10 Jun 2027 03:02:31.253            13.808          6904.000
       284   10 Jun 2027 04:35:34.697   10 Jun 2027 04:39:15.997           221.300        110650.000
       285   10 Jun 2027 04:39:34.857   10 Jun 2027 04:39:49.741            14.884          7442.000
       286   10 Jun 2027 04:42:25.173   10 Jun 2027 04:42:25.173             0.000             0.000
       287   10 Jun 2027 05:59:52.294   10 Jun 2027 06:00:23.293            30.999         15499.500
       288   10 Jun 2027 06:00:55.111   10 Jun 2027 06:01:02.586             7.475          3737.500
       289   10 Jun 2027 06:12:14.357   10 Jun 2027 06:12:31.350            16.993          8496.500
       290   10 Jun 2027 07:33:44.556   10 Jun 2027 07:33:56.420            11.864          5694.062
       291   10 Jun 2027 07:35:43.868   10 Jun 2027 07:35:49.802             5.934          1693.844
       292   10 Jun 2027 07:35:56.634   10 Jun 2027 07:35:57.904             1.270           146.344
       293   10 Jun 2027 07:37:31.893   10 Jun 2027 07:37:31.893             0.000             0.000
       294   10 Jun 2027 07:38:54.873   10 Jun 2027 07:39:02.808             7.935          3967.500
       295   10 Jun 2027 07:39:05.781   10 Jun 2027 07:39:08.140             2.359          1006.656
       296   10 Jun 2027 09:08:39.510   10 Jun 2027 09:08:47.682             8.172          3953.250
       297   10 Jun 2027 09:09:29.002   10 Jun 2027 09:09:29.002             0.000             0.000
       298   10 Jun 2027 09:10:43.532   10 Jun 2027 09:10:45.660             2.128          1064.000
       299   10 Jun 2027 09:10:51.754   10 Jun 2027 09:11:01.388             9.634          1675.844
       300   10 Jun 2027 09:12:50.922   10 Jun 2027 09:12:58.724             7.802          3334.312
       301   10 Jun 2027 09:14:21.565   10 Jun 2027 09:14:27.383             5.818          2409.594
       302   10 Jun 2027 09:15:38.112   10 Jun 2027 09:15:48.349            10.237          2112.000
       303   10 Jun 2027 09:17:07.204   10 Jun 2027 09:17:11.559             4.355          1703.063
       304   10 Jun 2027 10:46:36.423   10 Jun 2027 10:46:48.339            11.916          5958.000
       305   10 Jun 2027 10:47:03.864   10 Jun 2027 10:47:03.864             0.000             0.000
       306   10 Jun 2027 10:49:34.880   10 Jun 2027 10:49:49.904            15.024          6106.094
       307   10 Jun 2027 10:50:40.358   10 Jun 2027 10:50:41.286             0.928           464.000
       308   10 Jun 2027 10:52:09.960   10 Jun 2027 10:52:16.999             7.039          3115.781
       309   10 Jun 2027 10:52:40.477   10 Jun 2027 10:52:44.303             3.826           575.281
       310   10 Jun 2027 10:53:18.068   10 Jun 2027 10:53:22.651             4.583           967.375
       311   11 Jun 2027 03:09:28.488   11 Jun 2027 03:11:29.113           120.625         60312.500
       312   11 Jun 2027 03:11:37.409   11 Jun 2027 03:11:58.032            20.623         10311.500
       313   11 Jun 2027 03:13:40.408   11 Jun 2027 03:14:03.605            23.197         11598.500
       314   11 Jun 2027 03:14:41.462   11 Jun 2027 03:14:51.588            10.126          5063.000
       315   11 Jun 2027 04:47:59.407   11 Jun 2027 04:48:44.757            45.350         22675.000
       316   11 Jun 2027 04:48:52.797   11 Jun 2027 04:49:13.651            20.854         10427.000
       317   11 Jun 2027 04:49:59.172   11 Jun 2027 04:50:43.811            44.639         22319.500
       318   11 Jun 2027 04:51:07.223   11 Jun 2027 04:51:36.932            29.709         13658.781
       319   11 Jun 2027 04:51:55.718   11 Jun 2027 04:51:57.374             1.656           587.062
       320   11 Jun 2027 04:52:19.087   11 Jun 2027 04:52:19.349             0.262            93.906
       321   11 Jun 2027 06:11:48.798   11 Jun 2027 06:12:09.189            20.391          9721.844
       322   11 Jun 2027 06:13:15.120   11 Jun 2027 06:13:15.120             0.000             0.000
       323   11 Jun 2027 06:13:53.237   11 Jun 2027 06:13:57.548             4.311          2155.500
       324   11 Jun 2027 07:47:47.849   11 Jun 2027 07:48:01.320            13.471          5525.344
       325   11 Jun 2027 07:48:59.761   11 Jun 2027 07:49:02.985             3.224          1517.313
       326   11 Jun 2027 07:50:55.349   11 Jun 2027 07:51:05.080             9.731          3237.719
       327   11 Jun 2027 09:21:33.521   11 Jun 2027 09:21:45.060            11.539          5250.031
       328   11 Jun 2027 09:23:12.333   11 Jun 2027 09:23:18.788             6.455           807.969
       329   11 Jun 2027 09:23:30.426   11 Jun 2027 09:23:32.147             1.721           363.688
       330   11 Jun 2027 09:23:38.137   11 Jun 2027 09:23:40.462             2.325           187.188
       331   11 Jun 2027 09:23:53.959   11 Jun 2027 09:23:53.959             0.000             0.000
       332   11 Jun 2027 09:24:36.760   11 Jun 2027 09:24:41.297             4.537          1615.125
       333   11 Jun 2027 09:25:06.132   11 Jun 2027 09:25:07.471             1.339           518.906
       334   11 Jun 2027 09:25:35.250   11 Jun 2027 09:25:38.663             3.413           868.094
       335   11 Jun 2027 09:25:48.896   11 Jun 2027 09:25:49.228             0.332            52.219
       336   11 Jun 2027 09:28:38.714   11 Jun 2027 09:28:54.080            15.366          5188.750
       337   11 Jun 2027 09:29:56.152   11 Jun 2027 09:30:00.622             4.470          1772.406
       338   11 Jun 2027 09:30:03.459   11 Jun 2027 09:30:04.462             1.003            44.844
       339   11 Jun 2027 10:58:57.035   11 Jun 2027 10:59:13.094            16.059          7191.469
       340   11 Jun 2027 10:59:28.996   11 Jun 2027 10:59:30.857             1.861           302.750
       341   11 Jun 2027 11:01:00.177   11 Jun 2027 11:01:04.503             4.326          1376.031
       342   11 Jun 2027 11:01:29.321   11 Jun 2027 11:01:33.944             4.623           525.844
       343   11 Jun 2027 11:02:25.018   11 Jun 2027 11:02:29.149             4.131          1369.406
       344   11 Jun 2027 11:02:38.010   11 Jun 2027 11:02:48.340            10.330           276.906
       345   11 Jun 2027 11:03:55.533   11 Jun 2027 11:03:59.158             3.625          1812.500
       346   11 Jun 2027 11:04:41.993   11 Jun 2027 11:04:57.413            15.420          1569.625
       347   11 Jun 2027 11:05:12.029   11 Jun 2027 11:05:13.174             1.145           393.469
       348   11 Jun 2027 11:05:34.028   11 Jun 2027 11:05:35.395             1.367           645.250
       349   12 Jun 2027 03:22:01.552   12 Jun 2027 03:22:12.618            11.066          5533.000
       350   12 Jun 2027 03:22:25.182   12 Jun 2027 03:22:28.172             2.990          1495.000
       351   12 Jun 2027 03:22:39.207   12 Jun 2027 03:23:25.607            46.400         23200.000
       352   12 Jun 2027 03:23:48.018   12 Jun 2027 03:25:14.537            86.519         43259.500
       353   12 Jun 2027 03:25:27.061   12 Jun 2027 03:25:52.628            25.567         12783.500
       354   12 Jun 2027 03:26:08.494   12 Jun 2027 03:26:42.713            34.219         17109.500
       355   12 Jun 2027 03:27:17.578   12 Jun 2027 03:27:27.617            10.039          5019.500
       356   12 Jun 2027 05:00:18.064   12 Jun 2027 05:00:39.537            21.473         10736.500
       357   12 Jun 2027 05:01:43.715   12 Jun 2027 05:02:16.295            32.580         16290.000
       358   12 Jun 2027 05:02:24.305   12 Jun 2027 05:02:57.157            32.852         16426.000
       359   12 Jun 2027 05:03:16.775   12 Jun 2027 05:03:25.614             8.839          4331.844
       360   12 Jun 2027 05:03:39.003   12 Jun 2027 05:03:39.661             0.658            56.625
       361   12 Jun 2027 05:03:45.245   12 Jun 2027 05:03:45.707             0.462            52.313
       362   12 Jun 2027 05:04:49.738   12 Jun 2027 05:04:51.312             1.574           787.000
       363   12 Jun 2027 06:23:40.247   12 Jun 2027 06:23:54.945            14.698          6921.281
       364   12 Jun 2027 06:24:57.776   12 Jun 2027 06:24:57.776             0.000             0.000
       365   12 Jun 2027 06:25:05.069   12 Jun 2027 06:25:09.048             3.979          1715.031
       366   12 Jun 2027 06:25:17.494   12 Jun 2027 06:25:19.264             1.770           263.938
       367   12 Jun 2027 06:26:07.616   12 Jun 2027 06:26:15.161             7.545          1511.000
       368   12 Jun 2027 08:00:02.397   12 Jun 2027 08:00:19.554            17.157          8520.187
       369   12 Jun 2027 08:01:01.618   12 Jun 2027 08:01:04.994             3.376          1061.156
       370   12 Jun 2027 08:01:52.512   12 Jun 2027 08:01:54.838             2.326           769.531
       371   12 Jun 2027 08:02:55.384   12 Jun 2027 08:03:02.266             6.882          1892.062
       372   12 Jun 2027 09:34:06.426   12 Jun 2027 09:34:14.297             7.871          3816.344
       373   12 Jun 2027 09:36:38.874   12 Jun 2027 09:36:50.420            11.546          3502.687
       374   12 Jun 2027 09:37:20.844   12 Jun 2027 09:37:20.844             0.000             0.000
       375   12 Jun 2027 09:39:15.784   12 Jun 2027 09:39:25.574             9.790          4484.156
       376   12 Jun 2027 09:40:09.871   12 Jun 2027 09:40:16.878             7.007          1371.469
       377   12 Jun 2027 09:40:36.283   12 Jun 2027 09:40:38.141             1.858           361.562
       378   12 Jun 2027 09:41:09.621   12 Jun 2027 09:41:12.367             2.746           837.906
       379   12 Jun 2027 09:41:43.402   12 Jun 2027 09:41:44.592             1.190           595.000
       380   12 Jun 2027 09:42:03.035   12 Jun 2027 09:42:05.759             2.724           951.188
       381   12 Jun 2027 11:11:11.015   12 Jun 2027 11:11:30.471            19.456          6648.813
       382   12 Jun 2027 11:13:14.866   12 Jun 2027 11:13:18.688             3.822          1828.906
       383   12 Jun 2027 11:14:15.271   12 Jun 2027 11:14:21.314             6.043           934.219
       384   12 Jun 2027 11:14:51.388   12 Jun 2027 11:14:58.834             7.446           905.625
       385   12 Jun 2027 11:15:24.501   12 Jun 2027 11:15:27.928             3.427           203.594
       386   12 Jun 2027 11:15:48.431   12 Jun 2027 11:15:50.946             2.515           472.625
       387   12 Jun 2027 11:17:13.425   12 Jun 2027 11:17:17.856             4.431          2215.500
       388   12 Jun 2027 11:17:41.260   12 Jun 2027 11:17:43.581             2.321          1026.219
       389   13 Jun 2027 03:34:07.818   13 Jun 2027 03:35:09.256            61.438         30719.000
       390   13 Jun 2027 03:35:15.404   13 Jun 2027 03:35:26.607            11.203          5601.500
       391   13 Jun 2027 03:35:41.624   13 Jun 2027 03:36:35.953            54.329         27164.500
       392   13 Jun 2027 03:36:48.478   13 Jun 2027 03:37:36.392            47.914         23957.000
       393   13 Jun 2027 03:38:03.627   13 Jun 2027 03:38:49.846            46.219         23109.500
       394   13 Jun 2027 03:38:55.463   13 Jun 2027 03:39:25.554            30.091         15045.500
       395   13 Jun 2027 05:13:11.298   13 Jun 2027 05:13:25.547            14.249          7124.500
       396   13 Jun 2027 05:14:00.264   13 Jun 2027 05:14:58.801            58.537         29268.500
       397   13 Jun 2027 05:16:01.712   13 Jun 2027 05:16:07.323             5.611          2805.500
       398   13 Jun 2027 06:35:44.008   13 Jun 2027 06:35:59.657            15.649          7824.500
       399   13 Jun 2027 06:37:47.850   13 Jun 2027 06:37:53.090             5.240          2620.000
       400   13 Jun 2027 08:12:13.190   13 Jun 2027 08:12:21.157             7.967          2899.157
       401   13 Jun 2027 08:13:03.361   13 Jun 2027 08:13:03.361             0.000             0.000
       402   13 Jun 2027 08:14:06.838   13 Jun 2027 08:14:15.415             8.577          2953.813
       403   13 Jun 2027 09:47:18.189   13 Jun 2027 09:47:30.950            12.761          3936.219
       404   13 Jun 2027 09:48:24.667   13 Jun 2027 09:48:24.667             0.000             0.000
       405   13 Jun 2027 09:48:33.722   13 Jun 2027 09:48:37.889             4.167          1315.281
       406   13 Jun 2027 09:50:26.297   13 Jun 2027 09:50:33.934             7.637          3300.719
       407   13 Jun 2027 09:52:34.091   13 Jun 2027 09:52:34.091             0.000             0.000
       408   13 Jun 2027 09:52:54.892   13 Jun 2027 09:53:07.130            12.238          3656.688
       409   13 Jun 2027 09:53:51.301   13 Jun 2027 09:53:51.301             0.000             0.000
       410   13 Jun 2027 09:53:57.650   13 Jun 2027 09:54:04.046             6.396          1135.219
       411   13 Jun 2027 11:23:40.254   13 Jun 2027 11:23:52.305            12.051          5674.219
       412   13 Jun 2027 11:24:15.519   13 Jun 2027 11:24:16.318             0.799           361.594
       413   13 Jun 2027 11:25:14.433   13 Jun 2027 11:25:15.552             1.119           394.594
       414   13 Jun 2027 11:25:56.644   13 Jun 2027 11:25:59.331             2.687          1257.156
       415   13 Jun 2027 11:27:30.414   13 Jun 2027 11:27:34.648             4.234          2117.000
       416   13 Jun 2027 11:27:36.825   13 Jun 2027 11:27:38.487             1.662           160.500
       417   13 Jun 2027 11:28:04.210   13 Jun 2027 11:28:06.803             2.593           648.500
       418   13 Jun 2027 11:29:05.463   13 Jun 2027 11:29:11.159             5.696          1660.500
       419   13 Jun 2027 11:29:16.992   13 Jun 2027 11:29:18.913             1.921           182.281
       420   13 Jun 2027 11:29:53.295   13 Jun 2027 11:29:57.513             4.218          1074.438
