uniorb/output/strategy_2/Camera/Camera_KinoSat_111207.txt

KinoSat_111207
-------------------------
    Access    *     Start Time (UTCG)     *     Stop Time (UTCG)  *   Duration (s) *   Data (Mbytes)
         1   01 Jun 2027 03:12:25.441   01 Jun 2027 03:14:56.778           151.337         75668.500
         2   01 Jun 2027 03:15:33.160   01 Jun 2027 03:15:47.676            14.516          7258.000
         3   01 Jun 2027 03:16:45.287   01 Jun 2027 03:17:19.817            34.530         17265.000
         4   01 Jun 2027 04:36:09.591   01 Jun 2027 04:37:01.722            52.131         26065.500
         5   01 Jun 2027 04:37:57.811   01 Jun 2027 04:37:57.811             0.000             0.000
         6   01 Jun 2027 04:38:02.266   01 Jun 2027 04:38:13.295            11.029          5514.500
         7   01 Jun 2027 06:12:20.867   01 Jun 2027 06:15:09.599           168.732         84366.000
         8   01 Jun 2027 06:15:33.884   01 Jun 2027 06:15:51.937            18.053          9026.500
         9   01 Jun 2027 07:45:54.313   01 Jun 2027 07:48:16.008           141.695         70847.500
        10   01 Jun 2027 07:49:38.711   01 Jun 2027 07:49:44.492             5.781          2890.500
        11   01 Jun 2027 07:51:52.422   01 Jun 2027 07:51:58.036             5.614          2807.000
        12   01 Jun 2027 07:52:50.104   01 Jun 2027 07:52:55.273             5.169          2584.500
        13   01 Jun 2027 07:53:27.420   01 Jun 2027 07:53:30.456             3.036          1518.000
        14   01 Jun 2027 09:23:21.693   01 Jun 2027 09:25:05.410           103.717         51858.500
        15   01 Jun 2027 09:27:11.965   01 Jun 2027 09:27:41.896            29.931         14965.500
        16   01 Jun 2027 09:27:57.246   01 Jun 2027 09:28:11.046            13.800          6900.000
        17   01 Jun 2027 09:29:45.872   01 Jun 2027 09:30:04.738            18.866          9433.000
        18   01 Jun 2027 11:00:21.542   01 Jun 2027 11:02:11.152           109.610         54805.000
        19   01 Jun 2027 11:02:36.112   01 Jun 2027 11:02:44.592             8.480          4240.000
        20   01 Jun 2027 11:05:02.799   01 Jun 2027 11:05:09.780             6.981          3490.500
        21   01 Jun 2027 11:06:10.246   01 Jun 2027 11:06:12.906             2.660          1330.000
        22   02 Jun 2027 03:24:20.637   02 Jun 2027 03:27:42.613           201.976        100988.000
        23   02 Jun 2027 04:47:59.643   02 Jun 2027 04:48:33.218            33.575         16787.500
        24   02 Jun 2027 04:49:51.558   02 Jun 2027 04:50:11.043            19.485          9742.500
        25   02 Jun 2027 06:24:26.542   02 Jun 2027 06:26:51.509           144.967         72483.500
        26   02 Jun 2027 06:27:02.578   02 Jun 2027 06:27:14.356            11.778          5889.000
        27   02 Jun 2027 07:56:36.723   02 Jun 2027 07:56:45.735             9.012          4506.000
        28   02 Jun 2027 07:58:33.336   02 Jun 2027 08:00:34.416           121.080         60540.000
        29   02 Jun 2027 08:01:17.953   02 Jun 2027 08:01:44.465            26.512         13256.000
        30   02 Jun 2027 08:02:26.106   02 Jun 2027 08:02:36.238            10.132          2985.469
        31   02 Jun 2027 08:03:17.235   02 Jun 2027 08:03:19.142             1.907           931.500
        32   02 Jun 2027 08:04:04.660   02 Jun 2027 08:04:11.347             6.687          1254.813
        33   02 Jun 2027 08:04:42.073   02 Jun 2027 08:04:43.045             0.972            19.875
        34   02 Jun 2027 08:06:22.885   02 Jun 2027 08:06:23.054             0.169            84.500
        35   02 Jun 2027 09:35:31.349   02 Jun 2027 09:35:51.775            20.426          8700.875
        36   02 Jun 2027 09:36:43.434   02 Jun 2027 09:36:45.649             2.215           141.656
        37   02 Jun 2027 09:36:52.719   02 Jun 2027 09:36:56.802             4.083           220.937
        38   02 Jun 2027 09:37:37.273   02 Jun 2027 09:37:37.935             0.662            49.688
        39   02 Jun 2027 09:37:52.472   02 Jun 2027 09:37:55.460             2.988            50.500
        40   02 Jun 2027 09:38:14.392   02 Jun 2027 09:38:14.644             0.252            26.406
        41   02 Jun 2027 09:38:42.527   02 Jun 2027 09:38:46.203             3.676           638.531
        42   02 Jun 2027 09:39:13.435   02 Jun 2027 09:39:32.807            19.372           626.000
        43   02 Jun 2027 09:40:03.288   02 Jun 2027 09:40:07.394             4.106           182.031
        44   02 Jun 2027 09:40:32.664   02 Jun 2027 09:40:35.336             2.672           309.250
        45   02 Jun 2027 09:40:37.881   02 Jun 2027 09:40:38.349             0.468            36.469
        46   02 Jun 2027 09:41:32.982   02 Jun 2027 09:41:36.729             3.747          1707.281
        47   02 Jun 2027 09:41:43.105   02 Jun 2027 09:41:44.895             1.790           199.250
        48   02 Jun 2027 09:42:08.231   02 Jun 2027 09:42:10.643             2.412           295.187
        49   02 Jun 2027 09:42:12.664   02 Jun 2027 09:42:13.846             1.182            63.156
        50   02 Jun 2027 11:12:48.596   02 Jun 2027 11:13:06.857            18.261          8883.531
        51   02 Jun 2027 11:14:18.703   02 Jun 2027 11:14:21.743             3.040          1360.844
        52   02 Jun 2027 11:15:02.878   02 Jun 2027 11:15:05.100             2.222           811.344
        53   02 Jun 2027 11:15:30.403   02 Jun 2027 11:15:32.559             2.156           790.719
        54   02 Jun 2027 11:16:09.949   02 Jun 2027 11:16:13.013             3.064          1168.438
        55   02 Jun 2027 11:16:31.904   02 Jun 2027 11:16:34.471             2.567           555.188
        56   02 Jun 2027 11:17:16.736   02 Jun 2027 11:17:20.640             3.904           920.531
        57   03 Jun 2027 03:37:34.012   03 Jun 2027 03:40:35.988           181.976         90988.000
        58   03 Jun 2027 05:00:07.588   03 Jun 2027 05:01:11.009            63.421         31710.500
        59   03 Jun 2027 05:02:59.107   03 Jun 2027 05:03:09.049             9.942          4971.000
        60   03 Jun 2027 06:36:35.702   03 Jun 2027 06:37:27.923            52.221         25993.594
        61   03 Jun 2027 06:37:44.056   03 Jun 2027 06:37:52.046             7.990           112.094
        62   03 Jun 2027 06:38:31.343   03 Jun 2027 06:38:33.444             2.101           641.406
        63   03 Jun 2027 06:38:39.140   03 Jun 2027 06:38:40.397             1.257           178.000
        64   03 Jun 2027 06:39:06.126   03 Jun 2027 06:39:07.301             1.175           531.781
        65   03 Jun 2027 06:39:34.981   03 Jun 2027 06:39:35.151             0.170            85.000
        66   03 Jun 2027 08:11:46.432   03 Jun 2027 08:11:59.117            12.685          4971.094
        67   03 Jun 2027 08:12:14.420   03 Jun 2027 08:12:15.183             0.763           139.031
        68   03 Jun 2027 08:13:29.728   03 Jun 2027 08:13:35.090             5.362          1402.594
        69   03 Jun 2027 08:14:19.027   03 Jun 2027 08:14:25.681             6.654          1373.031
        70   03 Jun 2027 08:15:19.560   03 Jun 2027 08:15:23.574             4.014          1086.344
        71   03 Jun 2027 08:17:01.854   03 Jun 2027 08:17:04.687             2.833          1416.500
        72   03 Jun 2027 08:17:30.750   03 Jun 2027 08:17:34.122             3.372          1659.281
        73   03 Jun 2027 08:18:08.247   03 Jun 2027 08:18:10.829             2.582           602.812
        74   03 Jun 2027 09:48:05.514   03 Jun 2027 09:48:25.653            20.139          7505.125
        75   03 Jun 2027 09:49:47.673   03 Jun 2027 09:49:53.850             6.177          2184.750
        76   03 Jun 2027 09:50:15.162   03 Jun 2027 09:50:15.773             0.611           242.594
        77   03 Jun 2027 09:50:23.839   03 Jun 2027 09:50:25.334             1.495           229.219
        78   03 Jun 2027 09:50:30.151   03 Jun 2027 09:50:36.527             6.376           150.531
        79   03 Jun 2027 09:50:49.368   03 Jun 2027 09:50:52.513             3.145           354.437
        80   03 Jun 2027 09:50:56.316   03 Jun 2027 09:51:00.247             3.931           114.781
        81   03 Jun 2027 09:51:18.429   03 Jun 2027 09:51:22.891             4.462           530.531
        82   03 Jun 2027 09:51:34.471   03 Jun 2027 09:51:37.993             3.522           320.625
        83   03 Jun 2027 09:52:21.354   03 Jun 2027 09:52:23.677             2.323          1103.875
        84   03 Jun 2027 09:53:32.258   03 Jun 2027 09:53:36.675             4.417          1722.688
        85   03 Jun 2027 09:53:52.358   03 Jun 2027 09:53:53.735             1.377           235.469
        86   03 Jun 2027 09:54:07.938   03 Jun 2027 09:54:09.558             1.620           385.281
        87   03 Jun 2027 11:25:29.082   03 Jun 2027 11:25:46.029            16.947          6756.875
        88   03 Jun 2027 11:26:33.625   03 Jun 2027 11:26:37.249             3.624          1432.000
        89   03 Jun 2027 11:27:29.322   03 Jun 2027 11:27:32.038             2.716          1358.000
        90   03 Jun 2027 11:27:48.020   03 Jun 2027 11:27:52.249             4.229           768.719
        91   03 Jun 2027 11:28:02.889   03 Jun 2027 11:28:03.031             0.142            71.000
        92   03 Jun 2027 11:28:54.376   03 Jun 2027 11:29:04.060             9.684          1820.125
        93   03 Jun 2027 11:29:55.537   03 Jun 2027 11:29:58.548             3.011          1404.281
        94   04 Jun 2027 03:48:41.313   04 Jun 2027 03:49:19.274            37.961         18980.500
        95   04 Jun 2027 03:49:48.202   04 Jun 2027 03:52:04.699           136.497         68248.500
        96   04 Jun 2027 05:12:08.947   04 Jun 2027 05:13:45.925            96.978         48489.000
        97   04 Jun 2027 05:15:08.914   04 Jun 2027 05:15:10.636             1.722           861.000
        98   04 Jun 2027 06:48:36.815   04 Jun 2027 06:49:19.906            43.091         20551.875
        99   04 Jun 2027 06:49:52.515   04 Jun 2027 06:49:59.645             7.130           986.906
       100   04 Jun 2027 06:50:38.339   04 Jun 2027 06:50:44.838             6.499          1092.281
       101   04 Jun 2027 06:51:04.181   04 Jun 2027 06:51:04.181             0.000             0.000
       102   04 Jun 2027 06:51:42.937   04 Jun 2027 06:51:45.338             2.401          1200.500
       103   04 Jun 2027 08:24:31.454   04 Jun 2027 08:24:55.543            24.089          8460.062
       104   04 Jun 2027 08:25:31.303   04 Jun 2027 08:25:33.332             2.029           436.219
       105   04 Jun 2027 08:26:13.861   04 Jun 2027 08:26:15.560             1.699           593.469
       106   04 Jun 2027 08:26:41.038   04 Jun 2027 08:26:43.402             2.364           242.063
       107   04 Jun 2027 08:27:22.232   04 Jun 2027 08:27:26.295             4.063          1213.438
       108   04 Jun 2027 08:27:39.741   04 Jun 2027 08:27:42.834             3.093           420.187
       109   04 Jun 2027 08:30:00.843   04 Jun 2027 08:30:09.067             8.224          4035.688
       110   04 Jun 2027 09:59:44.600   04 Jun 2027 10:00:03.118            18.518          7898.125
       111   04 Jun 2027 10:00:53.603   04 Jun 2027 10:00:55.398             1.795           443.187
       112   04 Jun 2027 10:02:20.487   04 Jun 2027 10:02:22.749             2.262           790.438
       113   04 Jun 2027 10:02:46.629   04 Jun 2027 10:02:47.903             1.274           597.875
       114   04 Jun 2027 10:03:16.958   04 Jun 2027 10:03:20.892             3.934           868.594
       115   04 Jun 2027 10:04:16.239   04 Jun 2027 10:04:19.408             3.169          1543.031
       116   04 Jun 2027 10:04:40.070   04 Jun 2027 10:04:47.138             7.068           542.656
       117   04 Jun 2027 10:05:00.370   04 Jun 2027 10:05:07.158             6.788           413.500
       118   04 Jun 2027 10:05:21.632   04 Jun 2027 10:05:24.376             2.744           376.656
       119   04 Jun 2027 10:05:58.051   04 Jun 2027 10:06:01.466             3.415           938.344
       120   04 Jun 2027 11:37:43.354   04 Jun 2027 11:38:00.876            17.522          6788.344
       121   04 Jun 2027 11:38:39.121   04 Jun 2027 11:38:43.693             4.572           910.094
       122   04 Jun 2027 11:39:08.949   04 Jun 2027 11:39:09.589             0.640           313.062
       123   04 Jun 2027 11:39:46.488   04 Jun 2027 11:39:48.554             2.066           402.312
       124   04 Jun 2027 11:41:05.866   04 Jun 2027 11:41:09.289             3.423          1711.500
       125   04 Jun 2027 11:41:39.791   04 Jun 2027 11:41:45.062             5.271          1492.000
       126   04 Jun 2027 11:42:03.836   04 Jun 2027 11:42:03.836             0.000             0.000
       127   05 Jun 2027 03:49:42.228   05 Jun 2027 03:50:10.272            28.044         14022.000
       128   05 Jun 2027 04:00:38.601   05 Jun 2027 04:04:06.385           207.784        103892.000
       129   05 Jun 2027 05:24:35.369   05 Jun 2027 05:25:16.275            40.906         20453.000
       130   05 Jun 2027 05:25:40.956   05 Jun 2027 05:25:40.956             0.000             0.000
       131   05 Jun 2027 05:25:46.679   05 Jun 2027 05:25:49.005             2.326          1163.000
       132   05 Jun 2027 07:00:20.500   05 Jun 2027 07:00:39.232            18.732          9366.000
       133   05 Jun 2027 07:00:51.092   05 Jun 2027 07:01:23.762            32.670         15130.969
       134   05 Jun 2027 07:01:34.060   05 Jun 2027 07:01:37.866             3.806           321.812
       135   05 Jun 2027 07:02:35.091   05 Jun 2027 07:02:38.975             3.884          1584.000
       136   05 Jun 2027 07:03:16.262   05 Jun 2027 07:03:17.027             0.765           342.187
       137   05 Jun 2027 07:03:53.485   05 Jun 2027 07:03:55.752             2.267          1055.563
       138   05 Jun 2027 08:35:04.404   05 Jun 2027 08:35:17.358            12.954          4183.969
       139   05 Jun 2027 08:35:43.068   05 Jun 2027 08:35:43.068             0.000             0.000
       140   05 Jun 2027 08:36:05.203   05 Jun 2027 08:36:10.400             5.197          1053.625
       141   05 Jun 2027 08:37:51.741   05 Jun 2027 08:37:57.017             5.276           963.125
       142   05 Jun 2027 08:38:04.818   05 Jun 2027 08:38:05.958             1.140           114.875
       143   05 Jun 2027 08:38:40.327   05 Jun 2027 08:38:44.330             4.003          1074.031
       144   05 Jun 2027 08:39:24.361   05 Jun 2027 08:39:36.623            12.262           960.406
       145   05 Jun 2027 08:40:10.289   05 Jun 2027 08:40:12.325             2.036           585.219
       146   05 Jun 2027 08:41:55.039   05 Jun 2027 08:41:55.717             0.678           339.000
       147   05 Jun 2027 08:41:58.456   05 Jun 2027 08:42:04.295             5.839          2118.219
       148   05 Jun 2027 08:42:34.384   05 Jun 2027 08:42:35.051             0.667           290.281
       149   05 Jun 2027 10:11:53.701   05 Jun 2027 10:12:15.635            21.934          9366.938
       150   05 Jun 2027 10:12:59.556   05 Jun 2027 10:13:02.961             3.405           754.813
       151   05 Jun 2027 10:14:06.709   05 Jun 2027 10:14:10.871             4.162           809.062
       152   05 Jun 2027 10:14:24.313   05 Jun 2027 10:14:25.585             1.272            48.125
       153   05 Jun 2027 10:15:01.289   05 Jun 2027 10:15:06.123             4.834          1115.750
       154   05 Jun 2027 10:15:52.704   05 Jun 2027 10:15:56.029             3.325          1322.969
       155   05 Jun 2027 10:16:48.946   05 Jun 2027 10:16:51.651             2.705          1309.531
       156   05 Jun 2027 10:17:29.360   05 Jun 2027 10:17:42.869            13.509           944.531
       157   05 Jun 2027 10:17:50.815   05 Jun 2027 10:17:57.129             6.314            69.781
       158   05 Jun 2027 10:18:09.831   05 Jun 2027 10:18:13.213             3.382           278.031
       159   05 Jun 2027 11:50:06.544   05 Jun 2027 11:50:21.917            15.373          7686.500
       160   05 Jun 2027 11:51:06.539   05 Jun 2027 11:51:14.582             8.043          1444.844
       161   05 Jun 2027 11:52:13.834   05 Jun 2027 11:52:16.199             2.365          1182.500
       162   05 Jun 2027 11:52:29.557   05 Jun 2027 11:52:30.451             0.894           445.656
       163   05 Jun 2027 11:52:35.750   05 Jun 2027 11:52:35.843             0.093            13.844
       164   05 Jun 2027 11:53:46.059   05 Jun 2027 11:53:48.444             2.385          1192.500
       165   06 Jun 2027 04:00:59.161   06 Jun 2027 04:01:08.894             9.733          4866.500
       166   06 Jun 2027 04:01:18.492   06 Jun 2027 04:02:20.402            61.910         30955.000
       167   06 Jun 2027 04:12:38.988   06 Jun 2027 04:14:04.844            85.856         42928.000
       168   06 Jun 2027 05:35:10.700   06 Jun 2027 05:36:11.617            60.917         30458.500
       169   06 Jun 2027 05:36:52.451   06 Jun 2027 05:37:46.913            54.462         27231.000
       170   06 Jun 2027 05:39:07.621   06 Jun 2027 05:39:28.111            20.490         10245.000
       171   06 Jun 2027 07:10:13.933   06 Jun 2027 07:10:45.838            31.905         15949.938
       172   06 Jun 2027 07:11:12.273   06 Jun 2027 07:11:20.111             7.838           729.000
       173   06 Jun 2027 07:11:27.616   06 Jun 2027 07:11:27.616             0.000             0.000
       174   06 Jun 2027 07:12:58.959   06 Jun 2027 07:13:06.852             7.893          3034.125
       175   06 Jun 2027 07:13:26.440   06 Jun 2027 07:13:26.440             0.000             0.000
       176   06 Jun 2027 07:15:06.039   06 Jun 2027 07:15:18.915            12.876          3388.906
       177   06 Jun 2027 07:15:44.586   06 Jun 2027 07:15:47.455             2.869           676.000
       178   06 Jun 2027 07:16:39.259   06 Jun 2027 07:16:43.308             4.049          1575.563
       179   06 Jun 2027 08:47:12.576   06 Jun 2027 08:47:26.218            13.642          3328.531
       180   06 Jun 2027 08:48:06.450   06 Jun 2027 08:48:10.527             4.077          1012.937
       181   06 Jun 2027 08:48:54.826   06 Jun 2027 08:48:56.092             1.266           523.281
       182   06 Jun 2027 08:50:07.942   06 Jun 2027 08:50:11.070             3.128          1071.188
       183   06 Jun 2027 08:50:26.385   06 Jun 2027 08:50:28.887             2.502           393.000
       184   06 Jun 2027 08:51:26.204   06 Jun 2027 08:51:35.701             9.497          1791.156
       185   06 Jun 2027 08:52:07.886   06 Jun 2027 08:52:10.523             2.637           843.031
       186   06 Jun 2027 08:52:15.036   06 Jun 2027 08:52:17.309             2.273           125.719
       187   06 Jun 2027 08:52:49.797   06 Jun 2027 08:52:50.241             0.444           222.000
       188   06 Jun 2027 08:52:59.261   06 Jun 2027 08:53:02.188             2.927           938.813
       189   06 Jun 2027 08:54:24.531   06 Jun 2027 08:54:30.825             6.294          2573.219
       190   06 Jun 2027 10:24:10.675   06 Jun 2027 10:24:25.994            15.319          7567.000
       191   06 Jun 2027 10:25:04.692   06 Jun 2027 10:25:08.670             3.978          1093.219
       192   06 Jun 2027 10:26:47.127   06 Jun 2027 10:26:54.510             7.383          2038.969
       193   06 Jun 2027 10:27:07.908   06 Jun 2027 10:27:08.290             0.382           120.344
       194   06 Jun 2027 10:27:43.601   06 Jun 2027 10:27:51.884             8.283          1103.469
       195   06 Jun 2027 10:27:59.312   06 Jun 2027 10:28:01.156             1.844           232.125
       196   06 Jun 2027 10:28:25.282   06 Jun 2027 10:28:26.707             1.425           446.844
       197   06 Jun 2027 10:28:54.439   06 Jun 2027 10:29:02.312             7.873           716.094
       198   06 Jun 2027 10:29:28.503   06 Jun 2027 10:29:29.848             1.345           652.469
       199   06 Jun 2027 10:29:40.654   06 Jun 2027 10:29:42.710             2.056           247.875
       200   06 Jun 2027 10:30:09.918   06 Jun 2027 10:30:11.466             1.548           604.656
       201   07 Jun 2027 04:12:20.138   07 Jun 2027 04:13:49.868            89.730         44865.000
       202   07 Jun 2027 04:24:36.531   07 Jun 2027 04:25:32.069            55.538         27769.000
       203   07 Jun 2027 05:46:35.120   07 Jun 2027 05:47:59.374            84.254         42127.000
       204   07 Jun 2027 05:48:43.152   07 Jun 2027 05:49:14.875            31.723         15861.500
       205   07 Jun 2027 05:49:22.551   07 Jun 2027 05:49:22.551             0.000             0.000
       206   07 Jun 2027 05:51:04.109   07 Jun 2027 05:51:04.109             0.000             0.000
       207   07 Jun 2027 05:51:10.232   07 Jun 2027 05:51:10.232             0.000             0.000
       208   07 Jun 2027 05:51:17.622   07 Jun 2027 05:51:25.818             8.196          4098.000
       209   07 Jun 2027 05:51:45.163   07 Jun 2027 05:51:45.163             0.000             0.000
       210   07 Jun 2027 05:52:07.056   07 Jun 2027 05:52:12.238             5.182          2591.000
       211   07 Jun 2027 07:21:38.568   07 Jun 2027 07:22:29.561            50.993         25080.406
       212   07 Jun 2027 07:23:11.139   07 Jun 2027 07:23:13.576             2.437          1124.781
       213   07 Jun 2027 07:23:30.976   07 Jun 2027 07:23:33.754             2.778           243.437
       214   07 Jun 2027 07:24:09.112   07 Jun 2027 07:24:11.892             2.780           894.594
       215   07 Jun 2027 07:24:32.448   07 Jun 2027 07:24:36.228             3.780            92.812
       216   07 Jun 2027 07:25:45.649   07 Jun 2027 07:25:49.927             4.278          2020.688
       217   07 Jun 2027 07:27:06.291   07 Jun 2027 07:27:11.445             5.154          2231.031
       218   07 Jun 2027 07:28:01.420   07 Jun 2027 07:28:05.243             3.823          1180.375
       219   07 Jun 2027 07:28:17.503   07 Jun 2027 07:28:17.503             0.000             0.000
       220   07 Jun 2027 07:28:21.234   07 Jun 2027 07:28:23.501             2.267           213.687
       221   07 Jun 2027 07:28:33.217   07 Jun 2027 07:28:38.640             5.423           303.625
       222   07 Jun 2027 07:30:16.702   07 Jun 2027 07:30:17.523             0.821           410.500
       223   07 Jun 2027 08:59:14.631   07 Jun 2027 08:59:26.236            11.605          5496.500
       224   07 Jun 2027 09:00:10.227   07 Jun 2027 09:00:12.717             2.490          1059.031
       225   07 Jun 2027 09:00:57.213   07 Jun 2027 09:00:59.754             2.541          1005.500
       226   07 Jun 2027 09:01:09.276   07 Jun 2027 09:01:10.156             0.880           297.563
       227   07 Jun 2027 09:01:33.862   07 Jun 2027 09:01:35.627             1.765           678.375
       228   07 Jun 2027 09:02:46.753   07 Jun 2027 09:02:54.212             7.459          2114.937
       229   07 Jun 2027 09:03:33.326   07 Jun 2027 09:03:34.259             0.933           466.500
       230   07 Jun 2027 09:03:48.384   07 Jun 2027 09:03:51.668             3.284          1165.844
       231   07 Jun 2027 09:04:01.967   07 Jun 2027 09:04:07.305             5.338           212.406
       232   07 Jun 2027 09:05:15.383   07 Jun 2027 09:05:20.993             5.610          1916.875
       233   07 Jun 2027 09:05:58.945   07 Jun 2027 09:06:06.330             7.385          1050.562
       234   07 Jun 2027 09:06:27.674   07 Jun 2027 09:06:29.040             1.366           612.469
       235   07 Jun 2027 09:06:40.587   07 Jun 2027 09:06:40.665             0.078            39.000
       236   07 Jun 2027 10:36:00.443   07 Jun 2027 10:36:16.133            15.690          6666.750
       237   07 Jun 2027 10:36:19.291   07 Jun 2027 10:36:21.961             2.670            98.687
       238   07 Jun 2027 10:36:32.902   07 Jun 2027 10:36:41.139             8.237            81.219
       239   07 Jun 2027 10:37:30.103   07 Jun 2027 10:37:37.693             7.590           313.156
       240   07 Jun 2027 10:38:46.034   07 Jun 2027 10:38:50.438             4.404          2076.219
       241   07 Jun 2027 10:39:38.414   07 Jun 2027 10:39:42.041             3.627          1354.562
       242   07 Jun 2027 10:40:12.747   07 Jun 2027 10:40:14.951             2.204           315.781
       243   07 Jun 2027 10:40:17.247   07 Jun 2027 10:40:18.833             1.586            71.750
       244   07 Jun 2027 10:40:20.091   07 Jun 2027 10:40:21.069             0.978            38.625
       245   07 Jun 2027 10:40:53.322   07 Jun 2027 10:40:56.917             3.595           985.406
       246   07 Jun 2027 10:41:06.289   07 Jun 2027 10:41:07.334             1.045           292.875
       247   07 Jun 2027 10:41:44.986   07 Jun 2027 10:41:49.341             4.355           846.594
       248   07 Jun 2027 10:42:11.619   07 Jun 2027 10:42:11.619             0.000             0.000
       249   08 Jun 2027 03:00:16.576   08 Jun 2027 03:00:51.765            35.189         17594.500
       250   08 Jun 2027 03:01:02.195   08 Jun 2027 03:01:02.195             0.000             0.000
       251   08 Jun 2027 03:01:38.757   08 Jun 2027 03:02:16.394            37.637         18818.500
       252   08 Jun 2027 03:02:44.606   08 Jun 2027 03:02:55.605            10.999          5499.500
       253   08 Jun 2027 03:03:23.687   08 Jun 2027 03:03:46.210            22.523         11261.500
       254   08 Jun 2027 03:03:51.746   08 Jun 2027 03:03:56.394             4.648          2324.000
       255   08 Jun 2027 03:04:14.063   08 Jun 2027 03:04:18.261             4.198          2099.000
       256   08 Jun 2027 03:04:36.165   08 Jun 2027 03:04:41.300             5.135          2567.500
       257   08 Jun 2027 04:24:27.962   08 Jun 2027 04:25:14.541            46.579         23289.500
       258   08 Jun 2027 04:25:15.038   08 Jun 2027 04:25:17.350             2.312          1156.000
       259   08 Jun 2027 04:25:20.525   08 Jun 2027 04:25:38.658            18.133          9066.500
       260   08 Jun 2027 04:36:59.901   08 Jun 2027 04:37:03.648             3.747          1873.500
       261   08 Jun 2027 05:58:17.476   08 Jun 2027 06:00:38.884           141.408         69596.876
       262   08 Jun 2027 06:01:15.826   08 Jun 2027 06:01:15.826             0.000             0.000
       263   08 Jun 2027 06:03:18.140   08 Jun 2027 06:03:29.124            10.984          4722.906
       264   08 Jun 2027 07:33:09.721   08 Jun 2027 07:33:22.576            12.855          5708.719
       265   08 Jun 2027 07:34:15.196   08 Jun 2027 07:34:17.362             2.166           287.875
       266   08 Jun 2027 07:36:07.238   08 Jun 2027 07:36:12.776             5.538          1591.000
       267   08 Jun 2027 07:36:27.398   08 Jun 2027 07:36:28.919             1.521           311.781
       268   08 Jun 2027 07:37:31.198   08 Jun 2027 07:37:34.812             3.614          1316.406
       269   08 Jun 2027 07:38:20.311   08 Jun 2027 07:38:20.311             0.000             0.000
       270   08 Jun 2027 07:38:54.702   08 Jun 2027 07:39:01.957             7.255          2157.469
       271   08 Jun 2027 07:39:29.190   08 Jun 2027 07:39:30.967             1.777           725.063
       272   08 Jun 2027 07:39:50.828   08 Jun 2027 07:39:51.821             0.993            23.875
       273   08 Jun 2027 07:40:21.154   08 Jun 2027 07:40:21.154             0.000             0.000
       274   08 Jun 2027 07:41:07.634   08 Jun 2027 07:41:11.607             3.973          1986.500
       275   08 Jun 2027 07:41:16.146   08 Jun 2027 07:41:23.996             7.850           524.500
       276   08 Jun 2027 07:41:43.735   08 Jun 2027 07:41:46.456             2.721           537.312
       277   08 Jun 2027 07:42:01.365   08 Jun 2027 07:42:02.814             1.449           436.062
       278   08 Jun 2027 09:11:15.293   08 Jun 2027 09:11:32.503            17.210          6581.500
       279   08 Jun 2027 09:12:16.616   08 Jun 2027 09:12:19.955             3.339          1015.094
       280   08 Jun 2027 09:13:37.017   08 Jun 2027 09:13:40.568             3.551          1198.813
       281   08 Jun 2027 09:14:06.857   08 Jun 2027 09:14:10.491             3.634           110.094
       282   08 Jun 2027 09:15:25.044   08 Jun 2027 09:15:28.793             3.749          1874.500
       283   08 Jun 2027 09:15:37.047   08 Jun 2027 09:15:39.737             2.690           355.094
       284   08 Jun 2027 09:16:27.124   08 Jun 2027 09:16:30.958             3.834          1024.750
       285   08 Jun 2027 09:16:48.774   08 Jun 2027 09:16:49.460             0.686           277.937
       286   08 Jun 2027 09:17:07.553   08 Jun 2027 09:17:08.531             0.978           429.344
       287   08 Jun 2027 09:17:26.020   08 Jun 2027 09:17:33.628             7.608           345.625
       288   08 Jun 2027 09:17:55.576   08 Jun 2027 09:18:02.653             7.077           593.750
       289   08 Jun 2027 09:18:27.905   08 Jun 2027 09:18:29.594             1.689           645.281
       290   08 Jun 2027 10:48:09.304   08 Jun 2027 10:48:25.240            15.936          7615.031
       291   08 Jun 2027 10:48:41.661   08 Jun 2027 10:48:42.668             1.007           471.156
       292   08 Jun 2027 10:49:12.612   08 Jun 2027 10:49:13.778             1.166           580.563
       293   08 Jun 2027 10:50:26.133   08 Jun 2027 10:50:32.201             6.068          2261.094
       294   08 Jun 2027 10:51:02.002   08 Jun 2027 10:51:03.793             1.791           574.156
       295   08 Jun 2027 10:52:04.312   08 Jun 2027 10:52:09.754             5.442          1807.656
       296   08 Jun 2027 10:52:24.023   08 Jun 2027 10:52:26.757             2.734           445.906
       297   08 Jun 2027 10:52:33.663   08 Jun 2027 10:52:34.491             0.828            55.563
       298   08 Jun 2027 10:53:42.919   08 Jun 2027 10:53:50.582             7.663          1734.969
       299   08 Jun 2027 10:54:11.539   08 Jun 2027 10:54:14.337             2.798           528.344
       300   08 Jun 2027 10:54:21.393   08 Jun 2027 10:54:34.006            12.613           220.500
       301   09 Jun 2027 03:12:37.440   09 Jun 2027 03:15:12.972           155.532         77766.000
       302   09 Jun 2027 03:15:48.456   09 Jun 2027 03:16:40.749            52.293         26146.500
       303   09 Jun 2027 04:36:24.189   09 Jun 2027 04:37:03.438            39.249         19624.500
       304   09 Jun 2027 04:37:22.476   09 Jun 2027 04:37:39.807            17.331          8665.500
       305   09 Jun 2027 06:12:36.767   09 Jun 2027 06:13:46.519            69.752         33566.531
       306   09 Jun 2027 06:14:33.412   09 Jun 2027 06:14:37.912             4.500          1171.688
       307   09 Jun 2027 06:15:43.191   09 Jun 2027 06:15:50.581             7.390          1723.344
       308   09 Jun 2027 07:46:10.071   09 Jun 2027 07:46:23.886            13.815          6112.562
       309   09 Jun 2027 07:47:34.955   09 Jun 2027 07:47:37.565             2.610           451.281
       310   09 Jun 2027 07:48:32.763   09 Jun 2027 07:48:32.763             0.000             0.000
       311   09 Jun 2027 07:48:40.690   09 Jun 2027 07:48:43.477             2.787          1039.906
       312   09 Jun 2027 07:49:05.587   09 Jun 2027 07:49:07.286             1.699           690.938
       313   09 Jun 2027 07:50:01.419   09 Jun 2027 07:50:04.611             3.192           881.500
       314   09 Jun 2027 07:50:45.357   09 Jun 2027 07:50:47.968             2.611           689.281
       315   09 Jun 2027 07:51:32.122   09 Jun 2027 07:51:32.122             0.000             0.000
       316   09 Jun 2027 07:52:09.308   09 Jun 2027 07:52:18.379             9.071          2008.625
       317   09 Jun 2027 07:52:42.735   09 Jun 2027 07:52:44.458             1.723           713.937
       318   09 Jun 2027 07:53:13.628   09 Jun 2027 07:53:15.007             1.379           689.500
       319   09 Jun 2027 07:53:17.342   09 Jun 2027 07:53:20.013             2.671           101.875
       320   09 Jun 2027 07:53:42.704   09 Jun 2027 07:53:43.088             0.384           192.000
       321   09 Jun 2027 07:53:44.133   09 Jun 2027 07:53:44.925             0.792           396.000
       322   09 Jun 2027 07:54:03.206   09 Jun 2027 07:54:03.638             0.432           216.000
       323   09 Jun 2027 09:23:40.758   09 Jun 2027 09:24:03.699            22.941          7373.750
       324   09 Jun 2027 09:24:16.066   09 Jun 2027 09:24:18.761             2.695           278.406
       325   09 Jun 2027 09:24:48.358   09 Jun 2027 09:24:49.488             1.130           553.688
       326   09 Jun 2027 09:25:49.272   09 Jun 2027 09:25:51.656             2.384           691.094
       327   09 Jun 2027 09:26:26.188   09 Jun 2027 09:26:29.185             2.997           867.344
       328   09 Jun 2027 09:26:51.286   09 Jun 2027 09:26:54.778             3.492           500.031
       329   09 Jun 2027 09:26:55.451   09 Jun 2027 09:26:55.926             0.475             3.781
       330   09 Jun 2027 09:27:27.444   09 Jun 2027 09:27:29.429             1.985           759.375
       331   09 Jun 2027 09:27:47.803   09 Jun 2027 09:27:51.297             3.494           574.188
       332   09 Jun 2027 09:28:16.396   09 Jun 2027 09:28:17.670             1.274            89.344
       333   09 Jun 2027 09:28:47.250   09 Jun 2027 09:28:47.367             0.117            19.562
       334   09 Jun 2027 09:29:49.774   09 Jun 2027 09:29:57.003             7.229          1750.156
       335   09 Jun 2027 09:29:58.799   09 Jun 2027 09:29:59.281             0.482            56.125
       336   09 Jun 2027 09:30:22.872   09 Jun 2027 09:30:25.538             2.666           719.250
       337   09 Jun 2027 11:00:37.240   09 Jun 2027 11:00:58.359            21.119          6809.406
       338   09 Jun 2027 11:02:28.388   09 Jun 2027 11:02:31.865             3.477           732.812
       339   09 Jun 2027 11:02:59.443   09 Jun 2027 11:03:04.013             4.570           861.812
       340   09 Jun 2027 11:03:18.959   09 Jun 2027 11:03:19.820             0.861           372.844
       341   09 Jun 2027 11:03:48.426   09 Jun 2027 11:03:51.089             2.663           603.406
       342   09 Jun 2027 11:03:57.687   09 Jun 2027 11:03:58.018             0.331           165.500
       343   09 Jun 2027 11:04:02.863   09 Jun 2027 11:04:06.121             3.258           192.094
       344   09 Jun 2027 11:04:15.807   09 Jun 2027 11:04:17.880             2.073           302.688
       345   09 Jun 2027 11:04:31.313   09 Jun 2027 11:04:31.681             0.368           151.875
       346   09 Jun 2027 11:04:59.364   09 Jun 2027 11:05:02.069             2.705           865.094
       347   09 Jun 2027 11:05:48.474   09 Jun 2027 11:05:50.527             2.053          1026.500
       348   09 Jun 2027 11:05:58.495   09 Jun 2027 11:05:59.401             0.906           429.562
       349   09 Jun 2027 11:06:25.874   09 Jun 2027 11:06:28.814             2.940           445.594
       350   10 Jun 2027 03:24:36.055   10 Jun 2027 03:28:16.867           220.812        110406.000
       351   10 Jun 2027 04:48:15.045   10 Jun 2027 04:49:19.876            64.831         32415.500
       352   10 Jun 2027 06:24:41.955   10 Jun 2027 06:25:25.782            43.827         21601.969
       353   10 Jun 2027 06:26:29.690   10 Jun 2027 06:26:34.237             4.547          1802.031
       354   10 Jun 2027 06:26:45.016   10 Jun 2027 06:26:45.662             0.646           269.719
       355   10 Jun 2027 06:27:11.881   10 Jun 2027 06:27:16.975             5.094           663.969
       356   10 Jun 2027 06:27:45.874   10 Jun 2027 06:27:45.874             0.000             0.000
       357   10 Jun 2027 07:56:50.746   10 Jun 2027 07:56:58.970             8.224          3906.281
       358   10 Jun 2027 07:59:23.080   10 Jun 2027 07:59:34.633            11.553          2629.594
       359   10 Jun 2027 08:00:32.729   10 Jun 2027 08:00:36.497             3.768          1624.937
       360   10 Jun 2027 08:00:42.566   10 Jun 2027 08:00:43.400             0.834           103.094
       361   10 Jun 2027 08:01:34.935   10 Jun 2027 08:01:40.033             5.098          1362.781
       362   10 Jun 2027 08:02:14.279   10 Jun 2027 08:02:22.321             8.042           542.000
       363   10 Jun 2027 08:03:53.883   10 Jun 2027 08:04:00.096             6.213          2634.000
       364   10 Jun 2027 08:05:18.126   10 Jun 2027 08:05:22.677             4.551          2228.250
       365   10 Jun 2027 08:05:35.436   10 Jun 2027 08:05:36.891             1.455           240.750
       366   10 Jun 2027 08:06:30.615   10 Jun 2027 08:06:34.621             4.006          1547.188
       367   10 Jun 2027 08:06:38.360   10 Jun 2027 08:06:38.381             0.021            10.500
       368   10 Jun 2027 09:35:47.907   10 Jun 2027 09:36:04.280            16.373          7112.000
       369   10 Jun 2027 09:36:58.837   10 Jun 2027 09:37:00.521             1.684            77.063
       370   10 Jun 2027 09:37:53.510   10 Jun 2027 09:37:56.347             2.837            37.719
       371   10 Jun 2027 09:38:20.071   10 Jun 2027 09:38:24.518             4.447            28.156
       372   10 Jun 2027 09:38:46.961   10 Jun 2027 09:38:48.991             2.030           573.344
       373   10 Jun 2027 09:39:29.266   10 Jun 2027 09:39:48.046            18.780           956.969
       374   10 Jun 2027 09:40:18.324   10 Jun 2027 09:40:21.944             3.620           142.375
       375   10 Jun 2027 09:40:29.493   10 Jun 2027 09:40:31.024             1.531           225.125
       376   10 Jun 2027 09:41:04.934   10 Jun 2027 09:41:07.041             2.107           737.625
       377   10 Jun 2027 09:41:54.495   10 Jun 2027 09:41:54.495             0.000             0.000
       378   10 Jun 2027 09:42:22.418   10 Jun 2027 09:42:27.263             4.845          1570.750
       379   10 Jun 2027 09:42:27.469   10 Jun 2027 09:42:27.984             0.515             6.437
       380   10 Jun 2027 11:13:09.610   10 Jun 2027 11:13:31.444            21.834          7217.375
       381   10 Jun 2027 11:14:34.372   10 Jun 2027 11:14:38.975             4.603          1314.906
       382   10 Jun 2027 11:15:37.170   10 Jun 2027 11:15:37.360             0.190            95.000
       383   10 Jun 2027 11:15:47.029   10 Jun 2027 11:15:53.060             6.031          1699.125
       384   10 Jun 2027 11:16:10.247   10 Jun 2027 11:16:14.687             4.440           228.781
       385   10 Jun 2027 11:16:30.696   10 Jun 2027 11:16:35.261             4.565           428.000
       386   10 Jun 2027 11:16:42.236   10 Jun 2027 11:16:42.236             0.000             0.000
       387   10 Jun 2027 11:16:54.324   10 Jun 2027 11:16:57.082             2.758           543.781
       388   10 Jun 2027 11:17:25.181   10 Jun 2027 11:17:32.075             6.894           878.094
       389   10 Jun 2027 11:17:39.979   10 Jun 2027 11:17:39.979             0.000             0.000
       390   10 Jun 2027 11:17:40.994   10 Jun 2027 11:17:42.085             1.091           278.719
       391   11 Jun 2027 03:37:49.566   11 Jun 2027 03:41:22.741           213.175        106587.500
       392   11 Jun 2027 05:00:23.379   11 Jun 2027 05:00:54.788            31.409         15704.500
       393   11 Jun 2027 05:01:22.365   11 Jun 2027 05:01:26.091             3.726          1863.000
       394   11 Jun 2027 05:01:27.500   11 Jun 2027 05:01:41.461            13.961          6980.500
       395   11 Jun 2027 06:36:51.785   11 Jun 2027 06:37:40.172            48.387         23437.281
       396   11 Jun 2027 06:38:56.561   11 Jun 2027 06:39:03.763             7.202          1843.625
       397   11 Jun 2027 06:39:18.750   11 Jun 2027 06:39:20.014             1.264           468.344
       398   11 Jun 2027 08:12:03.013   11 Jun 2027 08:12:13.781            10.768          3912.906
       399   11 Jun 2027 08:13:01.611   11 Jun 2027 08:13:13.346            11.735          1175.437
       400   11 Jun 2027 08:13:23.566   11 Jun 2027 08:13:25.834             2.268           319.375
       401   11 Jun 2027 08:15:33.971   11 Jun 2027 08:15:42.454             8.483          3676.969
       402   11 Jun 2027 08:16:24.784   11 Jun 2027 08:16:30.178             5.394           840.500
       403   11 Jun 2027 08:17:04.645   11 Jun 2027 08:17:05.838             1.193           148.813
       404   11 Jun 2027 08:17:24.817   11 Jun 2027 08:17:26.395             1.578           593.094
       405   11 Jun 2027 08:17:47.526   11 Jun 2027 08:17:48.885             1.359           600.031
       406   11 Jun 2027 08:18:15.865   11 Jun 2027 08:18:17.868             2.003           636.219
       407   11 Jun 2027 09:48:21.582   11 Jun 2027 09:48:38.648            17.066          6929.438
       408   11 Jun 2027 09:49:37.601   11 Jun 2027 09:49:41.653             4.052          1401.031
       409   11 Jun 2027 09:50:23.185   11 Jun 2027 09:50:25.672             2.487           742.406
       410   11 Jun 2027 09:50:59.021   11 Jun 2027 09:51:01.059             2.038           806.062
       411   11 Jun 2027 09:51:07.132   11 Jun 2027 09:51:07.318             0.186            81.844
       412   11 Jun 2027 09:52:03.835   11 Jun 2027 09:52:09.182             5.347          1493.531
       413   11 Jun 2027 09:53:47.354   11 Jun 2027 09:53:57.910            10.556          2792.625
       414   11 Jun 2027 09:54:07.492   11 Jun 2027 09:54:08.875             1.383           224.312
       415   11 Jun 2027 09:54:22.133   11 Jun 2027 09:54:24.758             2.625           365.937
       416   11 Jun 2027 11:25:44.490   11 Jun 2027 11:26:01.628            17.138          7297.281
       417   11 Jun 2027 11:26:20.001   11 Jun 2027 11:26:20.001             0.000             0.000
       418   11 Jun 2027 11:26:48.534   11 Jun 2027 11:26:51.857             3.323          1422.688
       419   11 Jun 2027 11:26:56.408   11 Jun 2027 11:27:14.042            17.634            82.031
       420   11 Jun 2027 11:27:17.675   11 Jun 2027 11:27:18.211             0.536           113.531
       421   11 Jun 2027 11:27:28.580   11 Jun 2027 11:27:31.135             2.555           323.781
       422   11 Jun 2027 11:27:37.374   11 Jun 2027 11:27:41.259             3.885           194.969
       423   11 Jun 2027 11:27:52.127   11 Jun 2027 11:27:56.197             4.070           224.875
       424   11 Jun 2027 11:28:38.350   11 Jun 2027 11:28:41.604             3.254          1083.875
       425   11 Jun 2027 11:29:32.186   11 Jun 2027 11:29:38.784             6.598          1178.219
       426   11 Jun 2027 11:29:59.294   11 Jun 2027 11:29:59.294             0.000             0.000
       427   12 Jun 2027 03:48:57.549   12 Jun 2027 03:49:34.890            37.341         18670.500
       428   12 Jun 2027 03:50:03.540   12 Jun 2027 03:52:20.467           136.927         68463.500
       429   12 Jun 2027 05:12:24.279   12 Jun 2027 05:14:04.316           100.037         50018.500
       430   12 Jun 2027 06:48:51.390   12 Jun 2027 06:49:34.684            43.294         21323.750
       431   12 Jun 2027 06:50:08.357   12 Jun 2027 06:50:11.156             2.799           948.063
       432   12 Jun 2027 06:50:52.933   12 Jun 2027 06:50:58.962             6.029          1042.219
       433   12 Jun 2027 06:51:20.219   12 Jun 2027 06:51:21.289             1.070           388.906
       434   12 Jun 2027 06:52:20.237   12 Jun 2027 06:52:21.683             1.446           723.000
       435   12 Jun 2027 08:24:04.443   12 Jun 2027 08:24:16.198            11.755          5743.531
       436   12 Jun 2027 08:24:23.649   12 Jun 2027 08:24:24.688             1.039           232.844
       437   12 Jun 2027 08:25:03.721   12 Jun 2027 08:25:10.564             6.843           918.750
       438   12 Jun 2027 08:25:31.795   12 Jun 2027 08:25:36.726             4.931           304.438
       439   12 Jun 2027 08:26:12.040   12 Jun 2027 08:26:15.385             3.345          1086.031
       440   12 Jun 2027 08:26:45.094   12 Jun 2027 08:26:48.292             3.198           928.406
       441   12 Jun 2027 08:26:56.791   12 Jun 2027 08:26:57.232             0.441           209.469
       442   12 Jun 2027 08:27:39.853   12 Jun 2027 08:27:42.880             3.027          1331.906
       443   12 Jun 2027 08:30:17.984   12 Jun 2027 08:30:27.504             9.520          4026.625
       444   12 Jun 2027 10:00:00.262   12 Jun 2027 10:00:16.790            16.528          7928.938
       445   12 Jun 2027 10:02:10.452   12 Jun 2027 10:02:15.404             4.952          2426.062
       446   12 Jun 2027 10:02:36.009   12 Jun 2027 10:02:38.840             2.831           471.406
       447   12 Jun 2027 10:03:05.752   12 Jun 2027 10:03:08.774             3.022           689.125
       448   12 Jun 2027 10:03:12.604   12 Jun 2027 10:03:14.407             1.803            69.688
       449   12 Jun 2027 10:04:31.212   12 Jun 2027 10:04:37.087             5.875          2050.531
       450   12 Jun 2027 10:04:57.502   12 Jun 2027 10:05:03.989             6.487           588.125
       451   12 Jun 2027 10:05:16.767   12 Jun 2027 10:05:24.334             7.567           399.313
       452   12 Jun 2027 10:05:37.758   12 Jun 2027 10:05:38.751             0.993           396.375
       453   12 Jun 2027 10:06:15.085   12 Jun 2027 10:06:17.568             2.483          1002.375
       454   12 Jun 2027 11:37:58.663   12 Jun 2027 11:38:11.147            12.484          6242.000
       455   12 Jun 2027 11:38:31.871   12 Jun 2027 11:38:41.406             9.535          1415.813
       456   12 Jun 2027 11:38:43.342   12 Jun 2027 11:38:44.896             1.554            35.906
       457   12 Jun 2027 11:39:20.503   12 Jun 2027 11:39:21.321             0.818           409.000
       458   12 Jun 2027 11:39:52.664   12 Jun 2027 11:40:02.150             9.486          1683.188
       459   12 Jun 2027 11:40:39.882   12 Jun 2027 11:40:42.373             2.491          1179.125
       460   12 Jun 2027 11:40:58.611   12 Jun 2027 11:41:02.584             3.973           507.438
       461   12 Jun 2027 11:41:09.608   12 Jun 2027 11:41:10.191             0.583           134.281
       462   12 Jun 2027 11:42:00.084   12 Jun 2027 11:42:06.245             6.161          1123.125
       463   13 Jun 2027 03:49:56.303   13 Jun 2027 03:50:26.249            29.946         14973.000
       464   13 Jun 2027 04:00:54.140   13 Jun 2027 04:04:22.154           208.014        104007.000
       465   13 Jun 2027 05:24:50.428   13 Jun 2027 05:25:22.364            31.936         15968.000
       466   13 Jun 2027 05:27:20.997   13 Jun 2027 05:27:20.997             0.000             0.000
       467   13 Jun 2027 07:00:36.211   13 Jun 2027 07:01:23.946            47.735         23820.719
       468   13 Jun 2027 07:02:14.551   13 Jun 2027 07:02:16.881             2.330          1053.688
       469   13 Jun 2027 07:03:31.586   13 Jun 2027 07:03:36.128             4.542          2007.563
       470   13 Jun 2027 07:04:09.651   13 Jun 2027 07:04:11.796             2.145          1006.813
       471   13 Jun 2027 07:04:29.340   13 Jun 2027 07:04:33.736             4.396           232.469
       472   13 Jun 2027 07:04:43.559   13 Jun 2027 07:04:45.169             1.610           188.969
       473   13 Jun 2027 08:35:20.160   13 Jun 2027 08:35:29.270             9.110          3886.375
       474   13 Jun 2027 08:36:54.912   13 Jun 2027 08:37:00.948             6.036          2273.688
       475   13 Jun 2027 08:37:07.487   13 Jun 2027 08:37:10.996             3.509           204.344
       476   13 Jun 2027 08:37:45.870   13 Jun 2027 08:37:51.052             5.182           959.125
       477   13 Jun 2027 08:38:21.803   13 Jun 2027 08:38:24.735             2.932           960.969
       478   13 Jun 2027 08:38:47.148   13 Jun 2027 08:38:51.133             3.985           240.531
       479   13 Jun 2027 08:39:11.382   13 Jun 2027 08:39:14.745             3.363           632.781
       480   13 Jun 2027 08:40:06.786   13 Jun 2027 08:40:10.276             3.490          1432.219
       481   13 Jun 2027 08:41:17.218   13 Jun 2027 08:41:21.832             4.614          1972.969
       482   13 Jun 2027 08:42:10.234   13 Jun 2027 08:42:13.061             2.827          1413.500
       483   13 Jun 2027 08:42:13.635   13 Jun 2027 08:42:13.945             0.310           117.000
       484   13 Jun 2027 08:42:40.648   13 Jun 2027 08:42:43.725             3.077           834.469
       485   13 Jun 2027 10:12:09.884   13 Jun 2027 10:12:29.456            19.572          9114.812
       486   13 Jun 2027 10:14:06.681   13 Jun 2027 10:14:12.875             6.194           407.000
       487   13 Jun 2027 10:14:45.099   13 Jun 2027 10:14:50.443             5.344          1007.000
       488   13 Jun 2027 10:15:37.369   13 Jun 2027 10:15:43.565             6.196          1061.438
       489   13 Jun 2027 10:16:29.873   13 Jun 2027 10:16:33.768             3.895          1321.469
       490   13 Jun 2027 10:16:54.692   13 Jun 2027 10:17:04.686             9.994           480.000
       491   13 Jun 2027 10:17:07.977   13 Jun 2027 10:17:08.292             0.315           102.844
       492   13 Jun 2027 10:17:43.982   13 Jun 2027 10:17:46.448             2.466           941.031
       493   13 Jun 2027 10:18:05.283   13 Jun 2027 10:18:06.327             1.044            37.813
       494   13 Jun 2027 11:50:21.313   13 Jun 2027 11:50:35.542            14.229          7114.500
       495   13 Jun 2027 11:50:59.281   13 Jun 2027 11:51:08.047             8.766           913.625
       496   13 Jun 2027 11:51:49.721   13 Jun 2027 11:51:53.028             3.307          1042.375
       497   13 Jun 2027 11:51:57.151   13 Jun 2027 11:51:57.386             0.235            30.844
       498   13 Jun 2027 11:52:50.003   13 Jun 2027 11:53:01.325            11.322          1644.281
       499   13 Jun 2027 11:54:03.906   13 Jun 2027 11:54:05.905             1.999           999.500
