uniorb/output/strategy_2/Camera/Camera_KinoSat_110803.txt

KinoSat_110803
-------------------------
    Access    *     Start Time (UTCG)     *     Stop Time (UTCG)  *   Duration (s) *   Data (Mbytes)
         1   01 Jun 2027 03:52:59.609   01 Jun 2027 03:53:30.972            31.363         15681.500
         2   01 Jun 2027 03:54:54.983   01 Jun 2027 03:56:36.886           101.903         50951.500
         3   01 Jun 2027 03:56:38.112   01 Jun 2027 03:56:38.112             0.000             0.000
         4   01 Jun 2027 03:56:59.315   01 Jun 2027 03:56:59.315             0.000             0.000
         5   01 Jun 2027 03:57:22.045   01 Jun 2027 03:57:31.173             9.128          4564.000
         6   01 Jun 2027 05:27:53.293   01 Jun 2027 05:29:56.371           123.078         61539.000
         7   01 Jun 2027 05:30:02.854   01 Jun 2027 05:30:33.435            30.581         15290.500
         8   01 Jun 2027 05:31:02.602   01 Jun 2027 05:31:05.799             3.197          1598.500
         9   01 Jun 2027 05:32:54.284   01 Jun 2027 05:32:56.463             2.179          1089.500
        10   01 Jun 2027 05:34:14.751   01 Jun 2027 05:34:19.890             5.139          2569.500
        11   01 Jun 2027 05:34:25.355   01 Jun 2027 05:34:26.917             1.562           781.000
        12   01 Jun 2027 05:34:44.484   01 Jun 2027 05:34:52.929             8.445          4222.500
        13   01 Jun 2027 07:05:27.075   01 Jun 2027 07:08:15.495           168.420         84210.000
        14   01 Jun 2027 07:09:20.270   01 Jun 2027 07:09:52.352            32.082         16041.000
        15   01 Jun 2027 07:09:53.893   01 Jun 2027 07:10:11.416            17.523          8761.500
        16   01 Jun 2027 07:10:33.658   01 Jun 2027 07:10:36.234             2.576          1288.000
        17   01 Jun 2027 07:10:50.011   01 Jun 2027 07:10:51.679             1.668           834.000
        18   01 Jun 2027 07:11:35.295   01 Jun 2027 07:11:36.794             1.499           749.500
        19   01 Jun 2027 07:11:55.072   01 Jun 2027 07:12:22.200            27.128         13564.000
        20   01 Jun 2027 07:12:47.818   01 Jun 2027 07:12:47.839             0.021            10.500
        21   01 Jun 2027 08:42:09.638   01 Jun 2027 08:43:41.774            92.136         46068.000
        22   01 Jun 2027 08:44:53.295   01 Jun 2027 08:46:44.587           111.292         55646.000
        23   01 Jun 2027 08:48:27.172   01 Jun 2027 08:48:43.928            16.756          8378.000
        24   01 Jun 2027 10:20:12.738   01 Jun 2027 10:22:50.172           157.434         78717.000
        25   01 Jun 2027 10:23:35.729   01 Jun 2027 10:23:38.311             2.582          1291.000
        26   01 Jun 2027 11:53:50.200   01 Jun 2027 11:55:23.657            93.457         46728.500
        27   01 Jun 2027 11:55:28.969   01 Jun 2027 11:55:37.420             8.451          4225.500
        28   01 Jun 2027 11:57:07.876   01 Jun 2027 11:57:10.552             2.676          1338.000
        29   01 Jun 2027 11:59:23.143   01 Jun 2027 11:59:40.418            17.275          8637.500
        30   02 Jun 2027 04:04:28.695   02 Jun 2027 04:05:31.823            63.128         31564.000
        31   02 Jun 2027 04:06:29.071   02 Jun 2027 04:06:38.208             9.137          4568.500
        32   02 Jun 2027 04:09:08.282   02 Jun 2027 04:09:15.668             7.386          3693.000
        33   02 Jun 2027 04:09:20.101   02 Jun 2027 04:09:34.756            14.655          7327.500
        34   02 Jun 2027 04:09:38.674   02 Jun 2027 04:09:46.700             8.026          4013.000
        35   02 Jun 2027 05:39:24.005   02 Jun 2027 05:42:30.126           186.121         93060.500
        36   02 Jun 2027 05:43:05.994   02 Jun 2027 05:43:06.336             0.342           171.000
        37   02 Jun 2027 05:45:11.698   02 Jun 2027 05:45:15.075             3.377          1688.500
        38   02 Jun 2027 05:45:45.530   02 Jun 2027 05:45:49.333             3.803          1901.500
        39   02 Jun 2027 05:46:06.246   02 Jun 2027 05:46:29.018            22.772         11386.000
        40   02 Jun 2027 05:47:09.627   02 Jun 2027 05:47:17.939             8.312          4156.000
        41   02 Jun 2027 05:48:18.540   02 Jun 2027 05:48:21.354             2.814          1407.000
        42   02 Jun 2027 07:17:20.998   02 Jun 2027 07:19:12.434           111.436         55718.000
        43   02 Jun 2027 07:19:26.213   02 Jun 2027 07:19:26.276             0.063            31.500
        44   02 Jun 2027 07:20:39.119   02 Jun 2027 07:21:12.972            33.853         16926.500
        45   02 Jun 2027 07:21:33.356   02 Jun 2027 07:22:23.565            50.209         25104.500
        46   02 Jun 2027 07:22:54.213   02 Jun 2027 07:22:54.213             0.000             0.000
        47   02 Jun 2027 07:23:06.847   02 Jun 2027 07:23:31.813            24.966         12483.000
        48   02 Jun 2027 07:24:14.442   02 Jun 2027 07:24:49.269            34.827         17413.500
        49   02 Jun 2027 08:54:15.390   02 Jun 2027 08:54:18.376             2.986          1493.000
        50   02 Jun 2027 08:54:44.587   02 Jun 2027 08:56:35.412           110.825         55412.500
        51   02 Jun 2027 08:56:38.976   02 Jun 2027 08:56:42.461             3.485          1460.873
        52   02 Jun 2027 08:57:37.173   02 Jun 2027 08:57:40.268             3.095          1441.969
        53   02 Jun 2027 08:57:47.640   02 Jun 2027 08:57:50.444             2.804           230.375
        54   02 Jun 2027 08:58:18.252   02 Jun 2027 08:58:19.651             1.399           494.719
        55   02 Jun 2027 08:58:57.716   02 Jun 2027 08:59:00.678             2.962          1177.344
        56   02 Jun 2027 10:31:59.046   02 Jun 2027 10:32:23.137            24.091         10091.188
        57   02 Jun 2027 10:32:30.860   02 Jun 2027 10:32:31.513             0.653           138.750
        58   02 Jun 2027 10:33:55.492   02 Jun 2027 10:34:00.562             5.070          2535.000
        59   02 Jun 2027 10:34:48.308   02 Jun 2027 10:34:54.867             6.559          1507.344
        60   02 Jun 2027 10:35:01.915   02 Jun 2027 10:35:05.902             3.987           220.250
        61   02 Jun 2027 10:35:27.018   02 Jun 2027 10:35:28.646             1.628           647.656
        62   03 Jun 2027 04:18:32.540   03 Jun 2027 04:20:24.376           111.836         55918.000
        63   03 Jun 2027 04:20:26.114   03 Jun 2027 04:20:43.148            17.034          8517.000
        64   03 Jun 2027 04:21:03.877   03 Jun 2027 04:21:03.877             0.000             0.000
        65   03 Jun 2027 05:52:17.426   03 Jun 2027 05:54:38.581           141.155         70577.500
        66   03 Jun 2027 05:56:48.708   03 Jun 2027 05:56:50.387             1.679           839.500
        67   03 Jun 2027 05:56:55.639   03 Jun 2027 05:57:12.954            17.315          8657.500
        68   03 Jun 2027 05:58:13.791   03 Jun 2027 05:58:20.435             6.644          3322.000
        69   03 Jun 2027 05:58:32.765   03 Jun 2027 05:58:32.765             0.000             0.000
        70   03 Jun 2027 05:58:50.539   03 Jun 2027 05:58:50.829             0.290           145.000
        71   03 Jun 2027 05:59:29.006   03 Jun 2027 05:59:49.650            20.644         10322.000
        72   03 Jun 2027 05:59:56.429   03 Jun 2027 06:00:14.014            17.585          7340.375
        73   03 Jun 2027 06:00:27.205   03 Jun 2027 06:00:28.079             0.874           412.219
        74   03 Jun 2027 07:29:41.881   03 Jun 2027 07:30:11.907            30.026         13917.094
        75   03 Jun 2027 07:30:35.264   03 Jun 2027 07:30:37.884             2.620           623.000
        76   03 Jun 2027 07:32:14.106   03 Jun 2027 07:32:17.851             3.745          1696.875
        77   03 Jun 2027 07:32:43.332   03 Jun 2027 07:32:43.369             0.037            18.500
        78   03 Jun 2027 07:32:48.083   03 Jun 2027 07:32:49.010             0.927           383.594
        79   03 Jun 2027 07:32:57.831   03 Jun 2027 07:32:58.842             1.011           239.375
        80   03 Jun 2027 07:33:40.768   03 Jun 2027 07:33:45.379             4.611          1310.188
        81   03 Jun 2027 07:33:55.872   03 Jun 2027 07:33:57.529             1.657           315.219
        82   03 Jun 2027 07:34:14.776   03 Jun 2027 07:34:16.341             1.565           338.938
        83   03 Jun 2027 07:34:24.423   03 Jun 2027 07:34:31.083             6.660           133.281
        84   03 Jun 2027 07:35:23.865   03 Jun 2027 07:35:26.871             3.006           687.312
        85   03 Jun 2027 07:35:45.427   03 Jun 2027 07:35:49.279             3.852           362.531
        86   03 Jun 2027 09:06:45.663   03 Jun 2027 09:07:09.197            23.534         11062.281
        87   03 Jun 2027 09:08:19.039   03 Jun 2027 09:08:21.941             2.902           236.688
        88   03 Jun 2027 09:08:50.379   03 Jun 2027 09:08:52.870             2.491           888.688
        89   03 Jun 2027 09:09:25.623   03 Jun 2027 09:09:26.820             1.197           598.500
        90   03 Jun 2027 09:09:43.237   03 Jun 2027 09:09:43.237             0.000             0.000
        91   03 Jun 2027 09:10:06.042   03 Jun 2027 09:10:09.858             3.816          1650.719
        92   03 Jun 2027 09:10:25.146   03 Jun 2027 09:10:26.324             1.178           470.000
        93   03 Jun 2027 09:11:02.348   03 Jun 2027 09:11:07.145             4.797           794.125
        94   03 Jun 2027 09:11:31.817   03 Jun 2027 09:11:36.533             4.716           747.000
        95   03 Jun 2027 09:12:01.368   03 Jun 2027 09:12:03.707             2.339           718.562
        96   03 Jun 2027 10:43:30.468   03 Jun 2027 10:43:45.144            14.676          7087.344
        97   03 Jun 2027 10:44:05.552   03 Jun 2027 10:44:09.193             3.641           386.781
        98   03 Jun 2027 10:44:18.946   03 Jun 2027 10:44:21.660             2.714           272.094
        99   03 Jun 2027 10:44:55.142   03 Jun 2027 10:45:00.608             5.466           370.313
       100   03 Jun 2027 10:45:21.145   03 Jun 2027 10:45:26.052             4.907           532.187
       101   03 Jun 2027 10:46:26.617   03 Jun 2027 10:46:37.056            10.439          1511.781
       102   03 Jun 2027 10:47:32.068   03 Jun 2027 10:47:37.283             5.215          1719.125
       103   03 Jun 2027 10:48:11.945   03 Jun 2027 10:48:18.068             6.123          1083.188
       104   04 Jun 2027 04:30:46.831   04 Jun 2027 04:33:52.153           185.322         92661.000
       105   04 Jun 2027 06:04:50.834   04 Jun 2027 06:06:53.544           122.710         59100.562
       106   04 Jun 2027 06:07:19.603   04 Jun 2027 06:07:21.707             2.104           814.344
       107   04 Jun 2027 06:08:41.245   04 Jun 2027 06:08:42.937             1.692           846.000
       108   04 Jun 2027 06:09:12.075   04 Jun 2027 06:09:12.494             0.419           209.500
       109   04 Jun 2027 06:11:34.522   04 Jun 2027 06:11:45.557            11.035          5517.500
       110   04 Jun 2027 06:11:47.617   04 Jun 2027 06:11:50.314             2.697          1228.187
       111   04 Jun 2027 06:12:27.301   04 Jun 2027 06:12:33.370             6.069          1155.844
       112   04 Jun 2027 07:41:55.404   04 Jun 2027 07:42:22.626            27.222         12360.875
       113   04 Jun 2027 07:44:07.486   04 Jun 2027 07:44:12.377             4.891          1645.656
       114   04 Jun 2027 07:44:15.101   04 Jun 2027 07:44:20.004             4.903            85.125
       115   04 Jun 2027 07:44:46.080   04 Jun 2027 07:44:46.402             0.322           161.000
       116   04 Jun 2027 07:45:22.450   04 Jun 2027 07:45:26.699             4.249          1577.906
       117   04 Jun 2027 07:46:11.864   04 Jun 2027 07:46:14.699             2.835          1131.344
       118   04 Jun 2027 07:47:12.151   04 Jun 2027 07:47:15.583             3.432           231.750
       119   04 Jun 2027 07:47:58.719   04 Jun 2027 07:48:05.758             7.039          1348.000
       120   04 Jun 2027 07:48:26.210   04 Jun 2027 07:48:27.295             1.085           401.187
       121   04 Jun 2027 09:18:51.220   04 Jun 2027 09:19:10.181            18.961          9480.500
       122   04 Jun 2027 09:19:14.335   04 Jun 2027 09:19:15.264             0.929           276.563
       123   04 Jun 2027 09:19:43.367   04 Jun 2027 09:19:46.136             2.769           828.500
       124   04 Jun 2027 09:20:13.392   04 Jun 2027 09:20:16.280             2.888           804.469
       125   04 Jun 2027 09:20:35.661   04 Jun 2027 09:20:38.504             2.843           434.937
       126   04 Jun 2027 09:21:37.255   04 Jun 2027 09:21:41.497             4.242          1835.969
       127   04 Jun 2027 09:21:59.775   04 Jun 2027 09:22:01.602             1.827           537.406
       128   04 Jun 2027 09:22:13.793   04 Jun 2027 09:22:15.647             1.854           380.969
       129   04 Jun 2027 09:22:25.116   04 Jun 2027 09:22:25.917             0.801           244.781
       130   04 Jun 2027 09:23:21.277   04 Jun 2027 09:23:24.801             3.524          1730.000
       131   04 Jun 2027 09:23:44.124   04 Jun 2027 09:23:46.464             2.340           591.813
       132   04 Jun 2027 10:55:37.726   04 Jun 2027 10:55:53.450            15.724          7862.000
       133   04 Jun 2027 10:56:07.170   04 Jun 2027 10:56:08.939             1.769           482.937
       134   04 Jun 2027 10:56:27.660   04 Jun 2027 10:56:31.432             3.772           515.719
       135   04 Jun 2027 10:57:38.088   04 Jun 2027 10:57:42.648             4.560          1849.688
       136   04 Jun 2027 10:58:08.846   04 Jun 2027 10:58:11.047             2.201           818.688
       137   04 Jun 2027 10:58:45.710   04 Jun 2027 10:58:50.894             5.184          1083.219
       138   04 Jun 2027 10:59:25.055   04 Jun 2027 10:59:30.223             5.168           894.875
       139   04 Jun 2027 11:00:00.223   04 Jun 2027 11:00:07.248             7.025           915.000
       140   05 Jun 2027 03:06:28.315   05 Jun 2027 03:07:01.962            33.647         16823.500
       141   05 Jun 2027 03:07:42.371   05 Jun 2027 03:07:42.371             0.000             0.000
       142   05 Jun 2027 03:07:56.174   05 Jun 2027 03:08:02.324             6.150          3075.000
       143   05 Jun 2027 03:08:06.302   05 Jun 2027 03:08:08.532             2.230          1115.000
       144   05 Jun 2027 04:42:57.288   05 Jun 2027 04:46:27.204           209.916        104958.000
       145   05 Jun 2027 06:18:02.423   05 Jun 2027 06:19:01.809            59.386         29693.000
       146   05 Jun 2027 06:19:07.487   05 Jun 2027 06:19:10.270             2.783           491.281
       147   05 Jun 2027 06:19:22.521   05 Jun 2027 06:19:25.539             3.018           382.844
       148   05 Jun 2027 06:20:02.154   05 Jun 2027 06:20:03.982             1.828           900.719
       149   05 Jun 2027 06:20:16.488   05 Jun 2027 06:20:18.915             2.427           360.500
       150   05 Jun 2027 06:20:28.845   05 Jun 2027 06:20:30.197             1.352           310.312
       151   05 Jun 2027 06:20:37.814   05 Jun 2027 06:20:43.063             5.249           238.031
       152   05 Jun 2027 06:21:26.761   05 Jun 2027 06:21:26.761             0.000             0.000
       153   05 Jun 2027 06:21:37.859   05 Jun 2027 06:21:41.109             3.250          1432.906
       154   05 Jun 2027 06:23:29.276   05 Jun 2027 06:23:36.489             7.213          3141.125
       155   05 Jun 2027 06:24:25.255   05 Jun 2027 06:24:30.476             5.221          1523.937
       156   05 Jun 2027 06:24:43.297   05 Jun 2027 06:24:44.945             1.648           400.656
       157   05 Jun 2027 07:54:24.504   05 Jun 2027 07:54:45.176            20.672          9933.812
       158   05 Jun 2027 07:55:10.997   05 Jun 2027 07:55:12.105             1.108           152.844
       159   05 Jun 2027 07:57:01.234   05 Jun 2027 07:57:05.318             4.084          1689.031
       160   05 Jun 2027 07:57:39.863   05 Jun 2027 07:57:42.173             2.310           352.406
       161   05 Jun 2027 07:57:50.392   05 Jun 2027 07:57:51.151             0.759           217.156
       162   05 Jun 2027 07:58:02.019   05 Jun 2027 07:58:03.257             1.238           142.187
       163   05 Jun 2027 07:58:34.649   05 Jun 2027 07:58:35.616             0.967           131.844
       164   05 Jun 2027 07:59:25.030   05 Jun 2027 07:59:30.965             5.935          1535.313
       165   05 Jun 2027 08:00:39.410   05 Jun 2027 08:00:44.451             5.041          1564.937
       166   05 Jun 2027 09:31:54.467   05 Jun 2027 09:32:13.730            19.263          9628.562
       167   05 Jun 2027 09:32:37.707   05 Jun 2027 09:32:40.496             2.789           699.719
       168   05 Jun 2027 09:32:46.848   05 Jun 2027 09:32:48.969             2.121           198.500
       169   05 Jun 2027 09:33:08.718   05 Jun 2027 09:33:10.220             1.502           617.156
       170   05 Jun 2027 09:33:14.423   05 Jun 2027 09:33:14.888             0.465            14.313
       171   05 Jun 2027 09:33:39.547   05 Jun 2027 09:33:41.009             1.462           633.531
       172   05 Jun 2027 09:35:00.217   05 Jun 2027 09:35:05.143             4.926          2463.000
       173   05 Jun 2027 09:35:32.022   05 Jun 2027 09:35:32.719             0.697           348.500
       174   05 Jun 2027 09:35:34.520   05 Jun 2027 09:35:38.341             3.821           560.000
       175   05 Jun 2027 09:35:41.265   05 Jun 2027 09:35:47.078             5.813            22.000
       176   05 Jun 2027 09:35:55.900   05 Jun 2027 09:35:57.039             1.139           211.875
       177   05 Jun 2027 09:36:15.193   05 Jun 2027 09:36:18.206             3.013           364.437
       178   05 Jun 2027 11:07:59.213   05 Jun 2027 11:08:13.997            14.784          6909.406
       179   05 Jun 2027 11:08:42.477   05 Jun 2027 11:08:45.316             2.839           451.469
       180   05 Jun 2027 11:08:46.249   05 Jun 2027 11:08:46.249             0.000             0.000
       181   05 Jun 2027 11:09:53.440   05 Jun 2027 11:09:56.173             2.733          1366.500
       182   05 Jun 2027 11:10:11.137   05 Jun 2027 11:10:15.146             4.009          1230.000
       183   05 Jun 2027 11:10:57.158   05 Jun 2027 11:11:05.633             8.475           722.344
       184   05 Jun 2027 11:11:51.842   05 Jun 2027 11:11:54.746             2.904          1444.031
       185   06 Jun 2027 03:18:24.061   06 Jun 2027 03:18:52.907            28.846         14423.000
       186   06 Jun 2027 03:18:58.252   06 Jun 2027 03:18:58.878             0.626           313.000
       187   06 Jun 2027 03:19:07.118   06 Jun 2027 03:19:23.175            16.057          8028.500
       188   06 Jun 2027 03:19:23.759   06 Jun 2027 03:19:23.759             0.000             0.000
       189   06 Jun 2027 03:19:58.363   06 Jun 2027 03:19:58.363             0.000             0.000
       190   06 Jun 2027 03:21:28.090   06 Jun 2027 03:21:29.676             1.586           793.000
       191   06 Jun 2027 04:55:01.737   06 Jun 2027 04:55:46.485            44.748         22374.000
       192   06 Jun 2027 04:56:03.288   06 Jun 2027 04:58:26.875           143.587         71793.500
       193   06 Jun 2027 06:30:12.194   06 Jun 2027 06:30:59.034            46.840         23420.000
       194   06 Jun 2027 06:31:14.170   06 Jun 2027 06:31:38.825            24.655          9941.969
       195   06 Jun 2027 06:32:40.667   06 Jun 2027 06:32:44.588             3.921          1820.188
       196   06 Jun 2027 06:34:07.035   06 Jun 2027 06:34:08.683             1.648           824.000
       197   06 Jun 2027 06:34:31.048   06 Jun 2027 06:34:39.942             8.894          2451.375
       198   06 Jun 2027 06:35:12.815   06 Jun 2027 06:35:17.104             4.289           919.500
       199   06 Jun 2027 06:35:19.887   06 Jun 2027 06:35:20.187             0.300            86.969
       200   06 Jun 2027 06:36:01.939   06 Jun 2027 06:36:04.522             2.583           584.844
       201   06 Jun 2027 06:36:32.782   06 Jun 2027 06:36:34.234             1.452           714.938
       202   06 Jun 2027 08:06:26.183   06 Jun 2027 08:06:52.380            26.197         11030.250
       203   06 Jun 2027 08:07:23.360   06 Jun 2027 08:07:26.167             2.807            90.656
       204   06 Jun 2027 08:08:23.856   06 Jun 2027 08:08:33.405             9.549           971.594
       205   06 Jun 2027 08:10:20.097   06 Jun 2027 08:10:28.796             8.699          2801.156
       206   06 Jun 2027 08:10:30.312   06 Jun 2027 08:10:31.566             1.254            47.375
       207   06 Jun 2027 08:12:11.114   06 Jun 2027 08:12:17.038             5.924          2376.344
       208   06 Jun 2027 09:44:00.104   06 Jun 2027 09:44:17.216            17.112          8426.062
       209   06 Jun 2027 09:44:34.522   06 Jun 2027 09:44:36.405             1.883           540.813
       210   06 Jun 2027 09:44:44.113   06 Jun 2027 09:44:45.330             1.217           240.875
       211   06 Jun 2027 09:44:59.362   06 Jun 2027 09:45:03.581             4.219           438.500
       212   06 Jun 2027 09:45:09.492   06 Jun 2027 09:45:10.662             1.170            47.750
       213   06 Jun 2027 09:46:17.402   06 Jun 2027 09:46:19.668             2.266          1005.375
       214   06 Jun 2027 09:47:28.523   06 Jun 2027 09:47:33.987             5.464          2151.719
       215   06 Jun 2027 09:48:06.740   06 Jun 2027 09:48:12.864             6.124           964.813
       216   06 Jun 2027 09:48:23.749   06 Jun 2027 09:48:24.467             0.718           328.844
       217   06 Jun 2027 11:20:01.410   06 Jun 2027 11:20:18.384            16.974          6870.281
       218   06 Jun 2027 11:20:37.278   06 Jun 2027 11:20:39.702             2.424           590.437
       219   06 Jun 2027 11:20:55.360   06 Jun 2027 11:21:02.276             6.916           234.562
       220   06 Jun 2027 11:21:36.230   06 Jun 2027 11:21:43.764             7.534           591.000
       221   06 Jun 2027 11:21:46.850   06 Jun 2027 11:21:48.331             1.481            96.437
       222   06 Jun 2027 11:22:22.042   06 Jun 2027 11:22:25.754             3.712           917.250
       223   06 Jun 2027 11:22:37.305   06 Jun 2027 11:22:39.268             1.963           163.656
       224   06 Jun 2027 11:23:29.908   06 Jun 2027 11:23:35.230             5.322          1509.500
       225   06 Jun 2027 11:23:55.852   06 Jun 2027 11:23:59.607             3.755           644.438
       226   06 Jun 2027 11:24:21.154   06 Jun 2027 11:24:21.154             0.000             0.000
       227   06 Jun 2027 11:24:24.967   06 Jun 2027 11:24:39.046            14.079           265.438
       228   07 Jun 2027 03:30:59.599   07 Jun 2027 03:31:36.900            37.301         18650.500
       229   07 Jun 2027 03:31:56.165   07 Jun 2027 03:32:08.496            12.331          6165.500
       230   07 Jun 2027 03:33:28.718   07 Jun 2027 03:33:44.084            15.366          7683.000
       231   07 Jun 2027 05:06:45.655   07 Jun 2027 05:09:25.713           160.058         80029.000
       232   07 Jun 2027 05:10:13.606   07 Jun 2027 05:10:55.520            41.914         20957.000
       233   07 Jun 2027 06:41:36.353   07 Jun 2027 06:42:18.968            42.615         21208.968
       234   07 Jun 2027 06:42:38.367   07 Jun 2027 06:42:40.163             1.796           264.000
       235   07 Jun 2027 06:43:13.952   07 Jun 2027 06:43:15.837             1.885           518.500
       236   07 Jun 2027 06:44:11.213   07 Jun 2027 06:44:14.085             2.872           899.906
       237   07 Jun 2027 06:44:50.669   07 Jun 2027 06:44:53.270             2.601          1142.125
       238   07 Jun 2027 06:45:03.454   07 Jun 2027 06:45:05.487             2.033            95.156
       239   07 Jun 2027 06:45:29.391   07 Jun 2027 06:45:32.003             2.612           663.687
       240   07 Jun 2027 06:45:37.824   07 Jun 2027 06:45:38.319             0.495           181.906
       241   07 Jun 2027 06:46:44.287   07 Jun 2027 06:46:44.287             0.000             0.000
       242   07 Jun 2027 06:47:03.188   07 Jun 2027 06:47:10.696             7.508          2114.437
       243   07 Jun 2027 06:48:03.122   07 Jun 2027 06:48:06.152             3.030          1013.625
       244   07 Jun 2027 06:48:13.007   07 Jun 2027 06:48:13.007             0.000             0.000
       245   07 Jun 2027 06:48:39.234   07 Jun 2027 06:48:46.329             7.095          1001.313
       246   07 Jun 2027 08:18:12.295   07 Jun 2027 08:18:39.173            26.878         13406.688
       247   07 Jun 2027 08:19:14.763   07 Jun 2027 08:19:16.155             1.392           613.750
       248   07 Jun 2027 08:19:40.541   07 Jun 2027 08:19:42.112             1.571           762.062
       249   07 Jun 2027 08:20:16.671   07 Jun 2027 08:20:17.567             0.896           402.562
       250   07 Jun 2027 08:20:43.550   07 Jun 2027 08:20:49.130             5.580             9.344
       251   07 Jun 2027 08:21:05.996   07 Jun 2027 08:21:11.351             5.355           416.219
       252   07 Jun 2027 08:21:30.935   07 Jun 2027 08:21:31.840             0.905           114.906
       253   07 Jun 2027 08:22:48.952   07 Jun 2027 08:22:53.062             4.110          1814.656
       254   07 Jun 2027 08:22:56.741   07 Jun 2027 08:22:59.345             2.604            94.250
       255   07 Jun 2027 08:23:13.863   07 Jun 2027 08:23:14.627             0.764           373.969
       256   07 Jun 2027 08:23:38.671   07 Jun 2027 08:23:40.606             1.935           737.688
       257   07 Jun 2027 08:23:47.414   07 Jun 2027 08:23:48.346             0.932           199.156
       258   07 Jun 2027 09:56:30.053   07 Jun 2027 09:56:47.642            17.589          7223.937
       259   07 Jun 2027 09:57:56.216   07 Jun 2027 09:58:00.372             4.156          1984.594
       260   07 Jun 2027 09:58:21.050   07 Jun 2027 09:58:23.251             2.201           584.438
       261   07 Jun 2027 09:59:16.274   07 Jun 2027 09:59:22.134             5.860           902.969
       262   07 Jun 2027 09:59:37.392   07 Jun 2027 09:59:38.960             1.568           189.469
       263   07 Jun 2027 09:59:44.331   07 Jun 2027 09:59:45.514             1.183           167.844
       264   07 Jun 2027 09:59:56.682   07 Jun 2027 09:59:56.682             0.000             0.000
       265   07 Jun 2027 11:29:50.391   07 Jun 2027 11:30:01.155            10.764          5382.000
       266   07 Jun 2027 11:31:49.858   07 Jun 2027 11:31:53.708             3.850          1541.656
       267   07 Jun 2027 11:32:30.272   07 Jun 2027 11:32:30.272             0.000             0.000
       268   07 Jun 2027 11:32:47.880   07 Jun 2027 11:32:52.105             4.225          1279.187
       269   07 Jun 2027 11:33:32.355   07 Jun 2027 11:33:37.449             5.094           546.156
       270   07 Jun 2027 11:34:24.702   07 Jun 2027 11:34:28.007             3.305          1142.500
       271   07 Jun 2027 11:35:37.286   07 Jun 2027 11:35:43.281             5.995          2164.969
       272   07 Jun 2027 11:36:25.825   07 Jun 2027 11:36:45.560            19.735          1127.094
       273   07 Jun 2027 11:37:15.159   07 Jun 2027 11:37:17.719             2.560           858.531
       274   08 Jun 2027 03:41:38.664   08 Jun 2027 03:42:37.281            58.617         29308.500
       275   08 Jun 2027 03:43:52.428   08 Jun 2027 03:43:52.428             0.000             0.000
       276   08 Jun 2027 03:44:59.334   08 Jun 2027 03:45:29.612            30.278         15139.000
       277   08 Jun 2027 03:45:51.993   08 Jun 2027 03:46:01.547             9.554          4777.000
       278   08 Jun 2027 05:16:56.166   08 Jun 2027 05:17:58.036            61.870         30935.000
       279   08 Jun 2027 05:18:29.915   08 Jun 2027 05:20:15.495           105.580         52790.000
       280   08 Jun 2027 05:21:03.924   08 Jun 2027 05:21:11.093             7.169          3584.500
       281   08 Jun 2027 05:21:57.574   08 Jun 2027 05:22:22.547            24.973         12486.500
       282   08 Jun 2027 05:22:53.106   08 Jun 2027 05:22:53.387             0.281           140.500
       283   08 Jun 2027 06:54:48.277   08 Jun 2027 06:55:30.981            42.704         20907.375
       284   08 Jun 2027 06:56:18.667   08 Jun 2027 06:56:21.353             2.686          1269.719
       285   08 Jun 2027 06:56:38.293   08 Jun 2027 06:56:42.598             4.305           484.375
       286   08 Jun 2027 06:56:43.378   08 Jun 2027 06:56:44.355             0.977            24.375
       287   08 Jun 2027 06:57:32.543   08 Jun 2027 06:57:35.893             3.350          1137.156
       288   08 Jun 2027 06:57:51.902   08 Jun 2027 06:57:55.087             3.185           199.844
       289   08 Jun 2027 06:58:25.655   08 Jun 2027 06:58:27.662             2.007           636.844
       290   08 Jun 2027 06:59:54.667   08 Jun 2027 06:59:59.756             5.089          2279.063
       291   08 Jun 2027 07:00:01.930   08 Jun 2027 07:00:01.930             0.000             0.000
       292   08 Jun 2027 07:00:40.921   08 Jun 2027 07:00:44.841             3.920          1240.625
       293   08 Jun 2027 08:30:33.424   08 Jun 2027 08:30:59.509            26.085         12871.344
       294   08 Jun 2027 08:31:46.742   08 Jun 2027 08:31:49.088             2.346           480.531
       295   08 Jun 2027 08:32:04.583   08 Jun 2027 08:32:07.222             2.639           367.844
       296   08 Jun 2027 08:33:04.424   08 Jun 2027 08:33:10.586             6.162          1671.031
       297   08 Jun 2027 08:33:11.844   08 Jun 2027 08:33:11.844             0.000             0.000
       298   08 Jun 2027 08:33:26.278   08 Jun 2027 08:33:27.329             1.051           490.375
       299   08 Jun 2027 08:33:31.601   08 Jun 2027 08:33:31.937             0.336            54.281
       300   08 Jun 2027 08:34:00.288   08 Jun 2027 08:34:07.280             6.992           716.969
       301   08 Jun 2027 08:34:23.483   08 Jun 2027 08:34:29.449             5.966           504.406
       302   08 Jun 2027 08:35:13.330   08 Jun 2027 08:35:18.110             4.780          1371.281
       303   08 Jun 2027 08:35:57.359   08 Jun 2027 08:36:00.800             3.441          1204.344
       304   08 Jun 2027 10:08:27.699   08 Jun 2027 10:08:48.792            21.093          9798.062
       305   08 Jun 2027 10:09:49.871   08 Jun 2027 10:09:54.607             4.736          1729.063
       306   08 Jun 2027 10:10:19.328   08 Jun 2027 10:10:21.130             1.802           540.625
       307   08 Jun 2027 10:11:09.976   08 Jun 2027 10:11:13.495             3.519           948.563
       308   08 Jun 2027 10:11:28.618   08 Jun 2027 10:11:29.316             0.698           347.969
       309   08 Jun 2027 10:11:39.067   08 Jun 2027 10:11:40.035             0.968           304.719
       310   08 Jun 2027 10:12:03.388   08 Jun 2027 10:12:04.562             1.174           480.062
       311   08 Jun 2027 10:12:07.517   08 Jun 2027 10:12:10.959             3.442            92.344
       312   08 Jun 2027 10:12:17.711   08 Jun 2027 10:12:18.826             1.115           211.000
       313   08 Jun 2027 11:41:40.304   08 Jun 2027 11:41:54.560            14.256          6769.500
       314   08 Jun 2027 11:43:21.169   08 Jun 2027 11:43:25.078             3.909          1691.281
       315   08 Jun 2027 11:43:33.379   08 Jun 2027 11:43:35.059             1.680           259.406
       316   08 Jun 2027 11:43:39.242   08 Jun 2027 11:43:39.242             0.000             0.000
       317   08 Jun 2027 11:43:48.055   08 Jun 2027 11:43:48.253             0.198            99.000
       318   08 Jun 2027 11:45:03.557   08 Jun 2027 11:45:08.256             4.699          2349.500
       319   08 Jun 2027 11:45:33.983   08 Jun 2027 11:45:42.810             8.827          1114.844
       320   08 Jun 2027 11:46:49.524   08 Jun 2027 11:46:51.748             2.224          1112.000
       321   08 Jun 2027 11:46:53.602   08 Jun 2027 11:47:08.085            14.483           883.875
       322   08 Jun 2027 11:47:30.245   08 Jun 2027 11:47:33.270             3.025           345.312
       323   08 Jun 2027 11:47:54.715   08 Jun 2027 11:47:58.741             4.026           462.875
       324   08 Jun 2027 11:48:37.161   08 Jun 2027 11:48:47.080             9.919          1025.500
       325   08 Jun 2027 11:49:22.632   08 Jun 2027 11:49:26.209             3.577          1111.000
       326   09 Jun 2027 03:53:14.368   09 Jun 2027 03:53:47.608            33.240         16620.000
       327   09 Jun 2027 03:55:09.598   09 Jun 2027 03:55:57.299            47.701         23850.500
       328   09 Jun 2027 03:55:58.598   09 Jun 2027 03:55:58.598             0.000             0.000
       329   09 Jun 2027 03:57:26.281   09 Jun 2027 03:57:47.180            20.899         10449.500
       330   09 Jun 2027 03:58:06.573   09 Jun 2027 03:58:08.209             1.636           818.000
       331   09 Jun 2027 03:58:08.782   09 Jun 2027 03:58:22.250            13.468          6734.000
       332   09 Jun 2027 05:28:07.635   09 Jun 2027 05:30:12.311           124.676         62338.000
       333   09 Jun 2027 05:30:17.553   09 Jun 2027 05:31:00.767            43.214         21607.000
       334   09 Jun 2027 05:33:25.153   09 Jun 2027 05:33:25.153             0.000             0.000
       335   09 Jun 2027 05:34:10.198   09 Jun 2027 05:34:10.912             0.714           357.000
       336   09 Jun 2027 05:34:44.284   09 Jun 2027 05:34:55.062            10.778          5389.000
       337   09 Jun 2027 05:35:01.608   09 Jun 2027 05:35:08.328             6.720          3360.000
       338   09 Jun 2027 07:05:41.756   09 Jun 2027 07:06:29.280            47.524         23419.968
       339   09 Jun 2027 07:07:35.507   09 Jun 2027 07:07:39.926             4.419          1983.406
       340   09 Jun 2027 07:07:57.179   09 Jun 2027 07:08:00.676             3.497           539.156
       341   09 Jun 2027 07:09:01.099   09 Jun 2027 07:09:04.101             3.002          1501.000
       342   09 Jun 2027 07:09:10.146   09 Jun 2027 07:09:13.779             3.633           459.906
       343   09 Jun 2027 07:10:41.549   09 Jun 2027 07:10:47.932             6.383          2029.687
       344   09 Jun 2027 07:11:27.954   09 Jun 2027 07:11:32.069             4.115          1191.406
       345   09 Jun 2027 07:11:49.702   09 Jun 2027 07:11:51.470             1.768           355.469
       346   09 Jun 2027 08:42:24.513   09 Jun 2027 08:42:51.010            26.497         12128.313
       347   09 Jun 2027 08:43:20.388   09 Jun 2027 08:43:22.258             1.870           596.813
       348   09 Jun 2027 08:44:23.649   09 Jun 2027 08:44:30.927             7.278          1824.531
       349   09 Jun 2027 08:45:13.768   09 Jun 2027 08:45:16.345             2.577           946.125
       350   09 Jun 2027 08:46:08.456   09 Jun 2027 08:46:11.501             3.045          1522.500
       351   09 Jun 2027 08:46:32.944   09 Jun 2027 08:46:36.629             3.685           776.063
       352   09 Jun 2027 08:47:14.548   09 Jun 2027 08:47:19.453             4.905          1184.969
       353   09 Jun 2027 08:47:52.637   09 Jun 2027 08:47:57.663             5.026           907.844
       354   09 Jun 2027 10:20:27.529   09 Jun 2027 10:20:45.074            17.545          7887.656
       355   09 Jun 2027 10:22:07.282   09 Jun 2027 10:22:13.087             5.805          2511.969
       356   09 Jun 2027 10:23:04.823   09 Jun 2027 10:23:07.060             2.237          1006.125
       357   09 Jun 2027 10:23:43.267   09 Jun 2027 10:23:47.593             4.326           932.563
       358   09 Jun 2027 11:54:05.567   09 Jun 2027 11:54:08.860             3.293          1542.313
       359   09 Jun 2027 11:54:53.387   09 Jun 2027 11:54:53.387             0.000             0.000
       360   09 Jun 2027 11:55:24.088   09 Jun 2027 11:55:26.536             2.448          1224.000
       361   09 Jun 2027 11:55:52.748   09 Jun 2027 11:55:54.911             2.163          1067.594
       362   09 Jun 2027 11:56:50.999   09 Jun 2027 11:56:54.905             3.906          1624.031
       363   09 Jun 2027 11:57:22.413   09 Jun 2027 11:57:24.831             2.418           859.625
       364   09 Jun 2027 11:58:38.977   09 Jun 2027 11:58:44.445             5.468          2263.656
       365   09 Jun 2027 11:58:58.101   09 Jun 2027 11:58:58.101             0.000             0.000
       366   09 Jun 2027 11:59:06.252   09 Jun 2027 11:59:10.695             4.443           681.469
       367   10 Jun 2027 04:04:43.132   10 Jun 2027 04:05:48.478            65.346         32673.000
       368   10 Jun 2027 04:06:53.521   10 Jun 2027 04:06:59.410             5.889          2944.500
       369   10 Jun 2027 04:08:56.957   10 Jun 2027 04:09:24.289            27.332         13666.000
       370   10 Jun 2027 05:39:38.277   10 Jun 2027 05:42:14.741           156.464         78232.000
       371   10 Jun 2027 05:42:27.065   10 Jun 2027 05:42:45.650            18.585          9292.500
       372   10 Jun 2027 05:43:05.321   10 Jun 2027 05:43:11.206             5.885          2942.500
       373   10 Jun 2027 05:46:05.230   10 Jun 2027 05:46:15.228             9.998          4999.000
       374   10 Jun 2027 05:46:21.709   10 Jun 2027 05:46:22.824             1.115           557.500
       375   10 Jun 2027 05:48:33.030   10 Jun 2027 05:48:36.605             3.575          1787.500
       376   10 Jun 2027 05:48:52.164   10 Jun 2027 05:49:00.611             8.447          4223.500
       377   10 Jun 2027 05:49:03.236   10 Jun 2027 05:49:05.304             2.068          1034.000
       378   10 Jun 2027 07:17:35.752   10 Jun 2027 07:18:33.649            57.897         27794.531
       379   10 Jun 2027 07:19:20.495   10 Jun 2027 07:19:23.132             2.637             1.938
       380   10 Jun 2027 07:20:02.368   10 Jun 2027 07:20:02.368             0.000             0.000
       381   10 Jun 2027 07:20:19.572   10 Jun 2027 07:20:23.835             4.263          1763.750
       382   10 Jun 2027 07:21:16.787   10 Jun 2027 07:21:19.161             2.374          1137.281
       383   10 Jun 2027 07:21:50.665   10 Jun 2027 07:21:53.890             3.225           722.563
       384   10 Jun 2027 07:23:41.677   10 Jun 2027 07:23:46.452             4.775          1933.531
       385   10 Jun 2027 07:24:12.146   10 Jun 2027 07:24:13.425             1.279           638.313
       386   10 Jun 2027 07:24:43.719   10 Jun 2027 07:24:43.719             0.000             0.000
       387   10 Jun 2027 08:54:30.574   10 Jun 2027 08:54:56.724            26.150         12588.281
       388   10 Jun 2027 08:55:50.218   10 Jun 2027 08:55:53.383             3.165          1101.094
       389   10 Jun 2027 08:56:03.399   10 Jun 2027 08:56:04.349             0.950           313.000
       390   10 Jun 2027 08:56:38.494   10 Jun 2027 08:56:39.669             1.175           439.250
       391   10 Jun 2027 08:57:08.976   10 Jun 2027 08:57:12.249             3.273           746.531
       392   10 Jun 2027 08:58:07.595   10 Jun 2027 08:58:09.862             2.267          1109.469
       393   10 Jun 2027 08:58:26.213   10 Jun 2027 08:58:27.721             1.508            50.250
       394   10 Jun 2027 08:59:15.535   10 Jun 2027 08:59:19.779             4.244          1494.188
       395   10 Jun 2027 08:59:40.007   10 Jun 2027 08:59:43.087             3.080           515.031
       396   10 Jun 2027 08:59:47.544   10 Jun 2027 08:59:50.957             3.413            65.750
       397   10 Jun 2027 09:00:25.275   10 Jun 2027 09:00:28.204             2.929          1027.031
       398   10 Jun 2027 09:00:38.528   10 Jun 2027 09:00:41.100             2.572           322.625
       399   10 Jun 2027 10:32:13.674   10 Jun 2027 10:32:27.818            14.144          7072.000
       400   10 Jun 2027 10:33:54.047   10 Jun 2027 10:34:03.678             9.631          3724.969
       401   10 Jun 2027 10:34:26.389   10 Jun 2027 10:34:31.372             4.983           709.719
       402   10 Jun 2027 10:35:48.819   10 Jun 2027 10:35:53.658             4.839          2314.812
       403   11 Jun 2027 04:18:47.393   11 Jun 2027 04:20:39.178           111.785         55892.500
       404   11 Jun 2027 04:20:41.791   11 Jun 2027 04:20:59.610            17.819          8909.500
       405   11 Jun 2027 05:52:31.667   11 Jun 2027 05:55:07.273           155.606         77803.000
       406   11 Jun 2027 05:56:55.582   11 Jun 2027 05:57:06.827            11.245          5622.500
       407   11 Jun 2027 05:57:46.901   11 Jun 2027 05:57:51.938             5.037          2518.500
       408   11 Jun 2027 05:58:50.475   11 Jun 2027 05:58:58.164             7.689          3844.500
       409   11 Jun 2027 05:59:04.380   11 Jun 2027 05:59:04.380             0.000             0.000
       410   11 Jun 2027 05:59:07.947   11 Jun 2027 05:59:23.530            15.583          7791.500
       411   11 Jun 2027 06:00:54.646   11 Jun 2027 06:01:03.604             8.958          4479.000
       412   11 Jun 2027 06:01:05.174   11 Jun 2027 06:01:06.154             0.980           107.094
       413   11 Jun 2027 07:29:56.871   11 Jun 2027 07:30:27.981            31.110         15447.062
       414   11 Jun 2027 07:30:52.190   11 Jun 2027 07:30:55.378             3.188             5.031
       415   11 Jun 2027 07:31:12.814   11 Jun 2027 07:31:21.539             8.725           485.281
       416   11 Jun 2027 07:31:23.855   11 Jun 2027 07:31:24.244             0.389            72.375
       417   11 Jun 2027 07:31:58.393   11 Jun 2027 07:32:03.939             5.546          1013.812
       418   11 Jun 2027 07:33:09.500   11 Jun 2027 07:33:14.150             4.650          1493.844
       419   11 Jun 2027 07:34:00.603   11 Jun 2027 07:34:05.829             5.226           969.437
       420   11 Jun 2027 07:34:52.232   11 Jun 2027 07:34:58.542             6.310          1046.500
       421   11 Jun 2027 07:35:52.143   11 Jun 2027 07:36:00.843             8.700           610.875
       422   11 Jun 2027 07:36:04.547   11 Jun 2027 07:36:05.439             0.892           115.750
       423   11 Jun 2027 07:36:46.982   11 Jun 2027 07:36:48.478             1.496           537.344
       424   11 Jun 2027 09:07:00.448   11 Jun 2027 09:07:22.085            21.637         10818.500
       425   11 Jun 2027 09:08:38.580   11 Jun 2027 09:08:47.266             8.686          3073.906
       426   11 Jun 2027 09:09:08.185   11 Jun 2027 09:09:08.185             0.000             0.000
       427   11 Jun 2027 09:09:59.749   11 Jun 2027 09:10:05.807             6.058          1910.250
       428   11 Jun 2027 09:10:24.838   11 Jun 2027 09:10:27.654             2.816           215.375
       429   11 Jun 2027 09:10:50.776   11 Jun 2027 09:10:51.181             0.405           202.500
       430   11 Jun 2027 09:11:17.378   11 Jun 2027 09:11:22.294             4.916          1256.500
       431   11 Jun 2027 09:11:46.440   11 Jun 2027 09:11:48.202             1.762           665.687
       432   11 Jun 2027 09:11:54.459   11 Jun 2027 09:11:56.740             2.281           195.531
       433   11 Jun 2027 10:43:45.528   11 Jun 2027 10:44:00.515            14.987          6553.094
       434   11 Jun 2027 10:44:51.984   11 Jun 2027 10:44:55.223             3.239          1576.656
       435   11 Jun 2027 10:45:19.035   11 Jun 2027 10:45:19.035             0.000             0.000
       436   11 Jun 2027 10:45:37.395   11 Jun 2027 10:45:42.459             5.064          1232.594
       437   11 Jun 2027 10:46:41.109   11 Jun 2027 10:46:43.080             1.971           985.500
       438   11 Jun 2027 10:47:43.875   11 Jun 2027 10:47:46.697             2.822          1411.000
       439   11 Jun 2027 10:47:47.252   11 Jun 2027 10:47:53.110             5.858          1028.500
       440   11 Jun 2027 10:48:09.694   11 Jun 2027 10:48:10.229             0.535            44.656
       441   11 Jun 2027 10:48:10.564   11 Jun 2027 10:48:18.025             7.461            10.469
       442   12 Jun 2027 04:31:01.900   12 Jun 2027 04:33:59.811           177.911         88955.500
       443   12 Jun 2027 04:34:02.688   12 Jun 2027 04:34:07.047             4.359          2179.500
       444   12 Jun 2027 04:34:33.258   12 Jun 2027 04:34:36.806             3.548          1774.000
       445   12 Jun 2027 06:05:05.991   12 Jun 2027 06:06:52.012           106.021         53010.500
       446   12 Jun 2027 06:07:18.926   12 Jun 2027 06:07:22.853             3.927          1805.218
       447   12 Jun 2027 06:07:31.819   12 Jun 2027 06:07:34.821             3.002           101.156
       448   12 Jun 2027 06:09:09.189   12 Jun 2027 06:09:09.189             0.000             0.000
       449   12 Jun 2027 06:09:12.100   12 Jun 2027 06:09:13.958             1.858           929.000
       450   12 Jun 2027 06:09:49.214   12 Jun 2027 06:09:58.114             8.900          3210.219
       451   12 Jun 2027 06:11:19.365   12 Jun 2027 06:11:28.036             8.671          2539.094
       452   12 Jun 2027 06:12:32.942   12 Jun 2027 06:12:36.766             3.824          1346.219
       453   12 Jun 2027 06:12:57.142   12 Jun 2027 06:13:00.894             3.752           469.969
       454   12 Jun 2027 07:42:10.070   12 Jun 2027 07:42:32.030            21.960         10524.625
       455   12 Jun 2027 07:43:29.432   12 Jun 2027 07:43:31.067             1.635           531.844
       456   12 Jun 2027 07:44:29.958   12 Jun 2027 07:44:30.462             0.504            53.688
       457   12 Jun 2027 07:44:57.885   12 Jun 2027 07:45:01.115             3.230           519.250
       458   12 Jun 2027 07:45:12.988   12 Jun 2027 07:45:15.100             2.112           230.625
       459   12 Jun 2027 07:46:05.545   12 Jun 2027 07:46:07.762             2.217           868.187
       460   12 Jun 2027 07:46:20.553   12 Jun 2027 07:46:24.823             4.270           355.344
       461   12 Jun 2027 07:46:28.637   12 Jun 2027 07:46:29.918             1.281            92.969
       462   12 Jun 2027 07:48:10.254   12 Jun 2027 07:48:23.930            13.676          2937.219
       463   12 Jun 2027 07:48:44.443   12 Jun 2027 07:48:45.558             1.115           557.500
       464   12 Jun 2027 09:19:06.174   12 Jun 2027 09:19:25.778            19.604          9802.000
       465   12 Jun 2027 09:19:28.701   12 Jun 2027 09:19:30.297             1.596           785.188
       466   12 Jun 2027 09:19:43.598   12 Jun 2027 09:19:46.732             3.134           383.750
       467   12 Jun 2027 09:20:57.353   12 Jun 2027 09:21:01.241             3.888          1289.625
       468   12 Jun 2027 09:21:35.748   12 Jun 2027 09:21:40.108             4.360           926.437
       469   12 Jun 2027 09:21:51.922   12 Jun 2027 09:21:54.286             2.364           319.844
       470   12 Jun 2027 09:22:28.537   12 Jun 2027 09:22:28.596             0.059            29.500
       471   12 Jun 2027 09:22:54.159   12 Jun 2027 09:22:57.910             3.751          1803.031
       472   12 Jun 2027 09:23:17.947   12 Jun 2027 09:23:23.579             5.632           550.219
       473   12 Jun 2027 09:23:34.998   12 Jun 2027 09:23:36.649             1.651           356.844
       474   12 Jun 2027 09:23:59.635   12 Jun 2027 09:24:03.802             4.167           589.719
       475   12 Jun 2027 10:55:52.515   12 Jun 2027 10:56:10.936            18.421          8595.281
       476   12 Jun 2027 10:57:52.697   12 Jun 2027 10:57:58.837             6.140          2908.125
       477   12 Jun 2027 10:58:06.840   12 Jun 2027 10:58:07.572             0.732           250.094
       478   12 Jun 2027 10:58:16.104   12 Jun 2027 10:58:16.749             0.645           266.625
       479   12 Jun 2027 10:58:56.957   12 Jun 2027 10:59:00.116             3.159          1256.500
       480   12 Jun 2027 10:59:46.131   12 Jun 2027 10:59:47.132             1.001           500.500
       481   12 Jun 2027 10:59:52.355   12 Jun 2027 10:59:56.776             4.421           747.562
       482   12 Jun 2027 11:00:08.152   12 Jun 2027 11:00:11.124             2.972           355.500
       483   12 Jun 2027 11:00:31.853   12 Jun 2027 11:00:33.869             2.016           647.781
       484   13 Jun 2027 03:06:43.300   13 Jun 2027 03:07:13.021            29.721         14860.500
       485   13 Jun 2027 03:08:21.988   13 Jun 2027 03:08:23.246             1.258           629.000
       486   13 Jun 2027 04:43:12.225   13 Jun 2027 04:46:42.467           210.242        105121.000
       487   13 Jun 2027 06:18:17.674   13 Jun 2027 06:19:21.891            64.217         31330.406
       488   13 Jun 2027 06:19:49.018   13 Jun 2027 06:19:49.018             0.000             0.000
       489   13 Jun 2027 06:20:17.556   13 Jun 2027 06:20:21.687             4.131          1644.844
       490   13 Jun 2027 06:20:31.118   13 Jun 2027 06:20:33.778             2.660           294.719
       491   13 Jun 2027 06:21:45.569   13 Jun 2027 06:21:46.288             0.719           359.500
       492   13 Jun 2027 06:24:40.041   13 Jun 2027 06:24:53.034            12.993          6496.500
       493   13 Jun 2027 07:54:39.819   13 Jun 2027 07:54:58.880            19.061          9502.094
       494   13 Jun 2027 07:55:27.454   13 Jun 2027 07:55:31.037             3.583           211.187
       495   13 Jun 2027 07:55:52.575   13 Jun 2027 07:55:57.578             5.003           439.031
       496   13 Jun 2027 07:56:44.313   13 Jun 2027 07:56:50.658             6.345           703.813
       497   13 Jun 2027 07:57:42.699   13 Jun 2027 07:57:47.126             4.427          1189.062
       498   13 Jun 2027 07:58:04.814   13 Jun 2027 07:58:05.605             0.791           312.875
       499   13 Jun 2027 07:58:35.095   13 Jun 2027 07:58:36.677             1.582           632.625
       500   13 Jun 2027 07:58:46.211   13 Jun 2027 07:58:50.148             3.937            26.031
       501   13 Jun 2027 07:59:40.785   13 Jun 2027 07:59:48.760             7.975          1582.125
       502   13 Jun 2027 08:00:38.086   13 Jun 2027 08:00:40.700             2.614          1039.094
       503   13 Jun 2027 08:00:51.287   13 Jun 2027 08:00:52.738             1.451           330.844
       504   13 Jun 2027 09:32:08.472   13 Jun 2027 09:32:28.951            20.479          9673.688
       505   13 Jun 2027 09:32:54.881   13 Jun 2027 09:32:57.891             3.010           764.219
       506   13 Jun 2027 09:33:23.805   13 Jun 2027 09:33:25.585             1.780           630.344
       507   13 Jun 2027 09:33:49.330   13 Jun 2027 09:33:52.224             2.894           502.563
       508   13 Jun 2027 09:34:26.323   13 Jun 2027 09:34:28.844             2.521          1065.594
       509   13 Jun 2027 11:08:14.406   13 Jun 2027 11:08:33.926            19.520          9328.969
       510   13 Jun 2027 11:09:19.549   13 Jun 2027 11:09:22.623             3.074          1018.875
       511   13 Jun 2027 11:09:51.741   13 Jun 2027 11:09:55.546             3.805           191.094
       512   13 Jun 2027 11:10:14.990   13 Jun 2027 11:10:17.366             2.376           467.375
       513   13 Jun 2027 11:10:57.086   13 Jun 2027 11:10:59.852             2.766           975.344
       514   13 Jun 2027 11:11:48.912   13 Jun 2027 11:11:49.900             0.988           494.000
       515   13 Jun 2027 11:12:26.237   13 Jun 2027 11:12:28.606             2.369          1184.500
