uniorb/output/strategy_2/Camera/Camera_KinoSat_110910.txt

KinoSat_110910
-------------------------
    Access    *     Start Time (UTCG)     *     Stop Time (UTCG)  *   Duration (s) *   Data (Mbytes)
         1   01 Jun 2027 04:17:42.882   01 Jun 2027 04:18:53.979            71.097         35548.500
         2   01 Jun 2027 04:19:43.659   01 Jun 2027 04:20:18.386            34.727         17363.500
         3   01 Jun 2027 04:21:16.483   01 Jun 2027 04:21:35.416            18.933          9466.500
         4   01 Jun 2027 05:52:47.587   01 Jun 2027 05:54:30.587           103.000         51500.000
         5   01 Jun 2027 05:54:50.394   01 Jun 2027 05:55:46.350            55.956         27978.000
         6   01 Jun 2027 05:55:46.571   01 Jun 2027 05:55:46.571             0.000             0.000
         7   01 Jun 2027 05:56:00.148   01 Jun 2027 05:56:00.148             0.000             0.000
         8   01 Jun 2027 05:57:38.171   01 Jun 2027 05:57:43.634             5.463          2731.500
         9   01 Jun 2027 05:58:12.483   01 Jun 2027 05:58:18.582             6.099          3049.500
        10   01 Jun 2027 05:58:55.931   01 Jun 2027 05:59:14.963            19.032          9516.000
        11   01 Jun 2027 05:59:35.708   01 Jun 2027 05:59:40.539             4.831          2415.500
        12   01 Jun 2027 05:59:45.078   01 Jun 2027 05:59:49.449             4.371          2185.500
        13   01 Jun 2027 06:00:42.633   01 Jun 2027 06:00:47.331             4.698          2349.000
        14   01 Jun 2027 06:01:00.087   01 Jun 2027 06:01:02.907             2.820          1410.000
        15   01 Jun 2027 07:30:07.526   01 Jun 2027 07:31:05.076            57.550         28775.000
        16   01 Jun 2027 07:32:00.602   01 Jun 2027 07:33:42.946           102.344         51172.000
        17   01 Jun 2027 07:34:21.679   01 Jun 2027 07:34:26.488             4.809          2404.500
        18   01 Jun 2027 07:34:34.051   01 Jun 2027 07:34:40.405             6.354          3177.000
        19   01 Jun 2027 07:36:09.878   01 Jun 2027 07:36:23.696            13.818          6909.000
        20   01 Jun 2027 07:36:26.853   01 Jun 2027 07:36:44.177            17.324          8662.000
        21   01 Jun 2027 09:06:57.502   01 Jun 2027 09:09:25.369           147.867         73933.500
        22   01 Jun 2027 09:09:52.551   01 Jun 2027 09:09:58.172             5.621          2810.500
        23   01 Jun 2027 09:10:48.560   01 Jun 2027 09:10:55.543             6.983          3491.500
        24   01 Jun 2027 10:44:54.274   01 Jun 2027 10:47:09.439           135.165         67582.500
        25   02 Jun 2027 03:07:26.362   02 Jun 2027 03:08:04.060            37.698         18849.000
        26   02 Jun 2027 04:29:27.300   02 Jun 2027 04:30:47.612            80.312         40156.000
        27   02 Jun 2027 04:31:29.801   02 Jun 2027 04:32:19.721            49.920         24960.000
        28   02 Jun 2027 04:33:46.211   02 Jun 2027 04:33:48.777             2.566          1283.000
        29   02 Jun 2027 04:33:53.495   02 Jun 2027 04:34:00.748             7.253          3626.500
        30   02 Jun 2027 04:34:12.361   02 Jun 2027 04:34:17.776             5.415          2707.500
        31   02 Jun 2027 04:34:40.818   02 Jun 2027 04:35:05.661            24.843         12421.500
        32   02 Jun 2027 06:04:15.785   02 Jun 2027 06:05:47.290            91.505         45752.500
        33   02 Jun 2027 06:06:32.467   02 Jun 2027 06:06:32.467             0.000             0.000
        34   02 Jun 2027 06:06:43.960   02 Jun 2027 06:06:57.116            13.156          6578.000
        35   02 Jun 2027 06:08:06.398   02 Jun 2027 06:08:24.658            18.260          9130.000
        36   02 Jun 2027 06:08:59.427   02 Jun 2027 06:09:38.516            39.089         19544.500
        37   02 Jun 2027 06:12:46.303   02 Jun 2027 06:12:46.303             0.000             0.000
        38   02 Jun 2027 06:13:08.086   02 Jun 2027 06:13:13.088             5.002          2501.000
        39   02 Jun 2027 07:42:04.193   02 Jun 2027 07:44:02.183           117.990         58995.000
        40   02 Jun 2027 07:46:11.744   02 Jun 2027 07:46:30.649            18.905          9452.500
        41   02 Jun 2027 07:47:20.341   02 Jun 2027 07:47:29.057             8.716          4358.000
        42   02 Jun 2027 07:47:55.029   02 Jun 2027 07:48:07.754            12.725          6362.500
        43   02 Jun 2027 07:49:01.315   02 Jun 2027 07:49:02.291             0.976           488.000
        44   02 Jun 2027 09:18:48.782   02 Jun 2027 09:20:19.570            90.788         43230.282
        45   02 Jun 2027 09:21:38.928   02 Jun 2027 09:21:45.714             6.786          1976.719
        46   02 Jun 2027 09:21:48.886   02 Jun 2027 09:21:48.886             0.000             0.000
        47   02 Jun 2027 09:23:04.015   02 Jun 2027 09:23:12.680             8.665          2379.687
        48   02 Jun 2027 09:23:19.701   02 Jun 2027 09:23:20.518             0.817           219.406
        49   02 Jun 2027 09:24:12.022   02 Jun 2027 09:24:14.385             2.363           909.250
        50   02 Jun 2027 09:25:16.198   02 Jun 2027 09:25:16.198             0.000             0.000
        51   02 Jun 2027 10:56:55.833   02 Jun 2027 10:57:14.020            18.187          8940.500
        52   02 Jun 2027 10:57:29.996   02 Jun 2027 10:57:32.594             2.598           128.313
        53   02 Jun 2027 10:58:37.636   02 Jun 2027 10:58:41.032             3.396          1177.187
        54   02 Jun 2027 10:59:09.369   02 Jun 2027 10:59:11.461             2.092           717.062
        55   02 Jun 2027 10:59:24.752   02 Jun 2027 10:59:24.752             0.000             0.000
        56   02 Jun 2027 11:00:07.375   02 Jun 2027 11:00:10.947             3.572          1747.312
        57   02 Jun 2027 11:01:02.283   02 Jun 2027 11:01:03.773             1.490           745.000
        58   03 Jun 2027 03:07:16.159   03 Jun 2027 03:07:41.913            25.754         12877.000
        59   03 Jun 2027 03:07:49.329   03 Jun 2027 03:08:19.404            30.075         15037.500
        60   03 Jun 2027 03:08:58.448   03 Jun 2027 03:08:59.246             0.798           399.000
        61   03 Jun 2027 03:09:30.518   03 Jun 2027 03:09:32.351             1.833           916.500
        62   03 Jun 2027 04:43:13.199   03 Jun 2027 04:46:08.238           175.039         87519.500
        63   03 Jun 2027 06:17:03.953   03 Jun 2027 06:18:23.487            79.534         37980.469
        64   03 Jun 2027 06:19:38.027   03 Jun 2027 06:19:40.374             2.347           827.438
        65   03 Jun 2027 06:19:50.920   03 Jun 2027 06:19:51.976             1.056           329.562
        66   03 Jun 2027 06:19:59.389   03 Jun 2027 06:20:00.211             0.822           231.656
        67   03 Jun 2027 06:20:32.043   03 Jun 2027 06:20:32.043             0.000             0.000
        68   03 Jun 2027 06:20:59.713   03 Jun 2027 06:21:05.213             5.500          1685.906
        69   03 Jun 2027 06:21:19.843   03 Jun 2027 06:21:21.431             1.588           151.375
        70   03 Jun 2027 06:21:35.096   03 Jun 2027 06:21:42.302             7.206           283.625
        71   03 Jun 2027 06:21:43.829   03 Jun 2027 06:21:46.334             2.505            47.719
        72   03 Jun 2027 06:22:37.309   03 Jun 2027 06:22:44.926             7.617          1397.563
        73   03 Jun 2027 06:23:22.173   03 Jun 2027 06:23:24.076             1.903           472.438
        74   03 Jun 2027 06:24:13.072   03 Jun 2027 06:24:16.412             3.340          1531.125
        75   03 Jun 2027 06:24:43.495   03 Jun 2027 06:24:47.066             3.571           819.344
        76   03 Jun 2027 06:25:02.881   03 Jun 2027 06:25:04.644             1.763           327.375
        77   03 Jun 2027 06:25:32.610   03 Jun 2027 06:25:33.845             1.235           617.500
        78   03 Jun 2027 07:54:10.618   03 Jun 2027 07:54:26.085            15.467          7673.406
        79   03 Jun 2027 07:55:39.721   03 Jun 2027 07:55:39.721             0.000             0.000
        80   03 Jun 2027 07:56:02.640   03 Jun 2027 07:56:07.115             4.475          1862.750
        81   03 Jun 2027 07:56:42.466   03 Jun 2027 07:56:44.947             2.481          1104.719
        82   03 Jun 2027 07:57:22.627   03 Jun 2027 07:57:23.438             0.811           352.562
        83   03 Jun 2027 07:57:46.559   03 Jun 2027 07:57:48.461             1.902           517.344
        84   03 Jun 2027 07:57:52.410   03 Jun 2027 07:57:52.410             0.000             0.000
        85   03 Jun 2027 07:58:35.735   03 Jun 2027 07:58:41.086             5.351          1371.531
        86   03 Jun 2027 07:59:16.021   03 Jun 2027 07:59:16.760             0.739           369.500
        87   03 Jun 2027 07:59:24.940   03 Jun 2027 07:59:32.626             7.686           935.094
        88   03 Jun 2027 07:59:45.531   03 Jun 2027 07:59:46.743             1.212           192.844
        89   03 Jun 2027 07:59:55.340   03 Jun 2027 07:59:57.409             2.069           268.656
        90   03 Jun 2027 08:00:06.364   03 Jun 2027 08:00:06.906             0.542           160.281
        91   03 Jun 2027 08:00:34.028   03 Jun 2027 08:00:37.637             3.609           273.250
        92   03 Jun 2027 09:31:12.612   03 Jun 2027 09:31:31.911            19.299          8606.625
        93   03 Jun 2027 09:31:51.591   03 Jun 2027 09:31:58.183             6.592           485.875
        94   03 Jun 2027 09:32:46.631   03 Jun 2027 09:32:53.133             6.502          1514.000
        95   03 Jun 2027 09:33:11.922   03 Jun 2027 09:33:14.941             3.019           190.500
        96   03 Jun 2027 09:33:24.331   03 Jun 2027 09:33:25.625             1.294            94.094
        97   03 Jun 2027 09:33:52.171   03 Jun 2027 09:33:54.563             2.392           829.562
        98   03 Jun 2027 09:35:01.168   03 Jun 2027 09:35:02.356             1.188           594.000
        99   03 Jun 2027 09:35:10.677   03 Jun 2027 09:35:12.106             1.429           616.750
       100   03 Jun 2027 09:35:51.113   03 Jun 2027 09:35:54.266             3.153          1218.969
       101   03 Jun 2027 09:36:31.743   03 Jun 2027 09:36:33.957             2.214          1107.000
       102   03 Jun 2027 09:36:54.847   03 Jun 2027 09:36:57.810             2.963           716.969
       103   03 Jun 2027 09:36:59.621   03 Jun 2027 09:37:01.874             2.253            56.594
       104   03 Jun 2027 11:08:09.807   03 Jun 2027 11:08:20.334            10.527          5263.500
       105   03 Jun 2027 11:08:42.659   03 Jun 2027 11:08:48.928             6.269          1813.156
       106   03 Jun 2027 11:08:55.560   03 Jun 2027 11:08:56.579             1.019           118.063
       107   03 Jun 2027 11:09:27.070   03 Jun 2027 11:09:33.681             6.611           770.438
       108   03 Jun 2027 11:10:46.116   03 Jun 2027 11:10:52.445             6.329          2241.594
       109   03 Jun 2027 11:11:11.498   03 Jun 2027 11:11:21.262             9.764           294.844
       110   03 Jun 2027 11:12:24.774   03 Jun 2027 11:12:31.038             6.264          1981.687
       111   03 Jun 2027 11:12:37.287   03 Jun 2027 11:12:38.769             1.482            23.656
       112   03 Jun 2027 11:12:53.206   03 Jun 2027 11:12:55.338             2.132           124.031
       113   04 Jun 2027 03:19:10.508   04 Jun 2027 03:20:20.227            69.719         34859.500
       114   04 Jun 2027 03:21:00.514   04 Jun 2027 03:21:26.239            25.725         12862.500
       115   04 Jun 2027 04:55:34.645   04 Jun 2027 04:58:36.858           182.213         91106.500
       116   04 Jun 2027 06:29:02.361   04 Jun 2027 06:29:37.037            34.676         16847.813
       117   04 Jun 2027 06:30:08.025   04 Jun 2027 06:30:12.261             4.236           640.875
       118   04 Jun 2027 06:31:55.988   04 Jun 2027 06:31:59.480             3.492          1401.813
       119   04 Jun 2027 06:32:22.939   04 Jun 2027 06:32:22.939             0.000             0.000
       120   04 Jun 2027 06:33:42.687   04 Jun 2027 06:33:52.762            10.075          3125.625
       121   04 Jun 2027 06:34:01.991   04 Jun 2027 06:34:09.800             7.809           240.406
       122   04 Jun 2027 06:35:23.278   04 Jun 2027 06:35:28.364             5.086          2277.500
       123   04 Jun 2027 06:35:54.798   04 Jun 2027 06:35:59.266             4.468           458.125
       124   04 Jun 2027 06:36:32.235   04 Jun 2027 06:36:36.120             3.885          1030.281
       125   04 Jun 2027 06:36:58.755   04 Jun 2027 06:37:00.390             1.635           703.906
       126   04 Jun 2027 06:37:03.004   04 Jun 2027 06:37:04.459             1.455            81.687
       127   04 Jun 2027 08:06:36.331   04 Jun 2027 08:06:57.336            21.005          9711.906
       128   04 Jun 2027 08:08:57.103   04 Jun 2027 08:09:01.464             4.361          1376.250
       129   04 Jun 2027 08:09:33.767   04 Jun 2027 08:09:35.315             1.548           283.844
       130   04 Jun 2027 08:09:44.339   04 Jun 2027 08:09:45.828             1.489           141.875
       131   04 Jun 2027 08:10:01.643   04 Jun 2027 08:10:07.516             5.873           494.219
       132   04 Jun 2027 08:10:42.885   04 Jun 2027 08:10:47.405             4.520           652.375
       133   04 Jun 2027 08:11:32.629   04 Jun 2027 08:11:40.406             7.777          1393.688
       134   04 Jun 2027 08:11:57.223   04 Jun 2027 08:11:59.069             1.846           501.688
       135   04 Jun 2027 08:12:02.702   04 Jun 2027 08:12:10.805             8.103           113.531
       136   04 Jun 2027 08:12:21.778   04 Jun 2027 08:12:23.764             1.986           342.906
       137   04 Jun 2027 08:12:39.401   04 Jun 2027 08:12:41.192             1.791           262.625
       138   04 Jun 2027 08:12:48.393   04 Jun 2027 08:12:48.393             0.000             0.000
       139   04 Jun 2027 08:13:04.153   04 Jun 2027 08:13:05.459             1.306           598.406
       140   04 Jun 2027 09:43:30.099   04 Jun 2027 09:43:37.185             7.086          3543.000
       141   04 Jun 2027 09:43:52.686   04 Jun 2027 09:44:04.822            12.136          5732.219
       142   04 Jun 2027 09:44:13.927   04 Jun 2027 09:44:20.636             6.709           284.531
       143   04 Jun 2027 09:44:49.191   04 Jun 2027 09:44:52.411             3.220           393.187
       144   04 Jun 2027 09:45:28.841   04 Jun 2027 09:45:31.457             2.616          1138.438
       145   04 Jun 2027 09:46:28.779   04 Jun 2027 09:46:33.780             5.001           463.906
       146   04 Jun 2027 09:47:04.470   04 Jun 2027 09:47:06.286             1.816           856.812
       147   04 Jun 2027 09:47:22.347   04 Jun 2027 09:47:25.530             3.183           326.000
       148   04 Jun 2027 09:48:15.789   04 Jun 2027 09:48:21.286             5.497          1397.531
       149   04 Jun 2027 09:48:46.485   04 Jun 2027 09:48:48.022             1.537           720.062
       150   04 Jun 2027 11:20:23.976   04 Jun 2027 11:20:40.303            16.327          7516.437
       151   04 Jun 2027 11:21:12.682   04 Jun 2027 11:21:13.692             1.010           505.000
       152   04 Jun 2027 11:21:36.493   04 Jun 2027 11:21:37.668             1.175           587.500
       153   04 Jun 2027 11:22:01.572   04 Jun 2027 11:22:08.543             6.971          1378.875
       154   04 Jun 2027 11:22:18.754   04 Jun 2027 11:22:19.615             0.861           206.156
       155   04 Jun 2027 11:22:34.927   04 Jun 2027 11:22:37.013             2.086           289.844
       156   04 Jun 2027 11:23:05.893   04 Jun 2027 11:23:06.140             0.247           123.500
       157   04 Jun 2027 11:23:44.744   04 Jun 2027 11:23:56.321            11.577          1841.937
       158   04 Jun 2027 11:24:23.607   04 Jun 2027 11:24:23.607             0.000             0.000
       159   04 Jun 2027 11:24:35.397   04 Jun 2027 11:24:41.816             6.419          1196.281
       160   05 Jun 2027 03:30:57.883   05 Jun 2027 03:31:27.650            29.767         14883.500
       161   05 Jun 2027 03:32:21.278   05 Jun 2027 03:32:45.785            24.507         12253.500
       162   05 Jun 2027 03:33:14.407   05 Jun 2027 03:33:22.472             8.065          4032.500
       163   05 Jun 2027 05:07:36.009   05 Jun 2027 05:08:09.698            33.689         16844.500
       164   05 Jun 2027 05:08:44.556   05 Jun 2027 05:10:14.334            89.778         44889.000
       165   05 Jun 2027 05:10:18.899   05 Jun 2027 05:11:04.965            46.066         23033.000
       166   05 Jun 2027 06:42:31.064   05 Jun 2027 06:43:51.294            80.230         38200.626
       167   05 Jun 2027 06:44:05.972   05 Jun 2027 06:44:09.012             3.040           357.250
       168   05 Jun 2027 06:44:29.143   05 Jun 2027 06:44:29.143             0.000             0.000
       169   05 Jun 2027 06:45:40.753   05 Jun 2027 06:45:47.968             7.215          2725.875
       170   05 Jun 2027 06:45:56.015   05 Jun 2027 06:45:58.054             2.039           251.469
       171   05 Jun 2027 06:46:28.008   05 Jun 2027 06:46:28.008             0.000             0.000
       172   05 Jun 2027 06:46:34.942   05 Jun 2027 06:46:37.443             2.501          1152.750
       173   05 Jun 2027 06:47:40.894   05 Jun 2027 06:47:44.362             3.468          1552.688
       174   05 Jun 2027 06:48:33.985   05 Jun 2027 06:48:39.258             5.273          1124.656
       175   05 Jun 2027 06:49:22.684   05 Jun 2027 06:49:24.308             1.624           812.000
       176   05 Jun 2027 08:18:43.621   05 Jun 2027 08:19:00.074            16.453          7708.063
       177   05 Jun 2027 08:20:09.927   05 Jun 2027 08:20:14.626             4.699          1368.906
       178   05 Jun 2027 08:21:06.007   05 Jun 2027 08:21:08.231             2.224           851.000
       179   05 Jun 2027 08:21:11.126   05 Jun 2027 08:21:19.343             8.217            11.375
       180   05 Jun 2027 08:22:17.550   05 Jun 2027 08:22:20.160             2.610          1297.813
       181   05 Jun 2027 08:22:28.578   05 Jun 2027 08:22:31.443             2.865           263.063
       182   05 Jun 2027 08:22:53.807   05 Jun 2027 08:22:56.419             2.612           698.875
       183   05 Jun 2027 08:23:19.306   05 Jun 2027 08:23:21.685             2.379           695.219
       184   05 Jun 2027 08:24:48.478   05 Jun 2027 08:24:57.175             8.697          2256.563
       185   05 Jun 2027 09:56:26.673   05 Jun 2027 09:56:45.592            18.919          9265.750
       186   05 Jun 2027 09:57:25.501   05 Jun 2027 09:57:28.525             3.024          1147.375
       187   05 Jun 2027 09:57:41.125   05 Jun 2027 09:57:44.314             3.189           393.750
       188   05 Jun 2027 09:59:21.191   05 Jun 2027 09:59:26.067             4.876          2080.719
       189   05 Jun 2027 09:59:37.249   05 Jun 2027 09:59:38.056             0.807           329.562
       190   05 Jun 2027 09:59:55.869   05 Jun 2027 09:59:57.538             1.669           547.312
       191   05 Jun 2027 10:00:17.001   05 Jun 2027 10:00:22.461             5.460           607.094
       192   05 Jun 2027 10:00:43.705   05 Jun 2027 10:00:45.111             1.406           306.844
       193   05 Jun 2027 11:32:31.198   05 Jun 2027 11:32:50.367            19.169          7846.781
       194   05 Jun 2027 11:33:50.536   05 Jun 2027 11:33:56.008             5.472          1873.844
       195   05 Jun 2027 11:34:29.859   05 Jun 2027 11:34:35.441             5.582           891.094
       196   05 Jun 2027 11:34:59.673   05 Jun 2027 11:35:02.053             2.380           757.250
       197   05 Jun 2027 11:35:15.471   05 Jun 2027 11:35:15.471             0.000             0.000
       198   05 Jun 2027 11:36:14.016   05 Jun 2027 11:36:18.819             4.803          2248.844
       199   05 Jun 2027 11:36:45.491   05 Jun 2027 11:36:48.492             3.001           707.062
       200   06 Jun 2027 03:43:11.945   06 Jun 2027 03:43:59.961            48.016         24008.000
       201   06 Jun 2027 03:44:01.887   06 Jun 2027 03:44:14.868            12.981          6490.500
       202   06 Jun 2027 03:44:22.515   06 Jun 2027 03:44:27.688             5.173          2586.500
       203   06 Jun 2027 03:44:58.981   06 Jun 2027 03:45:20.995            22.014         11007.000
       204   06 Jun 2027 03:45:51.647   06 Jun 2027 03:45:51.647             0.000             0.000
       205   06 Jun 2027 05:19:43.805   06 Jun 2027 05:22:35.856           172.051         86025.500
       206   06 Jun 2027 05:22:42.919   06 Jun 2027 05:22:49.996             7.077          3538.500
       207   06 Jun 2027 06:54:53.776   06 Jun 2027 06:55:23.231            29.455         14727.500
       208   06 Jun 2027 06:55:57.907   06 Jun 2027 06:56:22.879            24.972         12486.000
       209   06 Jun 2027 06:56:46.680   06 Jun 2027 06:56:48.968             2.288          1106.968
       210   06 Jun 2027 06:57:37.878   06 Jun 2027 06:57:40.583             2.705          1206.969
       211   06 Jun 2027 06:57:51.135   06 Jun 2027 06:57:54.476             3.341           310.625
       212   06 Jun 2027 06:58:07.980   06 Jun 2027 06:58:09.455             1.475           232.750
       213   06 Jun 2027 06:59:53.964   06 Jun 2027 07:00:01.125             7.161          3265.906
       214   06 Jun 2027 07:00:56.596   06 Jun 2027 07:00:58.259             1.663           831.500
       215   06 Jun 2027 07:01:05.950   06 Jun 2027 07:01:11.078             5.128          1142.313
       216   06 Jun 2027 07:01:12.155   06 Jun 2027 07:01:12.569             0.414            33.656
       217   06 Jun 2027 08:31:19.226   06 Jun 2027 08:31:33.831            14.605          7167.531
       218   06 Jun 2027 08:32:00.846   06 Jun 2027 08:32:05.490             4.644           602.750
       219   06 Jun 2027 08:32:50.456   06 Jun 2027 08:32:53.961             3.505           277.750
       220   06 Jun 2027 08:33:25.692   06 Jun 2027 08:33:32.286             6.594           991.594
       221   06 Jun 2027 08:33:47.777   06 Jun 2027 08:33:48.992             1.215           310.781
       222   06 Jun 2027 08:34:27.654   06 Jun 2027 08:34:30.831             3.177          1155.344
       223   06 Jun 2027 08:34:45.326   06 Jun 2027 08:34:49.274             3.948           452.969
       224   06 Jun 2027 08:34:59.017   06 Jun 2027 08:35:01.427             2.410           259.875
       225   06 Jun 2027 08:35:40.278   06 Jun 2027 08:35:49.398             9.120           705.375
       226   06 Jun 2027 08:36:11.990   06 Jun 2027 08:36:14.771             2.781           677.188
       227   06 Jun 2027 08:37:01.258   06 Jun 2027 08:37:04.512             3.254          1310.281
       228   06 Jun 2027 08:37:24.514   06 Jun 2027 08:37:26.723             2.209           625.062
       229   06 Jun 2027 10:08:33.675   06 Jun 2027 10:08:54.168            20.493          8828.375
       230   06 Jun 2027 10:09:23.103   06 Jun 2027 10:09:24.086             0.983           121.437
       231   06 Jun 2027 10:09:41.326   06 Jun 2027 10:09:43.149             1.823           538.750
       232   06 Jun 2027 10:10:21.462   06 Jun 2027 10:10:24.326             2.864          1113.781
       233   06 Jun 2027 10:10:48.701   06 Jun 2027 10:10:50.222             1.521           318.219
       234   06 Jun 2027 10:11:07.425   06 Jun 2027 10:11:08.390             0.965           474.531
       235   06 Jun 2027 10:11:56.693   06 Jun 2027 10:12:03.256             6.563          1509.469
       236   06 Jun 2027 10:12:49.264   06 Jun 2027 10:12:52.355             3.091          1389.438
       237   06 Jun 2027 10:12:59.493   06 Jun 2027 10:12:59.493             0.000             0.000
       238   06 Jun 2027 11:44:48.254   06 Jun 2027 11:45:05.102            16.848          7021.469
       239   06 Jun 2027 11:45:16.728   06 Jun 2027 11:45:24.237             7.509           142.125
       240   06 Jun 2027 11:45:55.831   06 Jun 2027 11:45:58.658             2.827           765.906
       241   06 Jun 2027 11:46:21.402   06 Jun 2027 11:46:27.206             5.804           659.437
       242   06 Jun 2027 11:46:36.591   06 Jun 2027 11:46:38.588             1.997           293.281
       243   06 Jun 2027 11:46:42.241   06 Jun 2027 11:46:42.983             0.742           114.156
       244   06 Jun 2027 11:47:12.050   06 Jun 2027 11:47:17.023             4.973           868.000
       245   06 Jun 2027 11:47:53.210   06 Jun 2027 11:48:00.124             6.914          1003.844
       246   06 Jun 2027 11:48:26.611   06 Jun 2027 11:48:28.715             2.104           627.906
       247   06 Jun 2027 11:48:34.841   06 Jun 2027 11:48:34.841             0.000             0.000
       248   06 Jun 2027 11:48:56.435   06 Jun 2027 11:49:01.351             4.916           820.844
       249   07 Jun 2027 03:55:41.972   07 Jun 2027 03:56:45.219            63.247         31623.500
       250   07 Jun 2027 03:58:20.377   07 Jun 2027 03:58:24.616             4.239          2119.500
       251   07 Jun 2027 05:31:36.788   07 Jun 2027 05:32:07.878            31.090         15545.000
       252   07 Jun 2027 05:32:25.913   07 Jun 2027 05:33:41.961            76.048         38024.000
       253   07 Jun 2027 05:34:49.766   07 Jun 2027 05:35:38.778            49.012         24506.000
       254   07 Jun 2027 07:06:33.033   07 Jun 2027 07:07:56.857            83.824         41766.844
       255   07 Jun 2027 07:08:49.759   07 Jun 2027 07:08:59.522             9.763          1653.188
       256   07 Jun 2027 07:09:05.782   07 Jun 2027 07:09:06.445             0.663           195.625
       257   07 Jun 2027 07:09:22.334   07 Jun 2027 07:09:23.713             1.379           496.531
       258   07 Jun 2027 07:09:45.708   07 Jun 2027 07:09:51.681             5.973           687.344
       259   07 Jun 2027 07:10:00.399   07 Jun 2027 07:10:02.805             2.406           272.437
       260   07 Jun 2027 07:11:40.950   07 Jun 2027 07:11:53.287            12.337          3067.031
       261   07 Jun 2027 07:12:28.114   07 Jun 2027 07:12:32.126             4.012           951.750
       262   07 Jun 2027 07:13:03.330   07 Jun 2027 07:13:04.583             1.253           626.500
       263   07 Jun 2027 07:13:24.307   07 Jun 2027 07:13:24.307             0.000             0.000
       264   07 Jun 2027 08:42:51.544   07 Jun 2027 08:43:17.838            26.294         11710.281
       265   07 Jun 2027 08:43:28.748   07 Jun 2027 08:43:29.992             1.244           204.438
       266   07 Jun 2027 08:44:32.627   07 Jun 2027 08:44:37.158             4.531           107.281
       267   07 Jun 2027 08:45:06.526   07 Jun 2027 08:45:09.064             2.538           891.813
       268   07 Jun 2027 08:45:40.402   07 Jun 2027 08:45:41.172             0.770           385.000
       269   07 Jun 2027 08:46:36.854   07 Jun 2027 08:46:42.953             6.099          2082.719
       270   07 Jun 2027 08:46:47.148   07 Jun 2027 08:46:47.788             0.640           101.594
       271   07 Jun 2027 08:47:25.638   07 Jun 2027 08:47:27.687             2.049           814.125
       272   07 Jun 2027 08:48:02.824   07 Jun 2027 08:48:06.848             4.024          1076.312
       273   07 Jun 2027 08:49:09.951   07 Jun 2027 08:49:16.274             6.323          1964.500
       274   07 Jun 2027 10:21:07.107   07 Jun 2027 10:21:21.655            14.548          7162.719
       275   07 Jun 2027 10:21:53.267   07 Jun 2027 10:21:57.112             3.845           932.500
       276   07 Jun 2027 10:22:59.157   07 Jun 2027 10:23:07.878             8.721          1600.187
       277   07 Jun 2027 10:24:19.926   07 Jun 2027 10:24:27.374             7.448          2251.500
       278   07 Jun 2027 11:56:27.197   07 Jun 2027 11:56:40.076            12.879          5564.719
       279   07 Jun 2027 11:57:48.822   07 Jun 2027 11:57:51.911             3.089          1504.937
       280   07 Jun 2027 11:58:10.475   07 Jun 2027 11:58:16.267             5.792           118.937
       281   07 Jun 2027 11:58:31.576   07 Jun 2027 11:58:33.136             1.560           226.719
       282   07 Jun 2027 11:58:45.615   07 Jun 2027 11:58:46.741             1.126           389.969
       283   07 Jun 2027 11:59:46.546   07 Jun 2027 11:59:51.791             5.245          1868.906
       284   08 Jun 2027 04:06:38.809   08 Jun 2027 04:07:47.298            68.489         34244.500
       285   08 Jun 2027 04:08:04.737   08 Jun 2027 04:08:25.915            21.178         10589.000
       286   08 Jun 2027 04:09:25.331   08 Jun 2027 04:09:34.776             9.445          4722.500
       287   08 Jun 2027 04:09:54.491   08 Jun 2027 04:09:59.035             4.544          2272.000
       288   08 Jun 2027 04:10:39.812   08 Jun 2027 04:10:52.566            12.754          6377.000
       289   08 Jun 2027 05:41:55.505   08 Jun 2027 05:42:29.044            33.539         16769.500
       290   08 Jun 2027 05:43:20.652   08 Jun 2027 05:44:21.167            60.515         30257.500
       291   08 Jun 2027 05:46:27.774   08 Jun 2027 05:46:58.249            30.475         15237.500
       292   08 Jun 2027 05:47:35.615   08 Jun 2027 05:47:54.140            18.525          9262.500
       293   08 Jun 2027 07:18:06.347   08 Jun 2027 07:19:19.951            73.604         35879.406
       294   08 Jun 2027 07:20:15.776   08 Jun 2027 07:20:18.452             2.676           574.281
       295   08 Jun 2027 07:21:04.460   08 Jun 2027 07:21:07.730             3.270           502.562
       296   08 Jun 2027 07:21:18.865   08 Jun 2027 07:21:20.686             1.821           321.437
       297   08 Jun 2027 07:21:57.797   08 Jun 2027 07:22:04.706             6.909           920.031
       298   08 Jun 2027 07:23:40.073   08 Jun 2027 07:23:46.848             6.775          2976.187
       299   08 Jun 2027 07:24:22.711   08 Jun 2027 07:24:24.773             2.062           828.000
       300   08 Jun 2027 07:25:39.483   08 Jun 2027 07:25:41.234             1.751           875.500
       301   08 Jun 2027 08:55:10.841   08 Jun 2027 08:55:33.339            22.498         10140.594
       302   08 Jun 2027 08:56:28.584   08 Jun 2027 08:56:29.004             0.420            18.750
       303   08 Jun 2027 08:57:42.952   08 Jun 2027 08:57:47.548             4.596          1001.781
       304   08 Jun 2027 08:58:05.247   08 Jun 2027 08:58:05.247             0.000             0.000
       305   08 Jun 2027 08:58:23.489   08 Jun 2027 08:58:27.714             4.225           776.062
       306   08 Jun 2027 08:58:49.278   08 Jun 2027 08:58:53.082             3.804           512.281
       307   08 Jun 2027 08:59:28.194   08 Jun 2027 08:59:28.194             0.000             0.000
       308   08 Jun 2027 09:00:24.779   08 Jun 2027 09:00:29.673             4.894          2282.781
       309   08 Jun 2027 09:01:07.140   08 Jun 2027 09:01:12.372             5.232          1123.625
       310   08 Jun 2027 09:01:23.720   08 Jun 2027 09:01:24.470             0.750           210.125
       311   08 Jun 2027 10:33:09.997   08 Jun 2027 10:33:25.661            15.664          7156.344
       312   08 Jun 2027 10:34:19.486   08 Jun 2027 10:34:26.078             6.592           531.781
       313   08 Jun 2027 10:35:01.533   08 Jun 2027 10:35:04.544             3.011           595.594
       314   08 Jun 2027 10:35:07.094   08 Jun 2027 10:35:07.594             0.500            79.687
       315   08 Jun 2027 10:36:26.567   08 Jun 2027 10:36:32.943             6.376          2467.906
       316   08 Jun 2027 10:36:49.043   08 Jun 2027 10:36:50.212             1.169           364.219
       317   08 Jun 2027 10:37:00.937   08 Jun 2027 10:37:02.823             1.886           335.156
       318   09 Jun 2027 04:17:57.877   09 Jun 2027 04:19:08.664            70.787         35393.500
       319   09 Jun 2027 04:19:58.630   09 Jun 2027 04:20:43.890            45.260         22630.000
       320   09 Jun 2027 04:20:57.298   09 Jun 2027 04:21:31.312            34.014         17007.000
       321   09 Jun 2027 04:21:49.755   09 Jun 2027 04:21:57.864             8.109          4054.500
       322   09 Jun 2027 04:22:36.147   09 Jun 2027 04:22:38.174             2.027          1013.500
       323   09 Jun 2027 04:23:01.569   09 Jun 2027 04:23:01.569             0.000             0.000
       324   09 Jun 2027 04:23:07.871   09 Jun 2027 04:23:10.085             2.214          1107.000
       325   09 Jun 2027 05:53:02.131   09 Jun 2027 05:54:30.861            88.730         44365.000
       326   09 Jun 2027 05:55:49.027   09 Jun 2027 05:56:40.845            51.818         25909.000
       327   09 Jun 2027 05:56:47.082   09 Jun 2027 05:56:51.646             4.564          1984.281
       328   09 Jun 2027 05:57:35.180   09 Jun 2027 05:57:40.072             4.892           963.219
       329   09 Jun 2027 05:59:17.579   09 Jun 2027 05:59:30.187            12.608          2540.219
       330   09 Jun 2027 05:59:51.485   09 Jun 2027 05:59:54.030             2.545           660.219
       331   09 Jun 2027 06:00:02.520   09 Jun 2027 06:00:05.109             2.589           210.313
       332   09 Jun 2027 07:30:23.786   09 Jun 2027 07:30:39.185            15.399          7412.687
       333   09 Jun 2027 07:31:57.437   09 Jun 2027 07:32:08.348            10.911          2209.531
       334   09 Jun 2027 07:33:35.536   09 Jun 2027 07:33:40.916             5.380          2502.000
       335   09 Jun 2027 07:34:13.048   09 Jun 2027 07:34:16.263             3.215           579.969
       336   09 Jun 2027 07:35:38.442   09 Jun 2027 07:35:44.119             5.677          1877.281
       337   09 Jun 2027 07:36:09.820   09 Jun 2027 07:36:14.967             5.147           292.969
       338   09 Jun 2027 07:37:05.556   09 Jun 2027 07:37:08.972             3.416          1510.625
       339   09 Jun 2027 07:37:13.372   09 Jun 2027 07:37:15.737             2.365            15.469
       340   09 Jun 2027 07:37:38.105   09 Jun 2027 07:37:38.105             0.000             0.000
       341   09 Jun 2027 09:07:12.535   09 Jun 2027 09:07:38.382            25.847         11140.625
       342   09 Jun 2027 09:08:21.261   09 Jun 2027 09:08:23.704             2.443          1195.187
       343   09 Jun 2027 09:08:41.462   09 Jun 2027 09:08:45.116             3.654           554.938
       344   09 Jun 2027 09:09:03.648   09 Jun 2027 09:09:04.756             1.108           442.406
       345   09 Jun 2027 09:09:43.118   09 Jun 2027 09:09:44.162             1.044           522.000
       346   09 Jun 2027 09:10:22.508   09 Jun 2027 09:10:39.256            16.748          1862.844
       347   09 Jun 2027 09:10:51.736   09 Jun 2027 09:10:54.478             2.742           221.250
       348   09 Jun 2027 09:11:11.639   09 Jun 2027 09:11:12.800             1.161           536.281
       349   09 Jun 2027 09:11:32.975   09 Jun 2027 09:11:44.466            11.491           590.563
       350   09 Jun 2027 09:12:03.640   09 Jun 2027 09:12:03.917             0.277           130.969
       351   09 Jun 2027 09:12:46.646   09 Jun 2027 09:12:49.087             2.441          1220.500
       352   09 Jun 2027 10:45:09.564   09 Jun 2027 10:45:24.842            15.278          7338.531
       353   09 Jun 2027 10:45:49.018   09 Jun 2027 10:45:49.616             0.598           179.812
       354   09 Jun 2027 10:46:12.929   09 Jun 2027 10:46:17.155             4.226           664.344
       355   09 Jun 2027 10:46:20.653   09 Jun 2027 10:46:21.861             1.208            60.969
       356   09 Jun 2027 10:46:24.094   09 Jun 2027 10:46:24.972             0.878            69.781
       357   09 Jun 2027 10:46:58.475   09 Jun 2027 10:47:02.329             3.854           272.781
       358   09 Jun 2027 10:47:09.843   09 Jun 2027 10:47:10.317             0.474           105.063
       359   09 Jun 2027 10:47:52.350   09 Jun 2027 10:47:55.378             3.028           824.750
       360   09 Jun 2027 10:48:43.918   09 Jun 2027 10:48:47.846             3.928          1516.875
       361   09 Jun 2027 10:49:04.468   09 Jun 2027 10:49:08.589             4.121           398.188
       362   10 Jun 2027 03:07:41.589   10 Jun 2027 03:08:18.763            37.174         18587.000
       363   10 Jun 2027 04:29:41.989   10 Jun 2027 04:30:56.268            74.279         37139.500
       364   10 Jun 2027 04:31:44.616   10 Jun 2027 04:32:56.911            72.295         36147.500
       365   10 Jun 2027 04:33:34.761   10 Jun 2027 04:33:34.761             0.000             0.000
       366   10 Jun 2027 04:34:23.961   10 Jun 2027 04:34:24.862             0.901           450.500
       367   10 Jun 2027 06:04:30.334   10 Jun 2027 06:06:18.426           108.092         54046.000
       368   10 Jun 2027 06:06:47.779   10 Jun 2027 06:06:56.139             8.360          3249.031
       369   10 Jun 2027 06:07:19.646   10 Jun 2027 06:07:19.646             0.000             0.000
       370   10 Jun 2027 06:08:47.825   10 Jun 2027 06:08:56.251             8.426          3391.688
       371   10 Jun 2027 06:11:01.143   10 Jun 2027 06:11:06.193             5.050          2525.000
       372   10 Jun 2027 06:11:23.786   10 Jun 2027 06:11:24.839             1.053           526.500
       373   10 Jun 2027 06:11:33.180   10 Jun 2027 06:11:35.192             2.012          1006.000
       374   10 Jun 2027 06:11:53.259   10 Jun 2027 06:11:58.041             4.782           656.719
       375   10 Jun 2027 06:12:18.891   10 Jun 2027 06:12:23.209             4.318           651.563
       376   10 Jun 2027 06:13:23.529   10 Jun 2027 06:13:27.911             4.382          1746.625
       377   10 Jun 2027 07:42:19.139   10 Jun 2027 07:42:36.050            16.911          8271.656
       378   10 Jun 2027 07:43:05.121   10 Jun 2027 07:43:09.900             4.779           223.500
       379   10 Jun 2027 07:44:25.965   10 Jun 2027 07:44:32.257             6.292           978.094
       380   10 Jun 2027 07:44:42.546   10 Jun 2027 07:44:43.821             1.275           314.687
       381   10 Jun 2027 07:45:22.675   10 Jun 2027 07:45:24.200             1.525           379.969
       382   10 Jun 2027 07:46:26.394   10 Jun 2027 07:46:29.529             3.135          1424.062
       383   10 Jun 2027 07:47:08.684   10 Jun 2027 07:47:14.907             6.223           667.437
       384   10 Jun 2027 07:48:01.980   10 Jun 2027 07:48:04.691             2.711          1341.656
       385   10 Jun 2027 07:48:17.590   10 Jun 2027 07:48:18.174             0.584           162.562
       386   10 Jun 2027 07:48:25.131   10 Jun 2027 07:48:28.190             3.059            54.625
       387   10 Jun 2027 07:49:39.464   10 Jun 2027 07:49:44.833             5.369          2227.313
       388   10 Jun 2027 09:19:03.539   10 Jun 2027 09:19:25.802            22.263         10257.000
       389   10 Jun 2027 09:19:58.500   10 Jun 2027 09:20:00.094             1.594           440.719
       390   10 Jun 2027 09:20:55.104   10 Jun 2027 09:21:00.431             5.327          1719.063
       391   10 Jun 2027 09:21:39.848   10 Jun 2027 09:21:41.941             2.093           212.844
       392   10 Jun 2027 09:22:34.810   10 Jun 2027 09:22:47.222            12.412          1564.969
       393   10 Jun 2027 09:22:58.713   10 Jun 2027 09:23:00.918             2.205           340.750
       394   10 Jun 2027 09:23:22.787   10 Jun 2027 09:23:27.180             4.393           500.875
       395   10 Jun 2027 09:23:35.485   10 Jun 2027 09:23:36.085             0.600           227.656
       396   10 Jun 2027 09:24:09.750   10 Jun 2027 09:24:11.371             1.621           369.563
       397   10 Jun 2027 09:25:23.949   10 Jun 2027 09:25:29.834             5.885          2268.062
       398   10 Jun 2027 10:57:11.162   10 Jun 2027 10:57:25.875            14.713          6808.031
       399   10 Jun 2027 10:58:18.531   10 Jun 2027 10:58:22.579             4.048          1645.500
       400   10 Jun 2027 10:58:26.352   10 Jun 2027 10:58:26.787             0.435            62.688
       401   10 Jun 2027 10:59:03.384   10 Jun 2027 10:59:04.411             1.027           513.500
       402   10 Jun 2027 10:59:14.616   10 Jun 2027 10:59:20.073             5.457           331.813
       403   10 Jun 2027 10:59:33.333   10 Jun 2027 10:59:39.518             6.185           229.687
       404   10 Jun 2027 11:00:22.676   10 Jun 2027 11:00:24.073             1.397           698.500
       405   10 Jun 2027 11:00:26.355   10 Jun 2027 11:00:29.861             3.506           721.500
       406   10 Jun 2027 11:00:42.396   10 Jun 2027 11:00:43.035             0.639           282.094
       407   10 Jun 2027 11:00:45.528   10 Jun 2027 11:00:46.539             1.011            77.906
       408   10 Jun 2027 11:01:06.654   10 Jun 2027 11:01:07.612             0.958           463.813
       409   11 Jun 2027 03:07:31.133   11 Jun 2027 03:07:58.010            26.877         13438.500
       410   11 Jun 2027 03:08:03.830   11 Jun 2027 03:08:35.364            31.534         15767.000
       411   11 Jun 2027 03:08:42.614   11 Jun 2027 03:08:58.039            15.425          7712.500
       412   11 Jun 2027 04:43:27.872   11 Jun 2027 04:46:01.915           154.043         77021.500
       413   11 Jun 2027 04:46:56.255   11 Jun 2027 04:47:01.760             5.505          2752.500
       414   11 Jun 2027 06:17:18.842   11 Jun 2027 06:18:37.726            78.884         36628.812
       415   11 Jun 2027 06:19:34.296   11 Jun 2027 06:19:43.230             8.934           552.719
       416   11 Jun 2027 06:20:21.717   11 Jun 2027 06:20:24.840             3.123           833.281
       417   11 Jun 2027 06:21:59.000   11 Jun 2027 06:22:00.498             1.498           749.000
       418   11 Jun 2027 06:22:32.935   11 Jun 2027 06:22:37.091             4.156          2078.000
       419   11 Jun 2027 06:22:39.851   11 Jun 2027 06:22:41.869             2.018           894.094
       420   11 Jun 2027 06:23:45.942   11 Jun 2027 06:23:48.130             2.188          1094.000
       421   11 Jun 2027 06:23:54.739   11 Jun 2027 06:23:56.187             1.448           724.000
       422   11 Jun 2027 06:24:08.993   11 Jun 2027 06:24:13.025             4.032           619.281
       423   11 Jun 2027 06:25:22.329   11 Jun 2027 06:25:23.744             1.415           707.500
       424   11 Jun 2027 07:54:25.590   11 Jun 2027 07:54:46.033            20.443          9710.719
       425   11 Jun 2027 07:55:55.612   11 Jun 2027 07:56:04.901             9.289          1111.906
       426   11 Jun 2027 07:58:08.008   11 Jun 2027 07:58:16.692             8.684          2143.469
       427   11 Jun 2027 07:58:32.680   11 Jun 2027 07:58:33.478             0.798            14.969
       428   11 Jun 2027 07:58:57.036   11 Jun 2027 07:58:58.069             1.033           155.375
       429   11 Jun 2027 07:59:36.967   11 Jun 2027 07:59:38.739             1.772           660.375
       430   11 Jun 2027 08:00:00.088   11 Jun 2027 08:00:03.245             3.157           171.125
       431   11 Jun 2027 08:00:10.005   11 Jun 2027 08:00:10.446             0.441           211.250
       432   11 Jun 2027 08:00:21.033   11 Jun 2027 08:00:21.802             0.769           203.344
       433   11 Jun 2027 08:00:47.409   11 Jun 2027 08:00:53.685             6.276           155.656
       434   11 Jun 2027 09:31:28.104   11 Jun 2027 09:31:48.047            19.943          9034.094
       435   11 Jun 2027 09:32:06.664   11 Jun 2027 09:32:12.727             6.063           490.063
       436   11 Jun 2027 09:33:02.914   11 Jun 2027 09:33:06.578             3.664          1568.344
       437   11 Jun 2027 09:33:59.119   11 Jun 2027 09:34:00.868             1.749           776.781
       438   11 Jun 2027 09:34:45.745   11 Jun 2027 09:34:48.333             2.588          1214.438
       439   11 Jun 2027 09:35:17.628   11 Jun 2027 09:35:19.235             1.607           803.500
       440   11 Jun 2027 09:35:24.894   11 Jun 2027 09:35:25.673             0.779           288.812
       441   11 Jun 2027 09:35:51.196   11 Jun 2027 09:35:53.413             2.217           797.594
       442   11 Jun 2027 09:35:59.248   11 Jun 2027 09:35:59.908             0.660           176.906
       443   11 Jun 2027 09:36:59.471   11 Jun 2027 09:37:05.377             5.906          1861.344
       444   11 Jun 2027 09:37:24.739   11 Jun 2027 09:37:28.469             3.730           476.094
       445   11 Jun 2027 11:08:25.431   11 Jun 2027 11:08:42.694            17.263          7261.125
       446   11 Jun 2027 11:09:09.922   11 Jun 2027 11:09:12.341             2.419           676.750
       447   11 Jun 2027 11:09:57.217   11 Jun 2027 11:10:01.228             4.011           941.813
       448   11 Jun 2027 11:10:27.589   11 Jun 2027 11:10:27.589             0.000             0.000
       449   11 Jun 2027 11:10:37.920   11 Jun 2027 11:10:41.169             3.249          1003.062
       450   11 Jun 2027 11:10:49.565   11 Jun 2027 11:10:50.528             0.963           262.375
       451   11 Jun 2027 11:12:40.179   11 Jun 2027 11:12:45.239             5.060          2442.187
       452   11 Jun 2027 11:12:52.634   11 Jun 2027 11:12:54.805             2.171            39.938
       453   12 Jun 2027 03:19:25.355   12 Jun 2027 03:20:36.266            70.911         35455.500
       454   12 Jun 2027 03:20:58.342   12 Jun 2027 03:20:58.943             0.601           300.500
       455   12 Jun 2027 03:21:16.374   12 Jun 2027 03:21:40.921            24.547         12273.500
       456   12 Jun 2027 03:21:41.847   12 Jun 2027 03:21:52.186            10.339          5169.500
       457   12 Jun 2027 04:55:49.647   12 Jun 2027 04:58:22.514           152.867         76433.500
       458   12 Jun 2027 04:58:48.512   12 Jun 2027 04:58:54.674             6.162          3081.000
       459   12 Jun 2027 04:59:01.420   12 Jun 2027 04:59:15.577            14.157          7078.500
       460   12 Jun 2027 06:27:58.079   12 Jun 2027 06:28:34.126            36.047         15851.531
       461   12 Jun 2027 06:30:00.063   12 Jun 2027 06:30:05.171             5.108          2549.813
       462   12 Jun 2027 06:31:27.377   12 Jun 2027 06:31:29.683             2.306           120.625
       463   12 Jun 2027 06:32:38.829   12 Jun 2027 06:32:50.341            11.512          2066.219
       464   12 Jun 2027 06:33:20.190   12 Jun 2027 06:33:24.629             4.439           897.063
       465   12 Jun 2027 06:34:32.950   12 Jun 2027 06:34:32.950             0.000             0.000
       466   12 Jun 2027 06:34:40.495   12 Jun 2027 06:34:45.224             4.729          1997.437
       467   12 Jun 2027 06:35:29.359   12 Jun 2027 06:35:34.369             5.010          1306.875
       468   12 Jun 2027 06:36:20.877   12 Jun 2027 06:36:26.041             5.164           781.500
       469   12 Jun 2027 06:37:30.749   12 Jun 2027 06:37:34.475             3.726          1844.250
       470   12 Jun 2027 06:37:45.575   12 Jun 2027 06:37:46.397             0.822           346.875
       471   12 Jun 2027 08:06:51.563   12 Jun 2027 08:07:12.447            20.884          7267.062
       472   12 Jun 2027 08:08:37.544   12 Jun 2027 08:08:39.107             1.563           624.469
       473   12 Jun 2027 08:09:14.476   12 Jun 2027 08:09:17.837             3.361            73.562
       474   12 Jun 2027 08:09:49.062   12 Jun 2027 08:09:50.438             1.376           295.937
       475   12 Jun 2027 08:10:02.293   12 Jun 2027 08:10:07.672             5.379           222.125
       476   12 Jun 2027 08:10:32.356   12 Jun 2027 08:10:33.792             1.436           646.750
       477   12 Jun 2027 08:11:05.692   12 Jun 2027 08:11:06.344             0.652           230.219
       478   12 Jun 2027 08:11:37.501   12 Jun 2027 08:11:37.501             0.000             0.000
       479   12 Jun 2027 08:12:08.664   12 Jun 2027 08:12:11.886             3.222          1611.000
       480   12 Jun 2027 08:13:05.897   12 Jun 2027 08:13:09.772             3.875          1857.875
       481   12 Jun 2027 08:13:30.870   12 Jun 2027 08:13:33.632             2.762           443.969
       482   12 Jun 2027 09:43:46.248   12 Jun 2027 09:43:54.465             8.217          4108.500
       483   12 Jun 2027 09:44:07.964   12 Jun 2027 09:44:20.600            12.636          5130.406
       484   12 Jun 2027 09:45:11.922   12 Jun 2027 09:45:15.130             3.208          1603.813
       485   12 Jun 2027 09:45:31.579   12 Jun 2027 09:45:32.352             0.773           386.500
       486   12 Jun 2027 09:45:47.380   12 Jun 2027 09:45:47.975             0.595           297.500
       487   12 Jun 2027 09:46:29.007   12 Jun 2027 09:46:33.536             4.529          1554.468
       488   12 Jun 2027 09:46:54.179   12 Jun 2027 09:46:55.639             1.460           645.094
       489   12 Jun 2027 09:47:29.853   12 Jun 2027 09:47:33.038             3.185          1069.187
       490   12 Jun 2027 09:48:00.435   12 Jun 2027 09:48:02.452             2.017           826.312
       491   12 Jun 2027 09:48:20.126   12 Jun 2027 09:48:26.026             5.900           519.094
       492   12 Jun 2027 09:48:31.158   12 Jun 2027 09:48:31.553             0.395           136.125
       493   12 Jun 2027 09:48:38.096   12 Jun 2027 09:48:41.902             3.806           204.469
       494   12 Jun 2027 09:49:10.971   12 Jun 2027 09:49:10.971             0.000             0.000
       495   12 Jun 2027 09:49:18.796   12 Jun 2027 09:49:20.532             1.736           545.469
       496   12 Jun 2027 11:20:39.081   12 Jun 2027 11:20:55.937            16.856          8428.000
       497   12 Jun 2027 11:21:28.427   12 Jun 2027 11:21:31.602             3.175          1311.312
       498   12 Jun 2027 11:22:03.745   12 Jun 2027 11:22:11.117             7.372           731.688
       499   12 Jun 2027 11:23:13.437   12 Jun 2027 11:23:17.315             3.878          1788.219
       500   12 Jun 2027 11:24:14.016   12 Jun 2027 11:24:17.023             3.007          1503.500
       501   12 Jun 2027 11:24:38.753   12 Jun 2027 11:24:42.552             3.799           947.469
       502   13 Jun 2027 03:31:12.606   13 Jun 2027 03:31:42.254            29.648         14824.000
       503   13 Jun 2027 03:32:37.321   13 Jun 2027 03:33:20.181            42.860         21430.000
       504   13 Jun 2027 03:33:29.007   13 Jun 2027 03:33:59.416            30.409         15204.500
       505   13 Jun 2027 05:07:51.504   13 Jun 2027 05:08:15.960            24.456         12228.000
       506   13 Jun 2027 05:08:21.621   13 Jun 2027 05:10:30.155           128.534         64267.000
       507   13 Jun 2027 05:10:33.618   13 Jun 2027 05:10:52.003            18.385          9192.500
       508   13 Jun 2027 05:11:00.954   13 Jun 2027 05:11:02.976             2.022          1011.000
       509   13 Jun 2027 06:42:46.535   13 Jun 2027 06:43:26.540            40.005         17975.688
       510   13 Jun 2027 06:43:50.736   13 Jun 2027 06:43:52.707             1.971           145.688
       511   13 Jun 2027 06:44:23.706   13 Jun 2027 06:44:25.584             1.878           410.094
       512   13 Jun 2027 06:44:45.135   13 Jun 2027 06:44:45.869             0.734           367.000
       513   13 Jun 2027 06:45:04.929   13 Jun 2027 06:45:10.444             5.515           729.344
       514   13 Jun 2027 06:45:24.384   13 Jun 2027 06:45:24.966             0.582           127.875
       515   13 Jun 2027 06:45:48.705   13 Jun 2027 06:45:51.352             2.647            34.219
       516   13 Jun 2027 06:46:06.206   13 Jun 2027 06:46:08.380             2.174           322.813
       517   13 Jun 2027 06:46:10.041   13 Jun 2027 06:46:11.989             1.948            45.313
       518   13 Jun 2027 06:46:14.793   13 Jun 2027 06:46:15.336             0.543            87.625
       519   13 Jun 2027 06:46:25.541   13 Jun 2027 06:46:29.160             3.619           140.563
       520   13 Jun 2027 06:47:56.606   13 Jun 2027 06:48:04.517             7.911          2263.937
       521   13 Jun 2027 06:48:49.659   13 Jun 2027 06:48:53.605             3.946          1070.094
       522   13 Jun 2027 06:49:22.597   13 Jun 2027 06:49:23.086             0.489           244.500
       523   13 Jun 2027 08:18:59.028   13 Jun 2027 08:19:28.369            29.341          8532.406
       524   13 Jun 2027 08:20:51.585   13 Jun 2027 08:20:54.191             2.606          1101.406
       525   13 Jun 2027 08:21:21.039   13 Jun 2027 08:21:23.615             2.576           769.531
       526   13 Jun 2027 08:21:50.915   13 Jun 2027 08:21:52.034             1.119           393.031
       527   13 Jun 2027 08:22:16.370   13 Jun 2027 08:22:18.766             2.396           760.500
       528   13 Jun 2027 08:22:46.156   13 Jun 2027 08:22:47.108             0.952           430.469
       529   13 Jun 2027 08:22:59.299   13 Jun 2027 08:22:59.299             0.000             0.000
       530   13 Jun 2027 08:23:36.351   13 Jun 2027 08:23:41.944             5.593          1396.438
       531   13 Jun 2027 08:24:13.780   13 Jun 2027 08:24:16.123             2.343           653.875
       532   13 Jun 2027 08:25:02.512   13 Jun 2027 08:25:04.414             1.902           856.969
       533   13 Jun 2027 08:25:18.243   13 Jun 2027 08:25:18.830             0.587           293.500
       534   13 Jun 2027 09:56:42.615   13 Jun 2027 09:57:02.903            20.288          9413.187
       535   13 Jun 2027 09:57:43.174   13 Jun 2027 09:57:48.476             5.302          1037.187
       536   13 Jun 2027 09:58:52.134   13 Jun 2027 09:58:57.688             5.554          1912.000
       537   13 Jun 2027 09:59:02.129   13 Jun 2027 09:59:02.439             0.310           138.781
       538   13 Jun 2027 09:59:17.933   13 Jun 2027 09:59:19.322             1.389           205.531
       539   13 Jun 2027 10:00:10.836   13 Jun 2027 10:00:15.442             4.606          1540.094
       540   13 Jun 2027 10:00:28.355   13 Jun 2027 10:00:29.130             0.775           208.438
       541   13 Jun 2027 11:32:48.905   13 Jun 2027 11:33:05.099            16.194          7910.156
       542   13 Jun 2027 11:34:07.099   13 Jun 2027 11:34:15.976             8.877          1937.500
       543   13 Jun 2027 11:34:53.477   13 Jun 2027 11:34:58.264             4.787          1171.906
       544   13 Jun 2027 11:35:16.943   13 Jun 2027 11:35:21.514             4.571           114.406
       545   13 Jun 2027 11:35:34.545   13 Jun 2027 11:35:40.465             5.920           407.219
       546   13 Jun 2027 11:36:41.652   13 Jun 2027 11:36:44.060             2.408           748.281
