uniorb/output/strategy_2/Camera/Camera_KinoSat_110403.txt

KinoSat_110403
-------------------------
    Access    *     Start Time (UTCG)     *     Stop Time (UTCG)  *   Duration (s) *   Data (Mbytes)
         1   01 Jun 2027 04:11:35.238   01 Jun 2027 04:11:37.005             1.767           883.500
         2   01 Jun 2027 04:11:49.704   01 Jun 2027 04:11:50.063             0.359           179.500
         3   01 Jun 2027 04:11:53.549   01 Jun 2027 04:12:03.810            10.261          5130.500
         4   01 Jun 2027 04:12:46.222   01 Jun 2027 04:12:52.572             6.350          3175.000
         5   01 Jun 2027 04:12:56.020   01 Jun 2027 04:13:03.882             7.862          3931.000
         6   01 Jun 2027 04:13:37.812   01 Jun 2027 04:13:39.152             1.340           670.000
         7   01 Jun 2027 04:14:05.286   01 Jun 2027 04:14:10.493             5.207          2603.500
         8   01 Jun 2027 04:14:53.444   01 Jun 2027 04:14:53.757             0.313           156.500
         9   01 Jun 2027 04:15:56.668   01 Jun 2027 04:16:12.013            15.345          7672.500
        10   01 Jun 2027 04:17:48.430   01 Jun 2027 04:17:49.612             1.182           591.000
        11   01 Jun 2027 05:47:55.073   01 Jun 2027 05:48:11.564            16.491          8245.500
        12   01 Jun 2027 05:48:52.112   01 Jun 2027 05:49:08.193            16.081          8040.500
        13   01 Jun 2027 05:51:00.498   01 Jun 2027 05:51:01.306             0.808           404.000
        14   01 Jun 2027 05:51:07.191   01 Jun 2027 05:51:08.024             0.833           416.500
        15   01 Jun 2027 05:51:29.643   01 Jun 2027 05:51:39.027             9.384          4692.000
        16   01 Jun 2027 05:52:25.979   01 Jun 2027 05:52:28.463             2.484          1242.000
        17   01 Jun 2027 05:52:55.055   01 Jun 2027 05:52:56.430             1.375           687.500
        18   01 Jun 2027 05:53:35.044   01 Jun 2027 05:53:38.835             3.791          1895.500
        19   01 Jun 2027 07:25:21.588   01 Jun 2027 07:25:27.932             6.344          3172.000
        20   01 Jun 2027 07:25:53.568   01 Jun 2027 07:26:00.473             6.905          3452.500
        21   01 Jun 2027 07:26:32.562   01 Jun 2027 07:26:35.565             3.003          1501.500
        22   01 Jun 2027 07:27:50.739   01 Jun 2027 07:28:02.235            11.496          5748.000
        23   01 Jun 2027 07:28:49.391   01 Jun 2027 07:28:59.808            10.417          5208.500
        24   01 Jun 2027 07:29:48.284   01 Jun 2027 07:29:54.026             5.742          2871.000
        25   01 Jun 2027 09:01:25.239   01 Jun 2027 09:01:37.733            12.494          6247.000
        26   01 Jun 2027 09:02:31.792   01 Jun 2027 09:02:38.686             6.894          3447.000
        27   01 Jun 2027 09:03:11.506   01 Jun 2027 09:03:12.329             0.823           411.500
        28   01 Jun 2027 09:03:16.931   01 Jun 2027 09:03:19.728             2.797          1398.500
        29   01 Jun 2027 09:03:56.480   01 Jun 2027 09:04:02.265             5.785          2892.500
        30   01 Jun 2027 09:04:30.259   01 Jun 2027 09:04:40.260            10.001          5000.500
        31   01 Jun 2027 09:05:04.940   01 Jun 2027 09:05:10.130             5.190          2595.000
        32   01 Jun 2027 09:06:01.202   01 Jun 2027 09:06:02.167             0.965           482.500
        33   02 Jun 2027 04:23:04.517   02 Jun 2027 04:23:32.029            27.512         13756.000
        34   02 Jun 2027 04:24:52.335   02 Jun 2027 04:25:02.295             9.960          4980.000
        35   02 Jun 2027 04:25:44.554   02 Jun 2027 04:25:44.554             0.000             0.000
        36   02 Jun 2027 04:26:53.951   02 Jun 2027 04:26:59.277             5.326          2663.000
        37   02 Jun 2027 04:27:35.800   02 Jun 2027 04:27:41.696             5.896          2948.000
        38   02 Jun 2027 04:28:31.096   02 Jun 2027 04:28:35.221             4.125          2062.500
        39   02 Jun 2027 04:29:00.083   02 Jun 2027 04:29:25.467            25.384         12692.000
        40   02 Jun 2027 05:59:34.806   02 Jun 2027 05:59:37.204             2.398          1199.000
        41   02 Jun 2027 06:00:42.813   02 Jun 2027 06:01:02.274            19.461          9730.500
        42   02 Jun 2027 06:02:39.826   02 Jun 2027 06:02:48.450             8.624          4312.000
        43   02 Jun 2027 06:03:27.565   02 Jun 2027 06:03:28.737             1.172           586.000
        44   02 Jun 2027 06:03:34.137   02 Jun 2027 06:03:35.948             1.811           905.500
        45   02 Jun 2027 06:03:48.501   02 Jun 2027 06:03:52.951             4.450          2225.000
        46   02 Jun 2027 06:05:00.651   02 Jun 2027 06:05:06.827             6.176          3088.000
        47   02 Jun 2027 06:05:40.497   02 Jun 2027 06:05:47.975             7.478          3739.000
        48   02 Jun 2027 07:37:52.696   02 Jun 2027 07:37:53.590             0.894           447.000
        49   02 Jun 2027 07:38:10.254   02 Jun 2027 07:38:15.605             5.351          2675.500
        50   02 Jun 2027 07:39:43.787   02 Jun 2027 07:39:46.364             2.577          1288.500
        51   02 Jun 2027 07:40:34.657   02 Jun 2027 07:40:35.319             0.662           331.000
        52   02 Jun 2027 07:40:59.375   02 Jun 2027 07:41:02.603             3.228          1614.000
        53   02 Jun 2027 07:41:25.884   02 Jun 2027 07:41:28.430             2.546          1273.000
        54   02 Jun 2027 09:13:18.249   02 Jun 2027 09:13:22.556             4.307          2153.500
        55   02 Jun 2027 09:14:09.470   02 Jun 2027 09:14:21.601            12.131          6065.500
        56   02 Jun 2027 09:16:01.172   02 Jun 2027 09:16:02.324             1.152           576.000
        57   02 Jun 2027 09:16:38.354   02 Jun 2027 09:16:39.837             1.483           741.500
        58   02 Jun 2027 09:17:41.792   02 Jun 2027 09:17:43.251             1.459           729.500
        59   02 Jun 2027 09:17:50.355   02 Jun 2027 09:17:53.886             3.531          1765.500
        60   02 Jun 2027 09:18:08.405   02 Jun 2027 09:18:12.029             3.624          1812.000
        61   03 Jun 2027 03:00:00.000   03 Jun 2027 03:00:00.180             0.180            90.000
        62   03 Jun 2027 03:00:39.283   03 Jun 2027 03:00:40.884             1.601           800.500
        63   03 Jun 2027 03:01:06.312   03 Jun 2027 03:01:14.419             8.107          4053.500
        64   03 Jun 2027 03:03:39.924   03 Jun 2027 03:03:41.787             1.863           931.500
        65   03 Jun 2027 03:03:47.974   03 Jun 2027 03:03:58.853            10.879          5439.500
        66   03 Jun 2027 04:34:48.430   03 Jun 2027 04:35:08.663            20.233         10116.500
        67   03 Jun 2027 04:35:35.748   03 Jun 2027 04:35:42.691             6.943          3471.500
        68   03 Jun 2027 04:36:36.340   03 Jun 2027 04:36:41.286             4.946          2473.000
        69   03 Jun 2027 04:37:39.733   03 Jun 2027 04:37:50.193            10.460          5230.000
        70   03 Jun 2027 04:38:36.059   03 Jun 2027 04:38:37.100             1.041           520.500
        71   03 Jun 2027 04:38:47.828   03 Jun 2027 04:38:53.987             6.159          3079.500
        72   03 Jun 2027 04:39:19.073   03 Jun 2027 04:39:29.774            10.701          5350.500
        73   03 Jun 2027 04:42:01.228   03 Jun 2027 04:42:09.656             8.428          4214.000
        74   03 Jun 2027 04:42:20.713   03 Jun 2027 04:42:20.881             0.168            84.000
        75   03 Jun 2027 06:11:54.561   03 Jun 2027 06:12:01.392             6.831          3415.500
        76   03 Jun 2027 06:12:53.778   03 Jun 2027 06:12:55.570             1.792           896.000
        77   03 Jun 2027 06:13:49.476   03 Jun 2027 06:14:14.294            24.818         12409.000
        78   03 Jun 2027 06:16:12.595   03 Jun 2027 06:16:16.192             3.597          1798.500
        79   03 Jun 2027 06:16:42.368   03 Jun 2027 06:16:42.583             0.215           107.500
        80   03 Jun 2027 06:16:51.482   03 Jun 2027 06:16:51.678             0.196            98.000
        81   03 Jun 2027 06:17:08.456   03 Jun 2027 06:17:09.991             1.535           767.500
        82   03 Jun 2027 06:17:17.694   03 Jun 2027 06:17:38.081            20.387         10193.500
        83   03 Jun 2027 07:49:50.029   03 Jun 2027 07:49:56.379             6.350          3175.000
        84   03 Jun 2027 07:51:19.512   03 Jun 2027 07:51:24.087             4.575          2287.500
        85   03 Jun 2027 07:51:53.946   03 Jun 2027 07:52:03.030             9.084          4542.000
        86   03 Jun 2027 07:52:55.639   03 Jun 2027 07:52:56.025             0.386           193.000
        87   03 Jun 2027 07:53:13.578   03 Jun 2027 07:53:14.402             0.824           412.000
        88   03 Jun 2027 07:53:22.345   03 Jun 2027 07:53:23.262             0.917           458.500
        89   03 Jun 2027 09:22:55.496   03 Jun 2027 09:23:31.496            36.000         18000.000
        90   03 Jun 2027 09:26:04.852   03 Jun 2027 09:26:08.449             3.597          1798.500
        91   03 Jun 2027 09:26:30.127   03 Jun 2027 09:26:47.275            17.148          8574.000
        92   03 Jun 2027 09:28:02.116   03 Jun 2027 09:28:09.463             7.347          3673.500
        93   03 Jun 2027 09:28:48.629   03 Jun 2027 09:28:52.564             3.935          1967.500
        94   03 Jun 2027 09:29:57.643   03 Jun 2027 09:29:59.566             1.923           961.500
        95   03 Jun 2027 09:30:17.933   03 Jun 2027 09:30:35.227            17.294          8647.000
        96   04 Jun 2027 03:09:36.263   04 Jun 2027 03:09:38.688             2.425          1212.500
        97   04 Jun 2027 03:09:44.037   04 Jun 2027 03:10:00.573            16.536          8268.000
        98   04 Jun 2027 03:11:18.958   04 Jun 2027 03:11:20.799             1.841           920.500
        99   04 Jun 2027 03:11:41.347   04 Jun 2027 03:11:54.052            12.705          6352.500
       100   04 Jun 2027 03:12:47.451   04 Jun 2027 03:12:55.798             8.347          4173.500
       101   04 Jun 2027 03:13:56.085   04 Jun 2027 03:13:56.484             0.399           199.500
       102   04 Jun 2027 03:14:07.814   04 Jun 2027 03:14:08.972             1.158           579.000
       103   04 Jun 2027 03:14:27.458   04 Jun 2027 03:14:31.525             4.067          2033.500
       104   04 Jun 2027 03:14:54.973   04 Jun 2027 03:15:00.640             5.667          2833.500
       105   04 Jun 2027 03:15:58.504   04 Jun 2027 03:16:00.065             1.561           780.500
       106   04 Jun 2027 03:16:14.473   04 Jun 2027 03:16:14.699             0.226           113.000
       107   04 Jun 2027 03:16:42.064   04 Jun 2027 03:16:50.318             8.254          4127.000
       108   04 Jun 2027 03:17:34.838   04 Jun 2027 03:17:34.939             0.101            50.500
       109   04 Jun 2027 03:17:39.689   04 Jun 2027 03:17:41.430             1.741           870.500
       110   04 Jun 2027 04:47:05.932   04 Jun 2027 04:47:10.075             4.143          2071.500
       111   04 Jun 2027 04:47:31.787   04 Jun 2027 04:47:37.199             5.412          2706.000
       112   04 Jun 2027 04:48:11.353   04 Jun 2027 04:48:11.375             0.022            11.000
       113   04 Jun 2027 04:48:17.029   04 Jun 2027 04:48:32.071            15.042          7521.000
       114   04 Jun 2027 04:49:33.293   04 Jun 2027 04:49:40.042             6.749          3374.500
       115   04 Jun 2027 04:50:24.537   04 Jun 2027 04:50:25.844             1.307           653.500
       116   04 Jun 2027 04:50:42.005   04 Jun 2027 04:50:46.714             4.709          2354.500
       117   04 Jun 2027 04:51:03.501   04 Jun 2027 04:51:06.180             2.679          1339.500
       118   04 Jun 2027 04:51:29.100   04 Jun 2027 04:51:48.001            18.901          9450.500
       119   04 Jun 2027 04:53:33.803   04 Jun 2027 04:53:45.591            11.788          5894.000
       120   04 Jun 2027 04:54:24.395   04 Jun 2027 04:54:24.538             0.143            71.500
       121   04 Jun 2027 06:23:50.609   04 Jun 2027 06:24:07.580            16.971          8485.500
       122   04 Jun 2027 06:25:49.459   04 Jun 2027 06:26:21.249            31.790         15895.000
       123   04 Jun 2027 06:28:29.268   04 Jun 2027 06:28:38.904             9.636          4818.000
       124   04 Jun 2027 06:29:08.236   04 Jun 2027 06:29:08.687             0.451           225.500
       125   04 Jun 2027 06:29:09.850   04 Jun 2027 06:29:16.886             7.036          3518.000
       126   04 Jun 2027 06:29:57.649   04 Jun 2027 06:30:03.033             5.384          2692.000
       127   04 Jun 2027 06:30:06.856   04 Jun 2027 06:30:23.948            17.092          8546.000
       128   04 Jun 2027 08:01:49.326   04 Jun 2027 08:01:51.166             1.840           920.000
       129   04 Jun 2027 08:02:11.226   04 Jun 2027 08:02:12.759             1.533           766.500
       130   04 Jun 2027 08:02:27.522   04 Jun 2027 08:02:27.688             0.166            83.000
       131   04 Jun 2027 08:03:12.399   04 Jun 2027 08:03:12.813             0.414           207.000
       132   04 Jun 2027 08:03:29.832   04 Jun 2027 08:03:48.793            18.961          9480.500
       133   04 Jun 2027 08:05:26.062   04 Jun 2027 08:05:38.304            12.242          6121.000
       134   04 Jun 2027 09:35:26.854   04 Jun 2027 09:35:51.479            24.625         12312.500
       135   04 Jun 2027 09:37:50.716   04 Jun 2027 09:37:58.285             7.569          3784.500
       136   04 Jun 2027 09:39:18.056   04 Jun 2027 09:39:20.602             2.546          1273.000
       137   04 Jun 2027 09:39:33.758   04 Jun 2027 09:39:37.260             3.502          1751.000
       138   04 Jun 2027 09:40:05.932   04 Jun 2027 09:40:28.229            22.297         11148.500
       139   04 Jun 2027 09:42:08.749   04 Jun 2027 09:42:10.531             1.782           891.000
       140   05 Jun 2027 03:21:05.198   05 Jun 2027 03:21:07.226             2.028          1014.000
       141   05 Jun 2027 03:21:32.596   05 Jun 2027 03:21:36.025             3.429          1714.500
       142   05 Jun 2027 03:22:09.355   05 Jun 2027 03:22:18.115             8.760          4380.000
       143   05 Jun 2027 03:23:32.262   05 Jun 2027 03:23:33.535             1.273           636.500
       144   05 Jun 2027 03:24:42.169   05 Jun 2027 03:24:55.470            13.301          6650.500
       145   05 Jun 2027 03:25:55.979   05 Jun 2027 03:25:56.699             0.720           360.000
       146   05 Jun 2027 03:26:30.581   05 Jun 2027 03:26:30.784             0.203           101.500
       147   05 Jun 2027 03:26:32.804   05 Jun 2027 03:26:37.715             4.911          2455.500
       148   05 Jun 2027 03:27:05.755   05 Jun 2027 03:27:10.494             4.739          2369.500
       149   05 Jun 2027 03:28:37.163   05 Jun 2027 03:28:41.262             4.099          2049.500
       150   05 Jun 2027 03:29:29.282   05 Jun 2027 03:29:31.916             2.634          1317.000
       151   05 Jun 2027 03:29:55.580   05 Jun 2027 03:30:14.266            18.686          9343.000
       152   05 Jun 2027 04:58:59.732   05 Jun 2027 04:59:01.056             1.324           662.000
       153   05 Jun 2027 04:59:10.938   05 Jun 2027 04:59:20.868             9.930          4965.000
       154   05 Jun 2027 05:00:02.419   05 Jun 2027 05:00:04.442             2.023          1011.500
       155   05 Jun 2027 05:00:22.734   05 Jun 2027 05:00:29.485             6.751          3375.500
       156   05 Jun 2027 05:00:59.456   05 Jun 2027 05:01:24.739            25.283         12641.500
       157   05 Jun 2027 05:04:02.450   05 Jun 2027 05:04:04.402             1.952           976.000
       158   05 Jun 2027 05:04:49.664   05 Jun 2027 05:04:55.547             5.883          2941.500
       159   05 Jun 2027 05:05:46.683   05 Jun 2027 05:05:48.097             1.414           707.000
       160   05 Jun 2027 05:05:53.765   05 Jun 2027 05:05:54.123             0.358           179.000
       161   05 Jun 2027 06:35:43.911   05 Jun 2027 06:35:47.282             3.371          1685.500
       162   05 Jun 2027 06:36:01.157   05 Jun 2027 06:36:06.677             5.520          2760.000
       163   05 Jun 2027 06:36:36.854   05 Jun 2027 06:36:41.590             4.736          2368.000
       164   05 Jun 2027 06:37:06.754   05 Jun 2027 06:37:35.404            28.650         14325.000
       165   05 Jun 2027 06:39:57.350   05 Jun 2027 06:39:58.234             0.884           442.000
       166   05 Jun 2027 06:40:59.366   05 Jun 2027 06:41:18.271            18.905          9452.500
       167   05 Jun 2027 08:13:37.439   05 Jun 2027 08:13:45.937             8.498          4249.000
       168   05 Jun 2027 08:14:58.060   05 Jun 2027 08:15:10.164            12.104          6052.000
       169   05 Jun 2027 08:16:00.966   05 Jun 2027 08:16:06.161             5.195          2597.500
       170   05 Jun 2027 08:17:17.857   05 Jun 2027 08:17:24.126             6.269          3134.500
       171   05 Jun 2027 09:49:35.332   05 Jun 2027 09:49:40.812             5.480          2740.000
       172   05 Jun 2027 09:50:21.747   05 Jun 2027 09:50:39.335            17.588          8794.000
       173   05 Jun 2027 09:52:02.626   05 Jun 2027 09:52:10.634             8.008          4004.000
       174   05 Jun 2027 09:52:27.418   05 Jun 2027 09:52:29.109             1.691           845.500
       175   05 Jun 2027 09:52:56.065   05 Jun 2027 09:52:56.270             0.205           102.500
       176   05 Jun 2027 09:53:07.543   05 Jun 2027 09:53:15.927             8.384          4192.000
       177   06 Jun 2027 03:33:58.207   06 Jun 2027 03:34:11.383            13.176          6588.000
       178   06 Jun 2027 03:35:13.666   06 Jun 2027 03:35:25.952            12.286          6143.000
       179   06 Jun 2027 03:36:16.900   06 Jun 2027 03:36:17.017             0.117            58.500
       180   06 Jun 2027 03:37:03.812   06 Jun 2027 03:37:05.211             1.399           699.500
       181   06 Jun 2027 03:37:41.524   06 Jun 2027 03:37:43.453             1.929           964.500
       182   06 Jun 2027 03:38:03.981   06 Jun 2027 03:38:07.715             3.734          1867.000
       183   06 Jun 2027 03:38:39.461   06 Jun 2027 03:38:40.917             1.456           728.000
       184   06 Jun 2027 03:39:11.326   06 Jun 2027 03:39:12.978             1.652           826.000
       185   06 Jun 2027 03:39:18.421   06 Jun 2027 03:39:20.472             2.051          1025.500
       186   06 Jun 2027 03:39:52.073   06 Jun 2027 03:40:00.510             8.437          4218.500
       187   06 Jun 2027 03:40:41.790   06 Jun 2027 03:40:42.354             0.564           282.000
       188   06 Jun 2027 03:41:06.921   06 Jun 2027 03:41:14.702             7.781          3890.500
       189   06 Jun 2027 03:41:23.278   06 Jun 2027 03:41:23.432             0.154            77.000
       190   06 Jun 2027 03:41:37.913   06 Jun 2027 03:41:38.722             0.809           404.500
       191   06 Jun 2027 03:42:00.053   06 Jun 2027 03:42:11.229            11.176          5588.000
       192   06 Jun 2027 03:42:28.351   06 Jun 2027 03:42:28.875             0.524           262.000
       193   06 Jun 2027 05:11:08.397   06 Jun 2027 05:11:30.386            21.989         10994.500
       194   06 Jun 2027 05:12:49.957   06 Jun 2027 05:13:03.407            13.450          6725.000
       195   06 Jun 2027 05:14:08.314   06 Jun 2027 05:14:16.927             8.613          4306.500
       196   06 Jun 2027 05:14:52.687   06 Jun 2027 05:15:00.499             7.812          3906.000
       197   06 Jun 2027 05:16:01.810   06 Jun 2027 05:16:05.111             3.301          1650.500
       198   06 Jun 2027 05:16:23.261   06 Jun 2027 05:16:32.222             8.961          4480.500
       199   06 Jun 2027 05:17:55.663   06 Jun 2027 05:17:59.208             3.545          1772.500
       200   06 Jun 2027 06:48:22.619   06 Jun 2027 06:48:24.098             1.479           739.500
       201   06 Jun 2027 06:49:34.737   06 Jun 2027 06:49:39.862             5.125          2562.500
       202   06 Jun 2027 06:49:48.551   06 Jun 2027 06:49:57.520             8.969          4484.500
       203   06 Jun 2027 06:50:45.866   06 Jun 2027 06:50:46.103             0.237           118.500
       204   06 Jun 2027 06:51:46.900   06 Jun 2027 06:51:47.307             0.407           203.500
       205   06 Jun 2027 06:51:54.687   06 Jun 2027 06:51:56.014             1.327           663.500
       206   06 Jun 2027 06:52:02.069   06 Jun 2027 06:52:03.067             0.998           499.000
       207   06 Jun 2027 06:52:39.992   06 Jun 2027 06:52:41.847             1.855           927.500
       208   06 Jun 2027 06:53:03.135   06 Jun 2027 06:53:11.417             8.282          4141.000
       209   06 Jun 2027 06:53:50.669   06 Jun 2027 06:53:56.016             5.347          2673.500
       210   06 Jun 2027 08:25:03.300   06 Jun 2027 08:25:03.686             0.386           193.000
       211   06 Jun 2027 08:25:08.507   06 Jun 2027 08:25:15.045             6.538          3269.000
       212   06 Jun 2027 08:25:36.898   06 Jun 2027 08:25:44.085             7.187          3593.500
       213   06 Jun 2027 08:26:24.961   06 Jun 2027 08:26:47.837            22.876         11438.000
       214   06 Jun 2027 08:29:26.069   06 Jun 2027 08:29:28.548             2.479          1239.500
       215   06 Jun 2027 10:00:15.965   06 Jun 2027 10:00:27.267            11.302          5651.000
       216   06 Jun 2027 10:02:01.554   06 Jun 2027 10:02:05.636             4.082          2041.000
       217   06 Jun 2027 10:03:20.919   06 Jun 2027 10:03:22.843             1.924           962.000
       218   06 Jun 2027 10:04:03.287   06 Jun 2027 10:04:21.009            17.722          8861.000
       219   07 Jun 2027 03:46:25.068   07 Jun 2027 03:46:26.709             1.641           820.500
       220   07 Jun 2027 03:46:58.113   07 Jun 2027 03:47:05.380             7.267          3633.500
       221   07 Jun 2027 03:47:46.458   07 Jun 2027 03:48:04.321            17.863          8931.500
       222   07 Jun 2027 03:49:29.279   07 Jun 2027 03:49:34.136             4.857          2428.500
       223   07 Jun 2027 03:50:01.202   07 Jun 2027 03:50:04.236             3.034          1517.000
       224   07 Jun 2027 03:50:33.034   07 Jun 2027 03:50:35.674             2.640          1320.000
       225   07 Jun 2027 03:51:05.368   07 Jun 2027 03:51:06.019             0.651           325.500
       226   07 Jun 2027 03:51:14.815   07 Jun 2027 03:51:16.140             1.325           662.500
       227   07 Jun 2027 03:52:38.989   07 Jun 2027 03:52:43.252             4.263          2131.500
       228   07 Jun 2027 03:53:02.108   07 Jun 2027 03:53:07.355             5.247          2623.500
       229   07 Jun 2027 03:53:19.017   07 Jun 2027 03:53:19.017             0.000             0.000
       230   07 Jun 2027 03:53:43.192   07 Jun 2027 03:53:53.313            10.121          5060.500
       231   07 Jun 2027 05:23:32.871   07 Jun 2027 05:23:34.392             1.521           760.500
       232   07 Jun 2027 05:23:37.156   07 Jun 2027 05:23:47.538            10.382          5191.000
       233   07 Jun 2027 05:24:11.784   07 Jun 2027 05:24:24.198            12.414          6207.000
       234   07 Jun 2027 05:25:30.940   07 Jun 2027 05:25:35.008             4.068          2034.000
       235   07 Jun 2027 05:25:55.770   07 Jun 2027 05:26:23.087            27.317         13658.500
       236   07 Jun 2027 05:28:23.699   07 Jun 2027 05:28:23.702             0.003             1.500
       237   07 Jun 2027 05:28:46.568   07 Jun 2027 05:28:48.415             1.847           923.500
       238   07 Jun 2027 05:29:15.556   07 Jun 2027 05:29:19.964             4.408          2204.000
       239   07 Jun 2027 05:29:52.430   07 Jun 2027 05:29:58.579             6.149          3074.500
       240   07 Jun 2027 07:00:30.769   07 Jun 2027 07:00:30.897             0.128            64.000
       241   07 Jun 2027 07:00:50.849   07 Jun 2027 07:01:21.249            30.400         15200.000
       242   07 Jun 2027 07:03:34.044   07 Jun 2027 07:03:35.150             1.106           553.000
       243   07 Jun 2027 07:03:47.497   07 Jun 2027 07:03:48.851             1.354           677.000
       244   07 Jun 2027 07:03:55.898   07 Jun 2027 07:03:55.956             0.058            29.000
       245   07 Jun 2027 07:05:07.781   07 Jun 2027 07:05:08.982             1.201           600.500
       246   07 Jun 2027 07:05:15.375   07 Jun 2027 07:05:17.037             1.662           831.000
       247   07 Jun 2027 08:37:18.024   07 Jun 2027 08:37:25.531             7.507          3753.500
       248   07 Jun 2027 08:38:43.827   07 Jun 2027 08:38:47.167             3.340          1670.000
       249   07 Jun 2027 08:39:01.987   07 Jun 2027 08:39:02.065             0.078            39.000
       250   07 Jun 2027 08:39:07.386   07 Jun 2027 08:39:12.870             5.484          2742.000
       251   07 Jun 2027 08:39:54.696   07 Jun 2027 08:40:05.142            10.446          5223.000
       252   07 Jun 2027 08:41:15.749   07 Jun 2027 08:41:30.597            14.848          7424.000
       253   07 Jun 2027 10:15:28.465   07 Jun 2027 10:15:32.629             4.164          2082.000
       254   07 Jun 2027 10:16:22.971   07 Jun 2027 10:16:29.042             6.071          3035.500
       255   08 Jun 2027 03:59:37.879   08 Jun 2027 03:59:42.649             4.770          2385.000
       256   08 Jun 2027 04:00:06.239   08 Jun 2027 04:00:08.260             2.021          1010.500
       257   08 Jun 2027 04:00:32.148   08 Jun 2027 04:00:50.851            18.703          9351.500
       258   08 Jun 2027 04:01:41.730   08 Jun 2027 04:01:41.730             0.000             0.000
       259   08 Jun 2027 04:02:05.159   08 Jun 2027 04:02:05.159             0.000             0.000
       260   08 Jun 2027 04:02:07.089   08 Jun 2027 04:02:08.028             0.939           469.500
       261   08 Jun 2027 04:02:20.147   08 Jun 2027 04:02:21.284             1.137           568.500
       262   08 Jun 2027 04:02:45.156   08 Jun 2027 04:02:51.052             5.896          2948.000
       263   08 Jun 2027 04:03:17.339   08 Jun 2027 04:03:25.418             8.079          4039.500
       264   08 Jun 2027 04:03:50.774   08 Jun 2027 04:04:03.259            12.485          6242.500
       265   08 Jun 2027 04:04:58.823   08 Jun 2027 04:05:06.403             7.580          3790.000
       266   08 Jun 2027 04:06:01.147   08 Jun 2027 04:06:10.035             8.888          4444.000
       267   08 Jun 2027 04:06:18.770   08 Jun 2027 04:06:26.119             7.349          3674.500
       268   08 Jun 2027 05:35:58.395   08 Jun 2027 05:36:07.273             8.878          4439.000
       269   08 Jun 2027 05:36:36.687   08 Jun 2027 05:36:49.853            13.166          6583.000
       270   08 Jun 2027 05:37:57.733   08 Jun 2027 05:38:07.347             9.614          4807.000
       271   08 Jun 2027 05:38:45.967   08 Jun 2027 05:38:55.233             9.266          4633.000
       272   08 Jun 2027 05:39:44.032   08 Jun 2027 05:39:44.092             0.060            30.000
       273   08 Jun 2027 05:40:27.851   08 Jun 2027 05:40:31.824             3.973          1986.500
       274   08 Jun 2027 05:41:18.441   08 Jun 2027 05:41:21.856             3.415          1707.500
       275   08 Jun 2027 05:41:48.776   08 Jun 2027 05:41:54.034             5.258          2629.000
       276   08 Jun 2027 07:13:32.438   08 Jun 2027 07:13:33.953             1.515           757.500
       277   08 Jun 2027 07:14:03.073   08 Jun 2027 07:14:21.275            18.202          9101.000
       278   08 Jun 2027 07:16:01.292   08 Jun 2027 07:16:02.889             1.597           798.500
       279   08 Jun 2027 07:16:47.503   08 Jun 2027 07:16:52.943             5.440          2720.000
       280   08 Jun 2027 07:17:16.845   08 Jun 2027 07:17:18.110             1.265           632.500
       281   08 Jun 2027 07:17:30.683   08 Jun 2027 07:17:32.010             1.327           663.500
       282   08 Jun 2027 07:17:45.935   08 Jun 2027 07:17:46.923             0.988           494.000
       283   08 Jun 2027 08:49:35.805   08 Jun 2027 08:49:41.915             6.110          3055.000
       284   08 Jun 2027 08:49:53.395   08 Jun 2027 08:49:58.169             4.774          2387.000
       285   08 Jun 2027 08:50:56.052   08 Jun 2027 08:51:01.972             5.920          2960.000
       286   08 Jun 2027 08:52:17.252   08 Jun 2027 08:52:18.480             1.228           614.000
       287   08 Jun 2027 08:53:14.814   08 Jun 2027 08:53:24.279             9.465          4732.500
       288   09 Jun 2027 04:11:49.842   09 Jun 2027 04:11:51.796             1.954           977.000
       289   09 Jun 2027 04:12:04.587   09 Jun 2027 04:12:04.927             0.340           170.000
       290   09 Jun 2027 04:12:11.410   09 Jun 2027 04:12:20.566             9.156          4578.000
       291   09 Jun 2027 04:13:01.103   09 Jun 2027 04:13:12.100            10.997          5498.500
       292   09 Jun 2027 04:13:21.818   09 Jun 2027 04:13:22.759             0.941           470.500
       293   09 Jun 2027 04:14:02.660   09 Jun 2027 04:14:05.525             2.865          1432.500
       294   09 Jun 2027 04:14:26.551   09 Jun 2027 04:14:27.685             1.134           567.000
       295   09 Jun 2027 04:15:08.171   09 Jun 2027 04:15:08.648             0.477           238.500
       296   09 Jun 2027 04:16:11.102   09 Jun 2027 04:16:27.067            15.965          7982.500
       297   09 Jun 2027 04:18:03.978   09 Jun 2027 04:18:04.100             0.122            61.000
       298   09 Jun 2027 05:48:08.473   09 Jun 2027 05:48:28.709            20.236         10118.000
       299   09 Jun 2027 05:49:54.789   09 Jun 2027 05:50:01.516             6.727          3363.500
       300   09 Jun 2027 05:50:38.283   09 Jun 2027 05:50:42.334             4.051          2025.500
       301   09 Jun 2027 05:51:15.845   09 Jun 2027 05:51:21.640             5.795          2897.500
       302   09 Jun 2027 05:51:55.848   09 Jun 2027 05:51:56.422             0.574           287.000
       303   09 Jun 2027 05:52:00.528   09 Jun 2027 05:52:04.039             3.511          1755.500
       304   09 Jun 2027 05:52:23.737   09 Jun 2027 05:52:33.649             9.912          4956.000
       305   09 Jun 2027 05:53:24.012   09 Jun 2027 05:53:28.548             4.536          2268.000
       306   09 Jun 2027 05:54:01.511   09 Jun 2027 05:54:12.878            11.367          5683.500
       307   09 Jun 2027 07:25:36.433   09 Jun 2027 07:25:44.022             7.589          3794.500
       308   09 Jun 2027 07:26:14.750   09 Jun 2027 07:26:19.891             5.141          2570.500
       309   09 Jun 2027 07:27:12.254   09 Jun 2027 07:27:21.707             9.453          4726.500
       310   09 Jun 2027 07:28:02.653   09 Jun 2027 07:28:05.836             3.183          1591.500
       311   09 Jun 2027 07:28:21.347   09 Jun 2027 07:28:26.255             4.908          2454.000
       312   09 Jun 2027 07:28:57.370   09 Jun 2027 07:28:59.073             1.703           851.500
       313   09 Jun 2027 07:29:12.333   09 Jun 2027 07:29:15.000             2.667          1333.500
       314   09 Jun 2027 07:29:31.389   09 Jun 2027 07:29:35.680             4.291          2145.500
       315   09 Jun 2027 07:29:53.533   09 Jun 2027 07:30:08.999            15.466          7733.000
       316   09 Jun 2027 09:01:39.903   09 Jun 2027 09:01:52.640            12.737          6368.500
       317   09 Jun 2027 09:02:49.009   09 Jun 2027 09:02:53.093             4.084          2042.000
       318   09 Jun 2027 09:03:26.608   09 Jun 2027 09:03:28.602             1.994           997.000
       319   09 Jun 2027 09:03:40.109   09 Jun 2027 09:03:44.914             4.805          2402.500
       320   09 Jun 2027 09:04:13.537   09 Jun 2027 09:04:16.967             3.430          1715.000
       321   09 Jun 2027 09:04:47.129   09 Jun 2027 09:05:04.533            17.404          8702.000
       322   09 Jun 2027 09:06:16.838   09 Jun 2027 09:06:17.062             0.224           112.000
       323   10 Jun 2027 04:23:18.857   10 Jun 2027 04:23:34.357            15.500          7750.000
       324   10 Jun 2027 04:24:09.190   10 Jun 2027 04:24:09.430             0.240           120.000
       325   10 Jun 2027 04:24:56.395   10 Jun 2027 04:24:58.978             2.583          1291.500
       326   10 Jun 2027 04:25:21.387   10 Jun 2027 04:25:25.112             3.725          1862.500
       327   10 Jun 2027 04:25:42.612   10 Jun 2027 04:25:48.482             5.870          2935.000
       328   10 Jun 2027 04:26:36.378   10 Jun 2027 04:26:40.518             4.140          2070.000
       329   10 Jun 2027 04:26:57.376   10 Jun 2027 04:26:59.400             2.024          1012.000
       330   10 Jun 2027 04:27:14.225   10 Jun 2027 04:27:24.269            10.044          5022.000
       331   10 Jun 2027 04:28:39.763   10 Jun 2027 04:28:41.568             1.805           902.500
       332   10 Jun 2027 04:28:50.077   10 Jun 2027 04:28:50.228             0.151            75.500
       333   10 Jun 2027 04:30:25.462   10 Jun 2027 04:30:35.002             9.540          4770.000
       334   10 Jun 2027 05:59:49.316   10 Jun 2027 05:59:51.914             2.598          1299.000
       335   10 Jun 2027 06:00:58.274   10 Jun 2027 06:01:17.472            19.198          9599.000
       336   10 Jun 2027 06:02:44.406   10 Jun 2027 06:02:54.721            10.315          5157.500
       337   10 Jun 2027 06:03:10.566   10 Jun 2027 06:03:18.396             7.830          3915.000
       338   10 Jun 2027 06:04:27.384   10 Jun 2027 06:04:35.699             8.315          4157.500
       339   10 Jun 2027 06:04:53.318   10 Jun 2027 06:05:03.529            10.211          5105.500
       340   10 Jun 2027 06:06:05.774   10 Jun 2027 06:06:13.331             7.557          3778.500
       341   10 Jun 2027 07:38:07.467   10 Jun 2027 07:38:09.539             2.072          1036.000
       342   10 Jun 2027 07:38:25.478   10 Jun 2027 07:38:32.194             6.716          3358.000
       343   10 Jun 2027 07:38:40.550   10 Jun 2027 07:38:41.368             0.818           409.000
       344   10 Jun 2027 07:39:31.099   10 Jun 2027 07:39:38.306             7.207          3603.500
       345   10 Jun 2027 07:40:28.058   10 Jun 2027 07:40:28.534             0.476           238.000
       346   10 Jun 2027 07:41:14.575   10 Jun 2027 07:41:17.223             2.648          1324.000
       347   10 Jun 2027 07:41:40.942   10 Jun 2027 07:41:45.245             4.303          2151.500
       348   10 Jun 2027 09:13:32.694   10 Jun 2027 09:13:34.472             1.778           889.000
       349   10 Jun 2027 09:13:47.814   10 Jun 2027 09:14:24.418            36.604         18302.000
       350   10 Jun 2027 09:16:56.627   10 Jun 2027 09:17:05.289             8.662          4331.000
       351   10 Jun 2027 09:17:58.586   10 Jun 2027 09:18:07.129             8.543          4271.500
       352   10 Jun 2027 09:18:43.693   10 Jun 2027 09:18:50.999             7.306          3653.000
       353   11 Jun 2027 03:00:11.323   11 Jun 2027 03:00:16.050             4.727          2363.500
       354   11 Jun 2027 03:00:54.526   11 Jun 2027 03:00:56.014             1.488           744.000
       355   11 Jun 2027 03:01:20.786   11 Jun 2027 03:01:29.810             9.024          4512.000
       356   11 Jun 2027 03:03:56.361   11 Jun 2027 03:03:58.977             2.616          1308.000
       357   11 Jun 2027 03:04:44.627   11 Jun 2027 03:04:45.844             1.217           608.500
       358   11 Jun 2027 04:35:03.157   11 Jun 2027 04:35:27.667            24.510         12255.000
       359   11 Jun 2027 04:37:08.403   11 Jun 2027 04:37:12.983             4.580          2290.000
       360   11 Jun 2027 04:37:57.166   11 Jun 2027 04:38:15.812            18.646          9323.000
       361   11 Jun 2027 04:39:34.118   11 Jun 2027 04:39:35.137             1.019           509.500
       362   11 Jun 2027 04:40:28.066   11 Jun 2027 04:40:30.997             2.931          1465.500
       363   11 Jun 2027 04:41:08.678   11 Jun 2027 04:41:11.098             2.420          1210.000
       364   11 Jun 2027 04:41:29.082   11 Jun 2027 04:41:41.193            12.111          6055.500
       365   11 Jun 2027 06:12:09.189   11 Jun 2027 06:12:10.501             1.312           656.000
       366   11 Jun 2027 06:12:16.526   11 Jun 2027 06:12:45.531            29.005         14502.500
       367   11 Jun 2027 06:15:07.068   11 Jun 2027 06:15:11.725             4.657          2328.500
       368   11 Jun 2027 06:15:58.764   11 Jun 2027 06:16:01.251             2.487          1243.500
       369   11 Jun 2027 06:16:31.846   11 Jun 2027 06:16:40.164             8.318          4159.000
       370   11 Jun 2027 06:17:24.843   11 Jun 2027 06:17:30.133             5.290          2645.000
       371   11 Jun 2027 06:17:59.804   11 Jun 2027 06:18:12.976            13.172          6586.000
       372   11 Jun 2027 07:50:04.725   11 Jun 2027 07:50:11.422             6.697          3348.500
       373   11 Jun 2027 07:51:35.390   11 Jun 2027 07:51:38.935             3.545          1772.500
       374   11 Jun 2027 07:52:07.968   11 Jun 2027 07:52:17.806             9.838          4919.000
       375   11 Jun 2027 07:53:12.371   11 Jun 2027 07:53:14.505             2.134          1067.000
       376   11 Jun 2027 07:53:44.654   11 Jun 2027 07:53:55.384            10.730          5365.000
       377   11 Jun 2027 09:23:10.482   11 Jun 2027 09:23:46.289            35.807         17903.500
       378   11 Jun 2027 09:26:19.369   11 Jun 2027 09:26:23.458             4.089          2044.500
       379   11 Jun 2027 09:26:44.486   11 Jun 2027 09:27:03.511            19.025          9512.500
       380   11 Jun 2027 09:28:58.603   11 Jun 2027 09:28:59.435             0.832           416.000
       381   11 Jun 2027 09:29:23.205   11 Jun 2027 09:29:24.574             1.369           684.500
       382   11 Jun 2027 09:30:12.321   11 Jun 2027 09:30:15.609             3.288          1644.000
       383   11 Jun 2027 09:30:33.491   11 Jun 2027 09:30:50.354            16.863          8431.500
       384   12 Jun 2027 03:09:50.420   12 Jun 2027 03:09:53.657             3.237          1618.500
       385   12 Jun 2027 03:10:22.808   12 Jun 2027 03:10:23.873             1.065           532.500
       386   12 Jun 2027 03:10:48.655   12 Jun 2027 03:11:01.177            12.522          6261.000
       387   12 Jun 2027 03:11:55.837   12 Jun 2027 03:11:57.136             1.299           649.500
       388   12 Jun 2027 03:12:24.867   12 Jun 2027 03:12:26.588             1.721           860.500
       389   12 Jun 2027 03:12:36.285   12 Jun 2027 03:12:49.186            12.901          6450.500
       390   12 Jun 2027 03:14:12.313   12 Jun 2027 03:14:12.526             0.213           106.500
       391   12 Jun 2027 03:14:29.284   12 Jun 2027 03:14:36.355             7.071          3535.500
       392   12 Jun 2027 03:15:15.391   12 Jun 2027 03:15:20.050             4.659          2329.500
       393   12 Jun 2027 03:16:14.714   12 Jun 2027 03:16:14.866             0.152            76.000
       394   12 Jun 2027 03:16:16.499   12 Jun 2027 03:16:20.155             3.656          1828.000
       395   12 Jun 2027 03:16:51.847   12 Jun 2027 03:16:52.980             1.133           566.500
       396   12 Jun 2027 03:17:52.066   12 Jun 2027 03:17:55.380             3.314          1657.000
       397   12 Jun 2027 04:47:20.427   12 Jun 2027 04:47:25.987             5.560          2780.000
       398   12 Jun 2027 04:47:47.093   12 Jun 2027 04:47:51.599             4.506          2253.000
       399   12 Jun 2027 04:48:24.995   12 Jun 2027 04:48:28.164             3.169          1584.500
       400   12 Jun 2027 04:48:47.030   12 Jun 2027 04:48:55.177             8.147          4073.500
       401   12 Jun 2027 04:49:28.624   12 Jun 2027 04:49:40.929            12.305          6152.500
       402   12 Jun 2027 04:51:21.702   12 Jun 2027 04:51:23.218             1.516           758.000
       403   12 Jun 2027 04:51:30.826   12 Jun 2027 04:51:32.551             1.725           862.500
       404   12 Jun 2027 04:52:02.214   12 Jun 2027 04:52:15.881            13.667          6833.500
       405   12 Jun 2027 04:53:24.573   12 Jun 2027 04:53:30.606             6.033          3016.500
       406   12 Jun 2027 04:54:03.050   12 Jun 2027 04:54:19.159            16.109          8054.500
       407   12 Jun 2027 06:24:05.192   12 Jun 2027 06:24:22.791            17.599          8799.500
       408   12 Jun 2027 06:26:04.068   12 Jun 2027 06:26:37.131            33.063         16531.500
       409   12 Jun 2027 06:29:16.916   12 Jun 2027 06:29:18.966             2.050          1025.000
       410   12 Jun 2027 06:29:35.895   12 Jun 2027 06:29:43.430             7.535          3767.500
       411   12 Jun 2027 08:02:03.970   12 Jun 2027 08:02:06.241             2.271          1135.500
       412   12 Jun 2027 08:02:27.736   12 Jun 2027 08:02:28.035             0.299           149.500
       413   12 Jun 2027 08:02:43.733   12 Jun 2027 08:02:43.750             0.017             8.500
       414   12 Jun 2027 08:03:18.482   12 Jun 2027 08:03:27.660             9.178          4589.000
       415   12 Jun 2027 08:04:06.559   12 Jun 2027 08:04:17.448            10.889          5444.500
       416   12 Jun 2027 08:05:06.609   12 Jun 2027 08:05:06.867             0.258           129.000
       417   12 Jun 2027 08:05:16.755   12 Jun 2027 08:05:27.419            10.664          5332.000
       418   12 Jun 2027 09:35:41.484   12 Jun 2027 09:35:43.595             2.111          1055.500
       419   12 Jun 2027 09:36:06.143   12 Jun 2027 09:36:13.877             7.734          3867.000
       420   12 Jun 2027 09:37:13.104   12 Jun 2027 09:37:34.209            21.105         10552.500
       421   12 Jun 2027 09:39:30.898   12 Jun 2027 09:39:35.259             4.361          2180.500
       422   12 Jun 2027 09:40:16.878   12 Jun 2027 09:40:25.085             8.207          4103.500
       423   12 Jun 2027 09:41:06.760   12 Jun 2027 09:41:09.621             2.861          1430.500
       424   12 Jun 2027 09:41:24.170   12 Jun 2027 09:41:34.246            10.076          5038.000
       425   12 Jun 2027 09:42:23.977   12 Jun 2027 09:42:25.834             1.857           928.500
       426   13 Jun 2027 03:21:19.628   13 Jun 2027 03:21:22.321             2.693          1346.500
       427   13 Jun 2027 03:21:48.259   13 Jun 2027 03:21:50.544             2.285          1142.500
       428   13 Jun 2027 03:22:00.145   13 Jun 2027 03:22:25.472            25.327         12663.500
       429   13 Jun 2027 03:24:02.729   13 Jun 2027 03:24:06.648             3.919          1959.500
       430   13 Jun 2027 03:24:31.608   13 Jun 2027 03:24:34.235             2.627          1313.500
       431   13 Jun 2027 03:24:45.364   13 Jun 2027 03:24:54.824             9.460          4730.000
       432   13 Jun 2027 03:24:57.340   13 Jun 2027 03:24:57.406             0.066            33.000
       433   13 Jun 2027 03:25:42.434   13 Jun 2027 03:25:51.376             8.942          4471.000
       434   13 Jun 2027 03:26:44.497   13 Jun 2027 03:26:45.849             1.352           676.000
       435   13 Jun 2027 03:26:53.934   13 Jun 2027 03:26:54.662             0.728           364.000
       436   13 Jun 2027 03:27:22.532   13 Jun 2027 03:27:27.529             4.997          2498.500
       437   13 Jun 2027 03:28:53.493   13 Jun 2027 03:28:56.281             2.788          1394.000
       438   13 Jun 2027 03:29:43.948   13 Jun 2027 03:29:45.860             1.912           956.000
       439   13 Jun 2027 03:29:57.405   13 Jun 2027 03:30:07.426            10.021          5010.500
       440   13 Jun 2027 04:59:14.417   13 Jun 2027 04:59:14.613             0.196            98.000
       441   13 Jun 2027 04:59:36.597   13 Jun 2027 04:59:49.678            13.081          6540.500
       442   13 Jun 2027 05:00:18.964   13 Jun 2027 05:00:21.478             2.514          1257.000
       443   13 Jun 2027 05:01:14.515   13 Jun 2027 05:01:39.229            24.714         12357.000
       444   13 Jun 2027 05:04:18.913   13 Jun 2027 05:04:20.631             1.718           859.000
       445   13 Jun 2027 05:04:30.017   13 Jun 2027 05:04:33.888             3.871          1935.500
       446   13 Jun 2027 05:05:03.855   13 Jun 2027 05:05:04.371             0.516           258.000
       447   13 Jun 2027 05:06:13.230   13 Jun 2027 05:06:13.558             0.328           164.000
       448   13 Jun 2027 06:35:58.841   13 Jun 2027 06:36:01.377             2.536          1268.000
       449   13 Jun 2027 06:36:17.136   13 Jun 2027 06:36:23.040             5.904          2952.000
       450   13 Jun 2027 06:36:52.737   13 Jun 2027 06:36:56.300             3.563          1781.500
       451   13 Jun 2027 06:37:24.047   13 Jun 2027 06:37:48.025            23.978         11989.000
       452   13 Jun 2027 06:39:36.634   13 Jun 2027 06:39:38.933             2.299          1149.500
       453   13 Jun 2027 06:39:42.957   13 Jun 2027 06:39:42.957             0.000             0.000
       454   13 Jun 2027 06:40:12.825   13 Jun 2027 06:40:12.861             0.036            18.000
       455   13 Jun 2027 06:40:14.551   13 Jun 2027 06:40:17.777             3.226          1613.000
       456   13 Jun 2027 06:40:46.936   13 Jun 2027 06:40:47.792             0.856           428.000
       457   13 Jun 2027 06:41:12.263   13 Jun 2027 06:41:13.400             1.137           568.500
       458   13 Jun 2027 06:41:34.981   13 Jun 2027 06:41:35.347             0.366           183.000
       459   13 Jun 2027 06:42:01.301   13 Jun 2027 06:42:15.651            14.350          7175.000
       460   13 Jun 2027 08:13:51.997   13 Jun 2027 08:14:00.809             8.812          4406.000
       461   13 Jun 2027 08:14:37.735   13 Jun 2027 08:14:54.596            16.861          8430.500
       462   13 Jun 2027 08:16:12.997   13 Jun 2027 08:16:20.479             7.482          3741.000
       463   13 Jun 2027 08:17:32.584   13 Jun 2027 08:17:39.439             6.855          3427.500
       464   13 Jun 2027 09:49:50.003   13 Jun 2027 09:50:04.659            14.656          7328.000
       465   13 Jun 2027 09:51:52.310   13 Jun 2027 09:52:17.278            24.968         12484.000
