uniorb/output/strategy_2/Camera/Camera_KinoSat_110106.txt

KinoSat_110106
-------------------------
    Access    *     Start Time (UTCG)     *     Stop Time (UTCG)  *   Duration (s) *   Data (Mbytes)
         1   01 Jun 2027 03:57:03.768   01 Jun 2027 03:57:17.941            14.173          7086.500
         2   01 Jun 2027 03:58:15.391   01 Jun 2027 03:58:17.199             1.808           904.000
         3   01 Jun 2027 03:58:19.444   01 Jun 2027 03:58:26.676             7.232          3616.000
         4   01 Jun 2027 03:58:44.187   01 Jun 2027 03:58:51.849             7.662          3831.000
         5   01 Jun 2027 04:00:20.508   01 Jun 2027 04:00:21.312             0.804           402.000
         6   01 Jun 2027 04:00:30.832   01 Jun 2027 04:00:38.103             7.271          3635.500
         7   01 Jun 2027 04:01:20.931   01 Jun 2027 04:01:27.209             6.278          3139.000
         8   01 Jun 2027 04:02:02.766   01 Jun 2027 04:02:07.385             4.619          2309.500
         9   01 Jun 2027 04:02:29.136   01 Jun 2027 04:02:51.269            22.133         11066.500
        10   01 Jun 2027 05:35:20.218   01 Jun 2027 05:35:34.365            14.147          7073.500
        11   01 Jun 2027 05:36:31.718   01 Jun 2027 05:36:32.119             0.401           200.500
        12   01 Jun 2027 05:36:39.674   01 Jun 2027 05:36:43.180             3.506          1753.000
        13   01 Jun 2027 05:37:01.192   01 Jun 2027 05:37:02.594             1.402           701.000
        14   01 Jun 2027 05:37:27.629   01 Jun 2027 05:37:31.882             4.253          2126.500
        15   01 Jun 2027 05:38:13.824   01 Jun 2027 05:38:33.246            19.422          9711.000
        16   01 Jun 2027 07:10:43.462   01 Jun 2027 07:10:50.011             6.549          3274.500
        17   01 Jun 2027 07:11:36.794   01 Jun 2027 07:11:43.686             6.892          3446.000
        18   01 Jun 2027 07:12:33.829   01 Jun 2027 07:12:34.539             0.710           355.000
        19   01 Jun 2027 07:12:56.290   01 Jun 2027 07:13:06.155             9.865          4932.500
        20   01 Jun 2027 07:13:46.067   01 Jun 2027 07:13:54.153             8.086          4043.000
        21   01 Jun 2027 07:14:34.245   01 Jun 2027 07:14:35.020             0.775           387.500
        22   01 Jun 2027 07:15:11.561   01 Jun 2027 07:15:17.028             5.467          2733.500
        23   01 Jun 2027 07:15:41.321   01 Jun 2027 07:15:42.666             1.345           672.500
        24   02 Jun 2027 04:09:23.281   02 Jun 2027 04:09:31.142             7.861          3930.500
        25   02 Jun 2027 04:10:09.603   02 Jun 2027 04:10:18.155             8.552          4276.000
        26   02 Jun 2027 04:11:12.140   02 Jun 2027 04:11:14.257             2.117          1058.500
        27   02 Jun 2027 04:11:45.820   02 Jun 2027 04:11:46.663             0.843           421.500
        28   02 Jun 2027 04:11:53.899   02 Jun 2027 04:12:03.304             9.405          4702.500
        29   02 Jun 2027 04:12:38.371   02 Jun 2027 04:12:45.547             7.176          3588.000
        30   02 Jun 2027 04:15:05.181   02 Jun 2027 04:15:08.998             3.817          1908.500
        31   02 Jun 2027 04:15:29.720   02 Jun 2027 04:15:30.729             1.009           504.500
        32   02 Jun 2027 05:47:21.192   02 Jun 2027 05:47:23.480             2.288          1144.000
        33   02 Jun 2027 05:47:35.624   02 Jun 2027 05:47:50.529            14.905          7452.500
        34   02 Jun 2027 05:49:09.374   02 Jun 2027 05:49:14.716             5.342          2671.000
        35   02 Jun 2027 05:49:46.378   02 Jun 2027 05:49:50.717             4.339          2169.500
        36   02 Jun 2027 05:50:15.793   02 Jun 2027 05:50:19.851             4.058          2029.000
        37   02 Jun 2027 05:50:58.056   02 Jun 2027 05:51:01.365             3.309          1654.500
        38   02 Jun 2027 07:20:28.411   02 Jun 2027 07:20:36.461             8.050          4025.000
        39   02 Jun 2027 07:20:58.730   02 Jun 2027 07:21:20.198            21.468         10734.000
        40   02 Jun 2027 07:22:57.160   02 Jun 2027 07:23:00.478             3.318          1659.000
        41   02 Jun 2027 07:23:28.698   02 Jun 2027 07:23:37.961             9.263          4631.500
        42   02 Jun 2027 07:24:33.885   02 Jun 2027 07:24:46.285            12.400          6200.000
        43   02 Jun 2027 07:25:36.684   02 Jun 2027 07:25:39.291             2.607          1303.500
        44   02 Jun 2027 07:25:55.946   02 Jun 2027 07:25:58.423             2.477          1238.500
        45   02 Jun 2027 07:26:15.653   02 Jun 2027 07:26:16.175             0.522           261.000
        46   02 Jun 2027 07:26:21.807   02 Jun 2027 07:26:22.957             1.150           575.000
        47   02 Jun 2027 07:26:41.916   02 Jun 2027 07:26:45.639             3.723          1861.500
        48   02 Jun 2027 07:27:31.874   02 Jun 2027 07:27:32.228             0.354           177.000
        49   02 Jun 2027 07:27:36.943   02 Jun 2027 07:27:38.511             1.568           784.000
        50   02 Jun 2027 07:28:12.380   02 Jun 2027 07:28:17.042             4.662          2331.000
        51   03 Jun 2027 04:21:23.610   03 Jun 2027 04:21:24.589             0.979           489.500
        52   03 Jun 2027 04:21:55.162   03 Jun 2027 04:21:57.902             2.740          1370.000
        53   03 Jun 2027 04:22:19.876   03 Jun 2027 04:22:25.821             5.945          2972.500
        54   03 Jun 2027 04:23:22.953   03 Jun 2027 04:23:25.669             2.716          1358.000
        55   03 Jun 2027 04:23:59.361   03 Jun 2027 04:24:10.757            11.396          5698.000
        56   03 Jun 2027 04:24:37.701   03 Jun 2027 04:24:38.981             1.280           640.000
        57   03 Jun 2027 04:24:46.961   03 Jun 2027 04:25:10.146            23.185         11592.500
        58   03 Jun 2027 04:25:42.914   03 Jun 2027 04:25:49.095             6.181          3090.500
        59   03 Jun 2027 04:27:31.300   03 Jun 2027 04:27:34.696             3.396          1698.000
        60   03 Jun 2027 05:59:21.696   03 Jun 2027 05:59:31.600             9.904          4952.000
        61   03 Jun 2027 06:00:18.359   03 Jun 2027 06:00:27.205             8.846          4423.000
        62   03 Jun 2027 06:01:24.734   03 Jun 2027 06:01:31.268             6.534          3267.000
        63   03 Jun 2027 06:02:23.929   03 Jun 2027 06:02:26.756             2.827          1413.500
        64   03 Jun 2027 06:02:36.252   03 Jun 2027 06:02:59.414            23.162         11581.000
        65   03 Jun 2027 07:32:59.246   03 Jun 2027 07:33:05.382             6.136          3068.000
        66   03 Jun 2027 07:34:22.751   03 Jun 2027 07:34:24.423             1.672           836.000
        67   03 Jun 2027 07:35:17.895   03 Jun 2027 07:35:36.361            18.466          9233.000
        68   03 Jun 2027 07:36:51.710   03 Jun 2027 07:36:54.292             2.582          1291.000
        69   03 Jun 2027 07:37:19.826   03 Jun 2027 07:37:22.258             2.432          1216.000
        70   03 Jun 2027 07:37:46.253   03 Jun 2027 07:37:48.474             2.221          1110.500
        71   03 Jun 2027 07:38:14.232   03 Jun 2027 07:38:17.193             2.961          1480.500
        72   03 Jun 2027 07:38:19.582   03 Jun 2027 07:38:25.167             5.585          2792.500
        73   03 Jun 2027 07:39:15.127   03 Jun 2027 07:39:21.813             6.686          3343.000
        74   03 Jun 2027 07:39:34.414   03 Jun 2027 07:39:34.414             0.000             0.000
        75   03 Jun 2027 07:40:12.716   03 Jun 2027 07:40:17.041             4.325          2162.500
        76   04 Jun 2027 03:00:00.000   04 Jun 2027 03:00:02.282             2.282          1141.000
        77   04 Jun 2027 03:00:19.506   04 Jun 2027 03:00:30.035            10.529          5264.500
        78   04 Jun 2027 03:01:15.592   04 Jun 2027 03:01:28.099            12.507          6253.500
        79   04 Jun 2027 03:02:39.267   04 Jun 2027 03:02:45.525             6.258          3129.000
        80   04 Jun 2027 03:03:29.389   04 Jun 2027 03:03:34.846             5.457          2728.500
        81   04 Jun 2027 04:33:15.295   04 Jun 2027 04:33:36.015            20.720         10360.000
        82   04 Jun 2027 04:35:25.625   04 Jun 2027 04:35:26.642             1.017           508.500
        83   04 Jun 2027 04:35:41.251   04 Jun 2027 04:35:42.834             1.583           791.500
        84   04 Jun 2027 04:36:15.531   04 Jun 2027 04:36:19.339             3.808          1904.000
        85   04 Jun 2027 04:36:56.760   04 Jun 2027 04:37:05.709             8.949          4474.500
        86   04 Jun 2027 04:37:44.606   04 Jun 2027 04:37:46.831             2.225          1112.500
        87   04 Jun 2027 04:38:54.874   04 Jun 2027 04:38:55.648             0.774           387.000
        88   04 Jun 2027 04:39:14.447   04 Jun 2027 04:39:20.273             5.826          2913.000
        89   04 Jun 2027 04:39:29.416   04 Jun 2027 04:39:31.761             2.345          1172.500
        90   04 Jun 2027 06:11:24.601   04 Jun 2027 06:11:26.352             1.751           875.500
        91   04 Jun 2027 06:11:36.116   04 Jun 2027 06:11:37.637             1.521           760.500
        92   04 Jun 2027 06:11:54.149   04 Jun 2027 06:12:02.910             8.761          4380.500
        93   04 Jun 2027 06:12:40.826   04 Jun 2027 06:12:42.469             1.643           821.500
        94   04 Jun 2027 06:13:04.956   04 Jun 2027 06:13:17.734            12.778          6389.000
        95   04 Jun 2027 06:14:07.342   04 Jun 2027 06:14:16.337             8.995          4497.500
        96   04 Jun 2027 06:15:20.147   04 Jun 2027 06:15:20.700             0.553           276.500
        97   04 Jun 2027 07:45:16.407   04 Jun 2027 07:45:24.255             7.848          3924.000
        98   04 Jun 2027 07:46:05.130   04 Jun 2027 07:46:11.933             6.803          3401.500
        99   04 Jun 2027 07:47:09.535   04 Jun 2027 07:47:32.102            22.567         11283.500
       100   04 Jun 2027 07:49:07.114   04 Jun 2027 07:49:19.120            12.006          6003.000
       101   04 Jun 2027 07:50:29.383   04 Jun 2027 07:50:29.439             0.056            28.000
       102   05 Jun 2027 03:08:37.886   05 Jun 2027 03:08:51.777            13.891          6945.500
       103   05 Jun 2027 03:10:23.971   05 Jun 2027 03:10:26.016             2.045          1022.500
       104   05 Jun 2027 03:10:29.461   05 Jun 2027 03:10:32.690             3.229          1614.500
       105   05 Jun 2027 03:10:52.246   05 Jun 2027 03:11:01.193             8.947          4473.500
       106   05 Jun 2027 03:11:43.607   05 Jun 2027 03:11:57.799            14.192          7096.000
       107   05 Jun 2027 03:12:56.692   05 Jun 2027 03:13:08.317            11.625          5812.500
       108   05 Jun 2027 03:13:31.310   05 Jun 2027 03:13:37.766             6.456          3228.000
       109   05 Jun 2027 03:14:33.973   05 Jun 2027 03:14:37.406             3.433          1716.500
       110   05 Jun 2027 03:15:29.192   05 Jun 2027 03:15:29.814             0.622           311.000
       111   05 Jun 2027 03:15:40.809   05 Jun 2027 03:15:43.557             2.748          1374.000
       112   05 Jun 2027 03:15:53.361   05 Jun 2027 03:15:53.361             0.000             0.000
       113   05 Jun 2027 03:15:55.059   05 Jun 2027 03:15:56.716             1.657           828.500
       114   05 Jun 2027 04:45:41.923   05 Jun 2027 04:46:17.830            35.907         17953.500
       115   05 Jun 2027 04:48:13.357   05 Jun 2027 04:48:21.898             8.541          4270.500
       116   05 Jun 2027 04:49:49.767   05 Jun 2027 04:49:51.736             1.969           984.500
       117   05 Jun 2027 04:50:48.604   05 Jun 2027 04:50:49.422             0.818           409.000
       118   05 Jun 2027 04:51:35.711   05 Jun 2027 04:51:37.991             2.280          1140.000
       119   05 Jun 2027 06:22:35.025   05 Jun 2027 06:22:40.123             5.098          2549.000
       120   05 Jun 2027 06:22:45.779   05 Jun 2027 06:22:54.951             9.172          4586.000
       121   05 Jun 2027 06:23:49.133   05 Jun 2027 06:23:55.002             5.869          2934.500
       122   05 Jun 2027 06:24:35.431   05 Jun 2027 06:24:36.700             1.269           634.500
       123   05 Jun 2027 06:25:00.939   05 Jun 2027 06:25:10.358             9.419          4709.500
       124   05 Jun 2027 06:25:59.588   05 Jun 2027 06:26:05.193             5.605          2802.500
       125   05 Jun 2027 06:26:41.220   05 Jun 2027 06:26:41.506             0.286           143.000
       126   05 Jun 2027 06:27:14.211   05 Jun 2027 06:27:14.331             0.120            60.000
       127   05 Jun 2027 07:57:46.017   05 Jun 2027 07:57:59.777            13.760          6880.000
       128   05 Jun 2027 07:59:20.268   05 Jun 2027 07:59:47.385            27.117         13558.500
       129   05 Jun 2027 08:01:28.253   05 Jun 2027 08:01:31.627             3.374          1687.000
       130   05 Jun 2027 08:01:54.445   05 Jun 2027 08:02:31.225            36.780         18390.000
       131   06 Jun 2027 03:21:04.163   06 Jun 2027 03:21:12.339             8.176          4088.000
       132   06 Jun 2027 03:21:45.051   06 Jun 2027 03:22:00.920            15.869          7934.500
       133   06 Jun 2027 03:22:15.975   06 Jun 2027 03:22:25.955             9.980          4990.000
       134   06 Jun 2027 03:23:22.455   06 Jun 2027 03:23:23.599             1.144           572.000
       135   06 Jun 2027 03:24:08.045   06 Jun 2027 03:24:11.627             3.582          1791.000
       136   06 Jun 2027 03:24:44.372   06 Jun 2027 03:25:02.793            18.421          9210.500
       137   06 Jun 2027 03:26:18.299   06 Jun 2027 03:26:19.206             0.907           453.500
       138   06 Jun 2027 03:26:25.247   06 Jun 2027 03:26:43.802            18.555          9277.500
       139   06 Jun 2027 04:58:06.169   06 Jun 2027 04:58:07.082             0.913           456.500
       140   06 Jun 2027 04:58:17.667   06 Jun 2027 04:58:26.378             8.711          4355.500
       141   06 Jun 2027 04:58:57.309   06 Jun 2027 04:59:09.834            12.525          6262.500
       142   06 Jun 2027 05:00:14.246   06 Jun 2027 05:00:16.991             2.745          1372.500
       143   06 Jun 2027 05:00:29.146   06 Jun 2027 05:00:29.883             0.737           368.500
       144   06 Jun 2027 05:00:38.105   06 Jun 2027 05:00:38.181             0.076            38.000
       145   06 Jun 2027 05:01:17.669   06 Jun 2027 05:01:22.006             4.337          2168.500
       146   06 Jun 2027 05:01:44.758   06 Jun 2027 05:01:46.822             2.064          1032.000
       147   06 Jun 2027 05:02:05.287   06 Jun 2027 05:02:15.597            10.310          5155.000
       148   06 Jun 2027 05:03:09.167   06 Jun 2027 05:03:19.889            10.722          5361.000
       149   06 Jun 2027 06:34:50.060   06 Jun 2027 06:34:55.558             5.498          2749.000
       150   06 Jun 2027 06:35:20.012   06 Jun 2027 06:35:20.187             0.175            87.500
       151   06 Jun 2027 06:35:43.224   06 Jun 2027 06:35:44.155             0.931           465.500
       152   06 Jun 2027 06:35:58.450   06 Jun 2027 06:36:01.939             3.489          1744.500
       153   06 Jun 2027 06:36:24.620   06 Jun 2027 06:36:26.758             2.138          1069.000
       154   06 Jun 2027 06:37:02.905   06 Jun 2027 06:37:04.754             1.849           924.500
       155   06 Jun 2027 06:37:30.597   06 Jun 2027 06:37:30.959             0.362           181.000
       156   06 Jun 2027 06:37:47.527   06 Jun 2027 06:37:53.182             5.655          2827.500
       157   06 Jun 2027 06:39:12.588   06 Jun 2027 06:39:20.008             7.420          3710.000
       158   06 Jun 2027 08:12:59.245   06 Jun 2027 08:13:04.954             5.709          2854.500
       159   06 Jun 2027 08:14:07.216   06 Jun 2027 08:14:07.741             0.525           262.500
       160   07 Jun 2027 03:33:28.055   07 Jun 2027 03:33:28.666             0.611           305.500
       161   07 Jun 2027 03:33:50.379   07 Jun 2027 03:34:00.068             9.689          4844.500
       162   07 Jun 2027 03:34:50.192   07 Jun 2027 03:35:00.596            10.404          5202.000
       163   07 Jun 2027 03:35:42.028   07 Jun 2027 03:36:01.156            19.128          9564.000
       164   07 Jun 2027 03:37:24.122   07 Jun 2027 03:37:35.736            11.614          5807.000
       165   07 Jun 2027 03:38:00.171   07 Jun 2027 03:38:00.621             0.450           225.000
       166   07 Jun 2027 03:38:22.451   07 Jun 2027 03:38:26.889             4.438          2219.000
       167   07 Jun 2027 03:38:55.270   07 Jun 2027 03:38:55.373             0.103            51.500
       168   07 Jun 2027 03:38:57.270   07 Jun 2027 03:39:17.423            20.153         10076.500
       169   07 Jun 2027 05:10:58.508   07 Jun 2027 05:11:06.756             8.248          4124.000
       170   07 Jun 2027 05:11:46.372   07 Jun 2027 05:11:48.584             2.212          1106.000
       171   07 Jun 2027 05:12:14.834   07 Jun 2027 05:12:19.691             4.857          2428.500
       172   07 Jun 2027 05:12:40.219   07 Jun 2027 05:12:48.122             7.903          3951.500
       173   07 Jun 2027 05:13:30.751   07 Jun 2027 05:13:34.808             4.057          2028.500
       174   07 Jun 2027 05:13:55.560   07 Jun 2027 05:13:58.292             2.732          1366.000
       175   07 Jun 2027 05:14:07.743   07 Jun 2027 05:14:07.743             0.000             0.000
       176   07 Jun 2027 05:14:25.717   07 Jun 2027 05:14:28.563             2.846          1423.000
       177   07 Jun 2027 05:15:21.908   07 Jun 2027 05:15:22.396             0.488           244.000
       178   07 Jun 2027 06:47:03.890   07 Jun 2027 06:47:04.036             0.146            73.000
       179   07 Jun 2027 06:47:11.115   07 Jun 2027 06:47:11.443             0.328           164.000
       180   07 Jun 2027 06:47:16.748   07 Jun 2027 06:47:22.956             6.208          3104.000
       181   07 Jun 2027 06:48:01.439   07 Jun 2027 06:48:03.122             1.683           841.500
       182   07 Jun 2027 06:48:13.007   07 Jun 2027 06:48:17.617             4.610          2305.000
       183   07 Jun 2027 06:48:39.160   07 Jun 2027 06:48:39.234             0.074            37.000
       184   07 Jun 2027 06:49:02.021   07 Jun 2027 06:49:11.515             9.494          4747.000
       185   07 Jun 2027 06:49:45.610   07 Jun 2027 06:49:50.635             5.025          2512.500
       186   07 Jun 2027 06:50:19.326   07 Jun 2027 06:50:22.680             3.354          1677.000
       187   07 Jun 2027 06:50:48.598   07 Jun 2027 06:50:53.412             4.814          2407.000
       188   08 Jun 2027 03:45:42.168   08 Jun 2027 03:45:45.729             3.561          1780.500
       189   08 Jun 2027 03:46:04.217   08 Jun 2027 03:46:18.848            14.631          7315.500
       190   08 Jun 2027 03:46:27.292   08 Jun 2027 03:46:31.611             4.319          2159.500
       191   08 Jun 2027 03:47:44.200   08 Jun 2027 03:47:50.259             6.059          3029.500
       192   08 Jun 2027 03:48:13.825   08 Jun 2027 03:48:21.885             8.060          4030.000
       193   08 Jun 2027 03:48:55.015   08 Jun 2027 03:49:09.683            14.668          7334.000
       194   08 Jun 2027 03:50:14.662   08 Jun 2027 03:50:18.958             4.296          2148.000
       195   08 Jun 2027 03:51:00.101   08 Jun 2027 03:51:06.929             6.828          3414.000
       196   08 Jun 2027 03:51:42.941   08 Jun 2027 03:51:44.950             2.009          1004.500
       197   08 Jun 2027 05:22:59.923   08 Jun 2027 05:23:03.314             3.391          1695.500
       198   08 Jun 2027 05:23:56.915   08 Jun 2027 05:24:11.105            14.190          7095.000
       199   08 Jun 2027 05:25:19.991   08 Jun 2027 05:25:21.129             1.138           569.000
       200   08 Jun 2027 05:26:46.496   08 Jun 2027 05:26:55.863             9.367          4683.500
       201   08 Jun 2027 06:59:11.955   08 Jun 2027 06:59:17.924             5.969          2984.500
       202   08 Jun 2027 07:00:01.221   08 Jun 2027 07:00:01.930             0.709           354.500
       203   08 Jun 2027 07:00:10.818   08 Jun 2027 07:00:11.517             0.699           349.500
       204   08 Jun 2027 07:00:29.468   08 Jun 2027 07:00:35.967             6.499          3249.500
       205   08 Jun 2027 07:01:21.797   08 Jun 2027 07:01:23.481             1.684           842.000
       206   08 Jun 2027 07:01:35.182   08 Jun 2027 07:01:36.766             1.584           792.000
       207   08 Jun 2027 07:01:57.009   08 Jun 2027 07:02:01.500             4.491          2245.500
       208   08 Jun 2027 07:02:46.624   08 Jun 2027 07:02:47.423             0.799           399.500
       209   08 Jun 2027 07:03:40.030   08 Jun 2027 07:04:00.150            20.120         10060.000
       210   09 Jun 2027 03:57:18.855   09 Jun 2027 03:57:32.313            13.458          6729.000
       211   09 Jun 2027 03:58:29.992   09 Jun 2027 03:58:34.919             4.927          2463.500
       212   09 Jun 2027 03:59:11.688   09 Jun 2027 03:59:14.599             2.911          1455.500
       213   09 Jun 2027 03:59:27.716   09 Jun 2027 03:59:29.574             1.858           929.000
       214   09 Jun 2027 03:59:39.040   09 Jun 2027 03:59:57.389            18.349          9174.500
       215   09 Jun 2027 04:01:14.446   09 Jun 2027 04:01:17.348             2.902          1451.000
       216   09 Jun 2027 04:01:38.307   09 Jun 2027 04:01:44.324             6.017          3008.500
       217   09 Jun 2027 04:02:19.928   09 Jun 2027 04:02:30.583            10.655          5327.500
       218   09 Jun 2027 04:03:28.130   09 Jun 2027 04:03:34.782             6.652          3326.000
       219   09 Jun 2027 04:03:40.069   09 Jun 2027 04:03:41.395             1.326           663.000
       220   09 Jun 2027 05:35:35.575   09 Jun 2027 05:35:48.989            13.414          6707.000
       221   09 Jun 2027 05:36:47.637   09 Jun 2027 05:36:50.069             2.432          1216.000
       222   09 Jun 2027 05:37:25.887   09 Jun 2027 05:37:28.363             2.476          1238.000
       223   09 Jun 2027 05:37:58.728   09 Jun 2027 05:38:00.559             1.831           915.500
       224   09 Jun 2027 05:38:24.499   09 Jun 2027 05:38:29.129             4.630          2315.000
       225   09 Jun 2027 05:39:06.892   09 Jun 2027 05:39:09.538             2.646          1323.000
       226   09 Jun 2027 07:11:01.686   09 Jun 2027 07:11:05.056             3.370          1685.000
       227   09 Jun 2027 07:11:51.470   09 Jun 2027 07:11:58.236             6.766          3383.000
       228   09 Jun 2027 07:12:50.777   09 Jun 2027 07:13:03.470            12.693          6346.500
       229   09 Jun 2027 07:13:23.018   09 Jun 2027 07:13:26.900             3.882          1941.000
       230   09 Jun 2027 07:14:17.111   09 Jun 2027 07:14:17.412             0.301           150.500
       231   09 Jun 2027 07:14:23.169   09 Jun 2027 07:14:31.256             8.087          4043.500
       232   09 Jun 2027 07:15:31.640   09 Jun 2027 07:15:34.046             2.406          1203.000
       233   09 Jun 2027 07:15:58.585   09 Jun 2027 07:16:01.207             2.622          1311.000
       234   10 Jun 2027 04:09:38.385   10 Jun 2027 04:09:41.587             3.202          1601.000
       235   10 Jun 2027 04:09:42.846   10 Jun 2027 04:09:48.612             5.766          2883.000
       236   10 Jun 2027 04:10:24.163   10 Jun 2027 04:11:01.642            37.479         18739.500
       237   10 Jun 2027 04:15:19.474   10 Jun 2027 04:15:29.432             9.958          4979.000
       238   10 Jun 2027 04:15:58.711   10 Jun 2027 04:16:00.304             1.593           796.500
       239   10 Jun 2027 05:47:36.207   10 Jun 2027 05:47:42.326             6.119          3059.500
       240   10 Jun 2027 05:48:44.003   10 Jun 2027 05:48:46.688             2.685          1342.500
       241   10 Jun 2027 05:49:16.571   10 Jun 2027 05:49:22.796             6.225          3112.500
       242   10 Jun 2027 05:49:58.413   10 Jun 2027 05:50:01.497             3.084          1542.000
       243   10 Jun 2027 05:50:07.733   10 Jun 2027 05:50:09.470             1.737           868.500
       244   10 Jun 2027 05:50:35.626   10 Jun 2027 05:50:57.479            21.853         10926.500
       245   10 Jun 2027 07:20:41.829   10 Jun 2027 07:20:51.267             9.438          4719.000
       246   10 Jun 2027 07:21:12.657   10 Jun 2027 07:21:35.231            22.574         11287.000
       247   10 Jun 2027 07:23:43.294   10 Jun 2027 07:23:52.589             9.295          4647.500
       248   10 Jun 2027 07:24:48.512   10 Jun 2027 07:24:51.952             3.440          1720.000
       249   10 Jun 2027 07:25:11.594   10 Jun 2027 07:25:19.891             8.297          4148.500
       250   10 Jun 2027 07:25:47.642   10 Jun 2027 07:25:47.742             0.100            50.000
       251   10 Jun 2027 07:25:53.870   10 Jun 2027 07:25:55.678             1.808           904.000
       252   10 Jun 2027 07:26:13.311   10 Jun 2027 07:26:16.505             3.194          1597.000
       253   10 Jun 2027 07:26:33.327   10 Jun 2027 07:26:37.475             4.148          2074.000
       254   10 Jun 2027 07:27:43.038   10 Jun 2027 07:27:46.384             3.346          1673.000
       255   10 Jun 2027 07:28:29.573   10 Jun 2027 07:28:33.792             4.219          2109.500
       256   11 Jun 2027 04:21:38.491   11 Jun 2027 04:21:39.867             1.376           688.000
       257   11 Jun 2027 04:21:42.354   11 Jun 2027 04:21:59.129            16.775          8387.500
       258   11 Jun 2027 04:22:29.812   11 Jun 2027 04:22:43.918            14.106          7053.000
       259   11 Jun 2027 04:23:40.168   11 Jun 2027 04:24:00.629            20.461         10230.500
       260   11 Jun 2027 04:24:28.806   11 Jun 2027 04:24:29.913             1.107           553.500
       261   11 Jun 2027 04:26:23.762   11 Jun 2027 04:26:25.389             1.627           813.500
       262   11 Jun 2027 04:26:31.521   11 Jun 2027 04:26:34.576             3.055          1527.500
       263   11 Jun 2027 04:26:45.318   11 Jun 2027 04:26:45.318             0.000             0.000
       264   11 Jun 2027 04:27:08.850   11 Jun 2027 04:27:13.756             4.906          2453.000
       265   11 Jun 2027 04:27:44.419   11 Jun 2027 04:27:46.148             1.729           864.500
       266   11 Jun 2027 05:59:36.736   11 Jun 2027 05:59:47.430            10.694          5347.000
       267   11 Jun 2027 06:00:35.442   11 Jun 2027 06:00:36.452             1.010           505.000
       268   11 Jun 2027 06:00:43.217   11 Jun 2027 06:00:48.856             5.639          2819.500
       269   11 Jun 2027 06:01:16.006   11 Jun 2027 06:01:16.478             0.472           236.000
       270   11 Jun 2027 06:01:37.526   11 Jun 2027 06:01:46.224             8.698          4349.000
       271   11 Jun 2027 06:02:38.212   11 Jun 2027 06:02:43.815             5.603          2801.500
       272   11 Jun 2027 06:03:20.324   11 Jun 2027 06:03:26.880             6.556          3278.000
       273   11 Jun 2027 07:33:14.150   11 Jun 2027 07:33:20.163             6.013          3006.500
       274   11 Jun 2027 07:34:40.457   11 Jun 2027 07:34:49.346             8.889          4444.500
       275   11 Jun 2027 07:35:30.993   11 Jun 2027 07:35:32.595             1.602           801.000
       276   11 Jun 2027 07:35:52.143   11 Jun 2027 07:36:12.534            20.391         10195.500
       277   11 Jun 2027 07:37:35.253   11 Jun 2027 07:37:37.254             2.001          1000.500
       278   11 Jun 2027 07:38:00.537   11 Jun 2027 07:38:01.236             0.699           349.500
       279   11 Jun 2027 07:38:03.321   11 Jun 2027 07:38:03.368             0.047            23.500
       280   11 Jun 2027 07:38:17.088   11 Jun 2027 07:38:22.904             5.816          2908.000
       281   11 Jun 2027 07:39:29.156   11 Jun 2027 07:39:36.331             7.175          3587.500
       282   11 Jun 2027 07:40:29.878   11 Jun 2027 07:40:32.978             3.100          1550.000
       283   12 Jun 2027 03:00:00.000   12 Jun 2027 03:00:17.235            17.235          8617.500
       284   12 Jun 2027 03:01:57.458   12 Jun 2027 03:02:06.901             9.443          4721.500
       285   12 Jun 2027 03:03:27.164   12 Jun 2027 03:03:34.794             7.630          3815.000
       286   12 Jun 2027 04:33:30.212   12 Jun 2027 04:33:52.847            22.635         11317.500
       287   12 Jun 2027 04:34:02.782   12 Jun 2027 04:34:32.169            29.387         14693.500
       288   12 Jun 2027 04:37:58.045   12 Jun 2027 04:38:00.534             2.489          1244.500
       289   12 Jun 2027 04:38:18.298   12 Jun 2027 04:38:24.269             5.971          2985.500
       290   12 Jun 2027 04:38:50.555   12 Jun 2027 04:38:58.067             7.512          3756.000
       291   12 Jun 2027 04:39:53.155   12 Jun 2027 04:40:14.033            20.878         10439.000
       292   12 Jun 2027 06:11:40.099   12 Jun 2027 06:11:42.326             2.227          1113.500
       293   12 Jun 2027 06:12:04.837   12 Jun 2027 06:12:11.976             7.139          3569.500
       294   12 Jun 2027 06:12:55.774   12 Jun 2027 06:12:57.142             1.368           684.000
       295   12 Jun 2027 06:13:19.679   12 Jun 2027 06:13:34.003            14.324          7162.000
       296   12 Jun 2027 06:14:32.965   12 Jun 2027 06:14:34.236             1.271           635.500
       297   12 Jun 2027 06:14:39.715   12 Jun 2027 06:15:06.768            27.053         13526.500
       298   12 Jun 2027 07:47:18.340   12 Jun 2027 07:47:21.350             3.010          1505.000
       299   12 Jun 2027 07:48:23.930   12 Jun 2027 07:48:41.639            17.709          8854.500
       300   12 Jun 2027 07:49:57.808   12 Jun 2027 07:50:02.782             4.974          2487.000
       301   12 Jun 2027 07:50:26.150   12 Jun 2027 07:50:32.589             6.439          3219.500
       302   12 Jun 2027 07:51:10.963   12 Jun 2027 07:51:27.105            16.142          8071.000
       303   13 Jun 2027 03:08:52.947   13 Jun 2027 03:09:05.698            12.751          6375.500
       304   13 Jun 2027 03:09:55.419   13 Jun 2027 03:09:59.912             4.493          2246.500
       305   13 Jun 2027 03:10:47.341   13 Jun 2027 03:10:50.330             2.989          1494.500
       306   13 Jun 2027 03:11:05.521   13 Jun 2027 03:11:06.820             1.299           649.500
       307   13 Jun 2027 03:11:32.281   13 Jun 2027 03:11:36.512             4.231          2115.500
       308   13 Jun 2027 03:12:12.787   13 Jun 2027 03:12:24.478            11.691          5845.500
       309   13 Jun 2027 03:12:49.756   13 Jun 2027 03:12:49.756             0.000             0.000
       310   13 Jun 2027 03:13:14.589   13 Jun 2027 03:13:27.366            12.777          6388.500
       311   13 Jun 2027 03:13:57.071   13 Jun 2027 03:14:00.799             3.728          1864.000
       312   13 Jun 2027 03:14:50.324   13 Jun 2027 03:14:53.225             2.901          1450.500
       313   13 Jun 2027 03:15:43.794   13 Jun 2027 03:15:48.402             4.608          2304.000
       314   13 Jun 2027 03:15:56.102   13 Jun 2027 03:15:58.135             2.033          1016.500
       315   13 Jun 2027 04:46:03.683   13 Jun 2027 04:46:53.121            49.438         24719.000
       316   13 Jun 2027 04:49:49.318   13 Jun 2027 04:49:54.892             5.574          2787.000
       317   13 Jun 2027 04:50:49.615   13 Jun 2027 04:50:57.664             8.049          4024.500
       318   13 Jun 2027 06:22:49.943   13 Jun 2027 06:22:56.282             6.339          3169.500
       319   13 Jun 2027 06:22:59.952   13 Jun 2027 06:23:10.185            10.233          5116.500
       320   13 Jun 2027 06:24:10.015   13 Jun 2027 06:24:10.488             0.473           236.500
       321   13 Jun 2027 06:24:21.393   13 Jun 2027 06:24:40.041            18.648          9324.000
       322   13 Jun 2027 06:26:02.374   13 Jun 2027 06:26:07.139             4.765          2382.500
       323   13 Jun 2027 06:26:33.659   13 Jun 2027 06:26:33.792             0.133            66.500
       324   13 Jun 2027 06:26:40.458   13 Jun 2027 06:26:55.916            15.458          7729.000
       325   13 Jun 2027 07:58:01.132   13 Jun 2027 07:58:14.851            13.719          6859.500
       326   13 Jun 2027 07:59:35.217   13 Jun 2027 07:59:42.867             7.650          3825.000
       327   13 Jun 2027 08:00:36.626   13 Jun 2027 08:00:46.035             9.409          4704.500
       328   13 Jun 2027 08:01:36.635   13 Jun 2027 08:01:46.225             9.590          4795.000
