uniorb/output/strategy_2/Camera/Camera_KinoSat_110307.txt

KinoSat_110307
-------------------------
    Access    *     Start Time (UTCG)     *     Stop Time (UTCG)  *   Duration (s) *   Data (Mbytes)
         1   01 Jun 2027 03:37:49.638   01 Jun 2027 03:38:04.186            14.548          7274.000
         2   01 Jun 2027 03:39:21.527   01 Jun 2027 03:39:22.055             0.528           264.000
         3   01 Jun 2027 03:39:37.585   01 Jun 2027 03:39:46.803             9.218          4609.000
         4   01 Jun 2027 03:39:57.736   01 Jun 2027 03:39:58.252             0.516           258.000
         5   01 Jun 2027 03:40:32.438   01 Jun 2027 03:40:41.920             9.482          4741.000
         6   01 Jun 2027 03:41:33.054   01 Jun 2027 03:41:34.700             1.646           823.000
         7   01 Jun 2027 03:41:54.319   01 Jun 2027 03:42:05.808            11.489          5744.500
         8   01 Jun 2027 03:43:29.396   01 Jun 2027 03:43:35.423             6.027          3013.500
         9   01 Jun 2027 03:44:20.138   01 Jun 2027 03:44:29.659             9.521          4760.500
        10   01 Jun 2027 05:13:45.442   01 Jun 2027 05:13:59.529            14.087          7043.500
        11   01 Jun 2027 05:15:25.687   01 Jun 2027 05:15:27.486             1.799           899.500
        12   01 Jun 2027 05:15:56.305   01 Jun 2027 05:15:56.334             0.029            14.500
        13   01 Jun 2027 05:16:00.424   01 Jun 2027 05:16:18.481            18.057          9028.500
        14   01 Jun 2027 05:17:28.023   01 Jun 2027 05:17:29.082             1.059           529.500
        15   01 Jun 2027 05:17:31.225   01 Jun 2027 05:17:32.970             1.745           872.500
        16   01 Jun 2027 05:17:35.254   01 Jun 2027 05:17:41.177             5.923          2961.500
        17   01 Jun 2027 05:18:06.690   01 Jun 2027 05:18:19.524            12.834          6417.000
        18   01 Jun 2027 05:19:33.998   01 Jun 2027 05:19:59.779            25.781         12890.500
        19   01 Jun 2027 06:51:43.828   01 Jun 2027 06:51:49.504             5.676          2838.000
        20   01 Jun 2027 06:52:18.121   01 Jun 2027 06:52:19.401             1.280           640.000
        21   01 Jun 2027 06:52:55.640   01 Jun 2027 06:53:04.043             8.403          4201.500
        22   01 Jun 2027 06:53:43.244   01 Jun 2027 06:53:47.781             4.537          2268.500
        23   01 Jun 2027 06:54:16.124   01 Jun 2027 06:54:27.682            11.558          5779.000
        24   01 Jun 2027 06:55:16.539   01 Jun 2027 06:55:16.770             0.231           115.500
        25   01 Jun 2027 06:55:25.861   01 Jun 2027 06:55:27.535             1.674           837.000
        26   01 Jun 2027 08:27:35.412   01 Jun 2027 08:27:41.231             5.819          2909.500
        27   01 Jun 2027 08:28:18.780   01 Jun 2027 08:28:22.693             3.913          1956.500
        28   01 Jun 2027 08:28:30.790   01 Jun 2027 08:28:43.384            12.594          6297.000
        29   01 Jun 2027 08:29:42.082   01 Jun 2027 08:29:46.039             3.957          1978.500
        30   01 Jun 2027 08:30:23.261   01 Jun 2027 08:30:26.266             3.005          1502.500
        31   01 Jun 2027 08:30:48.656   01 Jun 2027 08:30:59.844            11.188          5594.000
        32   01 Jun 2027 08:31:56.805   01 Jun 2027 08:31:57.257             0.452           226.000
        33   01 Jun 2027 08:32:09.899   01 Jun 2027 08:32:14.467             4.568          2284.000
        34   02 Jun 2027 03:49:05.226   02 Jun 2027 03:49:21.752            16.526          8263.000
        35   02 Jun 2027 03:50:39.391   02 Jun 2027 03:50:47.185             7.794          3897.000
        36   02 Jun 2027 03:51:24.382   02 Jun 2027 03:51:26.791             2.409          1204.500
        37   02 Jun 2027 03:51:38.352   02 Jun 2027 03:51:49.483            11.131          5565.500
        38   02 Jun 2027 03:53:33.314   02 Jun 2027 03:53:36.019             2.705          1352.500
        39   02 Jun 2027 03:54:04.252   02 Jun 2027 03:54:07.881             3.629          1814.500
        40   02 Jun 2027 03:55:03.846   02 Jun 2027 03:55:04.067             0.221           110.500
        41   02 Jun 2027 03:55:22.503   02 Jun 2027 03:55:22.641             0.138            69.000
        42   02 Jun 2027 03:55:31.776   02 Jun 2027 03:55:48.822            17.046          8523.000
        43   02 Jun 2027 05:25:55.004   02 Jun 2027 05:26:13.252            18.248          9124.000
        44   02 Jun 2027 05:27:39.736   02 Jun 2027 05:27:57.824            18.088          9044.000
        45   02 Jun 2027 05:29:39.993   02 Jun 2027 05:29:42.274             2.281          1140.500
        46   02 Jun 2027 05:29:54.504   02 Jun 2027 05:29:57.499             2.995          1497.500
        47   02 Jun 2027 05:30:25.720   02 Jun 2027 05:30:26.042             0.322           161.000
        48   02 Jun 2027 05:30:36.775   02 Jun 2027 05:30:40.928             4.153          2076.500
        49   02 Jun 2027 05:31:02.820   02 Jun 2027 05:31:04.349             1.529           764.500
        50   02 Jun 2027 05:31:49.276   02 Jun 2027 05:32:01.124            11.848          5924.000
        51   02 Jun 2027 07:04:06.401   02 Jun 2027 07:04:15.553             9.152          4576.000
        52   02 Jun 2027 07:04:19.835   02 Jun 2027 07:04:27.864             8.029          4014.500
        53   02 Jun 2027 07:05:42.605   02 Jun 2027 07:05:45.823             3.218          1609.000
        54   02 Jun 2027 07:06:02.565   02 Jun 2027 07:06:04.361             1.796           898.000
        55   02 Jun 2027 07:06:37.286   02 Jun 2027 07:06:39.754             2.468          1234.000
        56   02 Jun 2027 07:07:19.317   02 Jun 2027 07:07:21.272             1.955           977.500
        57   02 Jun 2027 08:37:24.248   02 Jun 2027 08:37:53.310            29.062         14531.000
        58   02 Jun 2027 08:39:59.541   02 Jun 2027 08:40:02.931             3.390          1695.000
        59   02 Jun 2027 08:40:35.247   02 Jun 2027 08:40:36.751             1.504           752.000
        60   02 Jun 2027 08:41:06.800   02 Jun 2027 08:41:10.224             3.424          1712.000
        61   02 Jun 2027 08:41:22.624   02 Jun 2027 08:41:25.707             3.083          1541.500
        62   02 Jun 2027 08:42:04.456   02 Jun 2027 08:42:17.681            13.225          6612.500
        63   02 Jun 2027 08:43:06.255   02 Jun 2027 08:43:07.821             1.566           783.000
        64   02 Jun 2027 08:44:04.308   02 Jun 2027 08:44:10.473             6.165          3082.500
        65   02 Jun 2027 08:44:43.296   02 Jun 2027 08:44:50.057             6.761          3380.500
        66   03 Jun 2027 04:01:12.995   03 Jun 2027 04:01:17.973             4.978          2489.000
        67   03 Jun 2027 04:02:24.929   03 Jun 2027 04:02:36.193            11.264          5632.000
        68   03 Jun 2027 04:03:27.246   03 Jun 2027 04:03:27.404             0.158            79.000
        69   03 Jun 2027 04:03:45.551   03 Jun 2027 04:03:47.261             1.710           855.000
        70   03 Jun 2027 04:04:33.759   03 Jun 2027 04:04:35.034             1.275           637.500
        71   03 Jun 2027 04:04:50.973   03 Jun 2027 04:04:59.651             8.678          4339.000
        72   03 Jun 2027 04:06:09.490   03 Jun 2027 04:06:16.928             7.438          3719.000
        73   03 Jun 2027 04:06:20.472   03 Jun 2027 04:06:22.809             2.337          1168.500
        74   03 Jun 2027 04:07:08.788   03 Jun 2027 04:07:19.743            10.955          5477.500
        75   03 Jun 2027 04:08:18.816   03 Jun 2027 04:08:31.504            12.688          6344.000
        76   03 Jun 2027 05:38:10.989   03 Jun 2027 05:38:14.769             3.780          1890.000
        77   03 Jun 2027 05:38:52.655   03 Jun 2027 05:38:54.291             1.636           818.000
        78   03 Jun 2027 05:39:21.231   03 Jun 2027 05:39:23.230             1.999           999.500
        79   03 Jun 2027 05:39:59.530   03 Jun 2027 05:40:04.219             4.689          2344.500
        80   03 Jun 2027 05:40:25.502   03 Jun 2027 05:40:30.002             4.500          2250.000
        81   03 Jun 2027 05:41:04.177   03 Jun 2027 05:41:06.071             1.894           947.000
        82   03 Jun 2027 05:41:18.402   03 Jun 2027 05:41:19.281             0.879           439.500
        83   03 Jun 2027 05:41:25.863   03 Jun 2027 05:41:27.688             1.825           912.500
        84   03 Jun 2027 05:41:48.910   03 Jun 2027 05:41:49.127             0.217           108.500
        85   03 Jun 2027 05:41:55.813   03 Jun 2027 05:42:13.390            17.577          8788.500
        86   03 Jun 2027 05:43:39.435   03 Jun 2027 05:43:56.800            17.365          8682.500
        87   03 Jun 2027 07:16:07.283   03 Jun 2027 07:16:11.049             3.766          1883.000
        88   03 Jun 2027 07:16:48.178   03 Jun 2027 07:17:08.803            20.625         10312.500
        89   03 Jun 2027 07:17:46.521   03 Jun 2027 07:17:52.956             6.435          3217.500
        90   03 Jun 2027 07:19:13.451   03 Jun 2027 07:19:16.156             2.705          1352.500
        91   03 Jun 2027 07:20:04.801   03 Jun 2027 07:20:05.801             1.000           500.000
        92   03 Jun 2027 08:49:27.290   03 Jun 2027 08:49:57.845            30.555         15277.500
        93   03 Jun 2027 08:52:00.603   03 Jun 2027 08:52:07.180             6.577          3288.500
        94   03 Jun 2027 08:52:34.999   03 Jun 2027 08:53:00.443            25.444         12722.000
        95   03 Jun 2027 08:54:53.120   03 Jun 2027 08:54:56.737             3.617          1808.500
        96   03 Jun 2027 08:55:15.374   03 Jun 2027 08:55:16.849             1.475           737.500
        97   03 Jun 2027 08:55:34.305   03 Jun 2027 08:55:34.322             0.017             8.500
        98   03 Jun 2027 08:55:52.142   03 Jun 2027 08:55:52.370             0.228           114.000
        99   03 Jun 2027 08:56:39.294   03 Jun 2027 08:56:40.851             1.557           778.500
       100   03 Jun 2027 08:56:56.331   03 Jun 2027 08:57:11.501            15.170          7585.000
       101   04 Jun 2027 04:13:14.870   04 Jun 2027 04:13:32.484            17.614          8807.000
       102   04 Jun 2027 04:15:30.089   04 Jun 2027 04:15:31.308             1.219           609.500
       103   04 Jun 2027 04:15:36.536   04 Jun 2027 04:15:40.354             3.818          1909.000
       104   04 Jun 2027 04:16:01.515   04 Jun 2027 04:16:05.949             4.434          2217.000
       105   04 Jun 2027 04:16:32.804   04 Jun 2027 04:16:37.039             4.235          2117.500
       106   04 Jun 2027 04:17:01.408   04 Jun 2027 04:17:07.120             5.712          2856.000
       107   04 Jun 2027 04:17:47.292   04 Jun 2027 04:17:48.805             1.513           756.500
       108   04 Jun 2027 04:19:03.490   04 Jun 2027 04:19:07.993             4.503          2251.500
       109   04 Jun 2027 04:19:27.540   04 Jun 2027 04:19:31.452             3.912          1956.000
       110   04 Jun 2027 05:50:01.083   04 Jun 2027 05:50:08.861             7.778          3889.000
       111   04 Jun 2027 05:50:42.022   04 Jun 2027 05:50:50.773             8.751          4375.500
       112   04 Jun 2027 05:51:58.252   04 Jun 2027 05:52:01.289             3.037          1518.500
       113   04 Jun 2027 05:52:26.221   04 Jun 2027 05:52:32.067             5.846          2923.000
       114   04 Jun 2027 05:53:19.628   04 Jun 2027 05:53:21.460             1.832           916.000
       115   04 Jun 2027 05:53:52.330   04 Jun 2027 05:53:59.202             6.872          3436.000
       116   04 Jun 2027 05:54:24.970   04 Jun 2027 05:54:32.619             7.649          3824.500
       117   04 Jun 2027 05:55:23.573   04 Jun 2027 05:55:30.304             6.731          3365.500
       118   04 Jun 2027 05:56:32.658   04 Jun 2027 05:56:34.368             1.710           855.000
       119   04 Jun 2027 07:28:06.137   04 Jun 2027 07:28:14.205             8.068          4034.000
       120   04 Jun 2027 07:28:47.138   04 Jun 2027 07:28:48.878             1.740           870.000
       121   04 Jun 2027 07:29:48.874   04 Jun 2027 07:29:55.195             6.321          3160.500
       122   04 Jun 2027 07:30:35.076   04 Jun 2027 07:30:37.043             1.967           983.500
       123   04 Jun 2027 07:31:08.251   04 Jun 2027 07:31:12.260             4.009          2004.500
       124   04 Jun 2027 07:31:57.457   04 Jun 2027 07:32:06.947             9.490          4745.000
       125   04 Jun 2027 09:01:54.532   04 Jun 2027 09:02:07.856            13.324          6662.000
       126   04 Jun 2027 09:03:24.400   04 Jun 2027 09:03:45.275            20.875         10437.500
       127   04 Jun 2027 09:05:10.843   04 Jun 2027 09:05:17.245             6.402          3201.000
       128   04 Jun 2027 09:06:23.858   04 Jun 2027 09:06:30.867             7.009          3504.500
       129   04 Jun 2027 09:06:49.983   04 Jun 2027 09:07:01.826            11.843          5921.500
       130   04 Jun 2027 09:08:24.609   04 Jun 2027 09:08:32.029             7.420          3710.000
       131   05 Jun 2027 04:25:15.645   05 Jun 2027 04:25:26.232            10.587          5293.500
       132   05 Jun 2027 04:26:27.787   05 Jun 2027 04:26:31.742             3.955          1977.500
       133   05 Jun 2027 04:27:02.002   05 Jun 2027 04:27:10.154             8.152          4076.000
       134   05 Jun 2027 04:27:47.086   05 Jun 2027 04:27:52.646             5.560          2780.000
       135   05 Jun 2027 04:27:57.175   05 Jun 2027 04:28:05.892             8.717          4358.500
       136   05 Jun 2027 04:29:02.963   05 Jun 2027 04:29:05.887             2.924          1462.000
       137   05 Jun 2027 04:29:17.764   05 Jun 2027 04:29:24.468             6.704          3352.000
       138   05 Jun 2027 04:29:55.637   05 Jun 2027 04:29:59.229             3.592          1796.000
       139   05 Jun 2027 04:30:42.372   05 Jun 2027 04:30:51.838             9.466          4733.000
       140   05 Jun 2027 04:32:22.607   05 Jun 2027 04:32:26.184             3.577          1788.500
       141   05 Jun 2027 04:32:42.021   05 Jun 2027 04:32:42.330             0.309           154.500
       142   05 Jun 2027 06:02:10.264   05 Jun 2027 06:02:18.073             7.809          3904.500
       143   05 Jun 2027 06:03:44.239   05 Jun 2027 06:03:56.985            12.746          6373.000
       144   05 Jun 2027 06:05:22.810   05 Jun 2027 06:05:23.622             0.812           406.000
       145   05 Jun 2027 06:05:47.671   05 Jun 2027 06:05:47.697             0.026            13.000
       146   05 Jun 2027 06:06:03.261   05 Jun 2027 06:06:12.321             9.060          4530.000
       147   05 Jun 2027 06:07:07.043   05 Jun 2027 06:07:10.382             3.339          1669.500
       148   05 Jun 2027 06:08:15.125   05 Jun 2027 06:08:17.208             2.083          1041.500
       149   05 Jun 2027 07:39:18.889   05 Jun 2027 07:39:36.343            17.454          8727.000
       150   05 Jun 2027 07:40:54.039   05 Jun 2027 07:40:59.244             5.205          2602.500
       151   05 Jun 2027 07:41:22.412   05 Jun 2027 07:41:30.221             7.809          3904.500
       152   05 Jun 2027 07:42:12.281   05 Jun 2027 07:42:15.230             2.949          1474.500
       153   05 Jun 2027 07:42:42.420   05 Jun 2027 07:42:46.242             3.822          1911.000
       154   05 Jun 2027 07:43:03.702   05 Jun 2027 07:43:05.713             2.011          1005.500
       155   05 Jun 2027 07:43:20.583   05 Jun 2027 07:43:20.610             0.027            13.500
       156   05 Jun 2027 09:14:09.523   05 Jun 2027 09:14:19.372             9.849          4924.500
       157   05 Jun 2027 09:15:06.385   05 Jun 2027 09:15:15.408             9.023          4511.500
       158   05 Jun 2027 09:16:00.801   05 Jun 2027 09:16:12.497            11.696          5848.000
       159   05 Jun 2027 09:17:04.540   05 Jun 2027 09:17:38.381            33.841         16920.500
       160   06 Jun 2027 03:00:10.421   06 Jun 2027 03:00:26.676            16.255          8127.500
       161   06 Jun 2027 03:01:41.595   06 Jun 2027 03:01:43.062             1.467           733.500
       162   06 Jun 2027 03:01:53.191   06 Jun 2027 03:01:53.762             0.571           285.500
       163   06 Jun 2027 03:01:56.170   06 Jun 2027 03:02:08.410            12.240          6120.000
       164   06 Jun 2027 03:03:01.809   06 Jun 2027 03:03:02.694             0.885           442.500
       165   06 Jun 2027 03:03:14.632   06 Jun 2027 03:03:14.836             0.204           102.000
       166   06 Jun 2027 03:03:26.877   06 Jun 2027 03:03:28.968             2.091          1045.500
       167   06 Jun 2027 03:03:40.605   06 Jun 2027 03:03:42.877             2.272          1136.000
       168   06 Jun 2027 03:03:59.065   06 Jun 2027 03:04:02.319             3.254          1627.000
       169   06 Jun 2027 03:04:35.154   06 Jun 2027 03:04:38.008             2.854          1427.000
       170   06 Jun 2027 03:05:12.648   06 Jun 2027 03:05:12.731             0.083            41.500
       171   06 Jun 2027 03:05:24.775   06 Jun 2027 03:05:36.270            11.495          5747.500
       172   06 Jun 2027 03:06:27.617   06 Jun 2027 03:06:32.739             5.122          2561.000
       173   06 Jun 2027 03:06:47.851   06 Jun 2027 03:06:56.191             8.340          4170.000
       174   06 Jun 2027 03:07:41.916   06 Jun 2027 03:07:42.247             0.331           165.500
       175   06 Jun 2027 03:07:42.521   06 Jun 2027 03:07:44.664             2.143          1071.500
       176   06 Jun 2027 03:08:18.928   06 Jun 2027 03:08:25.541             6.613          3306.500
       177   06 Jun 2027 04:37:41.923   06 Jun 2027 04:37:48.580             6.657          3328.500
       178   06 Jun 2027 04:38:30.324   06 Jun 2027 04:38:51.984            21.660         10830.000
       179   06 Jun 2027 04:40:07.435   06 Jun 2027 04:40:08.379             0.944           472.000
       180   06 Jun 2027 04:41:15.902   06 Jun 2027 04:41:16.746             0.844           422.000
       181   06 Jun 2027 04:41:24.489   06 Jun 2027 04:41:25.016             0.527           263.500
       182   06 Jun 2027 04:41:27.437   06 Jun 2027 04:41:31.662             4.225          2112.500
       183   06 Jun 2027 04:41:55.036   06 Jun 2027 04:41:58.841             3.805          1902.500
       184   06 Jun 2027 04:42:31.343   06 Jun 2027 04:42:43.886            12.543          6271.500
       185   06 Jun 2027 04:43:00.916   06 Jun 2027 04:43:08.957             8.041          4020.500
       186   06 Jun 2027 06:14:38.041   06 Jun 2027 06:14:48.220            10.179          5089.500
       187   06 Jun 2027 06:16:18.047   06 Jun 2027 06:16:22.438             4.391          2195.500
       188   06 Jun 2027 06:16:45.087   06 Jun 2027 06:16:46.394             1.307           653.500
       189   06 Jun 2027 06:16:57.031   06 Jun 2027 06:17:17.564            20.533         10266.500
       190   06 Jun 2027 06:18:57.310   06 Jun 2027 06:18:57.415             0.105            52.500
       191   06 Jun 2027 06:19:04.657   06 Jun 2027 06:19:07.464             2.807          1403.500
       192   06 Jun 2027 06:19:46.228   06 Jun 2027 06:19:57.070            10.842          5421.000
       193   06 Jun 2027 07:51:31.912   06 Jun 2027 07:51:45.019            13.107          6553.500
       194   06 Jun 2027 07:52:43.755   06 Jun 2027 07:52:59.740            15.985          7992.500
       195   06 Jun 2027 07:53:59.893   06 Jun 2027 07:54:04.358             4.465          2232.500
       196   06 Jun 2027 07:54:30.153   06 Jun 2027 07:54:38.028             7.875          3937.500
       197   06 Jun 2027 07:55:20.539   06 Jun 2027 07:55:29.062             8.523          4261.500
       198   06 Jun 2027 09:28:42.011   06 Jun 2027 09:28:58.967            16.956          8478.000
       199   06 Jun 2027 09:30:42.470   06 Jun 2027 09:30:56.692            14.222          7111.000
       200   07 Jun 2027 03:10:50.522   07 Jun 2027 03:11:01.423            10.901          5450.500
       201   07 Jun 2027 03:12:49.081   07 Jun 2027 03:12:49.856             0.775           387.500
       202   07 Jun 2027 03:12:53.636   07 Jun 2027 03:13:01.049             7.413          3706.500
       203   07 Jun 2027 03:13:12.828   07 Jun 2027 03:13:40.312            27.484         13742.000
       204   07 Jun 2027 03:16:03.838   07 Jun 2027 03:16:12.077             8.239          4119.500
       205   07 Jun 2027 03:16:55.372   07 Jun 2027 03:16:59.511             4.139          2069.500
       206   07 Jun 2027 03:17:42.262   07 Jun 2027 03:17:48.471             6.209          3104.500
       207   07 Jun 2027 03:18:15.644   07 Jun 2027 03:18:21.176             5.532          2766.000
       208   07 Jun 2027 03:18:52.519   07 Jun 2027 03:18:56.915             4.396          2198.000
       209   07 Jun 2027 03:19:46.002   07 Jun 2027 03:19:47.816             1.814           907.000
       210   07 Jun 2027 03:20:31.325   07 Jun 2027 03:20:33.272             1.947           973.500
       211   07 Jun 2027 04:49:47.857   07 Jun 2027 04:49:49.028             1.171           585.500
       212   07 Jun 2027 04:49:56.702   07 Jun 2027 04:49:57.334             0.632           316.000
       213   07 Jun 2027 04:50:22.269   07 Jun 2027 04:50:41.498            19.229          9614.500
       214   07 Jun 2027 04:51:04.813   07 Jun 2027 04:51:23.622            18.809          9404.500
       215   07 Jun 2027 04:54:04.971   07 Jun 2027 04:54:12.370             7.399          3699.500
       216   07 Jun 2027 04:55:00.761   07 Jun 2027 04:55:03.468             2.707          1353.500
       217   07 Jun 2027 04:55:34.296   07 Jun 2027 04:55:41.704             7.408          3704.000
       218   07 Jun 2027 04:55:56.573   07 Jun 2027 04:56:03.813             7.240          3620.000
       219   07 Jun 2027 06:27:12.203   07 Jun 2027 06:27:21.613             9.410          4705.000
       220   07 Jun 2027 06:28:08.486   07 Jun 2027 06:28:12.480             3.994          1997.000
       221   07 Jun 2027 06:28:36.319   07 Jun 2027 06:28:41.601             5.282          2641.000
       222   07 Jun 2027 06:29:22.745   07 Jun 2027 06:29:27.750             5.005          2502.500
       223   07 Jun 2027 06:29:52.066   07 Jun 2027 06:29:59.305             7.239          3619.500
       224   07 Jun 2027 06:30:33.599   07 Jun 2027 06:30:40.757             7.158          3579.000
       225   07 Jun 2027 06:31:16.065   07 Jun 2027 06:31:19.698             3.633          1816.500
       226   07 Jun 2027 06:31:42.573   07 Jun 2027 06:31:45.739             3.166          1583.000
       227   07 Jun 2027 08:03:34.171   07 Jun 2027 08:03:35.667             1.496           748.000
       228   07 Jun 2027 08:03:48.569   07 Jun 2027 08:03:50.043             1.474           737.000
       229   07 Jun 2027 08:03:56.130   07 Jun 2027 08:04:04.326             8.196          4098.000
       230   07 Jun 2027 08:04:29.121   07 Jun 2027 08:04:30.908             1.787           893.500
       231   07 Jun 2027 08:04:52.455   07 Jun 2027 08:05:08.257            15.802          7901.000
       232   07 Jun 2027 08:06:38.906   07 Jun 2027 08:06:39.530             0.624           312.000
       233   07 Jun 2027 08:06:56.464   07 Jun 2027 08:07:13.951            17.487          8743.500
       234   07 Jun 2027 09:41:51.946   07 Jun 2027 09:42:06.390            14.444          7222.000
       235   08 Jun 2027 03:26:03.169   08 Jun 2027 03:26:07.701             4.532          2266.000
       236   08 Jun 2027 03:27:04.274   08 Jun 2027 03:27:08.237             3.963          1981.500
       237   08 Jun 2027 03:27:34.277   08 Jun 2027 03:27:35.205             0.928           464.000
       238   08 Jun 2027 03:27:49.717   08 Jun 2027 03:27:57.816             8.099          4049.500
       239   08 Jun 2027 03:28:33.187   08 Jun 2027 03:28:40.438             7.251          3625.500
       240   08 Jun 2027 03:29:35.822   08 Jun 2027 03:29:39.578             3.756          1878.000
       241   08 Jun 2027 03:30:34.533   08 Jun 2027 03:30:42.420             7.887          3943.500
       242   08 Jun 2027 03:31:33.391   08 Jun 2027 03:31:34.107             0.716           358.000
       243   08 Jun 2027 03:32:06.325   08 Jun 2027 03:32:07.599             1.274           637.000
       244   08 Jun 2027 03:32:37.937   08 Jun 2027 03:32:38.574             0.637           318.500
       245   08 Jun 2027 05:02:21.777   08 Jun 2027 05:02:41.129            19.352          9676.000
       246   08 Jun 2027 05:04:01.284   08 Jun 2027 05:04:08.660             7.376          3688.000
       247   08 Jun 2027 05:05:34.457   08 Jun 2027 05:05:39.017             4.560          2280.000
       248   08 Jun 2027 05:06:06.059   08 Jun 2027 05:06:08.593             2.534          1267.000
       249   08 Jun 2027 05:06:31.784   08 Jun 2027 05:06:41.605             9.821          4910.500
       250   08 Jun 2027 05:08:04.795   08 Jun 2027 05:08:09.364             4.569          2284.500
       251   08 Jun 2027 06:39:44.656   08 Jun 2027 06:39:45.099             0.443           221.500
       252   08 Jun 2027 06:40:00.392   08 Jun 2027 06:40:08.812             8.420          4210.000
       253   08 Jun 2027 06:40:14.664   08 Jun 2027 06:40:18.146             3.482          1741.000
       254   08 Jun 2027 06:40:45.066   08 Jun 2027 06:40:51.173             6.107          3053.500
       255   08 Jun 2027 06:41:40.321   08 Jun 2027 06:41:42.388             2.067          1033.500
       256   08 Jun 2027 06:42:10.345   08 Jun 2027 06:42:21.270            10.925          5462.500
       257   08 Jun 2027 06:43:10.344   08 Jun 2027 06:43:10.871             0.527           263.500
       258   08 Jun 2027 06:43:31.602   08 Jun 2027 06:43:37.071             5.469          2734.500
       259   08 Jun 2027 06:44:13.080   08 Jun 2027 06:44:17.434             4.354          2177.000
       260   08 Jun 2027 08:15:54.847   08 Jun 2027 08:16:02.025             7.178          3589.000
       261   08 Jun 2027 08:16:30.930   08 Jun 2027 08:16:33.801             2.871          1435.500
       262   08 Jun 2027 08:17:15.195   08 Jun 2027 08:17:15.865             0.670           335.000
       263   08 Jun 2027 08:17:45.944   08 Jun 2027 08:17:46.717             0.773           386.500
       264   08 Jun 2027 08:17:51.039   08 Jun 2027 08:17:58.528             7.489          3744.500
       265   08 Jun 2027 08:18:41.385   08 Jun 2027 08:18:50.619             9.234          4617.000
       266   08 Jun 2027 08:19:05.959   08 Jun 2027 08:19:09.762             3.803          1901.500
       267   08 Jun 2027 08:19:56.003   08 Jun 2027 08:20:03.152             7.149          3574.500
       268   08 Jun 2027 08:20:28.293   08 Jun 2027 08:20:28.293             0.000             0.000
       269   09 Jun 2027 03:38:04.114   09 Jun 2027 03:38:19.111            14.997          7498.500
       270   09 Jun 2027 03:39:37.083   09 Jun 2027 03:39:37.523             0.440           220.000
       271   09 Jun 2027 03:39:54.399   09 Jun 2027 03:39:59.762             5.363          2681.500
       272   09 Jun 2027 03:41:40.453   09 Jun 2027 03:41:45.278             4.825          2412.500
       273   09 Jun 2027 03:42:09.201   09 Jun 2027 03:42:31.122            21.921         10960.500
       274   09 Jun 2027 03:43:17.168   09 Jun 2027 03:43:18.932             1.764           882.000
       275   09 Jun 2027 03:44:14.865   09 Jun 2027 03:44:18.730             3.865          1932.500
       276   09 Jun 2027 03:44:23.544   09 Jun 2027 03:44:27.188             3.644          1822.000
       277   09 Jun 2027 03:44:43.658   09 Jun 2027 03:44:44.151             0.493           246.500
       278   09 Jun 2027 05:14:00.299   09 Jun 2027 05:14:07.653             7.354          3677.000
       279   09 Jun 2027 05:14:42.706   09 Jun 2027 05:14:46.111             3.405          1702.500
       280   09 Jun 2027 05:15:42.226   09 Jun 2027 05:15:44.000             1.774           887.000
       281   09 Jun 2027 05:16:09.853   09 Jun 2027 05:16:10.966             1.113           556.500
       282   09 Jun 2027 05:16:33.217   09 Jun 2027 05:16:39.492             6.275          3137.500
       283   09 Jun 2027 05:17:06.562   09 Jun 2027 05:17:26.258            19.696          9848.000
       284   09 Jun 2027 05:18:46.626   09 Jun 2027 05:18:48.621             1.995           997.500
       285   09 Jun 2027 05:19:17.777   09 Jun 2027 05:19:20.774             2.997          1498.500
       286   09 Jun 2027 05:20:14.268   09 Jun 2027 05:20:19.115             4.847          2423.500
       287   09 Jun 2027 06:51:58.298   09 Jun 2027 06:52:05.095             6.797          3398.500
       288   09 Jun 2027 06:52:11.741   09 Jun 2027 06:52:14.892             3.151          1575.500
       289   09 Jun 2027 06:52:54.374   09 Jun 2027 06:52:59.440             5.066          2533.000
       290   09 Jun 2027 06:53:31.444   09 Jun 2027 06:53:47.195            15.751          7875.500
       291   09 Jun 2027 06:54:54.615   09 Jun 2027 06:54:55.758             1.143           571.500
       292   09 Jun 2027 06:55:09.309   09 Jun 2027 06:55:09.405             0.096            48.000
       293   09 Jun 2027 06:55:19.382   09 Jun 2027 06:55:25.469             6.087          3043.500
       294   09 Jun 2027 06:55:48.803   09 Jun 2027 06:55:55.271             6.468          3234.000
       295   09 Jun 2027 08:27:49.822   09 Jun 2027 08:27:55.832             6.010          3005.000
       296   09 Jun 2027 08:28:34.457   09 Jun 2027 08:28:38.391             3.934          1967.000
       297   09 Jun 2027 08:28:47.809   09 Jun 2027 08:28:57.818            10.009          5004.500
       298   09 Jun 2027 08:30:56.462   09 Jun 2027 08:31:03.477             7.015          3507.500
       299   09 Jun 2027 08:31:47.888   09 Jun 2027 08:31:54.250             6.362          3181.000
       300   09 Jun 2027 08:32:29.744   09 Jun 2027 08:32:36.386             6.642          3321.000
       301   10 Jun 2027 03:49:20.001   10 Jun 2027 03:49:39.306            19.305          9652.500
       302   10 Jun 2027 03:50:56.399   10 Jun 2027 03:51:01.929             5.530          2765.000
       303   10 Jun 2027 03:51:31.057   10 Jun 2027 03:51:34.238             3.181          1590.500
       304   10 Jun 2027 03:51:53.087   10 Jun 2027 03:51:54.401             1.314           657.000
       305   10 Jun 2027 03:52:17.163   10 Jun 2027 03:52:36.900            19.737          9868.500
       306   10 Jun 2027 03:53:15.805   10 Jun 2027 03:53:19.855             4.050          2025.000
       307   10 Jun 2027 03:54:11.316   10 Jun 2027 03:54:11.316             0.000             0.000
       308   10 Jun 2027 03:54:19.127   10 Jun 2027 03:54:19.471             0.344           172.000
       309   10 Jun 2027 03:54:24.920   10 Jun 2027 03:54:30.235             5.315          2657.500
       310   10 Jun 2027 03:54:38.005   10 Jun 2027 03:54:49.316            11.311          5655.500
       311   10 Jun 2027 03:56:35.625   10 Jun 2027 03:56:36.661             1.036           518.000
       312   10 Jun 2027 03:56:37.563   10 Jun 2027 03:56:38.288             0.725           362.500
       313   10 Jun 2027 03:56:48.563   10 Jun 2027 03:56:52.976             4.413          2206.500
       314   10 Jun 2027 05:26:09.619   10 Jun 2027 05:26:14.556             4.937          2468.500
       315   10 Jun 2027 05:27:23.635   10 Jun 2027 05:27:35.835            12.200          6100.000
       316   10 Jun 2027 05:28:39.392   10 Jun 2027 05:28:39.669             0.277           138.500
       317   10 Jun 2027 05:29:06.654   10 Jun 2027 05:29:07.459             0.805           402.500
       318   10 Jun 2027 05:29:54.898   10 Jun 2027 05:29:56.486             1.588           794.000
       319   10 Jun 2027 05:30:09.039   10 Jun 2027 05:30:09.323             0.284           142.000
       320   10 Jun 2027 05:30:40.668   10 Jun 2027 05:30:40.895             0.227           113.500
       321   10 Jun 2027 05:30:53.955   10 Jun 2027 05:30:56.067             2.112          1056.000
       322   10 Jun 2027 05:31:22.446   10 Jun 2027 05:31:25.479             3.033          1516.500
       323   10 Jun 2027 05:31:56.809   10 Jun 2027 05:32:03.774             6.965          3482.500
       324   10 Jun 2027 07:04:20.814   10 Jun 2027 07:04:33.050            12.236          6118.000
       325   10 Jun 2027 07:05:27.273   10 Jun 2027 07:05:33.058             5.785          2892.500
       326   10 Jun 2027 07:06:01.246   10 Jun 2027 07:06:15.846            14.600          7300.000
       327   10 Jun 2027 07:07:27.861   10 Jun 2027 07:07:29.518             1.657           828.500
       328   10 Jun 2027 07:07:48.633   10 Jun 2027 07:07:55.766             7.133          3566.500
       329   10 Jun 2027 08:37:38.690   10 Jun 2027 08:38:08.981            30.291         15145.500
       330   10 Jun 2027 08:40:18.111   10 Jun 2027 08:40:19.933             1.822           911.000
       331   10 Jun 2027 08:40:34.353   10 Jun 2027 08:40:40.751             6.398          3199.000
       332   10 Jun 2027 08:41:20.739   10 Jun 2027 08:41:24.965             4.226          2113.000
       333   10 Jun 2027 08:42:42.763   10 Jun 2027 08:43:04.946            22.183         11091.500
       334   10 Jun 2027 08:44:42.672   10 Jun 2027 08:44:58.487            15.815          7907.500
       335   11 Jun 2027 04:01:27.592   11 Jun 2027 04:01:32.204             4.612          2306.000
       336   11 Jun 2027 04:01:45.075   11 Jun 2027 04:01:46.770             1.695           847.500
       337   11 Jun 2027 04:02:02.100   11 Jun 2027 04:02:04.791             2.691          1345.500
       338   11 Jun 2027 04:02:17.476   11 Jun 2027 04:02:31.651            14.175          7087.500
       339   11 Jun 2027 04:03:26.736   11 Jun 2027 04:03:28.404             1.668           834.000
       340   11 Jun 2027 04:04:06.233   11 Jun 2027 04:04:20.535            14.302          7151.000
       341   11 Jun 2027 04:05:43.377   11 Jun 2027 04:05:53.126             9.749          4874.500
       342   11 Jun 2027 04:06:15.973   11 Jun 2027 04:06:24.133             8.160          4080.000
       343   11 Jun 2027 04:07:11.347   11 Jun 2027 04:07:12.543             1.196           598.000
       344   11 Jun 2027 04:07:13.937   11 Jun 2027 04:07:22.711             8.774          4387.000
       345   11 Jun 2027 04:08:15.477   11 Jun 2027 04:08:27.094            11.617          5808.500
       346   11 Jun 2027 04:08:52.692   11 Jun 2027 04:08:52.842             0.150            75.000
       347   11 Jun 2027 05:38:25.544   11 Jun 2027 05:38:41.954            16.410          8205.000
       348   11 Jun 2027 05:40:14.265   11 Jun 2027 05:40:19.250             4.985          2492.500
       349   11 Jun 2027 05:40:40.127   11 Jun 2027 05:40:44.712             4.585          2292.500
       350   11 Jun 2027 05:41:19.223   11 Jun 2027 05:41:28.852             9.629          4814.500
       351   11 Jun 2027 05:43:11.038   11 Jun 2027 05:43:19.869             8.831          4415.500
       352   11 Jun 2027 05:44:05.773   11 Jun 2027 05:44:16.642            10.869          5434.500
       353   11 Jun 2027 07:16:22.066   11 Jun 2027 07:16:28.483             6.417          3208.500
       354   11 Jun 2027 07:17:03.774   11 Jun 2027 07:17:04.829             1.055           527.500
       355   11 Jun 2027 07:17:55.521   11 Jun 2027 07:18:00.117             4.596          2298.000
       356   11 Jun 2027 07:18:19.809   11 Jun 2027 07:18:30.097            10.288          5144.000
       357   11 Jun 2027 07:19:29.459   11 Jun 2027 07:19:30.906             1.447           723.500
       358   11 Jun 2027 07:20:19.418   11 Jun 2027 07:20:20.513             1.095           547.500
       359   11 Jun 2027 08:49:42.372   11 Jun 2027 08:49:43.267             0.895           447.500
       360   11 Jun 2027 08:50:12.776   11 Jun 2027 08:50:20.633             7.857          3928.500
       361   11 Jun 2027 08:51:53.055   11 Jun 2027 08:52:08.841            15.786          7893.000
       362   11 Jun 2027 08:53:39.409   11 Jun 2027 08:53:45.250             5.841          2920.500
       363   11 Jun 2027 08:54:44.365   11 Jun 2027 08:54:48.564             4.199          2099.500
       364   11 Jun 2027 08:55:32.721   11 Jun 2027 08:55:33.972             1.251           625.500
       365   11 Jun 2027 08:55:50.135   11 Jun 2027 08:56:00.573            10.438          5219.000
       366   11 Jun 2027 08:56:21.074   11 Jun 2027 08:56:39.602            18.528          9264.000
       367   12 Jun 2027 04:13:29.487   12 Jun 2027 04:13:47.381            17.894          8947.000
       368   12 Jun 2027 04:15:45.633   12 Jun 2027 04:15:46.399             0.766           383.000
       369   12 Jun 2027 04:15:53.563   12 Jun 2027 04:15:54.894             1.331           665.500
       370   12 Jun 2027 04:16:16.170   12 Jun 2027 04:16:20.808             4.638          2319.000
       371   12 Jun 2027 04:17:12.547   12 Jun 2027 04:17:19.472             6.925          3462.500
       372   12 Jun 2027 04:17:57.198   12 Jun 2027 04:18:03.037             5.839          2919.500
       373   12 Jun 2027 04:19:18.387   12 Jun 2027 04:19:24.706             6.319          3159.500
       374   12 Jun 2027 04:19:36.061   12 Jun 2027 04:19:36.061             0.000             0.000
       375   12 Jun 2027 04:20:05.907   12 Jun 2027 04:20:18.723            12.816          6408.000
       376   12 Jun 2027 05:50:15.739   12 Jun 2027 05:50:23.816             8.077          4038.500
       377   12 Jun 2027 05:50:56.524   12 Jun 2027 05:51:00.184             3.660          1830.000
       378   12 Jun 2027 05:51:33.129   12 Jun 2027 05:52:10.832            37.703         18851.500
       379   12 Jun 2027 05:55:08.541   12 Jun 2027 05:55:22.473            13.932          6966.000
       380   12 Jun 2027 05:56:50.739   12 Jun 2027 05:56:51.973             1.234           617.000
       381   12 Jun 2027 05:56:57.401   12 Jun 2027 05:56:58.700             1.299           649.500
       382   12 Jun 2027 07:28:20.966   12 Jun 2027 07:28:28.897             7.931          3965.500
       383   12 Jun 2027 07:28:45.558   12 Jun 2027 07:28:45.558             0.000             0.000
       384   12 Jun 2027 07:29:04.765   12 Jun 2027 07:29:06.982             2.217          1108.500
       385   12 Jun 2027 07:30:06.159   12 Jun 2027 07:30:10.349             4.190          2095.000
       386   12 Jun 2027 07:30:29.445   12 Jun 2027 07:30:33.867             4.422          2211.000
       387   12 Jun 2027 07:30:57.009   12 Jun 2027 07:31:05.854             8.845          4422.500
       388   12 Jun 2027 09:02:09.600   12 Jun 2027 09:02:22.589            12.989          6494.500
       389   12 Jun 2027 09:02:59.984   12 Jun 2027 09:03:03.095             3.111          1555.500
       390   12 Jun 2027 09:03:38.786   12 Jun 2027 09:04:01.441            22.655         11327.500
       391   12 Jun 2027 09:05:38.919   12 Jun 2027 09:05:45.433             6.514          3257.000
       392   12 Jun 2027 09:06:27.308   12 Jun 2027 09:06:45.193            17.885          8942.500
       393   12 Jun 2027 09:08:04.203   12 Jun 2027 09:08:05.280             1.077           538.500
       394   12 Jun 2027 09:08:27.856   12 Jun 2027 09:08:39.335            11.479          5739.500
       395   13 Jun 2027 04:25:30.428   13 Jun 2027 04:25:40.455            10.027          5013.500
       396   13 Jun 2027 04:26:41.745   13 Jun 2027 04:26:49.088             7.343          3671.500
       397   13 Jun 2027 04:27:27.588   13 Jun 2027 04:27:37.515             9.927          4963.500
       398   13 Jun 2027 04:28:40.150   13 Jun 2027 04:28:46.508             6.358          3179.000
       399   13 Jun 2027 04:29:20.622   13 Jun 2027 04:29:21.000             0.378           189.000
       400   13 Jun 2027 04:29:44.095   13 Jun 2027 04:29:49.916             5.821          2910.500
       401   13 Jun 2027 04:31:05.961   13 Jun 2027 04:31:10.340             4.379          2189.500
       402   13 Jun 2027 04:31:19.018   13 Jun 2027 04:31:26.725             7.707          3853.500
       403   13 Jun 2027 04:32:43.154   13 Jun 2027 04:32:56.897            13.743          6871.500
       404   13 Jun 2027 06:02:25.224   13 Jun 2027 06:02:33.082             7.858          3929.000
       405   13 Jun 2027 06:03:57.563   13 Jun 2027 06:04:17.858            20.295         10147.500
       406   13 Jun 2027 06:05:40.603   13 Jun 2027 06:05:41.238             0.635           317.500
       407   13 Jun 2027 06:06:02.300   13 Jun 2027 06:06:06.875             4.575          2287.500
       408   13 Jun 2027 06:06:26.977   13 Jun 2027 06:06:29.183             2.206          1103.000
       409   13 Jun 2027 06:06:42.606   13 Jun 2027 06:06:48.247             5.641          2820.500
       410   13 Jun 2027 06:07:23.680   13 Jun 2027 06:07:28.506             4.826          2413.000
       411   13 Jun 2027 06:08:03.161   13 Jun 2027 06:08:07.000             3.839          1919.500
       412   13 Jun 2027 06:08:30.252   13 Jun 2027 06:08:31.859             1.607           803.500
       413   13 Jun 2027 06:08:40.385   13 Jun 2027 06:08:49.732             9.347          4673.500
       414   13 Jun 2027 07:39:33.583   13 Jun 2027 07:39:35.159             1.576           788.000
       415   13 Jun 2027 07:39:53.247   13 Jun 2027 07:40:12.833            19.586          9793.000
       416   13 Jun 2027 07:41:37.020   13 Jun 2027 07:41:43.214             6.194          3097.000
       417   13 Jun 2027 07:42:21.270   13 Jun 2027 07:42:24.030             2.760          1380.000
       418   13 Jun 2027 07:43:20.640   13 Jun 2027 07:43:24.451             3.811          1905.500
       419   13 Jun 2027 07:44:05.496   13 Jun 2027 07:44:23.441            17.945          8972.500
       420   13 Jun 2027 09:14:24.901   13 Jun 2027 09:14:34.139             9.238          4619.000
       421   13 Jun 2027 09:15:21.182   13 Jun 2027 09:15:29.671             8.489          4244.500
       422   13 Jun 2027 09:16:15.490   13 Jun 2027 09:16:28.018            12.528          6264.000
       423   13 Jun 2027 09:17:19.604   13 Jun 2027 09:17:53.114            33.510         16755.000
