uniorb/output/strategy_2/Camera/Camera_KinoSat_111208.txt

KinoSat_111208
-------------------------
    Access    *     Start Time (UTCG)     *     Stop Time (UTCG)  *   Duration (s) *   Data (Mbytes)
         1   01 Jun 2027 03:02:30.718   01 Jun 2027 03:03:51.478            80.760         40380.000
         2   01 Jun 2027 03:04:29.006   01 Jun 2027 03:04:52.878            23.872         11936.000
         3   01 Jun 2027 03:05:53.130   01 Jun 2027 03:06:21.741            28.611         14305.500
         4   01 Jun 2027 04:26:37.621   01 Jun 2027 04:27:21.644            44.023         22011.500
         5   01 Jun 2027 04:28:29.907   01 Jun 2027 04:28:35.993             6.086          3043.000
         6   01 Jun 2027 06:00:24.156   01 Jun 2027 06:03:07.016           162.860         81430.000
         7   01 Jun 2027 06:05:22.666   01 Jun 2027 06:06:04.117            41.451         20725.500
         8   01 Jun 2027 07:36:24.492   01 Jun 2027 07:38:29.263           124.771         62385.500
         9   01 Jun 2027 07:38:57.762   01 Jun 2027 07:39:00.466             2.704          1352.000
        10   01 Jun 2027 07:39:54.459   01 Jun 2027 07:40:12.831            18.372          9186.000
        11   01 Jun 2027 07:40:15.727   01 Jun 2027 07:40:26.866            11.139          5569.500
        12   01 Jun 2027 07:40:55.099   01 Jun 2027 07:41:03.075             7.976          3988.000
        13   01 Jun 2027 07:44:15.107   01 Jun 2027 07:44:54.176            39.069         19534.500
        14   01 Jun 2027 09:13:26.964   01 Jun 2027 09:15:27.548           120.584         60292.000
        15   01 Jun 2027 09:18:37.631   01 Jun 2027 09:18:46.354             8.723          4361.500
        16   01 Jun 2027 09:18:59.941   01 Jun 2027 09:19:20.172            20.231         10115.500
        17   01 Jun 2027 10:50:21.716   01 Jun 2027 10:52:28.338           126.622         63311.000
        18   01 Jun 2027 10:54:20.677   01 Jun 2027 10:54:28.323             7.646          3823.000
        19   02 Jun 2027 03:15:07.377   02 Jun 2027 03:17:21.075           133.698         66849.000
        20   02 Jun 2027 03:17:47.834   02 Jun 2027 03:18:25.182            37.348         18674.000
        21   02 Jun 2027 04:38:32.416   02 Jun 2027 04:39:27.809            55.393         27696.500
        22   02 Jun 2027 04:40:07.261   02 Jun 2027 04:40:07.761             0.500           250.000
        23   02 Jun 2027 06:14:51.581   02 Jun 2027 06:17:14.245           142.664         71332.000
        24   02 Jun 2027 06:17:40.200   02 Jun 2027 06:17:53.334            13.134          6567.000
        25   02 Jun 2027 07:48:21.007   02 Jun 2027 07:50:23.151           122.144         61072.000
        26   02 Jun 2027 07:50:45.107   02 Jun 2027 07:50:55.622            10.515          5257.500
        27   02 Jun 2027 07:51:42.278   02 Jun 2027 07:51:53.864            11.586          5793.000
        28   02 Jun 2027 07:54:01.440   02 Jun 2027 07:54:01.440             0.000             0.000
        29   02 Jun 2027 07:55:30.334   02 Jun 2027 07:55:36.728             6.394          3197.000
        30   02 Jun 2027 07:55:48.613   02 Jun 2027 07:55:50.499             1.886           943.000
        31   02 Jun 2027 09:25:53.146   02 Jun 2027 09:26:56.377            63.231         31431.844
        32   02 Jun 2027 09:27:19.604   02 Jun 2027 09:27:21.255             1.651           715.813
        33   02 Jun 2027 09:28:05.747   02 Jun 2027 09:28:08.834             3.087           780.875
        34   02 Jun 2027 09:29:32.556   02 Jun 2027 09:29:37.392             4.836          2418.000
        35   02 Jun 2027 09:30:36.795   02 Jun 2027 09:30:42.826             6.031          2054.656
        36   02 Jun 2027 09:30:58.773   02 Jun 2027 09:30:59.744             0.971           295.219
        37   02 Jun 2027 09:32:00.281   02 Jun 2027 09:32:07.370             7.089          1747.344
        38   02 Jun 2027 09:32:32.994   02 Jun 2027 09:32:35.547             2.553           799.250
        39   02 Jun 2027 11:02:49.206   02 Jun 2027 11:03:10.524            21.318          7000.844
        40   02 Jun 2027 11:03:56.305   02 Jun 2027 11:04:02.147             5.842          1069.375
        41   02 Jun 2027 11:04:37.031   02 Jun 2027 11:04:38.712             1.681           683.500
        42   02 Jun 2027 11:05:40.679   02 Jun 2027 11:05:52.679            12.000          1884.219
        43   02 Jun 2027 11:06:17.633   02 Jun 2027 11:06:21.550             3.917           721.750
        44   02 Jun 2027 11:06:39.644   02 Jun 2027 11:06:43.718             4.074           535.094
        45   02 Jun 2027 11:07:00.301   02 Jun 2027 11:07:07.494             7.193           427.656
        46   02 Jun 2027 11:07:35.152   02 Jun 2027 11:07:35.450             0.298           149.000
        47   02 Jun 2027 11:08:36.494   02 Jun 2027 11:08:37.537             1.043           521.500
        48   03 Jun 2027 03:26:46.034   03 Jun 2027 03:30:06.933           200.899        100449.500
        49   03 Jun 2027 04:50:24.030   03 Jun 2027 04:51:30.409            66.379         33189.500
        50   03 Jun 2027 04:51:33.960   03 Jun 2027 04:51:33.960             0.000             0.000
        51   03 Jun 2027 04:52:16.087   03 Jun 2027 04:52:16.087             0.000             0.000
        52   03 Jun 2027 06:26:53.073   03 Jun 2027 06:27:43.500            50.427         24845.094
        53   03 Jun 2027 06:28:06.542   03 Jun 2027 06:28:08.875             2.333           584.875
        54   03 Jun 2027 06:28:43.949   03 Jun 2027 06:28:45.923             1.974            34.844
        55   03 Jun 2027 06:29:39.835   03 Jun 2027 06:29:39.835             0.000             0.000
        56   03 Jun 2027 06:30:07.760   03 Jun 2027 06:30:12.531             4.771          2286.000
        57   03 Jun 2027 08:01:00.741   03 Jun 2027 08:01:16.098            15.357          4687.594
        58   03 Jun 2027 08:01:49.174   03 Jun 2027 08:01:52.903             3.729           478.719
        59   03 Jun 2027 08:03:04.939   03 Jun 2027 08:03:07.508             2.569           631.469
        60   03 Jun 2027 08:03:15.936   03 Jun 2027 08:03:16.980             1.044            87.500
        61   03 Jun 2027 08:03:34.366   03 Jun 2027 08:03:37.665             3.299           277.000
        62   03 Jun 2027 08:04:18.937   03 Jun 2027 08:04:21.662             2.725          1093.000
        63   03 Jun 2027 08:06:02.288   03 Jun 2027 08:06:03.813             1.525           762.500
        64   03 Jun 2027 08:06:15.221   03 Jun 2027 08:06:19.893             4.672          1451.094
        65   03 Jun 2027 08:06:48.395   03 Jun 2027 08:06:52.879             4.484           507.906
        66   03 Jun 2027 08:07:25.121   03 Jun 2027 08:07:26.619             1.498           582.000
        67   03 Jun 2027 08:07:27.288   03 Jun 2027 08:07:27.288             0.000             0.000
        68   03 Jun 2027 08:07:50.253   03 Jun 2027 08:07:51.653             1.400           674.813
        69   03 Jun 2027 08:08:41.666   03 Jun 2027 08:08:46.183             4.517          1562.906
        70   03 Jun 2027 09:37:59.239   03 Jun 2027 09:38:11.951            12.712          6134.500
        71   03 Jun 2027 09:40:04.042   03 Jun 2027 09:40:10.462             6.420          2982.844
        72   03 Jun 2027 09:40:18.305   03 Jun 2027 09:40:19.200             0.895            63.344
        73   03 Jun 2027 09:40:44.469   03 Jun 2027 09:40:45.730             1.261           469.781
        74   03 Jun 2027 09:40:53.295   03 Jun 2027 09:40:57.261             3.966           236.406
        75   03 Jun 2027 09:41:28.882   03 Jun 2027 09:41:30.725             1.843           630.906
        76   03 Jun 2027 09:41:56.039   03 Jun 2027 09:41:59.075             3.036           508.875
        77   03 Jun 2027 09:42:21.794   03 Jun 2027 09:42:23.175             1.381           689.969
        78   03 Jun 2027 09:42:29.182   03 Jun 2027 09:42:30.621             1.439           187.719
        79   03 Jun 2027 09:42:58.016   03 Jun 2027 09:43:01.590             3.574           661.813
        80   03 Jun 2027 09:43:57.434   03 Jun 2027 09:44:02.300             4.866          1682.344
        81   03 Jun 2027 11:15:37.995   03 Jun 2027 11:15:50.377            12.382          6191.000
        82   03 Jun 2027 11:16:20.716   03 Jun 2027 11:16:23.979             3.263          1276.219
        83   03 Jun 2027 11:17:02.940   03 Jun 2027 11:17:05.307             2.367          1100.844
        84   03 Jun 2027 11:17:46.034   03 Jun 2027 11:17:47.911             1.877           938.500
        85   03 Jun 2027 11:18:17.719   03 Jun 2027 11:18:20.771             3.052          1265.719
        86   03 Jun 2027 11:18:32.189   03 Jun 2027 11:18:34.176             1.987           234.031
        87   03 Jun 2027 11:19:14.496   03 Jun 2027 11:19:18.904             4.408          1134.125
        88   04 Jun 2027 03:39:13.984   04 Jun 2027 03:39:36.421            22.437         11218.500
        89   04 Jun 2027 03:39:59.175   04 Jun 2027 03:43:05.200           186.025         93012.500
        90   04 Jun 2027 05:02:32.851   04 Jun 2027 05:03:30.035            57.184         28592.000
        91   04 Jun 2027 05:04:12.573   04 Jun 2027 05:04:19.831             7.258          3629.000
        92   04 Jun 2027 05:05:25.314   04 Jun 2027 05:05:38.098            12.784          6392.000
        93   04 Jun 2027 06:39:03.307   04 Jun 2027 06:39:27.937            24.630         12175.750
        94   04 Jun 2027 06:39:44.283   04 Jun 2027 06:39:46.173             1.890           510.812
        95   04 Jun 2027 06:40:11.064   04 Jun 2027 06:40:15.049             3.985            96.031
        96   04 Jun 2027 06:41:07.690   04 Jun 2027 06:41:11.512             3.822          1562.344
        97   04 Jun 2027 06:41:28.624   04 Jun 2027 06:41:31.128             2.504           498.656
        98   04 Jun 2027 08:14:13.433   04 Jun 2027 08:14:23.964            10.531          4978.719
        99   04 Jun 2027 08:14:37.608   04 Jun 2027 08:14:42.150             4.542            88.344
       100   04 Jun 2027 08:17:09.175   04 Jun 2027 08:17:15.605             6.430          2744.469
       101   04 Jun 2027 08:18:09.549   04 Jun 2027 08:18:13.224             3.675          1036.313
       102   04 Jun 2027 08:19:27.516   04 Jun 2027 08:19:35.847             8.331          2251.750
       103   04 Jun 2027 08:20:15.806   04 Jun 2027 08:20:20.369             4.563           840.719
       104   04 Jun 2027 08:20:41.116   04 Jun 2027 08:20:44.491             3.375           610.500
       105   04 Jun 2027 09:50:35.461   04 Jun 2027 09:50:51.663            16.202          6768.531
       106   04 Jun 2027 09:52:15.594   04 Jun 2027 09:52:26.172            10.578          2258.094
       107   04 Jun 2027 09:52:43.652   04 Jun 2027 09:52:43.843             0.191            95.500
       108   04 Jun 2027 09:53:11.989   04 Jun 2027 09:53:13.543             1.554           777.000
       109   04 Jun 2027 09:53:48.530   04 Jun 2027 09:53:57.089             8.559          1514.063
       110   04 Jun 2027 09:54:57.643   04 Jun 2027 09:55:01.301             3.658          1796.281
       111   04 Jun 2027 09:55:13.628   04 Jun 2027 09:55:14.639             1.011           385.219
       112   04 Jun 2027 09:56:15.348   04 Jun 2027 09:56:17.831             2.483          1016.000
       113   04 Jun 2027 09:56:26.157   04 Jun 2027 09:56:28.605             2.448           260.187
       114   04 Jun 2027 11:27:53.225   04 Jun 2027 11:28:06.950            13.725          5772.875
       115   04 Jun 2027 11:28:17.337   04 Jun 2027 11:28:17.337             0.000             0.000
       116   04 Jun 2027 11:28:35.603   04 Jun 2027 11:28:39.184             3.581           696.719
       117   04 Jun 2027 11:28:56.620   04 Jun 2027 11:28:58.286             1.666           544.875
       118   04 Jun 2027 11:29:02.039   04 Jun 2027 11:29:02.507             0.468           117.281
       119   04 Jun 2027 11:30:00.454   04 Jun 2027 11:30:04.559             4.105          1789.875
       120   04 Jun 2027 11:30:19.773   04 Jun 2027 11:30:26.850             7.077           450.719
       121   04 Jun 2027 11:30:38.800   04 Jun 2027 11:30:39.258             0.458           229.000
       122   04 Jun 2027 11:30:50.898   04 Jun 2027 11:30:58.091             7.193           455.781
       123   04 Jun 2027 11:31:06.756   04 Jun 2027 11:31:09.414             2.658           264.531
       124   04 Jun 2027 11:31:28.792   04 Jun 2027 11:31:35.988             7.196           605.563
       125   04 Jun 2027 11:31:59.184   04 Jun 2027 11:31:59.184             0.000             0.000
       126   04 Jun 2027 11:32:09.916   04 Jun 2027 11:32:10.956             1.040           520.000
       127   04 Jun 2027 11:32:24.847   04 Jun 2027 11:32:28.046             3.199           861.437
       128   05 Jun 2027 03:51:07.517   05 Jun 2027 03:51:44.431            36.914         18457.000
       129   05 Jun 2027 03:52:13.430   05 Jun 2027 03:54:30.622           137.192         68596.000
       130   05 Jun 2027 05:15:12.788   05 Jun 2027 05:16:38.599            85.811         42905.500
       131   05 Jun 2027 06:50:58.435   05 Jun 2027 06:51:55.982            57.547         26604.938
       132   05 Jun 2027 06:52:37.380   05 Jun 2027 06:52:43.583             6.203           878.969
       133   05 Jun 2027 06:53:37.242   05 Jun 2027 06:53:39.734             2.492          1246.000
       134   05 Jun 2027 06:54:02.680   05 Jun 2027 06:54:04.797             2.117           884.500
       135   05 Jun 2027 06:54:23.896   05 Jun 2027 06:54:26.633             2.737           420.937
       136   05 Jun 2027 08:25:55.756   05 Jun 2027 08:26:07.281            11.525          4525.156
       137   05 Jun 2027 08:27:53.252   05 Jun 2027 08:27:59.505             6.253          2800.844
       138   05 Jun 2027 08:28:30.543   05 Jun 2027 08:28:31.350             0.807           163.031
       139   05 Jun 2027 08:28:42.491   05 Jun 2027 08:28:47.361             4.870           348.156
       140   05 Jun 2027 08:29:54.325   05 Jun 2027 08:29:59.510             5.185          1876.375
       141   05 Jun 2027 08:30:33.903   05 Jun 2027 08:30:41.662             7.759           900.188
       142   05 Jun 2027 08:30:56.067   05 Jun 2027 08:30:57.674             1.607           395.437
       143   05 Jun 2027 08:31:32.464   05 Jun 2027 08:31:33.079             0.615           307.500
       144   05 Jun 2027 08:32:25.352   05 Jun 2027 08:32:29.336             3.984          1931.844
       145   05 Jun 2027 10:02:08.243   05 Jun 2027 10:02:27.543            19.300          8209.000
       146   05 Jun 2027 10:03:09.609   05 Jun 2027 10:03:11.483             1.874           859.875
       147   05 Jun 2027 10:04:19.455   05 Jun 2027 10:04:23.615             4.160          1839.375
       148   05 Jun 2027 10:04:46.539   05 Jun 2027 10:04:48.210             1.671           362.625
       149   05 Jun 2027 10:04:57.075   05 Jun 2027 10:04:57.359             0.284            85.688
       150   05 Jun 2027 10:05:41.204   05 Jun 2027 10:05:43.275             2.071           822.469
       151   05 Jun 2027 10:06:40.102   05 Jun 2027 10:06:44.718             4.616          1422.438
       152   05 Jun 2027 10:07:05.196   05 Jun 2027 10:07:12.677             7.481           527.656
       153   05 Jun 2027 10:07:30.746   05 Jun 2027 10:07:32.725             1.979           532.844
       154   05 Jun 2027 10:07:48.345   05 Jun 2027 10:07:49.450             1.105           464.375
       155   05 Jun 2027 10:08:18.659   05 Jun 2027 10:08:18.659             0.000             0.000
       156   05 Jun 2027 10:08:27.723   05 Jun 2027 10:08:29.925             2.202           975.688
       157   05 Jun 2027 11:40:09.447   05 Jun 2027 11:40:24.616            15.169          7189.187
       158   05 Jun 2027 11:41:20.229   05 Jun 2027 11:41:25.150             4.921          1601.687
       159   05 Jun 2027 11:42:01.650   05 Jun 2027 11:42:02.375             0.725           362.500
       160   05 Jun 2027 11:42:10.463   05 Jun 2027 11:42:11.805             1.342           671.000
       161   05 Jun 2027 11:42:36.583   05 Jun 2027 11:42:39.206             2.623           981.844
       162   05 Jun 2027 11:43:13.293   05 Jun 2027 11:43:17.545             4.252          1065.219
       163   05 Jun 2027 11:44:12.709   05 Jun 2027 11:44:16.305             3.596          1609.188
       164   06 Jun 2027 03:51:59.425   06 Jun 2027 03:52:39.410            39.985         19992.500
       165   06 Jun 2027 04:03:03.347   06 Jun 2027 04:04:47.004           103.657         51828.500
       166   06 Jun 2027 04:04:56.263   06 Jun 2027 04:06:22.841            86.578         43289.000
       167   06 Jun 2027 05:26:02.181   06 Jun 2027 05:26:47.934            45.753         22876.500
       168   06 Jun 2027 07:01:34.503   06 Jun 2027 07:01:41.484             6.981          3490.500
       169   06 Jun 2027 07:02:44.278   06 Jun 2027 07:03:33.849            49.571         24498.719
       170   06 Jun 2027 07:03:56.210   06 Jun 2027 07:04:02.443             6.233           193.438
       171   06 Jun 2027 07:04:04.276   06 Jun 2027 07:04:04.848             0.572            57.281
       172   06 Jun 2027 07:04:24.302   06 Jun 2027 07:04:27.155             2.853           599.594
       173   06 Jun 2027 07:05:10.814   06 Jun 2027 07:05:17.932             7.118           786.406
       174   06 Jun 2027 07:06:09.959   06 Jun 2027 07:06:13.246             3.287          1564.125
       175   06 Jun 2027 07:06:56.361   06 Jun 2027 07:07:00.788             4.427          1347.344
       176   06 Jun 2027 07:07:09.245   06 Jun 2027 07:07:10.828             1.583           126.156
       177   06 Jun 2027 08:37:29.474   06 Jun 2027 08:37:41.200            11.726          3844.469
       178   06 Jun 2027 08:39:06.064   06 Jun 2027 08:39:11.057             4.993          2340.125
       179   06 Jun 2027 08:40:24.013   06 Jun 2027 08:40:26.909             2.896          1167.344
       180   06 Jun 2027 08:40:29.811   06 Jun 2027 08:40:30.385             0.574            90.687
       181   06 Jun 2027 08:41:05.135   06 Jun 2027 08:41:09.083             3.948          1085.937
       182   06 Jun 2027 08:41:31.036   06 Jun 2027 08:41:32.119             1.083           420.031
       183   06 Jun 2027 08:41:50.514   06 Jun 2027 08:41:51.700             1.186           548.156
       184   06 Jun 2027 08:42:38.448   06 Jun 2027 08:42:40.463             2.015           741.781
       185   06 Jun 2027 08:43:14.664   06 Jun 2027 08:43:15.261             0.597           298.500
       186   06 Jun 2027 08:43:15.454   06 Jun 2027 08:43:21.002             5.548           226.750
       187   06 Jun 2027 08:43:48.653   06 Jun 2027 08:43:54.857             6.204           864.094
       188   06 Jun 2027 08:44:50.345   06 Jun 2027 08:44:56.722             6.377          1728.469
       189   06 Jun 2027 10:14:29.874   06 Jun 2027 10:14:50.863            20.989          9026.281
       190   06 Jun 2027 10:16:11.800   06 Jun 2027 10:16:12.287             0.487           152.781
       191   06 Jun 2027 10:16:23.047   06 Jun 2027 10:16:25.534             2.487            26.687
       192   06 Jun 2027 10:16:42.877   06 Jun 2027 10:16:43.870             0.993           274.125
       193   06 Jun 2027 10:16:48.716   06 Jun 2027 10:16:49.885             1.169           151.438
       194   06 Jun 2027 10:17:53.901   06 Jun 2027 10:17:57.152             3.251          1276.344
       195   06 Jun 2027 10:18:02.801   06 Jun 2027 10:18:04.315             1.514           176.531
       196   06 Jun 2027 10:18:49.171   06 Jun 2027 10:18:53.318             4.147          1401.750
       197   06 Jun 2027 10:19:02.041   06 Jun 2027 10:19:02.459             0.418           208.563
       198   06 Jun 2027 10:20:13.433   06 Jun 2027 10:20:20.314             6.881          2217.938
       199   06 Jun 2027 11:52:31.112   06 Jun 2027 11:52:44.654            13.542          6771.000
       200   06 Jun 2027 11:52:49.833   06 Jun 2027 11:52:51.233             1.400           575.000
       201   06 Jun 2027 11:53:32.956   06 Jun 2027 11:53:38.545             5.589          1261.750
       202   06 Jun 2027 11:54:10.819   06 Jun 2027 11:54:10.819             0.000             0.000
       203   06 Jun 2027 11:54:37.235   06 Jun 2027 11:54:39.697             2.462          1137.500
       204   06 Jun 2027 11:54:51.451   06 Jun 2027 11:54:52.556             1.105           367.313
       205   06 Jun 2027 11:55:24.494   06 Jun 2027 11:55:26.563             2.069           998.063
       206   06 Jun 2027 11:56:14.291   06 Jun 2027 11:56:18.022             3.731          1233.750
       207   07 Jun 2027 04:03:22.625   07 Jun 2027 04:03:35.019            12.394          6197.000
       208   07 Jun 2027 04:03:44.243   07 Jun 2027 04:04:51.515            67.272         33636.000
       209   07 Jun 2027 04:15:04.646   07 Jun 2027 04:16:25.165            80.519         40259.500
       210   07 Jun 2027 05:37:18.355   07 Jun 2027 05:38:32.071            73.716         36858.000
       211   07 Jun 2027 05:39:19.188   07 Jun 2027 05:39:39.124            19.936          9968.000
       212   07 Jun 2027 05:39:45.731   07 Jun 2027 05:39:45.731             0.000             0.000
       213   07 Jun 2027 05:40:10.270   07 Jun 2027 05:40:16.398             6.128          3064.000
       214   07 Jun 2027 05:41:33.763   07 Jun 2027 05:41:41.609             7.846          3923.000
       215   07 Jun 2027 07:12:26.117   07 Jun 2027 07:13:21.213            55.096         26732.438
       216   07 Jun 2027 07:13:47.794   07 Jun 2027 07:13:50.286             2.492            52.500
       217   07 Jun 2027 07:14:27.670   07 Jun 2027 07:14:32.335             4.665           901.437
       218   07 Jun 2027 07:15:00.555   07 Jun 2027 07:15:01.650             1.095           390.188
       219   07 Jun 2027 07:15:21.723   07 Jun 2027 07:15:22.638             0.915           419.875
       220   07 Jun 2027 07:15:52.659   07 Jun 2027 07:15:53.301             0.642           321.000
       221   07 Jun 2027 07:16:36.691   07 Jun 2027 07:16:40.909             4.218          1930.437
       222   07 Jun 2027 07:17:30.997   07 Jun 2027 07:17:39.590             8.593          1418.625
       223   07 Jun 2027 07:18:02.094   07 Jun 2027 07:18:06.040             3.946           676.312
       224   07 Jun 2027 07:18:49.582   07 Jun 2027 07:18:53.506             3.924          1083.031
       225   07 Jun 2027 07:20:23.198   07 Jun 2027 07:20:23.515             0.317           158.500
       226   07 Jun 2027 08:49:38.058   07 Jun 2027 08:49:51.752            13.694          4374.531
       227   07 Jun 2027 08:50:32.773   07 Jun 2027 08:50:32.773             0.000             0.000
       228   07 Jun 2027 08:51:46.557   07 Jun 2027 08:51:53.944             7.387          3320.406
       229   07 Jun 2027 08:52:03.716   07 Jun 2027 08:52:07.947             4.231           127.469
       230   07 Jun 2027 08:52:59.738   07 Jun 2027 08:53:01.758             2.020           677.031
       231   07 Jun 2027 08:53:25.941   07 Jun 2027 08:53:29.806             3.865           560.031
       232   07 Jun 2027 08:54:04.683   07 Jun 2027 08:54:10.347             5.664           534.438
       233   07 Jun 2027 08:54:58.262   07 Jun 2027 08:55:00.759             2.497           837.313
       234   07 Jun 2027 08:55:18.364   07 Jun 2027 08:55:20.709             2.345           550.156
       235   07 Jun 2027 08:55:25.689   07 Jun 2027 08:55:25.689             0.000             0.000
       236   07 Jun 2027 08:56:00.031   07 Jun 2027 08:56:02.563             2.532          1121.219
       237   07 Jun 2027 08:56:20.774   07 Jun 2027 08:56:24.901             4.127           569.094
       238   07 Jun 2027 08:56:58.061   07 Jun 2027 08:57:00.236             2.175           515.094
       239   07 Jun 2027 10:26:35.459   07 Jun 2027 10:26:52.278            16.819          8251.312
       240   07 Jun 2027 10:27:00.588   07 Jun 2027 10:27:06.538             5.950           259.688
       241   07 Jun 2027 10:28:41.782   07 Jun 2027 10:28:44.429             2.647           812.062
       242   07 Jun 2027 10:29:14.615   07 Jun 2027 10:29:16.044             1.429            60.281
       243   07 Jun 2027 10:30:27.074   07 Jun 2027 10:30:32.945             5.871          2198.031
       244   07 Jun 2027 10:30:54.022   07 Jun 2027 10:30:57.356             3.334           641.219
       245   07 Jun 2027 10:31:44.722   07 Jun 2027 10:31:48.673             3.951          1414.813
       246   08 Jun 2027 04:14:49.656   08 Jun 2027 04:16:08.843            79.187         39593.500
       247   08 Jun 2027 04:16:55.004   08 Jun 2027 04:16:56.284             1.280           640.000
       248   08 Jun 2027 04:27:01.583   08 Jun 2027 04:27:41.114            39.531         19765.500
       249   08 Jun 2027 05:49:03.474   08 Jun 2027 05:50:23.781            80.307         40153.500
       250   08 Jun 2027 05:51:06.845   08 Jun 2027 05:52:18.540            71.695         35847.500
       251   08 Jun 2027 07:23:55.769   08 Jun 2027 07:24:38.240            42.471         20924.062
       252   08 Jun 2027 07:25:41.648   08 Jun 2027 07:25:48.206             6.558          1366.750
       253   08 Jun 2027 07:26:31.709   08 Jun 2027 07:26:32.978             1.269           634.500
       254   08 Jun 2027 07:27:20.926   08 Jun 2027 07:27:26.180             5.254          2197.469
       255   08 Jun 2027 07:28:20.762   08 Jun 2027 07:28:28.990             8.228          1705.688
       256   08 Jun 2027 07:29:25.814   08 Jun 2027 07:29:30.645             4.831          1271.406
       257   08 Jun 2027 07:29:59.646   08 Jun 2027 07:30:02.768             3.122           906.281
       258   08 Jun 2027 07:30:25.793   08 Jun 2027 07:30:25.793             0.000             0.000
       259   08 Jun 2027 07:31:20.936   08 Jun 2027 07:31:28.586             7.650          2014.500
       260   08 Jun 2027 07:32:18.863   08 Jun 2027 07:32:25.921             7.058          1571.156
       261   08 Jun 2027 09:01:39.827   08 Jun 2027 09:01:52.221            12.394          5936.812
       262   08 Jun 2027 09:02:37.078   08 Jun 2027 09:02:37.078             0.000             0.000
       263   08 Jun 2027 09:04:32.161   08 Jun 2027 09:04:42.836            10.675          4675.062
       264   08 Jun 2027 09:05:19.162   08 Jun 2027 09:05:21.400             2.238           180.562
       265   08 Jun 2027 09:05:22.535   08 Jun 2027 09:05:22.799             0.264            35.469
       266   08 Jun 2027 09:05:53.702   08 Jun 2027 09:05:54.588             0.886           383.656
       267   08 Jun 2027 09:06:00.709   08 Jun 2027 09:06:01.783             1.074            93.219
       268   08 Jun 2027 09:07:21.397   08 Jun 2027 09:07:21.397             0.000             0.000
       269   08 Jun 2027 09:07:41.724   08 Jun 2027 09:07:45.448             3.724          1859.156
       270   08 Jun 2027 09:08:39.296   08 Jun 2027 09:08:44.560             5.264          1542.719
       271   08 Jun 2027 09:08:51.990   08 Jun 2027 09:08:52.861             0.871            76.719
       272   08 Jun 2027 09:09:04.765   08 Jun 2027 09:09:06.057             1.292           233.937
       273   08 Jun 2027 10:38:27.846   08 Jun 2027 10:38:43.278            15.432          6599.562
       274   08 Jun 2027 10:38:49.972   08 Jun 2027 10:38:50.514             0.542           209.188
       275   08 Jun 2027 10:38:57.727   08 Jun 2027 10:39:03.094             5.367            28.187
       276   08 Jun 2027 10:40:48.682   08 Jun 2027 10:40:53.220             4.538          2269.000
       277   08 Jun 2027 10:41:17.080   08 Jun 2027 10:41:22.335             5.255           869.656
       278   08 Jun 2027 10:41:59.952   08 Jun 2027 10:42:05.875             5.923          1175.531
       279   08 Jun 2027 10:42:08.356   08 Jun 2027 10:42:21.335            12.979            77.531
       280   08 Jun 2027 10:42:42.701   08 Jun 2027 10:42:45.178             2.477           592.594
       281   08 Jun 2027 10:43:22.112   08 Jun 2027 10:43:24.683             2.571          1154.187
       282   08 Jun 2027 10:43:54.592   08 Jun 2027 10:43:56.521             1.929           934.656
       283   08 Jun 2027 10:44:12.493   08 Jun 2027 10:44:14.034             1.541           136.469
       284   08 Jun 2027 10:44:45.946   08 Jun 2027 10:44:48.737             2.791           952.469
       285   09 Jun 2027 03:02:46.807   09 Jun 2027 03:04:06.972            80.165         40082.500
       286   09 Jun 2027 03:04:45.161   09 Jun 2027 03:05:24.338            39.177         19588.500
       287   09 Jun 2027 03:06:06.128   09 Jun 2027 03:06:31.109            24.981         12490.500
       288   09 Jun 2027 03:07:06.843   09 Jun 2027 03:07:06.843             0.000             0.000
       289   09 Jun 2027 03:08:28.503   09 Jun 2027 03:08:40.900            12.397          6198.500
       290   09 Jun 2027 04:26:53.200   09 Jun 2027 04:28:04.447            71.247         35623.500
       291   09 Jun 2027 06:02:50.451   09 Jun 2027 06:04:37.056           106.605         53022.781
       292   09 Jun 2027 07:36:40.090   09 Jun 2027 07:36:59.627            19.537          6029.125
       293   09 Jun 2027 07:37:43.418   09 Jun 2027 07:37:43.822             0.404           189.250
       294   09 Jun 2027 07:38:08.485   09 Jun 2027 07:38:10.633             2.148           241.344
       295   09 Jun 2027 07:39:14.304   09 Jun 2027 07:39:16.636             2.332           887.437
       296   09 Jun 2027 07:39:26.624   09 Jun 2027 07:39:29.767             3.143           312.125
       297   09 Jun 2027 07:40:23.274   09 Jun 2027 07:40:25.638             2.364           811.000
       298   09 Jun 2027 07:41:18.629   09 Jun 2027 07:41:20.871             2.242          1002.031
       299   09 Jun 2027 07:41:55.711   09 Jun 2027 07:42:05.952            10.241           812.344
       300   09 Jun 2027 07:42:16.696   09 Jun 2027 07:42:17.829             1.133           273.437
       301   09 Jun 2027 07:42:52.605   09 Jun 2027 07:42:52.605             0.000             0.000
       302   09 Jun 2027 07:43:36.867   09 Jun 2027 07:43:42.082             5.215          2469.937
       303   09 Jun 2027 07:44:19.756   09 Jun 2027 07:44:22.558             2.802          1177.312
       304   09 Jun 2027 07:44:33.041   09 Jun 2027 07:44:33.950             0.909           317.844
       305   09 Jun 2027 07:44:52.466   09 Jun 2027 07:44:53.681             1.215           578.625
       306   09 Jun 2027 07:45:06.144   09 Jun 2027 07:45:07.582             1.438           136.219
       307   09 Jun 2027 09:13:43.127   09 Jun 2027 09:14:04.525            21.398          7493.562
       308   09 Jun 2027 09:16:28.567   09 Jun 2027 09:16:36.561             7.994          3825.219
       309   09 Jun 2027 09:17:17.958   09 Jun 2027 09:17:19.217             1.259           246.312
       310   09 Jun 2027 09:17:53.856   09 Jun 2027 09:17:55.618             1.762           518.500
       311   09 Jun 2027 09:18:30.783   09 Jun 2027 09:18:30.783             0.000             0.000
       312   09 Jun 2027 09:18:55.933   09 Jun 2027 09:19:02.838             6.905          1478.438
       313   09 Jun 2027 09:19:13.954   09 Jun 2027 09:19:14.645             0.691           212.875
       314   09 Jun 2027 09:19:39.558   09 Jun 2027 09:19:40.524             0.966           434.094
       315   09 Jun 2027 09:20:31.434   09 Jun 2027 09:20:35.612             4.178          1590.937
       316   09 Jun 2027 09:20:38.162   09 Jun 2027 09:20:39.364             1.202            67.969
       317   09 Jun 2027 09:20:44.101   09 Jun 2027 09:20:48.741             4.640           136.437
       318   09 Jun 2027 09:20:50.369   09 Jun 2027 09:20:54.258             3.889            50.875
       319   09 Jun 2027 10:50:37.729   09 Jun 2027 10:50:49.376            11.647          5823.500
       320   09 Jun 2027 10:51:11.050   09 Jun 2027 10:51:16.292             5.242          2621.000
       321   09 Jun 2027 10:51:38.938   09 Jun 2027 10:51:43.029             4.091          1701.375
       322   09 Jun 2027 10:53:06.756   09 Jun 2027 10:53:08.568             1.812           725.281
       323   09 Jun 2027 10:53:29.076   09 Jun 2027 10:53:30.549             1.473           640.875
       324   09 Jun 2027 10:53:34.849   09 Jun 2027 10:53:34.849             0.000             0.000
       325   09 Jun 2027 10:53:37.901   09 Jun 2027 10:53:41.196             3.295           229.750
       326   09 Jun 2027 10:54:36.268   09 Jun 2027 10:54:40.175             3.907          1647.531
       327   09 Jun 2027 10:54:57.449   09 Jun 2027 10:54:59.599             2.150           539.812
       328   09 Jun 2027 10:55:55.402   09 Jun 2027 10:55:58.142             2.740          1370.000
       329   09 Jun 2027 10:56:24.296   09 Jun 2027 10:56:31.344             7.048          1173.031
       330   09 Jun 2027 10:56:55.252   09 Jun 2027 10:56:59.173             3.921           556.094
       331   10 Jun 2027 03:15:23.333   10 Jun 2027 03:18:23.552           180.219         90109.500
       332   10 Jun 2027 03:19:06.443   10 Jun 2027 03:19:06.443             0.000             0.000
       333   10 Jun 2027 04:38:47.865   10 Jun 2027 04:39:43.345            55.480         27740.000
       334   10 Jun 2027 04:40:36.901   10 Jun 2027 04:40:36.901             0.000             0.000
       335   10 Jun 2027 04:40:39.081   10 Jun 2027 04:40:53.263            14.182          7091.000
       336   10 Jun 2027 06:15:07.847   10 Jun 2027 06:16:21.018            73.171         34386.156
       337   10 Jun 2027 06:16:44.881   10 Jun 2027 06:16:47.621             2.740           716.813
       338   10 Jun 2027 06:17:31.242   10 Jun 2027 06:17:32.915             1.673           836.500
       339   10 Jun 2027 06:17:50.793   10 Jun 2027 06:17:53.023             2.230           666.344
       340   10 Jun 2027 07:48:38.155   10 Jun 2027 07:48:57.304            19.149          4750.188
       341   10 Jun 2027 07:50:04.005   10 Jun 2027 07:50:05.055             1.050           429.594
       342   10 Jun 2027 07:50:51.609   10 Jun 2027 07:50:52.687             1.078           507.094
       343   10 Jun 2027 07:51:10.819   10 Jun 2027 07:51:14.017             3.198           279.094
       344   10 Jun 2027 07:52:24.828   10 Jun 2027 07:52:28.334             3.506          1753.000
       345   10 Jun 2027 07:52:37.001   10 Jun 2027 07:52:42.504             5.503           713.219
       346   10 Jun 2027 07:54:18.948   10 Jun 2027 07:54:26.601             7.653          2780.344
       347   10 Jun 2027 07:54:35.537   10 Jun 2027 07:54:37.414             1.877            38.219
       348   10 Jun 2027 07:55:09.112   10 Jun 2027 07:55:12.059             2.947           990.562
       349   10 Jun 2027 07:55:36.431   10 Jun 2027 07:55:38.084             1.653           590.688
       350   10 Jun 2027 07:56:07.628   10 Jun 2027 07:56:10.147             2.519           844.375
       351   10 Jun 2027 07:56:45.034   10 Jun 2027 07:56:50.010             4.976          1090.219
       352   10 Jun 2027 07:56:51.900   10 Jun 2027 07:56:52.680             0.780            10.063
       353   10 Jun 2027 09:26:08.955   10 Jun 2027 09:26:25.713            16.758          5596.531
       354   10 Jun 2027 09:27:24.765   10 Jun 2027 09:27:26.897             2.132           302.281
       355   10 Jun 2027 09:27:40.869   10 Jun 2027 09:27:41.413             0.544            56.750
       356   10 Jun 2027 09:28:20.722   10 Jun 2027 09:28:27.357             6.635           707.781
       357   10 Jun 2027 09:28:58.012   10 Jun 2027 09:29:01.136             3.124           873.281
       358   10 Jun 2027 09:29:21.765   10 Jun 2027 09:29:24.078             2.313           146.000
       359   10 Jun 2027 09:29:42.171   10 Jun 2027 09:29:44.893             2.722           378.875
       360   10 Jun 2027 09:30:50.664   10 Jun 2027 09:30:54.631             3.967          1798.188
       361   10 Jun 2027 09:31:34.351   10 Jun 2027 09:31:36.399             2.048           780.875
       362   10 Jun 2027 09:32:24.613   10 Jun 2027 09:32:24.613             0.000             0.000
       363   10 Jun 2027 09:32:50.487   10 Jun 2027 09:32:54.069             3.582          1791.000
       364   10 Jun 2027 11:03:05.286   10 Jun 2027 11:03:26.755            21.469          6706.094
       365   10 Jun 2027 11:04:25.414   10 Jun 2027 11:04:29.244             3.830          1561.656
       366   10 Jun 2027 11:04:55.260   10 Jun 2027 11:04:57.597             2.337           745.281
       367   10 Jun 2027 11:05:04.452   10 Jun 2027 11:05:09.468             5.016           147.281
       368   10 Jun 2027 11:05:24.448   10 Jun 2027 11:05:26.523             2.075           136.938
       369   10 Jun 2027 11:05:44.624   10 Jun 2027 11:05:45.438             0.814           400.875
       370   10 Jun 2027 11:06:24.988   10 Jun 2027 11:06:28.199             3.211          1146.438
       371   10 Jun 2027 11:06:41.566   10 Jun 2027 11:06:42.481             0.915           294.656
       372   10 Jun 2027 11:06:50.910   10 Jun 2027 11:06:52.482             1.572           263.406
       373   10 Jun 2027 11:07:07.742   10 Jun 2027 11:07:08.746             1.004           476.875
       374   10 Jun 2027 11:07:50.243   10 Jun 2027 11:07:55.091             4.848           841.688
       375   10 Jun 2027 11:08:12.566   10 Jun 2027 11:08:14.209             1.643           357.125
       376   10 Jun 2027 11:08:24.028   10 Jun 2027 11:08:29.553             5.525           306.844
       377   10 Jun 2027 11:08:52.396   10 Jun 2027 11:08:52.536             0.140            70.000
       378   11 Jun 2027 03:27:01.780   11 Jun 2027 03:30:42.817           221.037        110518.500
       379   11 Jun 2027 03:31:04.809   11 Jun 2027 03:31:06.661             1.852           926.000
       380   11 Jun 2027 04:50:38.547   11 Jun 2027 04:50:57.648            19.101          9550.500
       381   11 Jun 2027 04:51:00.542   11 Jun 2027 04:51:00.542             0.000             0.000
       382   11 Jun 2027 04:51:09.214   11 Jun 2027 04:51:45.937            36.723         18361.500
       383   11 Jun 2027 04:51:51.061   11 Jun 2027 04:51:51.061             0.000             0.000
       384   11 Jun 2027 06:27:09.929   11 Jun 2027 06:27:58.083            48.154         23291.188
       385   11 Jun 2027 06:28:58.473   11 Jun 2027 06:29:02.303             3.830          1878.812
       386   11 Jun 2027 06:29:17.456   11 Jun 2027 06:29:21.950             4.494           181.937
       387   11 Jun 2027 06:29:55.766   11 Jun 2027 06:29:55.766             0.000             0.000
       388   11 Jun 2027 06:30:25.353   11 Jun 2027 06:30:29.593             4.240          1967.656
       389   11 Jun 2027 08:01:27.897   11 Jun 2027 08:01:40.056            12.159          5876.781
       390   11 Jun 2027 08:02:57.098   11 Jun 2027 08:03:01.278             4.180          1560.875
       391   11 Jun 2027 08:04:00.936   11 Jun 2027 08:04:06.437             5.501          1809.375
       392   11 Jun 2027 08:05:28.421   11 Jun 2027 08:05:34.435             6.014          1636.281
       393   11 Jun 2027 08:06:01.202   11 Jun 2027 08:06:05.442             4.240           654.500
       394   11 Jun 2027 08:06:32.319   11 Jun 2027 08:06:40.585             8.266           433.750
       395   11 Jun 2027 08:06:46.917   11 Jun 2027 08:06:47.349             0.432            15.625
       396   11 Jun 2027 08:07:29.265   11 Jun 2027 08:07:31.935             2.670           772.969
       397   11 Jun 2027 08:08:32.812   11 Jun 2027 08:08:36.653             3.841          1885.719
       398   11 Jun 2027 09:38:15.712   11 Jun 2027 09:38:30.924            15.212          7128.500
       399   11 Jun 2027 09:40:20.045   11 Jun 2027 09:40:26.776             6.731          1947.469
       400   11 Jun 2027 09:40:34.057   11 Jun 2027 09:40:34.669             0.612            99.062
       401   11 Jun 2027 09:40:56.201   11 Jun 2027 09:40:58.539             2.338           470.156
       402   11 Jun 2027 09:41:08.334   11 Jun 2027 09:41:14.299             5.965           235.156
       403   11 Jun 2027 09:41:40.746   11 Jun 2027 09:41:44.620             3.874            79.594
       404   11 Jun 2027 09:41:55.612   11 Jun 2027 09:41:59.327             3.715           343.500
       405   11 Jun 2027 09:43:03.317   11 Jun 2027 09:43:06.077             2.760          1380.000
       406   11 Jun 2027 09:43:12.731   11 Jun 2027 09:43:14.346             1.615           483.469
       407   11 Jun 2027 09:44:13.265   11 Jun 2027 09:44:16.714             3.449          1647.531
       408   11 Jun 2027 09:44:47.329   11 Jun 2027 09:44:47.329             0.000             0.000
       409   11 Jun 2027 11:15:56.599   11 Jun 2027 11:16:12.412            15.813          6619.594
       410   11 Jun 2027 11:16:58.617   11 Jun 2027 11:17:05.679             7.062          1208.188
       411   11 Jun 2027 11:17:24.085   11 Jun 2027 11:17:27.175             3.090           195.656
       412   11 Jun 2027 11:17:57.499   11 Jun 2027 11:17:59.565             2.066           547.531
       413   11 Jun 2027 11:18:48.737   11 Jun 2027 11:18:54.252             5.515          1501.031
       414   11 Jun 2027 11:19:30.524   11 Jun 2027 11:19:33.898             3.374          1133.500
       415   12 Jun 2027 03:39:29.194   12 Jun 2027 03:39:52.832            23.638         11819.000
       416   12 Jun 2027 03:40:14.990   12 Jun 2027 03:43:22.786           187.796         93898.000
       417   12 Jun 2027 05:02:48.437   12 Jun 2027 05:04:07.113            78.676         39338.000
       418   12 Jun 2027 06:39:19.410   12 Jun 2027 06:39:52.128            32.718         13540.844
       419   12 Jun 2027 06:40:49.946   12 Jun 2027 06:40:54.284             4.338          1517.813
       420   12 Jun 2027 06:41:25.139   12 Jun 2027 06:41:25.139             0.000             0.000
       421   12 Jun 2027 06:41:54.797   12 Jun 2027 06:41:57.270             2.473          1236.500
       422   12 Jun 2027 06:42:18.065   12 Jun 2027 06:42:23.846             5.781           653.812
       423   12 Jun 2027 08:14:29.256   12 Jun 2027 08:14:42.085            12.829          5050.281
       424   12 Jun 2027 08:15:43.905   12 Jun 2027 08:15:47.480             3.575          1626.000
       425   12 Jun 2027 08:16:46.553   12 Jun 2027 08:16:46.553             0.000             0.000
       426   12 Jun 2027 08:17:25.528   12 Jun 2027 08:17:32.021             6.493          2726.313
       427   12 Jun 2027 08:18:03.747   12 Jun 2027 08:18:06.012             2.265           318.875
       428   12 Jun 2027 08:18:37.898   12 Jun 2027 08:18:46.954             9.056           333.156
       429   12 Jun 2027 08:18:58.017   12 Jun 2027 08:18:58.997             0.980           328.125
       430   12 Jun 2027 08:19:23.800   12 Jun 2027 08:19:25.972             2.172           775.094
       431   12 Jun 2027 08:19:46.181   12 Jun 2027 08:19:48.122             1.941           631.531
       432   12 Jun 2027 08:20:38.655   12 Jun 2027 08:20:42.089             3.434          1579.156
       433   12 Jun 2027 08:20:56.503   12 Jun 2027 08:20:59.035             2.532           226.156
       434   12 Jun 2027 09:50:51.756   12 Jun 2027 09:51:09.334            17.578          8341.906
       435   12 Jun 2027 09:52:46.238   12 Jun 2027 09:52:49.290             3.052           825.219
       436   12 Jun 2027 09:52:59.380   12 Jun 2027 09:53:01.303             1.923           315.313
       437   12 Jun 2027 09:53:19.354   12 Jun 2027 09:53:21.267             1.913           536.687
       438   12 Jun 2027 09:53:32.444   12 Jun 2027 09:53:34.721             2.277            68.875
       439   12 Jun 2027 09:54:42.167   12 Jun 2027 09:54:47.237             5.070          2107.687
       440   12 Jun 2027 09:55:25.937   12 Jun 2027 09:55:28.325             2.388           735.375
       441   12 Jun 2027 09:56:14.375   12 Jun 2027 09:56:21.695             7.320          1439.063
       442   12 Jun 2027 09:56:36.367   12 Jun 2027 09:56:37.905             1.538           316.906
       443   12 Jun 2027 09:56:55.736   12 Jun 2027 09:56:58.907             3.171           482.250
       444   12 Jun 2027 11:28:07.175   12 Jun 2027 11:28:26.734            19.559          7938.844
       445   12 Jun 2027 11:28:50.679   12 Jun 2027 11:28:56.452             5.773           521.625
       446   12 Jun 2027 11:29:20.141   12 Jun 2027 11:29:22.952             2.811           277.719
       447   12 Jun 2027 11:29:44.242   12 Jun 2027 11:29:45.900             1.658           273.188
       448   12 Jun 2027 11:30:12.457   12 Jun 2027 11:30:16.076             3.619           829.906
       449   12 Jun 2027 11:30:21.391   12 Jun 2027 11:30:22.878             1.487           166.094
       450   12 Jun 2027 11:30:54.044   12 Jun 2027 11:30:55.411             1.367           683.500
       451   12 Jun 2027 11:31:06.865   12 Jun 2027 11:31:12.053             5.188           460.531
       452   12 Jun 2027 11:31:23.198   12 Jun 2027 11:31:23.638             0.440           195.875
       453   12 Jun 2027 11:31:33.541   12 Jun 2027 11:31:34.819             1.278           238.812
       454   12 Jun 2027 11:32:08.593   12 Jun 2027 11:32:13.931             5.338           921.969
       455   12 Jun 2027 11:32:24.936   12 Jun 2027 11:32:24.936             0.000             0.000
       456   13 Jun 2027 03:51:22.861   13 Jun 2027 03:52:00.264            37.403         18701.500
       457   13 Jun 2027 03:52:30.367   13 Jun 2027 03:54:46.388           136.021         68010.500
       458   13 Jun 2027 05:15:28.442   13 Jun 2027 05:16:55.149            86.707         43353.500
       459   13 Jun 2027 06:51:13.742   13 Jun 2027 06:52:10.985            57.243         28311.000
       460   13 Jun 2027 06:53:40.810   13 Jun 2027 06:53:46.075             5.265          2331.750
       461   13 Jun 2027 06:54:00.575   13 Jun 2027 06:54:04.272             3.697           453.125
       462   13 Jun 2027 06:54:32.577   13 Jun 2027 06:54:39.592             7.015           481.562
       463   13 Jun 2027 08:27:13.456   13 Jun 2027 08:27:30.091            16.635          7648.094
       464   13 Jun 2027 08:28:10.549   13 Jun 2027 08:28:11.226             0.677           232.125
       465   13 Jun 2027 08:28:12.163   13 Jun 2027 08:28:12.330             0.167            17.812
       466   13 Jun 2027 08:28:59.966   13 Jun 2027 08:29:04.540             4.574           355.438
       467   13 Jun 2027 08:30:10.888   13 Jun 2027 08:30:19.729             8.841          1940.031
       468   13 Jun 2027 08:30:54.760   13 Jun 2027 08:30:57.128             2.368          1094.719
       469   13 Jun 2027 08:31:10.887   13 Jun 2027 08:31:12.370             1.483           352.719
       470   13 Jun 2027 08:31:46.817   13 Jun 2027 08:31:51.290             4.473           577.656
       471   13 Jun 2027 08:32:42.534   13 Jun 2027 08:32:46.135             3.601          1601.375
       472   13 Jun 2027 08:33:11.690   13 Jun 2027 08:33:12.135             0.445           145.844
       473   13 Jun 2027 10:02:23.805   13 Jun 2027 10:02:46.310            22.505          8936.344
       474   13 Jun 2027 10:03:37.904   13 Jun 2027 10:03:40.768             2.864           572.750
       475   13 Jun 2027 10:04:35.464   13 Jun 2027 10:04:38.759             3.295          1488.375
       476   13 Jun 2027 10:04:50.101   13 Jun 2027 10:04:53.927             3.826           221.719
       477   13 Jun 2027 10:05:16.252   13 Jun 2027 10:05:18.512             2.260           443.625
       478   13 Jun 2027 10:05:57.607   13 Jun 2027 10:06:01.703             4.096           875.062
       479   13 Jun 2027 10:06:16.044   13 Jun 2027 10:06:16.338             0.294           101.781
       480   13 Jun 2027 10:06:30.514   13 Jun 2027 10:06:30.514             0.000             0.000
       481   13 Jun 2027 10:07:10.352   13 Jun 2027 10:07:13.866             3.514          1497.562
       482   13 Jun 2027 10:07:47.146   13 Jun 2027 10:07:50.088             2.942          1034.062
       483   13 Jun 2027 10:08:02.895   13 Jun 2027 10:08:03.267             0.372            62.375
       484   13 Jun 2027 10:08:42.187   13 Jun 2027 10:08:42.695             0.508           254.000
       485   13 Jun 2027 11:40:24.858   13 Jun 2027 11:40:40.011            15.153          6334.312
       486   13 Jun 2027 11:41:47.722   13 Jun 2027 11:41:54.245             6.523          2115.969
       487   13 Jun 2027 11:42:27.470   13 Jun 2027 11:42:31.224             3.754           420.594
       488   13 Jun 2027 11:43:49.738   13 Jun 2027 11:44:00.843            11.105          2440.563
