uniorb/output/strategy_2/Camera/Camera_KinoSat_112010.txt

KinoSat_112010
-------------------------
    Access    *     Start Time (UTCG)     *     Stop Time (UTCG)  *   Duration (s) *   Data (Mbytes)
         1   01 Jun 2027 03:44:50.827   01 Jun 2027 03:48:52.760           241.933        120966.500
         2   01 Jun 2027 03:50:44.730   01 Jun 2027 03:51:05.923            21.193         10596.500
         3   01 Jun 2027 03:51:22.759   01 Jun 2027 03:51:28.686             5.927          2963.500
         4   01 Jun 2027 03:51:51.442   01 Jun 2027 03:52:04.451            13.009          6504.500
         5   01 Jun 2027 05:22:59.721   01 Jun 2027 05:23:59.456            59.735         29867.500
         6   01 Jun 2027 05:24:08.963   01 Jun 2027 05:25:42.539            93.576         46788.000
         7   01 Jun 2027 05:26:30.453   01 Jun 2027 05:26:50.903            20.450         10225.000
         8   01 Jun 2027 05:27:11.355   01 Jun 2027 05:27:25.895            14.540          7270.000
         9   01 Jun 2027 05:28:04.877   01 Jun 2027 05:28:10.098             5.221          2610.500
        10   01 Jun 2027 05:28:38.190   01 Jun 2027 05:29:20.743            42.553         21276.500
        11   01 Jun 2027 07:01:18.369   01 Jun 2027 07:01:48.205            29.836         14918.000
        12   01 Jun 2027 07:02:07.156   01 Jun 2027 07:02:26.814            19.658          9829.000
        13   01 Jun 2027 07:02:46.881   01 Jun 2027 07:03:13.623            26.742         13371.000
        14   01 Jun 2027 07:04:19.346   01 Jun 2027 07:04:37.219            17.873          8936.500
        15   01 Jun 2027 07:04:56.963   01 Jun 2027 07:05:14.639            17.676          8838.000
        16   01 Jun 2027 08:24:41.680   01 Jun 2027 08:27:32.339           170.659         85329.500
        17   01 Jun 2027 10:01:41.989   01 Jun 2027 10:02:35.279            53.290         26645.000
        18   01 Jun 2027 11:36:22.071   01 Jun 2027 11:36:51.858            29.787         14893.500
        19   01 Jun 2027 11:42:51.324   01 Jun 2027 11:43:00.607             9.283          4641.500
        20   02 Jun 2027 03:56:48.911   02 Jun 2027 04:00:09.167           200.256        100128.000
        21   02 Jun 2027 04:00:54.429   02 Jun 2027 04:00:58.095             3.666          1833.000
        22   02 Jun 2027 04:01:18.719   02 Jun 2027 04:01:38.428            19.709          9854.500
        23   02 Jun 2027 04:01:40.337   02 Jun 2027 04:01:50.984            10.647          5323.500
        24   02 Jun 2027 04:03:09.786   02 Jun 2027 04:03:09.851             0.065            32.500
        25   02 Jun 2027 04:03:28.951   02 Jun 2027 04:03:35.448             6.497          3248.500
        26   02 Jun 2027 05:35:05.044   02 Jun 2027 05:35:14.507             9.463          4731.500
        27   02 Jun 2027 05:36:06.644   02 Jun 2027 05:37:33.720            87.076         43538.000
        28   02 Jun 2027 05:37:38.349   02 Jun 2027 05:38:03.537            25.188         12594.000
        29   02 Jun 2027 05:38:53.081   02 Jun 2027 05:38:53.865             0.784           392.000
        30   02 Jun 2027 05:40:53.543   02 Jun 2027 05:41:13.961            20.418         10209.000
        31   02 Jun 2027 05:43:12.041   02 Jun 2027 05:43:41.758            29.717         14858.500
        32   02 Jun 2027 07:13:15.299   02 Jun 2027 07:13:54.035            38.736         19368.000
        33   02 Jun 2027 07:14:21.811   02 Jun 2027 07:16:07.582           105.771         52885.500
        34   02 Jun 2027 07:16:07.664   02 Jun 2027 07:16:31.275            23.611         11805.500
        35   02 Jun 2027 07:16:32.010   02 Jun 2027 07:16:39.380             7.370          3685.000
        36   02 Jun 2027 08:37:22.359   02 Jun 2027 08:38:06.761            44.402         22201.000
        37   02 Jun 2027 11:48:25.879   02 Jun 2027 11:48:37.889            12.010          6005.000
        38   02 Jun 2027 11:50:51.412   02 Jun 2027 11:51:11.781            20.369         10184.500
        39   02 Jun 2027 11:54:43.367   02 Jun 2027 11:55:04.480            21.113         10556.500
        40   03 Jun 2027 04:09:18.205   03 Jun 2027 04:11:19.843           121.638         60819.000
        41   03 Jun 2027 04:11:55.125   03 Jun 2027 04:12:56.258            61.133         30566.500
        42   03 Jun 2027 04:13:10.777   03 Jun 2027 04:13:26.829            16.052          8026.000
        43   03 Jun 2027 04:13:40.496   03 Jun 2027 04:14:00.314            19.818          9909.000
        44   03 Jun 2027 04:14:54.668   03 Jun 2027 04:15:09.607            14.939          7469.500
        45   03 Jun 2027 05:48:10.417   03 Jun 2027 05:50:00.528           110.111         55055.500
        46   03 Jun 2027 05:50:52.349   03 Jun 2027 05:50:52.349             0.000             0.000
        47   03 Jun 2027 05:51:26.963   03 Jun 2027 05:51:26.963             0.000             0.000
        48   03 Jun 2027 05:51:37.603   03 Jun 2027 05:51:46.984             9.381          4186.562
        49   03 Jun 2027 05:53:06.621   03 Jun 2027 05:53:16.091             9.470          2343.594
        50   03 Jun 2027 05:53:28.927   03 Jun 2027 05:53:30.511             1.584           391.375
        51   03 Jun 2027 05:54:44.489   03 Jun 2027 05:54:48.855             4.366          2018.594
        52   03 Jun 2027 05:55:09.322   03 Jun 2027 05:55:11.804             2.482            62.125
        53   03 Jun 2027 07:14:11.250   03 Jun 2027 07:14:26.409            15.159          6759.438
        54   03 Jun 2027 07:25:11.902   03 Jun 2027 07:25:19.101             7.199          2559.063
        55   03 Jun 2027 07:26:52.177   03 Jun 2027 07:26:53.384             1.207           603.500
        56   03 Jun 2027 07:27:14.630   03 Jun 2027 07:27:16.063             1.433           716.500
        57   03 Jun 2027 07:27:19.907   03 Jun 2027 07:27:21.683             1.776           725.000
        58   03 Jun 2027 08:48:11.856   03 Jun 2027 08:48:28.347            16.491          6945.031
        59   03 Jun 2027 08:49:17.609   03 Jun 2027 08:49:19.698             2.089           921.656
        60   03 Jun 2027 08:50:23.928   03 Jun 2027 08:50:28.463             4.535          1772.094
        61   04 Jun 2027 04:21:33.791   04 Jun 2027 04:24:58.207           204.416        102208.000
        62   04 Jun 2027 04:25:43.023   04 Jun 2027 04:25:59.146            16.123          8061.500
        63   04 Jun 2027 04:26:38.873   04 Jun 2027 04:27:03.443            24.570         12285.000
        64   04 Jun 2027 04:27:41.455   04 Jun 2027 04:27:56.564            15.109          7554.500
        65   04 Jun 2027 06:00:40.408   04 Jun 2027 06:02:18.898            98.490         49245.000
        66   04 Jun 2027 06:02:23.317   04 Jun 2027 06:02:26.871             3.554          1777.000
        67   04 Jun 2027 06:02:34.492   04 Jun 2027 06:02:38.006             3.514           830.500
        68   04 Jun 2027 06:02:57.428   04 Jun 2027 06:02:57.428             0.000             0.000
        69   04 Jun 2027 06:03:24.757   04 Jun 2027 06:03:26.464             1.707           853.500
        70   04 Jun 2027 06:03:47.585   04 Jun 2027 06:03:49.158             1.573           786.500
        71   04 Jun 2027 06:04:03.389   04 Jun 2027 06:04:07.506             4.117           810.875
        72   04 Jun 2027 06:04:17.857   04 Jun 2027 06:04:17.857             0.000             0.000
        73   04 Jun 2027 06:04:41.152   04 Jun 2027 06:04:43.773             2.621          1025.906
        74   04 Jun 2027 06:05:23.489   04 Jun 2027 06:05:26.835             3.346           794.250
        75   04 Jun 2027 06:06:05.522   04 Jun 2027 06:06:08.824             3.302           934.813
        76   04 Jun 2027 06:06:14.290   04 Jun 2027 06:06:17.859             3.569            50.187
        77   04 Jun 2027 06:06:55.314   04 Jun 2027 06:06:55.314             0.000             0.000
        78   04 Jun 2027 06:07:24.760   04 Jun 2027 06:07:28.784             4.024          1197.438
        79   04 Jun 2027 07:25:32.602   04 Jun 2027 07:25:45.257            12.655          6046.344
        80   04 Jun 2027 07:26:17.846   04 Jun 2027 07:26:20.114             2.268          1018.406
        81   04 Jun 2027 07:37:15.188   04 Jun 2027 07:37:22.686             7.498          2588.156
        82   04 Jun 2027 07:38:01.141   04 Jun 2027 07:38:11.265            10.124           609.531
        83   04 Jun 2027 08:59:27.841   04 Jun 2027 08:59:54.497            26.656         13328.000
        84   04 Jun 2027 09:00:17.066   04 Jun 2027 09:00:17.066             0.000             0.000
        85   04 Jun 2027 09:02:06.934   04 Jun 2027 09:02:21.186            14.252          4901.875
        86   04 Jun 2027 09:04:23.431   04 Jun 2027 09:04:35.125            11.694          3603.125
        87   04 Jun 2027 10:35:14.612   04 Jun 2027 10:35:32.592            17.980          7346.906
        88   04 Jun 2027 10:36:37.229   04 Jun 2027 10:36:42.973             5.744          1597.031
        89   04 Jun 2027 10:37:05.703   04 Jun 2027 10:37:07.331             1.628           146.406
        90   04 Jun 2027 10:38:09.759   04 Jun 2027 10:38:18.340             8.581          1069.875
        91   04 Jun 2027 10:39:31.575   04 Jun 2027 10:39:35.933             4.358          2110.125
        92   04 Jun 2027 10:40:18.962   04 Jun 2027 10:40:21.357             2.395           766.312
        93   04 Jun 2027 10:40:33.915   04 Jun 2027 10:40:35.028             1.113           357.781
        94   04 Jun 2027 10:40:45.679   04 Jun 2027 10:40:47.521             1.842           332.844
        95   04 Jun 2027 10:41:18.398   04 Jun 2027 10:41:19.585             1.187           505.062
        96   05 Jun 2027 03:00:00.000   05 Jun 2027 03:00:48.603            48.603         24301.500
        97   05 Jun 2027 03:01:25.806   05 Jun 2027 03:01:31.538             5.732          2866.000
        98   05 Jun 2027 03:02:20.884   05 Jun 2027 03:02:33.773            12.889          6444.500
        99   05 Jun 2027 03:02:40.480   05 Jun 2027 03:02:46.107             5.627          2813.500
       100   05 Jun 2027 03:03:05.571   05 Jun 2027 03:03:30.677            25.106         12553.000
       101   05 Jun 2027 03:03:59.101   05 Jun 2027 03:04:22.927            23.826         11913.000
       102   05 Jun 2027 04:33:52.844   05 Jun 2027 04:36:56.570           183.726         91863.000
       103   05 Jun 2027 04:39:02.320   05 Jun 2027 04:39:24.658            22.338         11169.000
       104   05 Jun 2027 04:39:51.761   05 Jun 2027 04:39:51.797             0.036            18.000
       105   05 Jun 2027 06:12:49.007   05 Jun 2027 06:13:39.150            50.143         23133.625
       106   05 Jun 2027 06:14:00.128   05 Jun 2027 06:14:02.614             2.486           292.781
       107   05 Jun 2027 06:14:31.514   05 Jun 2027 06:14:31.514             0.000             0.000
       108   05 Jun 2027 06:14:59.550   05 Jun 2027 06:15:02.780             3.230          1421.906
       109   05 Jun 2027 06:15:26.320   05 Jun 2027 06:15:27.801             1.481           444.656
       110   05 Jun 2027 06:16:04.759   05 Jun 2027 06:16:06.456             1.697           848.500
       111   05 Jun 2027 06:16:12.332   05 Jun 2027 06:16:16.247             3.915           372.781
       112   05 Jun 2027 06:16:42.189   05 Jun 2027 06:16:42.189             0.000             0.000
       113   05 Jun 2027 06:16:46.336   05 Jun 2027 06:16:49.785             3.449           903.188
       114   05 Jun 2027 06:17:42.035   05 Jun 2027 06:17:43.630             1.595           797.500
       115   05 Jun 2027 06:18:13.028   05 Jun 2027 06:18:13.178             0.150            75.000
       116   05 Jun 2027 06:18:33.757   05 Jun 2027 06:18:37.518             3.761          1520.031
       117   05 Jun 2027 06:19:38.223   05 Jun 2027 06:19:44.023             5.800          1701.437
       118   05 Jun 2027 07:36:59.148   05 Jun 2027 07:37:09.827            10.679          4798.938
       119   05 Jun 2027 07:37:37.532   05 Jun 2027 07:37:37.532             0.000             0.000
       120   05 Jun 2027 07:38:05.121   05 Jun 2027 07:38:08.058             2.937           946.938
       121   05 Jun 2027 07:38:37.585   05 Jun 2027 07:38:39.094             1.509           735.812
       122   05 Jun 2027 07:39:09.008   05 Jun 2027 07:39:09.649             0.641            93.031
       123   05 Jun 2027 07:49:16.153   05 Jun 2027 07:49:28.985            12.832          4602.562
       124   05 Jun 2027 09:11:13.135   05 Jun 2027 09:11:48.963            35.828         16654.406
       125   05 Jun 2027 09:14:06.170   05 Jun 2027 09:14:15.816             9.646          4287.719
       126   05 Jun 2027 09:15:35.911   05 Jun 2027 09:15:40.929             5.018          2476.563
       127   05 Jun 2027 09:16:23.057   05 Jun 2027 09:16:25.392             2.335           833.531
       128   05 Jun 2027 10:47:03.807   05 Jun 2027 10:47:25.646            21.839          7371.906
       129   06 Jun 2027 03:08:59.840   06 Jun 2027 03:09:46.283            46.443         23221.500
       130   06 Jun 2027 03:10:16.202   06 Jun 2027 03:11:11.673            55.471         27735.500
       131   06 Jun 2027 03:11:15.410   06 Jun 2027 03:11:58.200            42.790         21395.000
       132   06 Jun 2027 03:12:27.963   06 Jun 2027 03:12:44.761            16.798          8399.000
       133   06 Jun 2027 03:13:27.643   06 Jun 2027 03:13:48.481            20.838         10419.000
       134   06 Jun 2027 03:14:50.827   06 Jun 2027 03:15:19.081            28.254         14127.000
       135   06 Jun 2027 03:15:56.253   06 Jun 2027 03:16:20.018            23.765         11882.500
       136   06 Jun 2027 04:46:40.439   06 Jun 2027 04:47:00.644            20.205         10102.500
       137   06 Jun 2027 04:47:04.133   06 Jun 2027 04:48:18.562            74.429         37214.500
       138   06 Jun 2027 04:48:38.589   06 Jun 2027 04:48:59.983            21.394          9579.406
       139   06 Jun 2027 04:50:34.742   06 Jun 2027 04:50:42.733             7.991          2888.781
       140   06 Jun 2027 04:52:05.127   06 Jun 2027 04:52:05.127             0.000             0.000
       141   06 Jun 2027 06:25:00.190   06 Jun 2027 06:25:33.262            33.072         15844.781
       142   06 Jun 2027 06:25:52.386   06 Jun 2027 06:26:00.281             7.895           257.812
       143   06 Jun 2027 06:26:50.201   06 Jun 2027 06:26:53.206             3.005          1373.219
       144   06 Jun 2027 06:27:00.055   06 Jun 2027 06:27:01.469             1.414           104.875
       145   06 Jun 2027 06:27:41.346   06 Jun 2027 06:27:44.576             3.230          1242.281
       146   06 Jun 2027 06:28:13.535   06 Jun 2027 06:28:15.614             2.079           904.969
       147   06 Jun 2027 06:28:30.753   06 Jun 2027 06:28:32.106             1.353           286.156
       148   06 Jun 2027 06:29:02.114   06 Jun 2027 06:29:04.616             2.502           890.187
       149   06 Jun 2027 06:29:32.126   06 Jun 2027 06:29:34.213             2.087           801.687
       150   06 Jun 2027 06:30:22.576   06 Jun 2027 06:30:28.203             5.627          1511.344
       151   06 Jun 2027 07:49:03.318   06 Jun 2027 07:49:21.751            18.433          8845.219
       152   06 Jun 2027 07:50:13.560   06 Jun 2027 07:50:15.789             2.229          1097.938
       153   06 Jun 2027 07:50:27.821   06 Jun 2027 07:50:31.417             3.596           245.969
       154   06 Jun 2027 07:50:53.496   06 Jun 2027 07:50:55.347             1.851           689.969
       155   06 Jun 2027 09:25:00.529   06 Jun 2027 09:25:41.504            40.975         17876.625
       156   06 Jun 2027 09:26:04.644   06 Jun 2027 09:26:04.644             0.000             0.000
       157   06 Jun 2027 10:58:50.263   06 Jun 2027 10:59:13.248            22.985          8339.094
       158   06 Jun 2027 11:05:01.194   06 Jun 2027 11:05:19.275            18.081          8540.313
       159   07 Jun 2027 03:20:59.730   07 Jun 2027 03:21:24.382            24.652         12326.000
       160   07 Jun 2027 03:21:29.348   07 Jun 2027 03:21:34.446             5.098          2549.000
       161   07 Jun 2027 03:22:05.423   07 Jun 2027 03:22:18.302            12.879          6439.500
       162   07 Jun 2027 03:23:15.704   07 Jun 2027 03:24:09.737            54.033         27016.500
       163   07 Jun 2027 03:25:10.905   07 Jun 2027 03:25:22.029            11.124          5562.000
       164   07 Jun 2027 03:26:19.973   07 Jun 2027 03:28:39.497           139.524         69762.000
       165   07 Jun 2027 04:59:15.189   07 Jun 2027 04:59:59.147            43.958         21979.000
       166   07 Jun 2027 05:00:06.123   07 Jun 2027 05:00:51.486            45.363         22553.063
       167   07 Jun 2027 05:02:20.644   07 Jun 2027 05:02:21.929             1.285           642.500
       168   07 Jun 2027 05:02:46.128   07 Jun 2027 05:02:54.259             8.131          2517.250
       169   07 Jun 2027 05:03:44.402   07 Jun 2027 05:03:45.301             0.899           449.500
       170   07 Jun 2027 05:04:08.256   07 Jun 2027 05:04:14.251             5.995          1623.031
       171   07 Jun 2027 06:37:35.193   07 Jun 2027 06:38:03.316            28.123         14061.500
       172   07 Jun 2027 06:38:24.803   07 Jun 2027 06:38:28.942             4.139           730.188
       173   07 Jun 2027 06:39:26.958   07 Jun 2027 06:39:31.713             4.755          1813.000
       174   07 Jun 2027 06:40:21.273   07 Jun 2027 06:40:22.138             0.865           432.500
       175   07 Jun 2027 06:41:37.661   07 Jun 2027 06:41:45.960             8.299          3167.063
       176   07 Jun 2027 08:00:58.243   07 Jun 2027 08:01:10.884            12.641          5846.750
       177   07 Jun 2027 08:02:21.460   07 Jun 2027 08:02:25.463             4.003          1541.312
       178   07 Jun 2027 08:02:55.478   07 Jun 2027 08:02:56.303             0.825           213.594
       179   07 Jun 2027 08:03:12.668   07 Jun 2027 08:03:13.045             0.377           159.156
       180   07 Jun 2027 09:37:18.372   07 Jun 2027 09:37:55.061            36.689         15566.656
       181   07 Jun 2027 09:38:09.414   07 Jun 2027 09:38:10.172             0.758           340.375
       182   07 Jun 2027 11:10:48.723   07 Jun 2027 11:11:10.180            21.457          8803.219
       183   07 Jun 2027 11:12:16.666   07 Jun 2027 11:12:24.529             7.863           917.625
       184   07 Jun 2027 11:13:20.020   07 Jun 2027 11:13:26.577             6.557          1385.094
       185   07 Jun 2027 11:14:21.479   07 Jun 2027 11:14:27.437             5.958          1715.688
       186   07 Jun 2027 11:14:43.903   07 Jun 2027 11:14:44.756             0.853           344.281
       187   07 Jun 2027 11:14:58.262   07 Jun 2027 11:14:59.333             1.071            32.031
       188   07 Jun 2027 11:15:57.129   07 Jun 2027 11:15:58.629             1.500           750.000
       189   07 Jun 2027 11:18:16.812   07 Jun 2027 11:18:28.575            11.763          5086.875
       190   07 Jun 2027 11:19:18.900   07 Jun 2027 11:19:20.081             1.181           590.500
       191   08 Jun 2027 03:33:07.826   08 Jun 2027 03:33:59.973            52.147         26073.500
       192   08 Jun 2027 03:34:20.203   08 Jun 2027 03:34:37.538            17.335          8667.500
       193   08 Jun 2027 03:35:03.994   08 Jun 2027 03:38:03.024           179.030         89515.000
       194   08 Jun 2027 03:38:20.709   08 Jun 2027 03:39:13.651            52.942         25790.031
       195   08 Jun 2027 03:40:17.967   08 Jun 2027 03:40:18.569             0.602           301.000
       196   08 Jun 2027 05:11:08.803   08 Jun 2027 05:11:09.923             1.120           560.000
       197   08 Jun 2027 05:12:24.736   08 Jun 2027 05:13:17.804            53.068         26534.000
       198   08 Jun 2027 05:13:45.101   08 Jun 2027 05:13:49.543             4.442          2221.000
       199   08 Jun 2027 05:15:04.005   08 Jun 2027 05:15:29.602            25.597         12658.719
       200   08 Jun 2027 05:16:30.697   08 Jun 2027 05:16:43.184            12.487          1749.594
       201   08 Jun 2027 05:16:54.663   08 Jun 2027 05:16:56.166             1.503            91.094
       202   08 Jun 2027 06:49:50.027   08 Jun 2027 06:50:14.755            24.728         11419.219
       203   08 Jun 2027 06:51:05.342   08 Jun 2027 06:51:05.342             0.000             0.000
       204   08 Jun 2027 06:51:27.684   08 Jun 2027 06:51:27.684             0.000             0.000
       205   08 Jun 2027 06:51:37.295   08 Jun 2027 06:51:42.257             4.962          2153.969
       206   08 Jun 2027 06:52:43.659   08 Jun 2027 06:52:46.055             2.396          1113.312
       207   08 Jun 2027 06:52:53.122   08 Jun 2027 06:52:53.122             0.000             0.000
       208   08 Jun 2027 06:53:18.159   08 Jun 2027 06:53:20.183             2.024          1003.250
       209   08 Jun 2027 08:12:49.055   08 Jun 2027 08:13:07.282            18.227          8645.531
       210   08 Jun 2027 08:14:22.756   08 Jun 2027 08:14:31.298             8.542          1855.281
       211   08 Jun 2027 09:50:17.401   08 Jun 2027 09:50:43.305            25.904         12952.000
       212   08 Jun 2027 09:51:17.196   08 Jun 2027 09:51:21.022             3.826          1871.687
       213   08 Jun 2027 11:24:34.488   08 Jun 2027 11:24:53.239            18.751          8506.594
       214   08 Jun 2027 11:30:18.265   08 Jun 2027 11:30:36.835            18.570          9285.000
       215   08 Jun 2027 11:31:14.562   08 Jun 2027 11:31:14.682             0.120            60.000
       216   09 Jun 2027 03:45:09.637   09 Jun 2027 03:48:20.814           191.177         95588.500
       217   09 Jun 2027 03:49:09.767   09 Jun 2027 03:49:56.738            46.971         23485.500
       218   09 Jun 2027 03:50:17.718   09 Jun 2027 03:50:17.718             0.000             0.000
       219   09 Jun 2027 03:51:06.677   09 Jun 2027 03:51:21.091            14.414          7207.000
       220   09 Jun 2027 03:51:36.675   09 Jun 2027 03:51:44.172             7.497          3748.500
       221   09 Jun 2027 03:52:06.076   09 Jun 2027 03:52:22.903            16.827          8413.500
       222   09 Jun 2027 05:23:17.719   09 Jun 2027 05:24:19.801            62.082         31041.000
       223   09 Jun 2027 05:24:26.740   09 Jun 2027 05:24:51.906            25.166         12583.000
       224   09 Jun 2027 05:25:08.453   09 Jun 2027 05:25:14.775             6.322          1776.875
       225   09 Jun 2027 05:25:24.391   09 Jun 2027 05:25:24.835             0.444            66.688
       226   09 Jun 2027 05:26:23.490   09 Jun 2027 05:26:28.178             4.688          1761.250
       227   09 Jun 2027 05:27:40.928   09 Jun 2027 05:27:44.128             3.200          1600.000
       228   09 Jun 2027 05:28:16.337   09 Jun 2027 05:28:17.603             1.266           633.000
       229   09 Jun 2027 05:28:35.460   09 Jun 2027 05:28:38.346             2.886          1332.750
       230   09 Jun 2027 07:01:36.413   09 Jun 2027 07:01:48.382            11.969          5984.500
       231   09 Jun 2027 07:02:31.499   09 Jun 2027 07:02:35.538             4.039          1738.469
       232   09 Jun 2027 07:02:43.616   09 Jun 2027 07:02:46.994             3.378           252.438
       233   09 Jun 2027 07:04:30.780   09 Jun 2027 07:04:34.820             4.040          2020.000
       234   09 Jun 2027 07:04:58.684   09 Jun 2027 07:05:02.829             4.145          1372.437
       235   09 Jun 2027 07:05:24.837   09 Jun 2027 07:05:28.347             3.510           482.969
       236   09 Jun 2027 08:24:59.393   09 Jun 2027 08:25:17.711            18.318          7617.844
       237   09 Jun 2027 08:26:40.341   09 Jun 2027 08:26:45.466             5.125          1896.562
       238   09 Jun 2027 10:01:51.201   09 Jun 2027 10:01:53.218             2.017          1008.500
       239   09 Jun 2027 11:38:21.831   09 Jun 2027 11:39:22.704            60.873         30312.750
       240   09 Jun 2027 11:40:29.247   09 Jun 2027 11:40:36.620             7.373          2079.469
       241   09 Jun 2027 11:40:54.493   09 Jun 2027 11:40:59.245             4.752           558.531
       242   09 Jun 2027 11:41:13.726   09 Jun 2027 11:41:15.555             1.829           452.531
       243   09 Jun 2027 11:42:30.089   09 Jun 2027 11:42:36.423             6.334          2329.187
       244   09 Jun 2027 11:42:48.080   09 Jun 2027 11:42:50.258             2.178           326.312
       245   09 Jun 2027 11:43:08.555   09 Jun 2027 11:43:12.280             3.725           523.156
       246   09 Jun 2027 11:43:14.726   09 Jun 2027 11:43:14.952             0.226            76.437
       247   10 Jun 2027 03:57:07.349   10 Jun 2027 04:00:24.997           197.648         98824.000
       248   10 Jun 2027 04:00:54.903   10 Jun 2027 04:01:11.444            16.541          8270.500
       249   10 Jun 2027 04:01:37.577   10 Jun 2027 04:01:40.430             2.853          1426.500
       250   10 Jun 2027 04:02:49.275   10 Jun 2027 04:02:49.291             0.016             8.000
       251   10 Jun 2027 04:03:20.818   10 Jun 2027 04:03:27.850             7.032          3516.000
       252   10 Jun 2027 04:03:48.149   10 Jun 2027 04:03:52.298             4.149          2074.500
       253   10 Jun 2027 05:36:24.589   10 Jun 2027 05:37:48.455            83.866         41933.000
       254   10 Jun 2027 05:37:53.381   10 Jun 2027 05:38:17.929            24.548         11476.656
       255   10 Jun 2027 05:40:05.138   10 Jun 2027 05:40:13.907             8.769          3295.156
       256   10 Jun 2027 05:41:25.028   10 Jun 2027 05:41:30.403             5.375          2222.531
       257   10 Jun 2027 05:43:26.689   10 Jun 2027 05:43:32.431             5.742          2141.187
       258   10 Jun 2027 05:44:14.896   10 Jun 2027 05:44:16.297             1.401           563.969
       259   10 Jun 2027 07:13:33.490   10 Jun 2027 07:13:45.849            12.359          6040.469
       260   10 Jun 2027 07:13:48.384   10 Jun 2027 07:13:53.649             5.265            79.219
       261   10 Jun 2027 07:14:10.443   10 Jun 2027 07:14:10.988             0.545           210.469
       262   10 Jun 2027 07:14:38.884   10 Jun 2027 07:14:38.884             0.000             0.000
       263   10 Jun 2027 07:15:08.454   10 Jun 2027 07:15:14.037             5.583          1672.750
       264   10 Jun 2027 07:15:35.103   10 Jun 2027 07:15:35.103             0.000             0.000
       265   10 Jun 2027 07:15:36.139   10 Jun 2027 07:15:40.866             4.727           199.000
       266   10 Jun 2027 07:16:23.032   10 Jun 2027 07:16:26.529             3.497           855.625
       267   10 Jun 2027 07:17:06.354   10 Jun 2027 07:17:08.887             2.533           732.313
       268   10 Jun 2027 08:37:39.550   10 Jun 2027 08:38:02.471            22.921         11314.250
       269   10 Jun 2027 08:38:39.743   10 Jun 2027 08:38:39.743             0.000             0.000
       270   10 Jun 2027 08:39:55.097   10 Jun 2027 08:39:59.707             4.610          2305.000
       271   10 Jun 2027 10:14:31.602   10 Jun 2027 10:14:31.602             0.000             0.000
       272   10 Jun 2027 10:16:56.330   10 Jun 2027 10:16:56.330             0.000             0.000
       273   10 Jun 2027 11:55:00.363   10 Jun 2027 11:55:23.777            23.414         11707.000
       274   11 Jun 2027 04:09:46.164   11 Jun 2027 04:13:24.069           217.905        108952.500
       275   11 Jun 2027 04:13:30.258   11 Jun 2027 04:14:05.551            35.293         17646.500
       276   11 Jun 2027 04:14:17.028   11 Jun 2027 04:14:54.107            37.079         18539.500
       277   11 Jun 2027 05:48:28.445   11 Jun 2027 05:49:42.835            74.390         37130.250
       278   11 Jun 2027 05:50:24.729   11 Jun 2027 05:50:26.296             1.567           435.500
       279   11 Jun 2027 05:51:08.997   11 Jun 2027 05:51:11.746             2.749          1235.375
       280   11 Jun 2027 05:51:50.778   11 Jun 2027 05:51:52.227             1.449           724.500
       281   11 Jun 2027 05:52:26.468   11 Jun 2027 05:52:26.468             0.000             0.000
       282   11 Jun 2027 05:52:33.804   11 Jun 2027 05:52:37.375             3.571          1661.219
       283   11 Jun 2027 05:52:55.933   11 Jun 2027 05:52:56.542             0.609            92.875
       284   11 Jun 2027 05:53:21.135   11 Jun 2027 05:53:21.135             0.000             0.000
       285   11 Jun 2027 05:53:46.204   11 Jun 2027 05:53:49.462             3.258          1439.750
       286   11 Jun 2027 05:54:58.714   11 Jun 2027 05:55:01.808             3.094          1547.000
       287   11 Jun 2027 05:55:28.748   11 Jun 2027 05:55:31.798             3.050          1072.500
       288   11 Jun 2027 07:14:25.067   11 Jun 2027 07:14:45.439            20.372          9878.500
       289   11 Jun 2027 07:25:29.581   11 Jun 2027 07:25:35.563             5.982          2624.813
       290   11 Jun 2027 07:26:39.128   11 Jun 2027 07:26:40.193             1.065           532.500
       291   11 Jun 2027 07:27:39.436   11 Jun 2027 07:27:47.853             8.417          2280.219
       292   11 Jun 2027 07:28:10.812   11 Jun 2027 07:28:13.501             2.689           717.469
       293   11 Jun 2027 07:28:33.923   11 Jun 2027 07:28:36.876             2.953           476.937
       294   11 Jun 2027 08:48:27.340   11 Jun 2027 08:48:44.348            17.008          6840.094
       295   11 Jun 2027 08:49:33.641   11 Jun 2027 08:49:35.928             2.287           865.906
       296   11 Jun 2027 08:50:09.255   11 Jun 2027 08:50:12.776             3.521           871.500
       297   11 Jun 2027 08:51:44.558   11 Jun 2027 08:51:51.512             6.954          2493.375
       298   12 Jun 2027 04:21:52.398   12 Jun 2027 04:23:36.228           103.830         51915.000
       299   12 Jun 2027 04:23:37.841   12 Jun 2027 04:24:06.489            28.648         14324.000
       300   12 Jun 2027 04:24:32.666   12 Jun 2027 04:25:57.854            85.188         42594.000
       301   12 Jun 2027 04:26:24.509   12 Jun 2027 04:26:28.361             3.852          1926.000
       302   12 Jun 2027 04:27:19.075   12 Jun 2027 04:27:27.372             8.297          4148.500
       303   12 Jun 2027 04:27:32.022   12 Jun 2027 04:27:39.894             7.872          3936.000
       304   12 Jun 2027 06:00:58.088   12 Jun 2027 06:02:48.819           110.731         55365.500
       305   12 Jun 2027 06:03:08.545   12 Jun 2027 06:03:24.651            16.106          8053.000
       306   12 Jun 2027 06:04:13.437   12 Jun 2027 06:04:22.072             8.635          3552.843
       307   12 Jun 2027 06:04:57.793   12 Jun 2027 06:05:02.259             4.466           720.188
       308   12 Jun 2027 06:06:08.495   12 Jun 2027 06:06:08.495             0.000             0.000
       309   12 Jun 2027 06:06:17.370   12 Jun 2027 06:06:23.428             6.058          2347.219
       310   12 Jun 2027 06:07:04.112   12 Jun 2027 06:07:09.311             5.199           817.844
       311   12 Jun 2027 06:07:44.002   12 Jun 2027 06:07:47.943             3.941          1066.562
       312   12 Jun 2027 07:25:49.910   12 Jun 2027 07:26:02.199            12.289          6144.500
       313   12 Jun 2027 07:26:32.249   12 Jun 2027 07:26:36.141             3.892          1590.125
       314   12 Jun 2027 07:37:32.333   12 Jun 2027 07:37:39.706             7.373          2597.375
       315   12 Jun 2027 08:59:45.659   12 Jun 2027 09:00:13.290            27.631         13815.500
       316   12 Jun 2027 09:00:39.946   12 Jun 2027 09:00:43.417             3.471          1735.500
       317   12 Jun 2027 09:01:47.451   12 Jun 2027 09:01:51.185             3.734          1500.782
       318   12 Jun 2027 09:02:46.028   12 Jun 2027 09:02:48.337             2.309          1079.281
       319   12 Jun 2027 10:35:55.750   12 Jun 2027 10:36:08.062            12.312          6156.000
       320   13 Jun 2027 03:00:00.000   13 Jun 2027 03:00:56.749            56.749         28374.500
       321   13 Jun 2027 03:01:24.421   13 Jun 2027 03:01:39.193            14.772          7386.000
       322   13 Jun 2027 03:02:05.302   13 Jun 2027 03:02:14.038             8.736          4368.000
       323   13 Jun 2027 03:02:50.356   13 Jun 2027 03:02:58.621             8.265          4132.500
       324   13 Jun 2027 03:03:53.645   13 Jun 2027 03:04:24.172            30.527         15263.500
       325   13 Jun 2027 03:04:43.160   13 Jun 2027 03:04:43.312             0.152            76.000
       326   13 Jun 2027 04:34:12.042   13 Jun 2027 04:34:32.994            20.952         10476.000
       327   13 Jun 2027 04:35:05.025   13 Jun 2027 04:35:20.998            15.973          7986.500
       328   13 Jun 2027 04:35:23.214   13 Jun 2027 04:36:22.633            59.419         29709.500
       329   13 Jun 2027 04:36:24.984   13 Jun 2027 04:37:12.638            47.654         23827.000
       330   13 Jun 2027 04:39:03.107   13 Jun 2027 04:39:10.856             7.749          3874.500
       331   13 Jun 2027 04:39:42.216   13 Jun 2027 04:40:08.188            25.972         12986.000
       332   13 Jun 2027 04:40:09.407   13 Jun 2027 04:40:11.545             2.138          1069.000
       333   13 Jun 2027 06:12:59.471   13 Jun 2027 06:14:06.719            67.248         33193.688
       334   13 Jun 2027 06:14:45.449   13 Jun 2027 06:14:47.457             2.008          1004.000
       335   13 Jun 2027 06:15:17.160   13 Jun 2027 06:15:17.160             0.000             0.000
       336   13 Jun 2027 06:15:26.724   13 Jun 2027 06:15:31.651             4.927          1433.406
       337   13 Jun 2027 06:16:14.291   13 Jun 2027 06:16:17.204             2.913          1332.500
       338   13 Jun 2027 06:16:45.728   13 Jun 2027 06:16:47.939             2.211           809.688
       339   13 Jun 2027 06:17:56.600   13 Jun 2027 06:17:57.086             0.486           243.000
       340   13 Jun 2027 06:18:30.857   13 Jun 2027 06:18:36.287             5.430          2618.219
       341   13 Jun 2027 06:19:05.582   13 Jun 2027 06:19:05.582             0.000             0.000
       342   13 Jun 2027 06:19:57.282   13 Jun 2027 06:20:02.958             5.676          2531.094
       343   13 Jun 2027 07:37:18.864   13 Jun 2027 07:37:33.680            14.816          5963.281
       344   13 Jun 2027 07:37:55.628   13 Jun 2027 07:37:55.628             0.000             0.000
       345   13 Jun 2027 07:38:23.452   13 Jun 2027 07:38:25.873             2.421          1112.031
       346   13 Jun 2027 07:38:42.082   13 Jun 2027 07:38:42.490             0.408           186.469
       347   13 Jun 2027 07:39:22.578   13 Jun 2027 07:39:24.260             1.682           841.000
       348   13 Jun 2027 07:49:34.399   13 Jun 2027 07:49:43.512             9.113          4219.594
       349   13 Jun 2027 07:49:58.223   13 Jun 2027 07:49:58.962             0.739           315.062
       350   13 Jun 2027 09:11:31.160   13 Jun 2027 09:12:05.450            34.290         16915.437
       351   13 Jun 2027 09:14:23.727   13 Jun 2027 09:14:34.139            10.412          4316.906
       352   13 Jun 2027 09:14:53.087   13 Jun 2027 09:14:56.348             3.261           544.187
       353   13 Jun 2027 10:48:19.992   13 Jun 2027 10:48:26.931             6.939          3469.500
