uniorb/output/strategy_2/Camera/Camera_KinoSat_112001.txt

KinoSat_112001
-------------------------
    Access    *     Start Time (UTCG)     *     Stop Time (UTCG)  *   Duration (s) *   Data (Mbytes)
         1   01 Jun 2027 03:35:20.440   01 Jun 2027 03:36:07.171            46.731         23365.500
         2   01 Jun 2027 03:36:31.282   01 Jun 2027 03:39:30.062           178.780         89390.000
         3   01 Jun 2027 03:39:41.163   01 Jun 2027 03:39:55.263            14.100          7050.000
         4   01 Jun 2027 03:40:11.417   01 Jun 2027 03:40:11.417             0.000             0.000
         5   01 Jun 2027 03:40:31.843   01 Jun 2027 03:40:32.438             0.595           297.500
         6   01 Jun 2027 03:40:41.920   01 Jun 2027 03:40:46.245             4.325          2162.500
         7   01 Jun 2027 03:41:02.103   01 Jun 2027 03:41:11.518             9.415          4707.500
         8   01 Jun 2027 03:42:13.844   01 Jun 2027 03:42:22.379             8.535          4267.500
         9   01 Jun 2027 03:42:23.566   01 Jun 2027 03:42:27.642             4.076          2038.000
        10   01 Jun 2027 03:42:38.130   01 Jun 2027 03:42:44.690             6.560          3280.000
        11   01 Jun 2027 05:13:17.896   01 Jun 2027 05:13:20.708             2.812          1406.000
        12   01 Jun 2027 05:14:31.723   01 Jun 2027 05:15:56.305            84.582         42291.000
        13   01 Jun 2027 05:16:18.481   01 Jun 2027 05:16:52.535            34.054         17027.000
        14   01 Jun 2027 05:17:14.955   01 Jun 2027 05:17:15.771             0.816           408.000
        15   01 Jun 2027 05:17:17.172   01 Jun 2027 05:17:21.668             4.496          2248.000
        16   01 Jun 2027 05:18:53.103   01 Jun 2027 05:19:02.696             9.593          4796.500
        17   01 Jun 2027 06:51:57.916   01 Jun 2027 06:54:05.934           128.018         64009.000
        18   01 Jun 2027 06:54:37.276   01 Jun 2027 06:54:41.199             3.923          1961.500
        19   01 Jun 2027 06:55:27.535   01 Jun 2027 06:55:39.907            12.372          6186.000
        20   01 Jun 2027 08:14:53.053   01 Jun 2027 08:16:53.151           120.098         60049.000
        21   01 Jun 2027 09:51:30.356   01 Jun 2027 09:52:06.065            35.709         17854.500
        22   01 Jun 2027 11:26:25.799   01 Jun 2027 11:27:25.912            60.113         30056.500
        23   01 Jun 2027 11:30:30.509   01 Jun 2027 11:32:22.137           111.628         55814.000
        24   01 Jun 2027 11:32:24.836   01 Jun 2027 11:32:29.568             4.732          2366.000
        25   01 Jun 2027 11:33:21.865   01 Jun 2027 11:33:22.485             0.620           310.000
        26   02 Jun 2027 03:47:17.622   02 Jun 2027 03:51:03.851           226.229        113114.500
        27   02 Jun 2027 03:51:58.620   02 Jun 2027 03:52:03.191             4.571          2285.500
        28   02 Jun 2027 03:52:37.656   02 Jun 2027 03:52:48.921            11.265          5632.500
        29   02 Jun 2027 03:54:15.601   02 Jun 2027 03:54:20.837             5.236          2618.000
        30   02 Jun 2027 03:54:28.917   02 Jun 2027 03:54:30.614             1.697           848.500
        31   02 Jun 2027 05:25:25.824   02 Jun 2027 05:26:27.557            61.733         30866.500
        32   02 Jun 2027 05:26:34.244   02 Jun 2027 05:26:48.265            14.021          7010.500
        33   02 Jun 2027 05:26:57.560   02 Jun 2027 05:27:29.069            31.509         15754.500
        34   02 Jun 2027 05:27:57.871   02 Jun 2027 05:28:02.298             4.427          2213.500
        35   02 Jun 2027 05:29:53.227   02 Jun 2027 05:30:19.290            26.063         13031.500
        36   02 Jun 2027 07:03:43.857   02 Jun 2027 07:05:52.438           128.581         64290.500
        37   02 Jun 2027 07:06:10.334   02 Jun 2027 07:06:36.447            26.113         13056.500
        38   02 Jun 2027 07:07:21.272   02 Jun 2027 07:07:31.782            10.510          5255.000
        39   02 Jun 2027 08:27:06.911   02 Jun 2027 08:28:31.978            85.067         42533.500
        40   02 Jun 2027 10:03:38.817   02 Jun 2027 10:04:00.572            21.755         10425.687
        41   02 Jun 2027 11:38:48.828   02 Jun 2027 11:38:57.924             9.096          4548.000
        42   02 Jun 2027 11:45:15.640   02 Jun 2027 11:45:25.142             9.502          4751.000
        43   03 Jun 2027 03:59:14.936   03 Jun 2027 04:03:05.237           230.301        115150.500
        44   03 Jun 2027 04:03:46.053   03 Jun 2027 04:03:46.053             0.000             0.000
        45   03 Jun 2027 04:05:07.101   03 Jun 2027 04:05:12.559             5.458          2729.000
        46   03 Jun 2027 04:05:25.160   03 Jun 2027 04:05:29.426             4.266          2133.000
        47   03 Jun 2027 04:05:50.983   03 Jun 2027 04:05:59.173             8.190          4095.000
        48   03 Jun 2027 05:38:32.634   03 Jun 2027 05:40:18.830           106.196         52569.312
        49   03 Jun 2027 05:41:19.281   03 Jun 2027 05:41:24.684             5.403          1582.063
        50   03 Jun 2027 05:42:56.384   03 Jun 2027 05:43:04.129             7.745          2865.625
        51   03 Jun 2027 05:43:16.104   03 Jun 2027 05:43:18.728             2.624           362.438
        52   03 Jun 2027 05:45:21.458   03 Jun 2027 05:45:26.404             4.946          2472.781
        53   03 Jun 2027 05:46:12.776   03 Jun 2027 05:46:19.567             6.791          1249.219
        54   03 Jun 2027 05:46:29.213   03 Jun 2027 05:46:29.825             0.612           142.625
        55   03 Jun 2027 07:15:40.677   03 Jun 2027 07:15:52.225            11.548          5774.000
        56   03 Jun 2027 07:16:44.216   03 Jun 2027 07:16:47.071             2.855          1427.500
        57   03 Jun 2027 07:17:40.513   03 Jun 2027 07:17:45.747             5.234          2492.437
        58   03 Jun 2027 07:18:03.428   03 Jun 2027 07:18:03.428             0.000             0.000
        59   03 Jun 2027 07:18:30.715   03 Jun 2027 07:18:34.895             4.180          1405.250
        60   03 Jun 2027 07:19:05.612   03 Jun 2027 07:19:06.892             1.280           428.656
        61   03 Jun 2027 08:39:09.983   03 Jun 2027 08:39:41.448            31.465          9365.406
        62   03 Jun 2027 08:40:15.154   03 Jun 2027 08:40:17.280             2.126           907.875
        63   03 Jun 2027 08:40:48.148   03 Jun 2027 08:40:51.552             3.404           964.625
        64   03 Jun 2027 11:53:29.257   03 Jun 2027 11:53:51.563            22.306         11153.000
        65   03 Jun 2027 11:57:07.155   03 Jun 2027 11:57:32.863            25.708         12854.000
        66   04 Jun 2027 04:11:56.142   04 Jun 2027 04:14:54.425           178.283         89141.500
        67   04 Jun 2027 04:15:14.639   04 Jun 2027 04:15:51.793            37.154         18577.000
        68   04 Jun 2027 04:17:33.786   04 Jun 2027 04:17:55.489            21.703         10851.500
        69   04 Jun 2027 05:50:36.705   04 Jun 2027 05:52:42.049           125.344         62555.718
        70   04 Jun 2027 05:53:59.202   04 Jun 2027 05:54:00.487             1.285           642.500
        71   04 Jun 2027 05:55:30.304   04 Jun 2027 05:55:39.795             9.491          4510.531
        72   04 Jun 2027 05:56:28.000   04 Jun 2027 05:56:30.549             2.549          1038.719
        73   04 Jun 2027 05:56:37.700   04 Jun 2027 05:56:38.173             0.473           157.563
        74   04 Jun 2027 07:16:27.982   04 Jun 2027 07:16:45.443            17.461          8193.031
        75   04 Jun 2027 07:27:37.099   04 Jun 2027 07:27:43.979             6.880          2686.500
        76   04 Jun 2027 07:30:16.982   04 Jun 2027 07:30:18.436             1.454           727.000
        77   04 Jun 2027 08:50:14.959   04 Jun 2027 08:50:28.432            13.473          6736.500
        78   04 Jun 2027 08:52:32.871   04 Jun 2027 08:52:42.673             9.802          4854.750
        79   05 Jun 2027 04:24:02.103   05 Jun 2027 04:27:24.308           202.205        101102.500
        80   05 Jun 2027 04:27:47.643   05 Jun 2027 04:28:31.793            44.150         22075.000
        81   05 Jun 2027 04:29:01.231   05 Jun 2027 04:29:02.963             1.732           866.000
        82   05 Jun 2027 04:29:59.229   05 Jun 2027 04:30:08.471             9.242          4621.000
        83   05 Jun 2027 06:03:06.322   05 Jun 2027 06:03:44.239            37.917         18958.500
        84   05 Jun 2027 06:04:03.914   05 Jun 2027 06:04:44.893            40.979         20489.500
        85   05 Jun 2027 06:04:50.250   05 Jun 2027 06:04:56.536             6.286          2675.969
        86   05 Jun 2027 06:05:04.976   05 Jun 2027 06:05:04.976             0.000             0.000
        87   05 Jun 2027 06:05:23.622   05 Jun 2027 06:05:25.889             2.267           822.094
        88   05 Jun 2027 06:05:33.675   05 Jun 2027 06:05:38.660             4.985           243.312
        89   05 Jun 2027 06:06:12.443   05 Jun 2027 06:06:17.568             5.125          1046.906
        90   05 Jun 2027 06:06:28.017   05 Jun 2027 06:06:30.978             2.961           326.531
        91   05 Jun 2027 06:07:07.043   05 Jun 2027 06:07:10.382             3.339          1059.031
        92   05 Jun 2027 06:08:36.688   05 Jun 2027 06:08:39.639             2.951          1475.500
        93   05 Jun 2027 06:09:12.553   05 Jun 2027 06:09:18.421             5.868          1610.437
        94   05 Jun 2027 06:09:53.532   05 Jun 2027 06:09:57.041             3.509          1097.219
        95   05 Jun 2027 07:27:58.093   05 Jun 2027 07:28:09.626            11.533          5377.875
        96   05 Jun 2027 07:28:37.074   05 Jun 2027 07:28:41.830             4.756           809.625
        97   05 Jun 2027 07:29:27.165   05 Jun 2027 07:29:27.165             0.000             0.000
        98   05 Jun 2027 07:39:40.703   05 Jun 2027 07:39:48.815             8.112          3312.594
        99   05 Jun 2027 09:01:54.178   05 Jun 2027 09:02:30.361            36.183         15630.563
       100   05 Jun 2027 09:02:54.159   05 Jun 2027 09:02:58.735             4.576           635.937
       101   05 Jun 2027 09:03:54.718   05 Jun 2027 09:03:57.052             2.334           366.094
       102   05 Jun 2027 09:04:55.077   05 Jun 2027 09:04:58.511             3.434          1101.687
       103   05 Jun 2027 10:38:06.552   05 Jun 2027 10:38:21.869            15.317          7248.531
       104   06 Jun 2027 03:00:03.912   06 Jun 2027 03:00:09.158             5.246          2623.000
       105   06 Jun 2027 03:00:51.422   06 Jun 2027 03:01:09.896            18.474          9237.000
       106   06 Jun 2027 03:01:23.191   06 Jun 2027 03:01:31.669             8.478          4239.000
       107   06 Jun 2027 03:01:52.346   06 Jun 2027 03:01:53.191             0.845           422.500
       108   06 Jun 2027 03:02:40.070   06 Jun 2027 03:03:19.875            39.805         19902.500
       109   06 Jun 2027 03:03:35.927   06 Jun 2027 03:04:10.222            34.295         17147.500
       110   06 Jun 2027 03:04:13.181   06 Jun 2027 03:04:21.220             8.039          4019.500
       111   06 Jun 2027 03:05:12.731   06 Jun 2027 03:05:24.775            12.044          6022.000
       112   06 Jun 2027 03:06:32.739   06 Jun 2027 03:06:50.321            17.582          8791.000
       113   06 Jun 2027 04:36:22.313   06 Jun 2027 04:36:48.173            25.860         12930.000
       114   06 Jun 2027 04:37:13.717   06 Jun 2027 04:37:28.432            14.715          7357.500
       115   06 Jun 2027 04:37:32.170   06 Jun 2027 04:39:08.271            96.101         48050.500
       116   06 Jun 2027 04:39:10.688   06 Jun 2027 04:39:26.344            15.656          7828.000
       117   06 Jun 2027 04:39:58.023   06 Jun 2027 04:39:58.023             0.000             0.000
       118   06 Jun 2027 04:40:40.390   06 Jun 2027 04:40:40.986             0.596           298.000
       119   06 Jun 2027 04:41:31.662   06 Jun 2027 04:41:50.138            18.476          9238.000
       120   06 Jun 2027 04:42:06.710   06 Jun 2027 04:42:17.530            10.820          5410.000
       121   06 Jun 2027 06:15:08.758   06 Jun 2027 06:15:46.408            37.650         18770.625
       122   06 Jun 2027 06:16:22.438   06 Jun 2027 06:16:24.107             1.669           417.312
       123   06 Jun 2027 06:17:17.564   06 Jun 2027 06:17:20.291             2.727          1363.500
       124   06 Jun 2027 06:18:31.991   06 Jun 2027 06:18:36.758             4.767          2286.656
       125   06 Jun 2027 06:19:14.257   06 Jun 2027 06:19:14.257             0.000             0.000
       126   06 Jun 2027 06:19:39.289   06 Jun 2027 06:19:39.289             0.000             0.000
       127   06 Jun 2027 06:20:07.143   06 Jun 2027 06:20:12.953             5.810          2633.781
       128   06 Jun 2027 06:20:38.282   06 Jun 2027 06:20:38.282             0.000             0.000
       129   06 Jun 2027 06:22:06.588   06 Jun 2027 06:22:10.178             3.590          1795.000
       130   06 Jun 2027 07:39:29.043   06 Jun 2027 07:39:44.087            15.044          7522.000
       131   06 Jun 2027 07:40:07.752   06 Jun 2027 07:40:10.209             2.457          1195.844
       132   06 Jun 2027 07:40:35.265   06 Jun 2027 07:40:38.420             3.155           783.000
       133   06 Jun 2027 07:41:37.795   06 Jun 2027 07:41:41.979             4.184          1668.281
       134   06 Jun 2027 07:51:46.188   06 Jun 2027 07:51:53.487             7.299          2574.500
       135   06 Jun 2027 07:52:03.514   06 Jun 2027 07:52:06.457             2.943           313.344
       136   06 Jun 2027 09:13:37.451   06 Jun 2027 09:14:12.328            34.877         17214.687
       137   06 Jun 2027 09:15:40.799   06 Jun 2027 09:15:45.756             4.957          1941.125
       138   06 Jun 2027 09:16:21.744   06 Jun 2027 09:16:28.120             6.376           937.625
       139   06 Jun 2027 09:17:29.257   06 Jun 2027 09:17:29.257             0.000             0.000
       140   06 Jun 2027 10:48:25.511   06 Jun 2027 10:48:38.543            13.032          6183.031
       141   06 Jun 2027 10:52:01.290   06 Jun 2027 10:52:11.571            10.281          4826.969
       142   06 Jun 2027 10:55:33.326   06 Jun 2027 10:55:33.326             0.000             0.000
       143   06 Jun 2027 10:55:37.878   06 Jun 2027 10:55:52.362            14.484          6234.781
       144   06 Jun 2027 10:56:48.110   06 Jun 2027 10:56:52.280             4.170          1664.906
       145   06 Jun 2027 10:57:09.310   06 Jun 2027 10:57:14.220             4.910           497.875
       146   07 Jun 2027 03:11:25.667   07 Jun 2027 03:12:42.113            76.446         38223.000
       147   07 Jun 2027 03:12:49.856   07 Jun 2027 03:13:40.312            50.456         25228.000
       148   07 Jun 2027 03:13:41.026   07 Jun 2027 03:13:55.956            14.930          7465.000
       149   07 Jun 2027 03:14:07.551   07 Jun 2027 03:14:18.063            10.512          5256.000
       150   07 Jun 2027 03:14:22.271   07 Jun 2027 03:14:25.808             3.537          1768.500
       151   07 Jun 2027 03:15:07.548   07 Jun 2027 03:15:16.267             8.719          4359.500
       152   07 Jun 2027 03:15:56.851   07 Jun 2027 03:16:02.352             5.501          2750.500
       153   07 Jun 2027 03:17:04.512   07 Jun 2027 03:17:17.554            13.042          6521.000
       154   07 Jun 2027 03:18:15.284   07 Jun 2027 03:18:45.010            29.726         14863.000
       155   07 Jun 2027 04:51:32.554   07 Jun 2027 04:53:28.531           115.977         57988.500
       156   07 Jun 2027 04:54:12.370   07 Jun 2027 04:54:32.849            20.479          9572.969
       157   07 Jun 2027 06:27:33.230   07 Jun 2027 06:28:02.989            29.759         14563.969
       158   07 Jun 2027 06:28:41.601   07 Jun 2027 06:28:48.498             6.897          1041.531
       159   07 Jun 2027 06:28:56.321   07 Jun 2027 06:29:01.937             5.616           208.625
       160   07 Jun 2027 06:29:33.526   07 Jun 2027 06:29:36.487             2.961           904.500
       161   07 Jun 2027 06:30:04.797   07 Jun 2027 06:30:06.316             1.519           506.312
       162   07 Jun 2027 06:30:40.757   07 Jun 2027 06:30:42.035             1.278           639.000
       163   07 Jun 2027 06:31:03.501   07 Jun 2027 06:31:05.891             2.390          1108.093
       164   07 Jun 2027 06:31:57.903   07 Jun 2027 06:32:00.183             2.280          1140.000
       165   07 Jun 2027 07:51:27.921   07 Jun 2027 07:51:44.925            17.004          8191.750
       166   07 Jun 2027 07:52:47.143   07 Jun 2027 07:52:51.890             4.747          1381.875
       167   07 Jun 2027 09:27:43.572   07 Jun 2027 09:28:29.727            46.155         21312.094
       168   07 Jun 2027 09:29:08.583   07 Jun 2027 09:29:08.583             0.000             0.000
       169   07 Jun 2027 11:03:00.045   07 Jun 2027 11:03:22.531            22.486         11243.000
       170   07 Jun 2027 11:09:04.469   07 Jun 2027 11:09:26.318            21.849         10902.875
       171   08 Jun 2027 03:23:26.085   08 Jun 2027 03:23:59.236            33.151         16575.500
       172   08 Jun 2027 03:24:25.328   08 Jun 2027 03:24:44.178            18.850          9425.000
       173   08 Jun 2027 03:25:34.850   08 Jun 2027 03:26:39.322            64.472         32236.000
       174   08 Jun 2027 03:27:30.202   08 Jun 2027 03:27:58.246            28.044         14022.000
       175   08 Jun 2027 03:28:40.438   08 Jun 2027 03:30:17.633            97.195         48597.500
       176   08 Jun 2027 03:30:42.420   08 Jun 2027 03:30:43.298             0.878           439.000
       177   08 Jun 2027 05:03:07.701   08 Jun 2027 05:03:17.667             9.966          4983.000
       178   08 Jun 2027 05:03:19.208   08 Jun 2027 05:03:46.844            27.636         13818.000
       179   08 Jun 2027 05:04:08.660   08 Jun 2027 05:05:06.111            57.451         28725.500
       180   08 Jun 2027 05:05:40.947   08 Jun 2027 05:05:59.187            18.240          8196.218
       181   08 Jun 2027 05:06:03.105   08 Jun 2027 05:06:03.398             0.293            73.906
       182   08 Jun 2027 05:06:13.203   08 Jun 2027 05:06:13.203             0.000             0.000
       183   08 Jun 2027 05:06:41.605   08 Jun 2027 05:06:43.271             1.666           833.000
       184   08 Jun 2027 05:06:53.344   08 Jun 2027 05:06:55.544             2.200           592.594
       185   08 Jun 2027 06:39:57.349   08 Jun 2027 06:40:25.078            27.729         13812.156
       186   08 Jun 2027 06:40:55.195   08 Jun 2027 06:40:55.195             0.000             0.000
       187   08 Jun 2027 06:40:55.872   08 Jun 2027 06:40:58.326             2.454           831.937
       188   08 Jun 2027 06:41:11.433   08 Jun 2027 06:41:13.090             1.657           253.000
       189   08 Jun 2027 06:41:53.148   08 Jun 2027 06:41:57.102             3.954           852.594
       190   08 Jun 2027 06:42:21.270   08 Jun 2027 06:42:23.862             2.592           755.250
       191   08 Jun 2027 06:43:20.130   08 Jun 2027 06:43:23.260             3.130          1337.469
       192   08 Jun 2027 06:44:34.074   08 Jun 2027 06:44:38.490             4.416          1539.063
       193   08 Jun 2027 08:03:21.694   08 Jun 2027 08:03:39.377            17.683          8219.687
       194   08 Jun 2027 08:05:24.966   08 Jun 2027 08:05:31.904             6.938          2774.062
       195   08 Jun 2027 08:05:42.607   08 Jun 2027 08:05:45.788             3.181            44.813
       196   08 Jun 2027 09:40:15.291   08 Jun 2027 09:40:56.217            40.926         18625.844
       197   08 Jun 2027 09:41:25.710   08 Jun 2027 09:41:31.002             5.292           877.937
       198   08 Jun 2027 11:13:34.851   08 Jun 2027 11:13:49.487            14.636          6219.031
       199   08 Jun 2027 11:15:14.112   08 Jun 2027 11:15:16.821             2.709           365.062
       200   08 Jun 2027 11:17:03.683   08 Jun 2027 11:17:04.952             1.269           634.500
       201   08 Jun 2027 11:20:34.705   08 Jun 2027 11:20:51.951            17.246          8623.000
       202   08 Jun 2027 11:21:00.894   08 Jun 2027 11:21:01.728             0.834           396.625
       203   08 Jun 2027 11:21:08.506   08 Jun 2027 11:21:08.819             0.313           156.500
       204   08 Jun 2027 11:21:43.899   08 Jun 2027 11:21:44.878             0.979           489.500
       205   09 Jun 2027 03:35:38.985   09 Jun 2027 03:39:44.367           245.382        122691.000
       206   09 Jun 2027 03:40:04.826   09 Jun 2027 03:40:14.695             9.869          4934.500
       207   09 Jun 2027 03:40:16.282   09 Jun 2027 03:40:16.518             0.236           118.000
       208   09 Jun 2027 03:40:56.543   09 Jun 2027 03:41:00.410             3.867          1933.500
       209   09 Jun 2027 03:42:31.122   09 Jun 2027 03:42:44.990            13.868          6934.000
       210   09 Jun 2027 05:13:54.643   09 Jun 2027 05:14:49.513            54.870         27435.000
       211   09 Jun 2027 05:14:55.349   09 Jun 2027 05:15:23.940            28.591         14177.843
       212   09 Jun 2027 05:15:32.548   09 Jun 2027 05:15:36.676             4.128           182.344
       213   09 Jun 2027 05:15:44.000   09 Jun 2027 05:15:47.299             3.299            89.406
       214   09 Jun 2027 05:16:47.447   09 Jun 2027 05:16:53.284             5.837          1692.719
       215   09 Jun 2027 05:17:58.672   09 Jun 2027 05:18:03.110             4.438          1605.469
       216   09 Jun 2027 05:18:17.179   09 Jun 2027 05:18:19.928             2.749           367.469
       217   09 Jun 2027 05:18:45.825   09 Jun 2027 05:18:46.626             0.801           400.500
       218   09 Jun 2027 05:18:48.621   09 Jun 2027 05:18:53.639             5.018           404.875
       219   09 Jun 2027 05:19:20.774   09 Jun 2027 05:19:24.246             3.472            93.656
       220   09 Jun 2027 06:52:16.521   09 Jun 2027 06:52:36.959            20.438         10013.281
       221   09 Jun 2027 06:53:11.197   09 Jun 2027 06:53:15.996             4.799          1069.938
       222   09 Jun 2027 06:54:52.181   09 Jun 2027 06:55:03.860            11.679          2926.875
       223   09 Jun 2027 06:55:19.382   09 Jun 2027 06:55:19.382             0.000             0.000
       224   09 Jun 2027 06:55:34.431   09 Jun 2027 06:55:34.434             0.003             1.500
       225   09 Jun 2027 06:55:55.271   09 Jun 2027 06:56:00.201             4.930          1434.719
       226   09 Jun 2027 08:15:09.897   09 Jun 2027 08:15:30.426            20.529          8190.656
       227   09 Jun 2027 08:17:54.715   09 Jun 2027 08:17:57.205             2.490          1245.000
       228   09 Jun 2027 09:51:48.371   09 Jun 2027 09:52:04.664            16.293          7959.937
       229   09 Jun 2027 11:27:23.271   09 Jun 2027 11:27:29.960             6.689          3344.500
       230   09 Jun 2027 11:28:12.257   09 Jun 2027 11:28:36.559            24.302         10528.000
       231   09 Jun 2027 11:28:45.896   09 Jun 2027 11:28:47.849             1.953           228.094
       232   09 Jun 2027 11:29:09.768   09 Jun 2027 11:29:11.484             1.716           382.969
       233   09 Jun 2027 11:29:41.924   09 Jun 2027 11:29:44.069             2.145           592.594
       234   09 Jun 2027 11:30:09.060   09 Jun 2027 11:30:12.612             3.552           231.562
       235   09 Jun 2027 11:30:53.196   09 Jun 2027 11:30:53.435             0.239           119.500
       236   09 Jun 2027 11:33:39.247   09 Jun 2027 11:33:41.190             1.943           971.500
       237   10 Jun 2027 03:47:35.515   10 Jun 2027 03:50:36.646           181.131         90565.500
       238   10 Jun 2027 03:51:20.783   10 Jun 2027 03:52:04.345            43.562         21781.000
       239   10 Jun 2027 03:52:11.462   10 Jun 2027 03:52:24.788            13.326          6663.000
       240   10 Jun 2027 03:53:41.486   10 Jun 2027 03:53:48.499             7.013          3506.500
       241   10 Jun 2027 05:25:44.015   10 Jun 2027 05:26:43.910            59.895         29947.500
       242   10 Jun 2027 05:26:51.471   10 Jun 2027 05:27:23.635            32.164         16082.000
       243   10 Jun 2027 05:27:41.968   10 Jun 2027 05:27:50.260             8.292          1927.062
       244   10 Jun 2027 05:28:39.669   10 Jun 2027 05:28:45.003             5.334           696.469
       245   10 Jun 2027 05:30:09.323   10 Jun 2027 05:30:12.879             3.556          1778.000
       246   10 Jun 2027 05:30:42.600   10 Jun 2027 05:30:48.244             5.644          1729.188
       247   10 Jun 2027 05:31:01.709   10 Jun 2027 05:31:02.930             1.221           420.781
       248   10 Jun 2027 07:04:01.061   10 Jun 2027 07:04:13.684            12.623          6102.656
       249   10 Jun 2027 07:04:58.078   10 Jun 2027 07:05:01.194             3.116          1387.312
       250   10 Jun 2027 07:05:33.058   10 Jun 2027 07:05:34.215             1.157           578.500
       251   10 Jun 2027 07:06:16.195   10 Jun 2027 07:06:21.228             5.033          1660.125
       252   10 Jun 2027 07:07:21.590   10 Jun 2027 07:07:21.590             0.000             0.000
       253   10 Jun 2027 07:07:36.001   10 Jun 2027 07:07:41.636             5.635          2162.937
       254   10 Jun 2027 08:27:24.377   10 Jun 2027 08:27:46.967            22.590          9552.406
       255   10 Jun 2027 08:28:30.422   10 Jun 2027 08:28:32.129             1.707           799.062
       256   10 Jun 2027 08:29:57.089   10 Jun 2027 08:30:01.995             4.906          2105.063
       257   10 Jun 2027 08:30:28.183   10 Jun 2027 08:30:28.183             0.000             0.000
       258   10 Jun 2027 11:40:57.742   10 Jun 2027 11:42:01.466            63.724         31825.500
       259   10 Jun 2027 11:42:45.468   10 Jun 2027 11:42:53.117             7.649          1375.062
       260   10 Jun 2027 11:43:08.297   10 Jun 2027 11:43:09.583             1.286           404.844
       261   10 Jun 2027 11:43:40.019   10 Jun 2027 11:43:41.714             1.695           516.344
       262   10 Jun 2027 11:44:56.159   10 Jun 2027 11:45:01.945             5.786          1857.156
       263   10 Jun 2027 11:45:02.589   10 Jun 2027 11:45:03.393             0.804            20.125
       264   10 Jun 2027 11:45:13.978   10 Jun 2027 11:45:15.991             2.013           143.594
       265   10 Jun 2027 11:45:24.097   10 Jun 2027 11:45:24.097             0.000             0.000
       266   10 Jun 2027 11:45:38.913   10 Jun 2027 11:45:41.890             2.977           572.375
       267   11 Jun 2027 03:59:32.775   11 Jun 2027 04:03:06.242           213.467        106733.500
       268   11 Jun 2027 04:03:42.300   11 Jun 2027 04:03:59.683            17.383          8691.500
       269   11 Jun 2027 04:04:19.273   11 Jun 2027 04:04:35.465            16.192          8096.000
       270   11 Jun 2027 04:05:57.149   11 Jun 2027 04:05:57.149             0.000             0.000
       271   11 Jun 2027 04:06:22.120   11 Jun 2027 04:06:25.325             3.205          1602.500
       272   11 Jun 2027 05:38:50.599   11 Jun 2027 05:40:24.065            93.466         45947.875
       273   11 Jun 2027 05:41:12.878   11 Jun 2027 05:41:19.223             6.345          1468.781
       274   11 Jun 2027 05:42:19.279   11 Jun 2027 05:42:21.514             2.235          1117.500
       275   11 Jun 2027 05:42:44.384   11 Jun 2027 05:42:51.110             6.726          1248.375
       276   11 Jun 2027 05:43:49.148   11 Jun 2027 05:43:53.943             4.795          1759.562
       277   11 Jun 2027 05:45:25.918   11 Jun 2027 05:45:29.394             3.476          1738.000
       278   11 Jun 2027 05:45:46.860   11 Jun 2027 05:45:49.125             2.265           984.031
       279   11 Jun 2027 05:46:27.829   11 Jun 2027 05:46:34.624             6.795          1209.500
       280   11 Jun 2027 05:46:46.947   11 Jun 2027 05:46:47.057             0.110            55.000
       281   11 Jun 2027 07:15:57.817   11 Jun 2027 07:16:09.642            11.825          5725.406
       282   11 Jun 2027 07:16:55.657   11 Jun 2027 07:17:02.280             6.623          1037.969
       283   11 Jun 2027 07:17:48.098   11 Jun 2027 07:17:50.001             1.903           951.500
       284   11 Jun 2027 07:18:09.817   11 Jun 2027 07:18:13.738             3.921          1099.563
       285   11 Jun 2027 07:18:46.163   11 Jun 2027 07:18:46.163             0.000             0.000
       286   11 Jun 2027 07:19:08.403   11 Jun 2027 07:19:08.403             0.000             0.000
       287   11 Jun 2027 07:19:09.181   11 Jun 2027 07:19:16.421             7.240          1542.875
       288   11 Jun 2027 07:19:30.906   11 Jun 2027 07:19:30.906             0.000             0.000
       289   11 Jun 2027 08:39:26.002   11 Jun 2027 08:39:45.604            19.602          8591.313
       290   11 Jun 2027 08:41:05.670   11 Jun 2027 08:41:09.065             3.395          1057.312
       291   11 Jun 2027 11:57:24.091   11 Jun 2027 11:57:51.062            26.971         13485.500
       292   12 Jun 2027 04:12:14.378   12 Jun 2027 04:14:53.524           159.146         79573.000
       293   12 Jun 2027 04:15:21.921   12 Jun 2027 04:15:36.935            15.014          7507.000
       294   12 Jun 2027 04:16:42.435   12 Jun 2027 04:17:12.547            30.112         15056.000
       295   12 Jun 2027 04:18:03.037   12 Jun 2027 04:18:13.386            10.349          5174.500
       296   12 Jun 2027 05:50:55.197   12 Jun 2027 05:53:09.639           134.442         66166.625
       297   12 Jun 2027 05:53:39.083   12 Jun 2027 05:53:39.083             0.000             0.000
       298   12 Jun 2027 05:54:07.294   12 Jun 2027 05:54:15.064             7.770          1689.250
       299   12 Jun 2027 05:55:22.473   12 Jun 2027 05:55:31.846             9.373          2105.031
       300   12 Jun 2027 05:56:51.973   12 Jun 2027 05:56:57.401             5.428          2503.969
       301   12 Jun 2027 07:16:41.491   12 Jun 2027 07:17:06.215            24.724         11837.813
       302   12 Jun 2027 07:27:55.151   12 Jun 2027 07:27:56.603             1.452           726.000
       303   12 Jun 2027 07:28:02.820   12 Jun 2027 07:28:09.125             6.305          1617.282
       304   12 Jun 2027 07:28:45.558   12 Jun 2027 07:28:53.208             7.650           520.656
       305   12 Jun 2027 07:29:29.566   12 Jun 2027 07:29:31.852             2.286           894.688
       306   12 Jun 2027 08:50:31.724   12 Jun 2027 08:50:47.950            16.226          8004.563
       307   12 Jun 2027 08:51:13.231   12 Jun 2027 08:51:16.124             2.893           790.031
       308   12 Jun 2027 08:52:35.514   12 Jun 2027 08:52:44.534             9.020          1904.906
       309   12 Jun 2027 08:54:08.613   12 Jun 2027 08:54:17.948             9.335          2439.906
       310   13 Jun 2027 04:24:20.586   13 Jun 2027 04:28:07.469           226.883        113441.500
       311   13 Jun 2027 04:28:11.876   13 Jun 2027 04:28:38.130            26.254         13127.000
       312   13 Jun 2027 04:28:50.768   13 Jun 2027 04:28:51.459             0.691           345.500
       313   13 Jun 2027 04:29:21.802   13 Jun 2027 04:29:32.032            10.230          5115.000
       314   13 Jun 2027 04:29:35.876   13 Jun 2027 04:29:37.920             2.044          1022.000
       315   13 Jun 2027 06:03:25.297   13 Jun 2027 06:04:48.734            83.437         40791.063
       316   13 Jun 2027 06:05:41.238   13 Jun 2027 06:05:46.355             5.117          1582.969
       317   13 Jun 2027 06:06:29.183   13 Jun 2027 06:06:32.641             3.458          1111.094
       318   13 Jun 2027 06:07:08.863   13 Jun 2027 06:07:13.703             4.840          1024.406
       319   13 Jun 2027 06:07:31.467   13 Jun 2027 06:07:35.819             4.352           520.219
       320   13 Jun 2027 06:08:39.573   13 Jun 2027 06:08:40.385             0.812           406.000
       321   13 Jun 2027 06:08:55.278   13 Jun 2027 06:08:57.709             2.431          1215.500
       322   13 Jun 2027 06:09:29.862   13 Jun 2027 06:09:32.980             3.118          1499.250
       323   13 Jun 2027 06:10:11.518   13 Jun 2027 06:10:17.706             6.188          1204.313
       324   13 Jun 2027 07:28:15.339   13 Jun 2027 07:28:27.258            11.919          5941.594
       325   13 Jun 2027 07:29:00.492   13 Jun 2027 07:29:03.819             3.327          1038.562
       326   13 Jun 2027 07:29:15.511   13 Jun 2027 07:29:19.516             4.005           195.750
       327   13 Jun 2027 07:39:55.083   13 Jun 2027 07:39:59.046             3.963          1978.281
       328   13 Jun 2027 07:40:41.655   13 Jun 2027 07:40:41.655             0.000             0.000
       329   13 Jun 2027 09:02:14.198   13 Jun 2027 09:02:44.144            29.946         14973.000
       330   13 Jun 2027 09:04:11.378   13 Jun 2027 09:04:18.396             7.018          2944.969
       331   13 Jun 2027 10:37:13.052   13 Jun 2027 10:37:29.215            16.163          6948.281
       332   13 Jun 2027 10:38:18.131   13 Jun 2027 10:38:21.362             3.231           918.781
       333   13 Jun 2027 10:40:57.142   13 Jun 2027 10:41:09.107            11.965          4714.812
