uniorb/output/strategy_2/Camera/Camera_KinoSat_110208.txt

KinoSat_110208
-------------------------
    Access    *     Start Time (UTCG)     *     Stop Time (UTCG)  *   Duration (s) *   Data (Mbytes)
         1   01 Jun 2027 03:32:21.437   01 Jun 2027 03:32:22.011             0.574           287.000
         2   01 Jun 2027 03:32:38.405   01 Jun 2027 03:32:42.347             3.942          1971.000
         3   01 Jun 2027 03:33:09.957   01 Jun 2027 03:33:15.128             5.171          2585.500
         4   01 Jun 2027 03:33:43.057   01 Jun 2027 03:33:48.593             5.536          2768.000
         5   01 Jun 2027 03:34:14.339   01 Jun 2027 03:34:21.621             7.282          3641.000
         6   01 Jun 2027 03:35:04.107   01 Jun 2027 03:35:05.392             1.285           642.500
         7   01 Jun 2027 03:35:11.686   01 Jun 2027 03:35:16.017             4.331          2165.500
         8   01 Jun 2027 03:35:37.259   01 Jun 2027 03:35:43.744             6.485          3242.500
         9   01 Jun 2027 03:36:31.282   01 Jun 2027 03:36:33.256             1.974           987.000
        10   01 Jun 2027 03:37:09.537   01 Jun 2027 03:37:13.512             3.975          1987.500
        11   01 Jun 2027 03:37:42.903   01 Jun 2027 03:37:46.269             3.366          1683.000
        12   01 Jun 2027 03:38:04.186   01 Jun 2027 03:38:11.610             7.424          3712.000
        13   01 Jun 2027 03:38:25.129   01 Jun 2027 03:38:25.937             0.808           404.000
        14   01 Jun 2027 03:39:02.324   01 Jun 2027 03:39:07.148             4.824          2412.000
        15   01 Jun 2027 03:39:36.291   01 Jun 2027 03:39:41.163             4.872          2436.000
        16   01 Jun 2027 05:09:06.656   01 Jun 2027 05:09:18.170            11.514          5757.000
        17   01 Jun 2027 05:10:06.426   01 Jun 2027 05:10:11.540             5.114          2557.000
        18   01 Jun 2027 05:10:57.613   01 Jun 2027 05:11:05.331             7.718          3859.000
        19   01 Jun 2027 05:12:04.291   01 Jun 2027 05:12:06.376             2.085          1042.500
        20   01 Jun 2027 05:12:31.368   01 Jun 2027 05:12:34.741             3.373          1686.500
        21   01 Jun 2027 05:13:16.677   01 Jun 2027 05:13:17.817             1.140           570.000
        22   01 Jun 2027 05:13:29.181   01 Jun 2027 05:13:31.799             2.618          1309.000
        23   01 Jun 2027 05:13:42.866   01 Jun 2027 05:13:50.645             7.779          3889.500
        24   01 Jun 2027 05:14:04.509   01 Jun 2027 05:14:12.617             8.108          4054.000
        25   01 Jun 2027 05:15:17.565   01 Jun 2027 05:15:25.687             8.122          4061.000
        26   01 Jun 2027 06:47:11.416   01 Jun 2027 06:47:24.686            13.270          6635.000
        27   01 Jun 2027 06:48:38.296   01 Jun 2027 06:48:42.291             3.995          1997.500
        28   01 Jun 2027 06:48:59.489   01 Jun 2027 06:49:04.622             5.133          2566.500
        29   01 Jun 2027 06:49:32.694   01 Jun 2027 06:49:37.709             5.015          2507.500
        30   01 Jun 2027 06:49:59.933   01 Jun 2027 06:50:02.158             2.225          1112.500
        31   01 Jun 2027 06:50:46.012   01 Jun 2027 06:50:51.180             5.168          2584.000
        32   01 Jun 2027 08:20:57.610   01 Jun 2027 08:21:11.992            14.382          7191.000
        33   01 Jun 2027 08:22:18.710   01 Jun 2027 08:22:24.748             6.038          3019.000
        34   01 Jun 2027 08:22:49.534   01 Jun 2027 08:22:59.309             9.775          4887.500
        35   01 Jun 2027 08:23:29.874   01 Jun 2027 08:23:35.318             5.444          2722.000
        36   01 Jun 2027 08:24:33.005   01 Jun 2027 08:24:39.367             6.362          3181.000
        37   01 Jun 2027 08:25:29.690   01 Jun 2027 08:25:31.640             1.950           975.000
        38   01 Jun 2027 08:25:47.125   01 Jun 2027 08:25:49.379             2.254          1127.000
        39   01 Jun 2027 08:26:08.464   01 Jun 2027 08:26:09.890             1.426           713.000
        40   01 Jun 2027 08:26:15.978   01 Jun 2027 08:26:27.538            11.560          5780.000
        41   02 Jun 2027 03:44:21.533   02 Jun 2027 03:44:22.635             1.102           551.000
        42   02 Jun 2027 03:44:46.431   02 Jun 2027 03:44:48.721             2.290          1145.000
        43   02 Jun 2027 03:45:26.024   02 Jun 2027 03:45:43.138            17.114          8557.000
        44   02 Jun 2027 03:46:55.398   02 Jun 2027 03:46:57.092             1.694           847.000
        45   02 Jun 2027 03:47:08.240   02 Jun 2027 03:47:09.903             1.663           831.500
        46   02 Jun 2027 03:47:18.291   02 Jun 2027 03:47:25.999             7.708          3854.000
        47   02 Jun 2027 03:47:59.946   02 Jun 2027 03:48:03.552             3.606          1803.000
        48   02 Jun 2027 03:48:22.861   02 Jun 2027 03:48:23.959             1.098           549.000
        49   02 Jun 2027 03:48:41.027   02 Jun 2027 03:48:41.517             0.490           245.000
        50   02 Jun 2027 03:49:01.792   02 Jun 2027 03:49:04.589             2.797          1398.500
        51   02 Jun 2027 03:49:31.362   02 Jun 2027 03:49:35.486             4.124          2062.000
        52   02 Jun 2027 03:50:22.216   02 Jun 2027 03:50:22.299             0.083            41.500
        53   02 Jun 2027 03:51:05.798   02 Jun 2027 03:51:06.601             0.803           401.500
        54   02 Jun 2027 03:51:12.630   02 Jun 2027 03:51:14.105             1.475           737.500
        55   02 Jun 2027 03:51:26.791   02 Jun 2027 03:51:29.085             2.294          1147.000
        56   02 Jun 2027 05:21:14.910   02 Jun 2027 05:21:30.804            15.894          7947.000
        57   02 Jun 2027 05:22:59.806   02 Jun 2027 05:23:04.716             4.910          2455.000
        58   02 Jun 2027 05:23:56.105   02 Jun 2027 05:24:05.394             9.289          4644.500
        59   02 Jun 2027 05:25:16.025   02 Jun 2027 05:25:18.048             2.023          1011.500
        60   02 Jun 2027 05:26:06.904   02 Jun 2027 05:26:10.429             3.525          1762.500
        61   02 Jun 2027 05:26:43.488   02 Jun 2027 05:26:47.557             4.069          2034.500
        62   02 Jun 2027 05:27:14.394   02 Jun 2027 05:27:17.534             3.140          1570.000
        63   02 Jun 2027 06:58:24.514   02 Jun 2027 06:58:45.374            20.860         10430.000
        64   02 Jun 2027 07:00:32.993   02 Jun 2027 07:00:36.305             3.312          1656.000
        65   02 Jun 2027 07:00:54.037   02 Jun 2027 07:01:03.650             9.613          4806.500
        66   02 Jun 2027 07:01:42.108   02 Jun 2027 07:01:54.260            12.152          6076.000
        67   02 Jun 2027 07:02:30.858   02 Jun 2027 07:02:34.356             3.498          1749.000
        68   02 Jun 2027 07:03:10.005   02 Jun 2027 07:03:11.073             1.068           534.000
        69   02 Jun 2027 08:33:12.118   02 Jun 2027 08:33:14.867             2.749          1374.500
        70   02 Jun 2027 08:33:27.057   02 Jun 2027 08:33:41.652            14.595          7297.500
        71   02 Jun 2027 08:35:09.200   02 Jun 2027 08:35:11.497             2.297          1148.500
        72   02 Jun 2027 08:35:40.477   02 Jun 2027 08:35:55.016            14.539          7269.500
        73   02 Jun 2027 08:36:59.817   02 Jun 2027 08:37:05.125             5.308          2654.000
        74   02 Jun 2027 08:37:53.310   02 Jun 2027 08:37:58.113             4.803          2401.500
        75   03 Jun 2027 03:56:44.199   03 Jun 2027 03:56:45.863             1.664           832.000
        76   03 Jun 2027 03:56:52.620   03 Jun 2027 03:57:19.859            27.239         13619.500
        77   03 Jun 2027 03:58:41.221   03 Jun 2027 03:58:54.466            13.245          6622.500
        78   03 Jun 2027 04:00:16.661   03 Jun 2027 04:00:22.361             5.700          2850.000
        79   03 Jun 2027 04:00:33.403   03 Jun 2027 04:00:34.208             0.805           402.500
        80   03 Jun 2027 04:00:54.146   03 Jun 2027 04:01:00.711             6.565          3282.500
        81   03 Jun 2027 04:02:15.878   03 Jun 2027 04:02:22.327             6.449          3224.500
        82   03 Jun 2027 04:03:09.243   03 Jun 2027 04:03:10.371             1.128           564.000
        83   03 Jun 2027 04:03:14.859   03 Jun 2027 04:03:20.385             5.526          2763.000
        84   03 Jun 2027 05:33:43.079   03 Jun 2027 05:34:03.838            20.759         10379.500
        85   03 Jun 2027 05:35:48.571   03 Jun 2027 05:35:52.285             3.714          1857.000
        86   03 Jun 2027 05:36:10.960   03 Jun 2027 05:36:17.610             6.650          3325.000
        87   03 Jun 2027 05:36:55.786   03 Jun 2027 05:36:56.983             1.197           598.500
        88   03 Jun 2027 05:37:40.725   03 Jun 2027 05:37:43.034             2.309          1154.500
        89   03 Jun 2027 05:38:18.665   03 Jun 2027 05:38:26.390             7.725          3862.500
        90   03 Jun 2027 05:38:45.931   03 Jun 2027 05:38:46.503             0.572           286.000
        91   03 Jun 2027 05:39:16.863   03 Jun 2027 05:39:17.798             0.935           467.500
        92   03 Jun 2027 05:39:19.459   03 Jun 2027 05:39:19.459             0.000             0.000
        93   03 Jun 2027 07:10:37.120   03 Jun 2027 07:10:54.000            16.880          8440.000
        94   03 Jun 2027 07:12:19.375   03 Jun 2027 07:12:20.498             1.123           561.500
        95   03 Jun 2027 07:12:48.959   03 Jun 2027 07:12:51.082             2.123          1061.500
        96   03 Jun 2027 07:13:17.002   03 Jun 2027 07:13:17.624             0.622           311.000
        97   03 Jun 2027 07:13:22.170   03 Jun 2027 07:13:25.866             3.696          1848.000
        98   03 Jun 2027 07:14:27.985   03 Jun 2027 07:14:35.569             7.584          3792.000
        99   03 Jun 2027 08:47:46.741   03 Jun 2027 08:47:53.032             6.291          3145.500
       100   03 Jun 2027 08:48:43.232   03 Jun 2027 08:48:45.603             2.371          1185.500
       101   03 Jun 2027 08:48:57.783   03 Jun 2027 08:49:07.067             9.284          4642.000
       102   03 Jun 2027 08:49:27.859   03 Jun 2027 08:49:45.939            18.080          9040.000
       103   04 Jun 2027 04:08:53.208   04 Jun 2027 04:09:19.891            26.683         13341.500
       104   04 Jun 2027 04:11:14.079   04 Jun 2027 04:11:16.351             2.272          1136.000
       105   04 Jun 2027 04:11:53.507   04 Jun 2027 04:11:53.687             0.180            90.000
       106   04 Jun 2027 04:12:17.481   04 Jun 2027 04:12:32.893            15.412          7706.000
       107   04 Jun 2027 04:14:11.418   04 Jun 2027 04:14:12.216             0.798           399.000
       108   04 Jun 2027 04:15:23.139   04 Jun 2027 04:15:30.051             6.912          3456.000
       109   04 Jun 2027 05:46:12.383   04 Jun 2027 05:46:20.565             8.182          4091.000
       110   04 Jun 2027 05:47:28.293   04 Jun 2027 05:47:34.738             6.445          3222.500
       111   04 Jun 2027 05:48:05.644   04 Jun 2027 05:48:21.382            15.738          7869.000
       112   04 Jun 2027 05:49:45.550   04 Jun 2027 05:49:52.200             6.650          3325.000
       113   04 Jun 2027 05:50:35.550   04 Jun 2027 05:50:39.866             4.316          2158.000
       114   04 Jun 2027 07:22:38.382   04 Jun 2027 07:22:52.461            14.079          7039.500
       115   04 Jun 2027 07:23:40.796   04 Jun 2027 07:23:40.796             0.000             0.000
       116   04 Jun 2027 07:24:07.768   04 Jun 2027 07:24:15.387             7.619          3809.500
       117   04 Jun 2027 07:24:57.434   04 Jun 2027 07:25:04.592             7.158          3579.000
       118   04 Jun 2027 07:25:53.227   04 Jun 2027 07:26:08.721            15.494          7747.000
       119   04 Jun 2027 07:27:31.264   04 Jun 2027 07:27:41.368            10.104          5052.000
       120   04 Jun 2027 09:00:54.874   04 Jun 2027 09:00:57.284             2.410          1205.000
       121   04 Jun 2027 09:01:09.169   04 Jun 2027 09:01:15.038             5.869          2934.500
       122   05 Jun 2027 04:21:27.065   05 Jun 2027 04:21:28.187             1.122           561.000
       123   05 Jun 2027 04:21:41.199   05 Jun 2027 04:21:49.261             8.062          4031.000
       124   05 Jun 2027 04:23:04.783   05 Jun 2027 04:23:07.378             2.595          1297.500
       125   05 Jun 2027 04:23:20.821   05 Jun 2027 04:23:29.712             8.891          4445.500
       126   05 Jun 2027 04:24:23.399   05 Jun 2027 04:24:29.472             6.073          3036.500
       127   05 Jun 2027 04:24:57.998   05 Jun 2027 04:24:58.891             0.893           446.500
       128   05 Jun 2027 04:26:06.317   05 Jun 2027 04:26:08.186             1.869           934.500
       129   05 Jun 2027 04:26:31.742   05 Jun 2027 04:26:38.607             6.865          3432.500
       130   05 Jun 2027 04:27:07.478   05 Jun 2027 04:27:19.407            11.929          5964.500
       131   05 Jun 2027 05:58:50.305   05 Jun 2027 05:58:51.253             0.948           474.000
       132   05 Jun 2027 05:59:00.027   05 Jun 2027 05:59:00.781             0.754           377.000
       133   05 Jun 2027 05:59:05.959   05 Jun 2027 05:59:08.234             2.275          1137.500
       134   05 Jun 2027 05:59:13.880   05 Jun 2027 05:59:22.644             8.764          4382.000
       135   05 Jun 2027 06:00:22.703   05 Jun 2027 06:00:37.420            14.717          7358.500
       136   05 Jun 2027 06:01:45.721   05 Jun 2027 06:01:55.841            10.120          5060.000
       137   05 Jun 2027 06:02:49.378   05 Jun 2027 06:02:51.254             1.876           938.000
       138   05 Jun 2027 06:03:12.618   05 Jun 2027 06:03:13.494             0.876           438.000
       139   05 Jun 2027 07:35:01.218   05 Jun 2027 07:35:06.448             5.230          2615.000
       140   05 Jun 2027 07:35:27.551   05 Jun 2027 07:35:29.773             2.222          1111.000
       141   05 Jun 2027 07:35:54.922   05 Jun 2027 07:36:08.134            13.212          6606.000
       142   05 Jun 2027 07:37:05.449   05 Jun 2027 07:37:13.499             8.050          4025.000
       143   05 Jun 2027 07:38:17.401   05 Jun 2027 07:38:19.441             2.040          1020.000
       144   05 Jun 2027 07:38:41.510   05 Jun 2027 07:38:42.211             0.701           350.500
       145   05 Jun 2027 07:38:49.512   05 Jun 2027 07:38:52.888             3.376          1688.000
       146   05 Jun 2027 07:38:59.722   05 Jun 2027 07:38:59.722             0.000             0.000
       147   05 Jun 2027 07:39:10.405   05 Jun 2027 07:39:13.945             3.540          1770.000
       148   06 Jun 2027 03:00:00.000   06 Jun 2027 03:00:00.606             0.606           303.000
       149   06 Jun 2027 03:00:31.087   06 Jun 2027 03:00:34.496             3.409          1704.500
       150   06 Jun 2027 03:01:09.896   06 Jun 2027 03:01:15.466             5.570          2785.000
       151   06 Jun 2027 03:02:08.410   06 Jun 2027 03:02:11.026             2.616          1308.000
       152   06 Jun 2027 03:02:21.743   06 Jun 2027 03:02:32.457            10.714          5357.000
       153   06 Jun 2027 03:03:19.875   06 Jun 2027 03:03:19.900             0.025            12.500
       154   06 Jun 2027 03:03:20.944   06 Jun 2027 03:03:22.700             1.756           878.000
       155   06 Jun 2027 03:03:31.558   06 Jun 2027 03:03:33.375             1.817           908.500
       156   06 Jun 2027 03:03:48.100   06 Jun 2027 03:03:51.631             3.531          1765.500
       157   06 Jun 2027 04:33:05.824   06 Jun 2027 04:33:08.847             3.023          1511.500
       158   06 Jun 2027 04:33:25.902   06 Jun 2027 04:33:42.655            16.753          8376.500
       159   06 Jun 2027 04:34:53.389   06 Jun 2027 04:34:56.453             3.064          1532.000
       160   06 Jun 2027 04:35:21.315   06 Jun 2027 04:35:55.659            34.344         17172.000
       161   06 Jun 2027 04:38:27.252   06 Jun 2027 04:38:38.004            10.752          5376.000
       162   06 Jun 2027 06:11:05.196   06 Jun 2027 06:11:06.776             1.580           790.000
       163   06 Jun 2027 06:11:38.661   06 Jun 2027 06:11:41.550             2.889          1444.500
       164   06 Jun 2027 06:12:22.213   06 Jun 2027 06:12:28.097             5.884          2942.000
       165   06 Jun 2027 06:12:52.955   06 Jun 2027 06:12:55.797             2.842          1421.000
       166   06 Jun 2027 06:13:24.341   06 Jun 2027 06:13:29.747             5.406          2703.000
       167   06 Jun 2027 06:14:00.011   06 Jun 2027 06:14:04.337             4.326          2163.000
       168   06 Jun 2027 06:14:34.893   06 Jun 2027 06:14:35.402             0.509           254.500
       169   06 Jun 2027 06:14:46.006   06 Jun 2027 06:14:47.142             1.136           568.000
       170   06 Jun 2027 06:14:53.241   06 Jun 2027 06:14:54.878             1.637           818.500
       171   06 Jun 2027 06:15:03.696   06 Jun 2027 06:15:09.562             5.866          2933.000
       172   06 Jun 2027 07:46:56.460   06 Jun 2027 07:46:56.849             0.389           194.500
       173   06 Jun 2027 07:47:23.190   06 Jun 2027 07:47:27.211             4.021          2010.500
       174   06 Jun 2027 07:48:20.785   06 Jun 2027 07:48:25.981             5.196          2598.000
       175   06 Jun 2027 07:48:53.333   06 Jun 2027 07:48:55.353             2.020          1010.000
       176   06 Jun 2027 07:49:55.657   06 Jun 2027 07:50:02.405             6.748          3374.000
       177   06 Jun 2027 07:50:15.802   06 Jun 2027 07:50:16.261             0.459           229.500
       178   06 Jun 2027 07:50:39.737   06 Jun 2027 07:50:40.138             0.401           200.500
       179   06 Jun 2027 07:51:06.484   06 Jun 2027 07:51:09.630             3.146          1573.000
       180   06 Jun 2027 07:51:57.345   06 Jun 2027 07:52:03.514             6.169          3084.500
       181   07 Jun 2027 03:08:25.606   07 Jun 2027 03:08:27.919             2.313          1156.500
       182   07 Jun 2027 03:09:06.544   07 Jun 2027 03:09:07.712             1.168           584.000
       183   07 Jun 2027 03:09:24.900   07 Jun 2027 03:09:33.032             8.132          4066.000
       184   07 Jun 2027 03:10:00.244   07 Jun 2027 03:10:03.038             2.794          1397.000
       185   07 Jun 2027 03:10:22.751   07 Jun 2027 03:10:35.199            12.448          6224.000
       186   07 Jun 2027 03:11:32.542   07 Jun 2027 03:11:38.370             5.828          2914.000
       187   07 Jun 2027 03:12:02.888   07 Jun 2027 03:12:08.202             5.314          2657.000
       188   07 Jun 2027 03:12:42.113   07 Jun 2027 03:12:45.319             3.206          1603.000
       189   07 Jun 2027 03:12:45.559   07 Jun 2027 03:12:49.856             4.297          2148.500
       190   07 Jun 2027 03:13:40.312   07 Jun 2027 03:13:41.026             0.714           357.000
       191   07 Jun 2027 03:13:55.956   07 Jun 2027 03:14:00.211             4.255          2127.500
       192   07 Jun 2027 03:14:18.063   07 Jun 2027 03:14:21.094             3.031          1515.500
       193   07 Jun 2027 03:14:43.650   07 Jun 2027 03:14:50.410             6.760          3380.000
       194   07 Jun 2027 03:15:12.874   07 Jun 2027 03:15:14.462             1.588           794.000
       195   07 Jun 2027 03:15:32.075   07 Jun 2027 03:15:40.999             8.924          4462.000
       196   07 Jun 2027 03:15:54.065   07 Jun 2027 03:15:56.851             2.786          1393.000
       197   07 Jun 2027 04:45:15.232   07 Jun 2027 04:45:17.572             2.340          1170.000
       198   07 Jun 2027 04:45:57.764   07 Jun 2027 04:46:12.522            14.758          7379.000
       199   07 Jun 2027 04:47:16.820   07 Jun 2027 04:47:18.264             1.444           722.000
       200   07 Jun 2027 04:47:23.066   07 Jun 2027 04:47:25.851             2.785          1392.500
       201   07 Jun 2027 04:48:26.798   07 Jun 2027 04:48:33.544             6.746          3373.000
       202   07 Jun 2027 04:48:45.294   07 Jun 2027 04:48:48.171             2.877          1438.500
       203   07 Jun 2027 04:49:09.215   07 Jun 2027 04:49:23.327            14.112          7056.000
       204   07 Jun 2027 04:50:36.013   07 Jun 2027 04:50:59.969            23.956         11978.000
       205   07 Jun 2027 06:23:27.417   07 Jun 2027 06:23:30.225             2.808          1404.000
       206   07 Jun 2027 06:24:34.870   07 Jun 2027 06:24:39.367             4.497          2248.500
       207   07 Jun 2027 06:24:59.737   07 Jun 2027 06:25:06.958             7.221          3610.500
       208   07 Jun 2027 06:25:45.167   07 Jun 2027 06:25:52.491             7.324          3662.000
       209   07 Jun 2027 06:26:19.677   07 Jun 2027 06:26:21.261             1.584           792.000
       210   07 Jun 2027 06:26:46.637   07 Jun 2027 06:26:47.127             0.490           245.000
       211   07 Jun 2027 06:27:01.515   07 Jun 2027 06:27:06.219             4.704          2352.000
       212   07 Jun 2027 06:27:10.051   07 Jun 2027 06:27:12.486             2.435          1217.500
       213   07 Jun 2027 07:56:45.208   07 Jun 2027 07:56:53.571             8.363          4181.500
       214   07 Jun 2027 07:57:23.740   07 Jun 2027 07:57:30.048             6.308          3154.000
       215   07 Jun 2027 07:58:19.830   07 Jun 2027 07:58:23.828             3.998          1999.000
       216   07 Jun 2027 07:58:42.418   07 Jun 2027 07:58:49.335             6.917          3458.500
       217   07 Jun 2027 07:59:46.984   07 Jun 2027 07:59:52.811             5.827          2913.500
       218   07 Jun 2027 08:00:57.756   07 Jun 2027 08:00:59.914             2.158          1079.000
       219   07 Jun 2027 08:01:56.058   07 Jun 2027 08:02:04.466             8.408          4204.000
       220   07 Jun 2027 08:02:41.278   07 Jun 2027 08:02:41.549             0.271           135.500
       221   07 Jun 2027 08:03:24.477   07 Jun 2027 08:03:33.051             8.574          4287.000
       222   07 Jun 2027 08:04:04.326   07 Jun 2027 08:04:21.066            16.740          8370.000
       223   08 Jun 2027 03:20:33.654   08 Jun 2027 03:20:33.846             0.192            96.000
       224   08 Jun 2027 03:20:56.662   08 Jun 2027 03:21:00.990             4.328          2164.000
       225   08 Jun 2027 03:21:36.116   08 Jun 2027 03:21:44.213             8.097          4048.500
       226   08 Jun 2027 03:22:34.897   08 Jun 2027 03:22:44.816             9.919          4959.500
       227   08 Jun 2027 03:23:38.336   08 Jun 2027 03:23:40.325             1.989           994.500
       228   08 Jun 2027 03:23:49.865   08 Jun 2027 03:23:51.664             1.799           899.500
       229   08 Jun 2027 03:23:59.236   08 Jun 2027 03:24:00.515             1.279           639.500
       230   08 Jun 2027 03:24:24.774   08 Jun 2027 03:24:25.328             0.554           277.000
       231   08 Jun 2027 03:24:34.573   08 Jun 2027 03:24:37.665             3.092          1546.000
       232   08 Jun 2027 03:25:29.362   08 Jun 2027 03:25:34.850             5.488          2744.000
       233   08 Jun 2027 03:25:58.018   08 Jun 2027 03:25:58.019             0.001             0.500
       234   08 Jun 2027 03:26:34.713   08 Jun 2027 03:26:39.240             4.527          2263.500
       235   08 Jun 2027 03:27:16.402   08 Jun 2027 03:27:18.494             2.092          1046.000
       236   08 Jun 2027 03:27:35.635   08 Jun 2027 03:27:49.717            14.082          7041.000
       237   08 Jun 2027 04:57:31.724   08 Jun 2027 04:57:48.105            16.381          8190.500
       238   08 Jun 2027 04:59:19.942   08 Jun 2027 04:59:27.806             7.864          3932.000
       239   08 Jun 2027 05:00:23.263   08 Jun 2027 05:00:32.269             9.006          4503.000
       240   08 Jun 2027 05:01:35.539   08 Jun 2027 05:01:38.760             3.221          1610.500
       241   08 Jun 2027 05:02:32.697   08 Jun 2027 05:02:36.367             3.670          1835.000
       242   08 Jun 2027 05:02:49.898   08 Jun 2027 05:02:49.898             0.000             0.000
       243   08 Jun 2027 05:03:09.061   08 Jun 2027 05:03:25.133            16.072          8036.000
       244   08 Jun 2027 06:35:27.156   08 Jun 2027 06:35:27.962             0.806           403.000
       245   08 Jun 2027 06:35:49.089   08 Jun 2027 06:35:53.001             3.912          1956.000
       246   08 Jun 2027 06:36:54.265   08 Jun 2027 06:36:54.581             0.316           158.000
       247   08 Jun 2027 06:37:14.251   08 Jun 2027 06:37:18.768             4.517          2258.500
       248   08 Jun 2027 06:37:45.640   08 Jun 2027 06:37:48.776             3.136          1568.000
       249   08 Jun 2027 06:38:04.438   08 Jun 2027 06:38:13.908             9.470          4735.000
       250   08 Jun 2027 06:39:03.614   08 Jun 2027 06:39:03.883             0.269           134.500
       251   08 Jun 2027 08:08:46.979   08 Jun 2027 08:09:21.471            34.492         17246.000
       252   08 Jun 2027 08:09:21.904   08 Jun 2027 08:09:26.265             4.361          2180.500
       253   08 Jun 2027 08:13:05.724   08 Jun 2027 08:13:09.233             3.509          1754.500
       254   08 Jun 2027 08:13:22.936   08 Jun 2027 08:13:32.567             9.631          4815.500
       255   08 Jun 2027 08:14:15.568   08 Jun 2027 08:14:16.980             1.412           706.000
       256   08 Jun 2027 08:14:52.085   08 Jun 2027 08:15:02.823            10.738          5369.000
       257   08 Jun 2027 08:15:04.996   08 Jun 2027 08:15:10.327             5.331          2665.500
       258   09 Jun 2027 03:32:35.605   09 Jun 2027 03:32:42.411             6.806          3403.000
       259   09 Jun 2027 03:33:36.011   09 Jun 2027 03:33:39.712             3.701          1850.500
       260   09 Jun 2027 03:33:58.720   09 Jun 2027 03:33:59.701             0.981           490.500
       261   09 Jun 2027 03:34:38.768   09 Jun 2027 03:34:39.564             0.796           398.000
       262   09 Jun 2027 03:34:57.123   09 Jun 2027 03:34:59.022             1.899           949.500
       263   09 Jun 2027 03:35:24.409   09 Jun 2027 03:35:26.515             2.106          1053.000
       264   09 Jun 2027 03:35:51.871   09 Jun 2027 03:35:52.738             0.867           433.500
       265   09 Jun 2027 03:35:58.408   09 Jun 2027 03:36:10.065            11.657          5828.500
       266   09 Jun 2027 03:37:08.720   09 Jun 2027 03:37:18.809            10.089          5044.500
       267   09 Jun 2027 03:38:38.777   09 Jun 2027 03:38:41.880             3.103          1551.500
       268   09 Jun 2027 03:39:17.811   09 Jun 2027 03:39:21.285             3.474          1737.000
       269   09 Jun 2027 03:39:44.367   09 Jun 2027 03:39:44.811             0.444           222.000
       270   09 Jun 2027 03:39:59.762   09 Jun 2027 03:40:01.580             1.818           909.000
       271   09 Jun 2027 05:09:21.425   09 Jun 2027 05:09:32.225            10.800          5400.000
       272   09 Jun 2027 05:10:22.242   09 Jun 2027 05:10:26.259             4.017          2008.500
       273   09 Jun 2027 05:11:12.316   09 Jun 2027 05:11:21.718             9.402          4701.000
       274   09 Jun 2027 05:12:19.476   09 Jun 2027 05:12:21.007             1.531           765.500
       275   09 Jun 2027 05:12:47.963   09 Jun 2027 05:12:49.479             1.516           758.000
       276   09 Jun 2027 05:13:31.928   09 Jun 2027 05:13:33.255             1.327           663.500
       277   09 Jun 2027 05:13:44.330   09 Jun 2027 05:13:47.781             3.451          1725.500
       278   09 Jun 2027 05:14:07.653   09 Jun 2027 05:14:14.770             7.117          3558.500
       279   09 Jun 2027 05:14:48.523   09 Jun 2027 05:14:51.278             2.755          1377.500
       280   09 Jun 2027 05:15:54.315   09 Jun 2027 05:15:59.248             4.933          2466.500
       281   09 Jun 2027 06:47:26.385   09 Jun 2027 06:47:30.042             3.657          1828.500
       282   09 Jun 2027 06:48:02.330   09 Jun 2027 06:48:07.692             5.362          2681.000
       283   09 Jun 2027 06:48:29.185   09 Jun 2027 06:48:29.752             0.567           283.500
       284   09 Jun 2027 06:48:54.603   09 Jun 2027 06:48:56.403             1.800           900.000
       285   09 Jun 2027 06:49:21.580   09 Jun 2027 06:49:21.629             0.049            24.500
       286   09 Jun 2027 06:49:47.511   09 Jun 2027 06:49:54.226             6.715          3357.500
       287   09 Jun 2027 06:51:08.727   09 Jun 2027 06:51:18.289             9.562          4781.000
       288   09 Jun 2027 08:21:13.393   09 Jun 2027 08:21:26.693            13.300          6650.000
       289   09 Jun 2027 08:22:37.135   09 Jun 2027 08:22:39.482             2.347          1173.500
       290   09 Jun 2027 08:23:03.724   09 Jun 2027 08:23:04.690             0.966           483.000
       291   09 Jun 2027 08:23:27.830   09 Jun 2027 08:23:48.071            20.241         10120.500
       292   09 Jun 2027 08:25:11.728   09 Jun 2027 08:25:30.073            18.345          9172.500
       293   09 Jun 2027 08:27:15.229   09 Jun 2027 08:27:16.564             1.335           667.500
       294   09 Jun 2027 08:27:29.799   09 Jun 2027 08:27:36.759             6.960          3480.000
       295   10 Jun 2027 03:44:36.194   10 Jun 2027 03:44:42.774             6.580          3290.000
       296   10 Jun 2027 03:45:57.042   10 Jun 2027 03:45:59.993             2.951          1475.500
       297   10 Jun 2027 03:46:37.754   10 Jun 2027 03:46:40.832             3.078          1539.000
       298   10 Jun 2027 03:47:10.177   10 Jun 2027 03:47:12.321             2.144          1072.000
       299   10 Jun 2027 03:47:26.361   10 Jun 2027 03:47:33.019             6.658          3329.000
       300   10 Jun 2027 03:48:16.821   10 Jun 2027 03:48:18.363             1.542           771.000
       301   10 Jun 2027 03:48:37.148   10 Jun 2027 03:48:40.744             3.596          1798.000
       302   10 Jun 2027 03:48:56.050   10 Jun 2027 03:48:56.104             0.054            27.000
       303   10 Jun 2027 03:49:18.634   10 Jun 2027 03:49:20.341             1.707           853.500
       304   10 Jun 2027 03:49:46.449   10 Jun 2027 03:49:53.107             6.658          3329.000
       305   10 Jun 2027 03:50:36.792   10 Jun 2027 03:50:38.483             1.691           845.500
       306   10 Jun 2027 03:50:47.368   10 Jun 2027 03:50:56.399             9.031          4515.500
       307   10 Jun 2027 03:51:43.577   10 Jun 2027 03:51:53.087             9.510          4755.000
       308   10 Jun 2027 05:21:30.127   10 Jun 2027 05:21:46.019            15.892          7946.000
       309   10 Jun 2027 05:23:13.811   10 Jun 2027 05:23:15.680             1.869           934.500
       310   10 Jun 2027 05:23:23.571   10 Jun 2027 05:23:34.012            10.441          5220.500
       311   10 Jun 2027 05:24:20.031   10 Jun 2027 05:24:25.364             5.333          2666.500
       312   10 Jun 2027 05:24:59.701   10 Jun 2027 05:25:05.339             5.638          2819.000
       313   10 Jun 2027 05:25:32.803   10 Jun 2027 05:25:42.511             9.708          4854.000
       314   10 Jun 2027 05:26:22.368   10 Jun 2027 05:26:24.729             2.361          1180.500
       315   10 Jun 2027 05:27:00.787   10 Jun 2027 05:27:03.495             2.708          1354.000
       316   10 Jun 2027 05:27:14.783   10 Jun 2027 05:27:14.998             0.215           107.500
       317   10 Jun 2027 05:27:34.548   10 Jun 2027 05:27:41.968             7.420          3710.000
       318   10 Jun 2027 06:58:39.366   10 Jun 2027 06:58:59.971            20.605         10302.500
       319   10 Jun 2027 07:00:48.234   10 Jun 2027 07:00:49.119             0.885           442.500
       320   10 Jun 2027 07:01:18.500   10 Jun 2027 07:01:19.450             0.950           475.000
       321   10 Jun 2027 07:01:34.113   10 Jun 2027 07:01:41.302             7.189          3594.500
       322   10 Jun 2027 07:02:21.528   10 Jun 2027 07:02:25.586             4.058          2029.000
       323   10 Jun 2027 07:02:42.529   10 Jun 2027 07:02:48.921             6.392          3196.000
       324   10 Jun 2027 07:03:24.582   10 Jun 2027 07:03:27.449             2.867          1433.500
       325   10 Jun 2027 08:33:28.815   10 Jun 2027 08:33:29.712             0.897           448.500
       326   10 Jun 2027 08:33:30.813   10 Jun 2027 08:33:31.391             0.578           289.000
       327   10 Jun 2027 08:33:41.821   10 Jun 2027 08:33:56.330            14.509          7254.500
       328   10 Jun 2027 08:35:26.209   10 Jun 2027 08:35:26.771             0.562           281.000
       329   10 Jun 2027 08:35:58.800   10 Jun 2027 08:36:08.731             9.931          4965.500
       330   10 Jun 2027 08:37:18.345   10 Jun 2027 08:37:32.387            14.042          7021.000
       331   10 Jun 2027 08:38:08.981   10 Jun 2027 08:38:13.252             4.271          2135.500
       332   11 Jun 2027 03:57:01.260   11 Jun 2027 03:57:03.011             1.751           875.500
       333   11 Jun 2027 03:57:07.151   11 Jun 2027 03:57:31.816            24.665         12332.500
       334   11 Jun 2027 03:59:14.927   11 Jun 2027 03:59:16.875             1.948           974.000
       335   11 Jun 2027 04:00:03.361   11 Jun 2027 04:00:07.665             4.304          2152.000
       336   11 Jun 2027 04:00:25.706   11 Jun 2027 04:00:31.293             5.587          2793.500
       337   11 Jun 2027 04:01:07.062   11 Jun 2027 04:01:09.857             2.795          1397.500
       338   11 Jun 2027 04:01:35.064   11 Jun 2027 04:01:35.726             0.662           331.000
       339   11 Jun 2027 04:01:41.569   11 Jun 2027 04:01:45.075             3.506          1753.000
       340   11 Jun 2027 04:02:42.551   11 Jun 2027 04:02:51.224             8.673          4336.500
       341   11 Jun 2027 04:03:37.501   11 Jun 2027 04:03:42.300             4.799          2399.500
       342   11 Jun 2027 05:33:57.959   11 Jun 2027 05:34:30.758            32.799         16399.500
       343   11 Jun 2027 05:36:43.971   11 Jun 2027 05:36:47.931             3.960          1980.000
       344   11 Jun 2027 05:37:10.705   11 Jun 2027 05:37:14.635             3.930          1965.000
       345   11 Jun 2027 05:37:55.130   11 Jun 2027 05:37:56.388             1.258           629.000
       346   11 Jun 2027 05:38:01.861   11 Jun 2027 05:38:12.340            10.479          5239.500
       347   11 Jun 2027 05:39:06.689   11 Jun 2027 05:39:08.760             2.071          1035.500
       348   11 Jun 2027 05:39:35.360   11 Jun 2027 05:39:36.467             1.107           553.500
       349   11 Jun 2027 07:10:51.989   11 Jun 2027 07:11:08.432            16.443          8221.500
       350   11 Jun 2027 07:12:34.040   11 Jun 2027 07:12:35.727             1.687           843.500
       351   11 Jun 2027 07:13:05.911   11 Jun 2027 07:13:07.311             1.400           700.000
       352   11 Jun 2027 07:13:19.005   11 Jun 2027 07:13:26.412             7.407          3703.500
       353   11 Jun 2027 07:14:04.727   11 Jun 2027 07:14:15.085            10.358          5179.000
       354   11 Jun 2027 07:14:58.092   11 Jun 2027 07:15:04.480             6.388          3194.000
       355   11 Jun 2027 08:48:01.988   11 Jun 2027 08:48:11.539             9.551          4775.500
       356   11 Jun 2027 08:48:57.600   11 Jun 2027 08:49:00.459             2.859          1429.500
       357   11 Jun 2027 08:49:12.431   11 Jun 2027 08:49:25.568            13.137          6568.500
       358   12 Jun 2027 04:09:08.382   12 Jun 2027 04:09:37.032            28.650         14325.000
       359   12 Jun 2027 04:11:28.923   12 Jun 2027 04:11:31.954             3.031          1515.500
       360   12 Jun 2027 04:11:42.457   12 Jun 2027 04:11:47.558             5.101          2550.500
       361   12 Jun 2027 04:12:28.265   12 Jun 2027 04:12:32.273             4.008          2004.000
       362   12 Jun 2027 04:12:50.355   12 Jun 2027 04:12:54.448             4.093          2046.500
       363   12 Jun 2027 04:13:51.443   12 Jun 2027 04:13:52.248             0.805           402.500
       364   12 Jun 2027 04:14:13.089   12 Jun 2027 04:14:15.153             2.064          1032.000
       365   12 Jun 2027 04:14:53.524   12 Jun 2027 04:15:02.498             8.974          4487.000
       366   12 Jun 2027 04:15:47.408   12 Jun 2027 04:15:48.294             0.886           443.000
       367   12 Jun 2027 05:46:29.458   12 Jun 2027 05:46:34.981             5.523          2761.500
       368   12 Jun 2027 05:47:05.575   12 Jun 2027 05:47:13.568             7.993          3996.500
       369   12 Jun 2027 05:47:19.641   12 Jun 2027 05:47:22.633             2.992          1496.000
       370   12 Jun 2027 05:48:06.913   12 Jun 2027 05:48:10.527             3.614          1807.000
       371   12 Jun 2027 05:49:05.703   12 Jun 2027 05:49:06.513             0.810           405.000
       372   12 Jun 2027 05:49:26.807   12 Jun 2027 05:49:28.274             1.467           733.500
       373   12 Jun 2027 05:50:07.669   12 Jun 2027 05:50:08.358             0.689           344.500
       374   12 Jun 2027 05:50:19.700   12 Jun 2027 05:50:25.617             5.917          2958.500
       375   12 Jun 2027 05:51:06.266   12 Jun 2027 05:51:10.566             4.300          2150.000
       376   12 Jun 2027 07:22:53.679   12 Jun 2027 07:23:06.966            13.287          6643.500
       377   12 Jun 2027 07:24:04.268   12 Jun 2027 07:24:12.013             7.745          3872.500
       378   12 Jun 2027 07:25:19.444   12 Jun 2027 07:25:29.629            10.185          5092.500
       379   12 Jun 2027 07:26:36.925   12 Jun 2027 07:26:43.587             6.662          3331.000
       380   12 Jun 2027 07:27:59.094   12 Jun 2027 07:27:59.433             0.339           169.500
       381   12 Jun 2027 09:01:10.053   12 Jun 2027 09:01:13.253             3.200          1600.000
       382   12 Jun 2027 09:01:31.024   12 Jun 2027 09:01:32.644             1.620           810.000
       383   13 Jun 2027 04:21:42.062   13 Jun 2027 04:21:59.091            17.029          8514.500
       384   13 Jun 2027 04:23:19.183   13 Jun 2027 04:23:22.127             2.944          1472.000
       385   13 Jun 2027 04:23:35.494   13 Jun 2027 04:23:39.540             4.046          2023.000
       386   13 Jun 2027 04:23:46.950   13 Jun 2027 04:23:49.680             2.730          1365.000
       387   13 Jun 2027 04:24:19.891   13 Jun 2027 04:24:20.625             0.734           367.000
       388   13 Jun 2027 04:24:44.080   13 Jun 2027 04:24:47.738             3.658          1829.000
       389   13 Jun 2027 04:25:06.745   13 Jun 2027 04:25:06.887             0.142            71.000
       390   13 Jun 2027 04:25:27.587   13 Jun 2027 04:25:35.447             7.860          3930.000
       391   13 Jun 2027 04:26:09.542   13 Jun 2027 04:26:13.904             4.362          2181.000
       392   13 Jun 2027 04:26:41.862   13 Jun 2027 04:26:54.309            12.447          6223.500
       393   13 Jun 2027 04:27:22.934   13 Jun 2027 04:27:22.934             0.000             0.000
       394   13 Jun 2027 05:59:05.025   13 Jun 2027 05:59:05.896             0.871           435.500
       395   13 Jun 2027 05:59:15.676   13 Jun 2027 05:59:18.070             2.394          1197.000
       396   13 Jun 2027 05:59:54.060   13 Jun 2027 06:00:02.765             8.705          4352.500
       397   13 Jun 2027 06:01:04.132   13 Jun 2027 06:01:04.952             0.820           410.000
       398   13 Jun 2027 06:01:24.641   13 Jun 2027 06:01:30.331             5.690          2845.000
       399   13 Jun 2027 06:01:57.019   13 Jun 2027 06:01:58.730             1.711           855.500
       400   13 Jun 2027 06:02:10.405   13 Jun 2027 06:02:13.845             3.440          1720.000
       401   13 Jun 2027 06:02:35.926   13 Jun 2027 06:02:37.527             1.601           800.500
       402   13 Jun 2027 06:03:14.848   13 Jun 2027 06:03:15.278             0.430           215.000
       403   13 Jun 2027 07:35:15.648   13 Jun 2027 07:35:25.364             9.716          4858.000
       404   13 Jun 2027 07:36:13.709   13 Jun 2027 07:36:24.527            10.818          5409.000
       405   13 Jun 2027 07:37:12.866   13 Jun 2027 07:37:13.477             0.611           305.500
       406   13 Jun 2027 07:37:28.123   13 Jun 2027 07:37:45.160            17.037          8518.500
       407   13 Jun 2027 07:38:56.710   13 Jun 2027 07:38:57.248             0.538           269.000
       408   13 Jun 2027 07:39:06.186   13 Jun 2027 07:39:08.550             2.364          1182.000
       409   13 Jun 2027 07:39:25.459   13 Jun 2027 07:39:28.109             2.650          1325.000
