uniorb/output/strategy_2/Camera/Camera_KinoSat_111010.txt

KinoSat_111010
-------------------------
    Access    *     Start Time (UTCG)     *     Stop Time (UTCG)  *   Duration (s) *   Data (Mbytes)
         1   01 Jun 2027 04:14:57.617   01 Jun 2027 04:16:53.893           116.276         58138.000
         2   01 Jun 2027 05:51:34.048   01 Jun 2027 05:53:16.637           102.589         51294.500
         3   01 Jun 2027 05:53:16.679   01 Jun 2027 05:54:05.711            49.032         24516.000
         4   01 Jun 2027 05:54:34.444   01 Jun 2027 05:54:52.659            18.215          9107.500
         5   01 Jun 2027 07:26:44.230   01 Jun 2027 07:29:49.996           185.766         92883.000
         6   01 Jun 2027 07:30:04.234   01 Jun 2027 07:30:04.234             0.000             0.000
         7   01 Jun 2027 07:32:41.112   01 Jun 2027 07:32:50.263             9.151          4575.500
         8   01 Jun 2027 07:33:01.681   01 Jun 2027 07:33:05.869             4.188          2094.000
         9   01 Jun 2027 07:33:06.069   01 Jun 2027 07:33:20.027            13.958          6979.000
        10   01 Jun 2027 09:03:01.817   01 Jun 2027 09:05:23.246           141.429         70714.500
        11   01 Jun 2027 09:05:37.049   01 Jun 2027 09:05:48.689            11.640          5820.000
        12   01 Jun 2027 09:06:18.035   01 Jun 2027 09:06:39.029            20.994         10497.000
        13   01 Jun 2027 10:40:31.242   01 Jun 2027 10:41:44.853            73.611         36805.500
        14   01 Jun 2027 10:42:14.279   01 Jun 2027 10:43:01.563            47.284         23642.000
        15   01 Jun 2027 10:43:59.035   01 Jun 2027 10:44:25.119            26.084         13042.000
        16   02 Jun 2027 03:03:34.941   02 Jun 2027 03:05:28.201           113.260         56630.000
        17   02 Jun 2027 03:06:51.704   02 Jun 2027 03:07:10.378            18.674          9337.000
        18   02 Jun 2027 04:27:32.989   02 Jun 2027 04:28:04.334            31.345         15672.500
        19   02 Jun 2027 04:28:35.221   02 Jun 2027 04:29:00.083            24.862         12431.000
        20   02 Jun 2027 04:29:40.609   02 Jun 2027 04:29:51.205            10.596          5298.000
        21   02 Jun 2027 06:03:18.525   02 Jun 2027 06:05:00.651           102.126         51063.000
        22   02 Jun 2027 06:06:02.255   02 Jun 2027 06:06:29.319            27.064         13532.000
        23   02 Jun 2027 06:07:02.586   02 Jun 2027 06:07:30.888            28.302         14151.000
        24   02 Jun 2027 07:38:12.992   02 Jun 2027 07:40:05.924           112.932         56466.000
        25   02 Jun 2027 07:40:09.500   02 Jun 2027 07:40:23.590            14.090          7045.000
        26   02 Jun 2027 07:40:57.853   02 Jun 2027 07:40:57.853             0.000             0.000
        27   02 Jun 2027 07:41:21.266   02 Jun 2027 07:41:25.888             4.622          2311.000
        28   02 Jun 2027 07:42:06.419   02 Jun 2027 07:42:32.928            26.509         13254.500
        29   02 Jun 2027 07:44:04.222   02 Jun 2027 07:44:11.741             7.519          3759.500
        30   02 Jun 2027 07:44:16.694   02 Jun 2027 07:44:20.905             4.211          2105.500
        31   02 Jun 2027 07:44:56.366   02 Jun 2027 07:45:20.435            24.069         12034.500
        32   02 Jun 2027 09:14:43.809   02 Jun 2027 09:16:22.906            99.097         48816.406
        33   02 Jun 2027 09:16:39.837   02 Jun 2027 09:16:41.614             1.777           141.500
        34   02 Jun 2027 09:17:08.851   02 Jun 2027 09:17:12.319             3.468           562.062
        35   02 Jun 2027 09:17:49.829   02 Jun 2027 09:17:52.822             2.993           756.219
        36   02 Jun 2027 09:18:15.081   02 Jun 2027 09:18:16.392             1.311           418.656
        37   02 Jun 2027 09:18:59.230   02 Jun 2027 09:19:02.810             3.580          1265.250
        38   02 Jun 2027 09:19:43.273   02 Jun 2027 09:19:46.600             3.327          1028.938
        39   02 Jun 2027 10:53:02.256   02 Jun 2027 10:53:18.098            15.842          7921.000
        40   02 Jun 2027 10:53:18.534   02 Jun 2027 10:53:20.430             1.896           740.312
        41   02 Jun 2027 10:53:39.282   02 Jun 2027 10:53:45.069             5.787           532.188
        42   02 Jun 2027 10:55:01.782   02 Jun 2027 10:55:07.465             5.683          2325.031
        43   02 Jun 2027 10:55:39.724   02 Jun 2027 10:55:44.883             5.159           817.875
        44   02 Jun 2027 10:55:54.527   02 Jun 2027 10:55:54.527             0.000             0.000
        45   02 Jun 2027 10:56:18.668   02 Jun 2027 10:56:26.110             7.442          1055.781
        46   02 Jun 2027 10:56:41.644   02 Jun 2027 10:56:43.164             1.520           219.844
        47   02 Jun 2027 10:56:43.351   02 Jun 2027 10:56:44.947             1.596             5.844
        48   03 Jun 2027 03:04:06.952   03 Jun 2027 03:04:36.506            29.554         14777.000
        49   03 Jun 2027 03:15:31.163   03 Jun 2027 03:17:11.709           100.546         50273.000
        50   03 Jun 2027 04:38:07.403   03 Jun 2027 04:39:09.598            62.195         31097.500
        51   03 Jun 2027 04:39:23.464   03 Jun 2027 04:39:56.423            32.959         16479.500
        52   03 Jun 2027 04:41:53.896   03 Jun 2027 04:42:15.845            21.949         10974.500
        53   03 Jun 2027 06:13:35.083   03 Jun 2027 06:14:28.266            53.183         26591.500
        54   03 Jun 2027 06:15:05.730   03 Jun 2027 06:15:32.941            27.211         12601.344
        55   03 Jun 2027 06:15:45.088   03 Jun 2027 06:15:47.314             2.226           211.469
        56   03 Jun 2027 06:18:05.519   03 Jun 2027 06:18:15.514             9.995          4318.906
        57   03 Jun 2027 06:19:06.155   03 Jun 2027 06:19:09.169             3.014          1099.031
        58   03 Jun 2027 07:49:58.012   03 Jun 2027 07:50:08.834            10.822          4761.688
        59   03 Jun 2027 07:50:48.633   03 Jun 2027 07:50:56.442             7.809           855.437
        60   03 Jun 2027 07:51:24.087   03 Jun 2027 07:51:24.818             0.731           335.250
        61   03 Jun 2027 07:51:37.167   03 Jun 2027 07:51:38.342             1.175           385.906
        62   03 Jun 2027 07:52:09.130   03 Jun 2027 07:52:12.457             3.327           689.375
        63   03 Jun 2027 07:52:55.595   03 Jun 2027 07:52:59.294             3.699          1348.062
        64   03 Jun 2027 07:53:19.771   03 Jun 2027 07:53:22.345             2.574           248.156
        65   03 Jun 2027 07:53:23.262   03 Jun 2027 07:53:24.962             1.700            28.656
        66   03 Jun 2027 07:54:34.412   03 Jun 2027 07:54:38.369             3.957          1978.500
        67   03 Jun 2027 07:55:39.721   03 Jun 2027 07:55:50.692            10.971          2084.156
        68   03 Jun 2027 07:56:34.981   03 Jun 2027 07:56:37.963             2.982          1332.469
        69   03 Jun 2027 07:57:28.421   03 Jun 2027 07:57:30.172             1.751           875.500
        70   03 Jun 2027 09:27:03.986   03 Jun 2027 09:27:23.574            19.588          9623.781
        71   03 Jun 2027 09:27:49.706   03 Jun 2027 09:27:53.328             3.622           304.156
        72   03 Jun 2027 09:28:33.403   03 Jun 2027 09:28:34.069             0.666           262.063
        73   03 Jun 2027 09:28:55.026   03 Jun 2027 09:28:59.270             4.244           212.594
        74   03 Jun 2027 09:30:18.854   03 Jun 2027 09:30:23.736             4.882          2384.250
        75   03 Jun 2027 09:31:06.052   03 Jun 2027 09:31:10.002             3.950           763.188
        76   03 Jun 2027 09:31:24.696   03 Jun 2027 09:31:25.581             0.885           410.906
        77   03 Jun 2027 09:32:03.179   03 Jun 2027 09:32:07.265             4.086           977.125
        78   03 Jun 2027 09:32:23.810   03 Jun 2027 09:32:29.080             5.270           514.938
        79   03 Jun 2027 11:04:59.541   03 Jun 2027 11:05:14.309            14.768          7155.563
        80   03 Jun 2027 11:05:15.077   03 Jun 2027 11:05:16.250             1.173            24.000
        81   03 Jun 2027 11:06:18.090   03 Jun 2027 11:06:21.702             3.612          1806.000
        82   03 Jun 2027 11:07:01.655   03 Jun 2027 11:07:07.094             5.439          1372.375
        83   03 Jun 2027 11:08:21.540   03 Jun 2027 11:08:26.993             5.453          2232.531
        84   03 Jun 2027 11:08:32.514   03 Jun 2027 11:08:36.863             4.349           136.312
        85   04 Jun 2027 03:15:50.654   04 Jun 2027 03:16:40.037            49.383         24691.500
        86   04 Jun 2027 03:27:34.430   04 Jun 2027 03:28:33.241            58.811         29405.500
        87   04 Jun 2027 04:49:48.295   04 Jun 2027 04:50:54.501            66.206         33103.000
        88   04 Jun 2027 04:51:42.021   04 Jun 2027 04:52:29.955            47.934         23967.000
        89   04 Jun 2027 04:52:55.684   04 Jun 2027 04:53:56.468            60.784         30392.000
        90   04 Jun 2027 04:54:00.191   04 Jun 2027 04:54:08.762             8.571          4285.500
        91   04 Jun 2027 06:24:43.945   04 Jun 2027 06:25:04.690            20.745         10314.406
        92   04 Jun 2027 06:26:50.231   04 Jun 2027 06:26:57.534             7.303          2028.406
        93   04 Jun 2027 06:28:42.215   04 Jun 2027 06:28:49.715             7.500          2862.844
        94   04 Jun 2027 06:29:50.998   04 Jun 2027 06:29:53.428             2.430          1135.969
        95   04 Jun 2027 06:30:07.573   04 Jun 2027 06:30:12.261             4.688           439.156
        96   04 Jun 2027 06:30:32.541   04 Jun 2027 06:30:40.034             7.493           621.844
        97   04 Jun 2027 06:31:11.721   04 Jun 2027 06:31:13.762             2.041           130.812
        98   04 Jun 2027 06:31:34.632   04 Jun 2027 06:31:37.713             3.081           547.469
        99   04 Jun 2027 06:31:52.866   04 Jun 2027 06:31:52.866             0.000             0.000
       100   04 Jun 2027 06:33:02.717   04 Jun 2027 06:33:09.265             6.548          2341.531
       101   04 Jun 2027 08:02:14.594   04 Jun 2027 08:02:27.522            12.928          5224.812
       102   04 Jun 2027 08:03:59.377   04 Jun 2027 08:04:11.850            12.473          2145.187
       103   04 Jun 2027 08:05:16.280   04 Jun 2027 08:05:20.727             4.447          1936.813
       104   04 Jun 2027 08:05:44.687   04 Jun 2027 08:05:50.846             6.159           748.625
       105   04 Jun 2027 08:06:46.489   04 Jun 2027 08:06:50.948             4.459          1141.750
       106   04 Jun 2027 08:07:37.242   04 Jun 2027 08:07:37.665             0.423           211.500
       107   04 Jun 2027 08:07:46.369   04 Jun 2027 08:07:50.457             4.088           460.313
       108   04 Jun 2027 08:08:24.473   04 Jun 2027 08:08:28.164             3.691           905.656
       109   04 Jun 2027 08:09:01.464   04 Jun 2027 08:09:07.337             5.873           679.156
       110   04 Jun 2027 09:38:59.830   04 Jun 2027 09:39:18.056            18.226          8338.844
       111   04 Jun 2027 09:39:44.763   04 Jun 2027 09:39:48.960             4.197           592.562
       112   04 Jun 2027 09:40:27.289   04 Jun 2027 09:40:29.971             2.682           977.469
       113   04 Jun 2027 09:42:32.296   04 Jun 2027 09:42:35.965             3.669          1834.500
       114   04 Jun 2027 09:43:11.168   04 Jun 2027 09:43:14.169             3.001          1262.750
       115   04 Jun 2027 09:43:22.585   04 Jun 2027 09:43:30.099             7.514           263.000
       116   04 Jun 2027 09:44:04.822   04 Jun 2027 09:44:13.927             9.105           937.281
       117   04 Jun 2027 09:44:58.614   04 Jun 2027 09:45:00.102             1.488           744.000
       118   04 Jun 2027 09:45:15.969   04 Jun 2027 09:45:23.388             7.419          1081.063
       119   04 Jun 2027 09:45:32.538   04 Jun 2027 09:45:33.417             0.879           285.938
       120   04 Jun 2027 11:16:58.836   04 Jun 2027 11:17:13.487            14.651          6161.969
       121   04 Jun 2027 11:18:27.737   04 Jun 2027 11:18:32.667             4.930          1913.375
       122   04 Jun 2027 11:18:51.248   04 Jun 2027 11:18:54.147             2.899           384.156
       123   04 Jun 2027 11:19:36.350   04 Jun 2027 11:19:45.439             9.089          1318.844
       124   04 Jun 2027 11:20:21.990   04 Jun 2027 11:20:23.974             1.984           802.563
       125   04 Jun 2027 11:20:55.158   04 Jun 2027 11:20:56.945             1.787           844.688
       126   05 Jun 2027 03:27:23.786   05 Jun 2027 03:28:19.412            55.626         27813.000
       127   05 Jun 2027 03:29:18.912   05 Jun 2027 03:29:29.087            10.175          5087.500
       128   05 Jun 2027 03:39:39.609   05 Jun 2027 03:40:07.223            27.614         13807.000
       129   05 Jun 2027 05:01:20.447   05 Jun 2027 05:02:40.040            79.593         39796.500
       130   05 Jun 2027 05:03:28.254   05 Jun 2027 05:04:49.633            81.379         40689.500
       131   05 Jun 2027 05:05:18.329   05 Jun 2027 05:05:31.260            12.931          6465.500
       132   05 Jun 2027 05:06:17.293   05 Jun 2027 05:06:37.665            20.372         10186.000
       133   05 Jun 2027 05:06:39.847   05 Jun 2027 05:06:56.483            16.636          7228.594
       134   05 Jun 2027 06:36:13.772   05 Jun 2027 06:36:53.226            39.454         17461.781
       135   05 Jun 2027 06:38:05.896   05 Jun 2027 06:38:09.944             4.048          1337.750
       136   05 Jun 2027 06:38:36.255   05 Jun 2027 06:38:36.592             0.337           168.500
       137   05 Jun 2027 06:39:27.442   05 Jun 2027 06:39:32.876             5.434          1891.531
       138   05 Jun 2027 06:39:55.284   05 Jun 2027 06:39:57.042             1.758           430.250
       139   05 Jun 2027 06:40:08.267   05 Jun 2027 06:40:08.267             0.000             0.000
       140   05 Jun 2027 06:40:34.692   05 Jun 2027 06:40:37.382             2.690           931.844
       141   05 Jun 2027 06:41:53.413   05 Jun 2027 06:41:59.491             6.078          2375.969
       142   05 Jun 2027 06:42:55.657   05 Jun 2027 06:42:58.800             3.143          1408.344
       143   05 Jun 2027 06:43:30.329   05 Jun 2027 06:43:30.329             0.000             0.000
       144   05 Jun 2027 06:43:36.106   05 Jun 2027 06:43:36.106             0.000             0.000
       145   05 Jun 2027 06:43:54.540   05 Jun 2027 06:44:01.438             6.898          1741.875
       146   05 Jun 2027 06:45:07.748   05 Jun 2027 06:45:11.743             3.995          1985.219
       147   05 Jun 2027 06:45:32.324   05 Jun 2027 06:45:34.331             2.007           643.156
       148   05 Jun 2027 08:14:09.144   05 Jun 2027 08:14:25.664            16.520          8164.500
       149   05 Jun 2027 08:14:55.368   05 Jun 2027 08:14:58.060             2.692           928.250
       150   05 Jun 2027 08:16:18.596   05 Jun 2027 08:16:23.819             5.223           628.906
       151   05 Jun 2027 08:16:38.919   05 Jun 2027 08:16:39.874             0.955           183.469
       152   05 Jun 2027 08:17:57.480   05 Jun 2027 08:18:02.310             4.830          1806.031
       153   05 Jun 2027 08:19:32.163   05 Jun 2027 08:19:38.782             6.619          2530.156
       154   05 Jun 2027 08:20:05.006   05 Jun 2027 08:20:06.584             1.578           696.531
       155   05 Jun 2027 08:20:06.693   05 Jun 2027 08:20:08.190             1.497             3.406
       156   05 Jun 2027 08:20:30.809   05 Jun 2027 08:20:38.467             7.658           652.562
       157   05 Jun 2027 08:20:38.775   05 Jun 2027 08:20:41.536             2.761             4.094
       158   05 Jun 2027 08:21:10.762   05 Jun 2027 08:21:19.343             8.581           391.406
       159   05 Jun 2027 09:50:56.311   05 Jun 2027 09:51:03.397             7.086          3543.000
       160   05 Jun 2027 09:51:28.972   05 Jun 2027 09:51:40.418            11.446          5037.312
       161   05 Jun 2027 09:52:04.518   05 Jun 2027 09:52:10.634             6.116           491.719
       162   05 Jun 2027 09:53:34.663   05 Jun 2027 09:53:37.828             3.165           494.031
       163   05 Jun 2027 09:54:25.537   05 Jun 2027 09:54:28.178             2.641          1320.500
       164   05 Jun 2027 09:54:44.676   05 Jun 2027 09:54:45.606             0.930           465.000
       165   05 Jun 2027 09:55:18.268   05 Jun 2027 09:55:18.991             0.723           361.500
       166   05 Jun 2027 09:55:29.513   05 Jun 2027 09:55:32.974             3.461          1107.312
       167   05 Jun 2027 09:55:36.954   05 Jun 2027 09:55:38.733             1.779           124.375
       168   05 Jun 2027 09:56:57.630   05 Jun 2027 09:57:03.924             6.294          2465.531
       169   05 Jun 2027 09:57:11.597   05 Jun 2027 09:57:12.185             0.588           199.406
       170   05 Jun 2027 09:57:33.550   05 Jun 2027 09:57:35.725             2.175           605.188
       171   05 Jun 2027 11:28:46.745   05 Jun 2027 11:28:59.718            12.973          6356.625
       172   05 Jun 2027 11:29:04.059   05 Jun 2027 11:29:04.059             0.000             0.000
       173   05 Jun 2027 11:29:38.521   05 Jun 2027 11:29:42.496             3.975          1212.594
       174   05 Jun 2027 11:30:57.336   05 Jun 2027 11:31:03.067             5.731          2155.125
       175   05 Jun 2027 11:31:22.992   05 Jun 2027 11:31:26.161             3.169           519.281
       176   05 Jun 2027 11:31:56.700   05 Jun 2027 11:32:01.359             4.659           940.750
       177   05 Jun 2027 11:32:07.164   05 Jun 2027 11:32:18.821            11.657           157.594
       178   05 Jun 2027 11:32:50.573   05 Jun 2027 11:32:54.144             3.571           866.563
       179   06 Jun 2027 03:39:19.350   06 Jun 2027 03:40:37.954            78.604         39302.000
       180   06 Jun 2027 03:40:42.354   06 Jun 2027 03:40:42.354             0.000             0.000
       181   06 Jun 2027 03:41:22.469   06 Jun 2027 03:41:35.594            13.125          6562.500
       182   06 Jun 2027 05:15:19.067   06 Jun 2027 05:18:01.153           162.086         81043.000
       183   06 Jun 2027 05:18:05.875   06 Jun 2027 05:18:17.584            11.709          5854.500
       184   06 Jun 2027 05:18:39.389   06 Jun 2027 05:18:50.877            11.488          5744.000
       185   06 Jun 2027 06:49:07.099   06 Jun 2027 06:49:53.293            46.194         21264.438
       186   06 Jun 2027 06:50:24.371   06 Jun 2027 06:50:26.073             1.702           556.469
       187   06 Jun 2027 06:51:29.934   06 Jun 2027 06:51:30.122             0.188            94.000
       188   06 Jun 2027 06:52:23.830   06 Jun 2027 06:52:28.907             5.077          2152.969
       189   06 Jun 2027 06:53:52.225   06 Jun 2027 06:53:59.430             7.205          2340.438
       190   06 Jun 2027 06:54:36.081   06 Jun 2027 06:54:36.081             0.000             0.000
       191   06 Jun 2027 06:54:52.294   06 Jun 2027 06:55:01.700             9.406          1212.437
       192   06 Jun 2027 06:55:52.381   06 Jun 2027 06:55:55.456             3.075          1362.937
       193   06 Jun 2027 06:56:38.035   06 Jun 2027 06:56:39.942             1.907           953.500
       194   06 Jun 2027 06:57:10.774   06 Jun 2027 06:57:12.931             2.157          1078.500
       195   06 Jun 2027 08:26:20.162   06 Jun 2027 08:26:43.637            23.475          8874.438
       196   06 Jun 2027 08:27:19.019   06 Jun 2027 08:27:25.772             6.753           365.281
       197   06 Jun 2027 08:28:21.453   06 Jun 2027 08:28:24.418             2.965           771.062
       198   06 Jun 2027 08:30:12.029   06 Jun 2027 08:30:16.822             4.793          2341.562
       199   06 Jun 2027 08:31:21.805   06 Jun 2027 08:31:30.131             8.326          1878.469
       200   06 Jun 2027 08:32:05.490   06 Jun 2027 08:32:05.490             0.000             0.000
       201   06 Jun 2027 08:32:06.011   06 Jun 2027 08:32:08.319             2.308          1121.250
       202   06 Jun 2027 10:03:33.088   06 Jun 2027 10:03:52.028            18.940          8853.063
       203   06 Jun 2027 10:04:20.746   06 Jun 2027 10:04:25.715             4.969           897.438
       204   06 Jun 2027 10:05:28.644   06 Jun 2027 10:05:30.816             2.172           631.000
       205   06 Jun 2027 10:05:48.732   06 Jun 2027 10:05:50.883             2.151           438.812
       206   06 Jun 2027 10:06:43.237   06 Jun 2027 10:06:47.230             3.993          1636.062
       207   06 Jun 2027 10:07:04.257   06 Jun 2027 10:07:04.977             0.720           350.656
       208   06 Jun 2027 10:07:39.999   06 Jun 2027 10:07:42.560             2.561           945.094
       209   06 Jun 2027 10:08:47.548   06 Jun 2027 10:08:50.461             2.913          1456.500
       210   06 Jun 2027 10:08:58.980   06 Jun 2027 10:09:01.169             2.189           681.500
       211   06 Jun 2027 11:40:14.180   06 Jun 2027 11:40:31.952            17.772          6358.875
       212   06 Jun 2027 11:40:39.093   06 Jun 2027 11:40:43.460             4.367             5.969
       213   06 Jun 2027 11:41:08.695   06 Jun 2027 11:41:13.590             4.895           556.000
       214   06 Jun 2027 11:41:34.839   06 Jun 2027 11:41:36.126             1.287           409.219
       215   06 Jun 2027 11:42:15.383   06 Jun 2027 11:42:18.673             3.290           873.844
       216   06 Jun 2027 11:42:39.041   06 Jun 2027 11:42:39.041             0.000             0.000
       217   06 Jun 2027 11:43:17.936   06 Jun 2027 11:43:20.684             2.748          1374.000
       218   06 Jun 2027 11:43:57.281   06 Jun 2027 11:44:10.356            13.075          1221.875
       219   07 Jun 2027 03:51:11.263   07 Jun 2027 03:52:38.989            87.726         43863.000
       220   07 Jun 2027 03:53:19.230   07 Jun 2027 03:53:43.192            23.962         11981.000
       221   07 Jun 2027 05:27:32.692   07 Jun 2027 05:29:52.430           139.738         69869.000
       222   07 Jun 2027 05:30:30.823   07 Jun 2027 05:30:38.730             7.907          3953.500
       223   07 Jun 2027 07:01:36.369   07 Jun 2027 07:02:27.478            51.109         25554.500
       224   07 Jun 2027 07:03:18.486   07 Jun 2027 07:03:27.262             8.776          4320.125
       225   07 Jun 2027 07:03:40.183   07 Jun 2027 07:03:41.293             1.110           364.500
       226   07 Jun 2027 07:04:17.197   07 Jun 2027 07:04:18.522             1.325           662.500
       227   07 Jun 2027 07:05:17.037   07 Jun 2027 07:05:21.466             4.429          2214.500
       228   07 Jun 2027 07:06:36.144   07 Jun 2027 07:06:44.671             8.527          2360.062
       229   07 Jun 2027 07:07:56.857   07 Jun 2027 07:07:58.293             1.436           718.000
       230   07 Jun 2027 07:09:23.713   07 Jun 2027 07:09:33.838            10.125          4100.875
       231   07 Jun 2027 08:38:42.362   07 Jun 2027 08:39:01.987            19.625          9263.250
       232   07 Jun 2027 08:40:24.860   07 Jun 2027 08:40:29.207             4.347           942.625
       233   07 Jun 2027 08:41:10.815   07 Jun 2027 08:41:11.854             1.039           279.031
       234   07 Jun 2027 08:41:29.294   07 Jun 2027 08:41:30.594             1.300           358.406
       235   07 Jun 2027 08:42:22.327   07 Jun 2027 08:42:25.859             3.532          1186.813
       236   07 Jun 2027 08:42:59.677   07 Jun 2027 08:43:06.411             6.734          1056.813
       237   07 Jun 2027 08:43:57.090   07 Jun 2027 08:44:03.813             6.723          1583.719
       238   07 Jun 2027 10:15:39.939   07 Jun 2027 10:15:56.699            16.760          7446.094
       239   07 Jun 2027 10:16:48.385   07 Jun 2027 10:16:50.963             2.578           705.594
       240   07 Jun 2027 10:17:11.257   07 Jun 2027 10:17:13.744             2.487           523.531
       241   07 Jun 2027 10:17:44.196   07 Jun 2027 10:17:47.142             2.946           873.250
       242   07 Jun 2027 10:18:39.376   07 Jun 2027 10:18:40.461             1.085           542.500
       243   07 Jun 2027 10:19:33.466   07 Jun 2027 10:19:38.378             4.912          1942.937
       244   07 Jun 2027 10:20:21.748   07 Jun 2027 10:20:25.943             4.195          1355.312
       245   07 Jun 2027 10:20:32.557   07 Jun 2027 10:20:33.817             1.260           178.719
       246   07 Jun 2027 11:52:26.433   07 Jun 2027 11:52:39.101            12.668          6334.000
       247   07 Jun 2027 11:52:58.287   07 Jun 2027 11:52:59.507             1.220           610.000
       248   07 Jun 2027 11:53:56.934   07 Jun 2027 11:54:00.721             3.787          1865.500
       249   07 Jun 2027 11:54:59.554   07 Jun 2027 11:55:05.656             6.102          1723.625
       250   07 Jun 2027 11:55:55.209   07 Jun 2027 11:55:56.022             0.813           406.500
       251   07 Jun 2027 11:56:04.813   07 Jun 2027 11:56:18.393            13.580          1416.750
       252   08 Jun 2027 04:03:13.963   08 Jun 2027 04:04:43.920            89.957         44978.500
       253   08 Jun 2027 04:05:12.780   08 Jun 2027 04:05:37.118            24.338         12169.000
       254   08 Jun 2027 05:39:39.291   08 Jun 2027 05:40:27.851            48.560         24280.000
       255   08 Jun 2027 05:40:54.672   08 Jun 2027 05:41:43.346            48.674         24337.000
       256   08 Jun 2027 05:42:31.313   08 Jun 2027 05:43:12.084            40.771         20385.500
       257   08 Jun 2027 07:14:47.344   08 Jun 2027 07:15:53.976            66.632         32844.250
       258   08 Jun 2027 07:16:02.889   08 Jun 2027 07:16:05.093             2.204            49.906
       259   08 Jun 2027 07:16:52.943   08 Jun 2027 07:16:57.907             4.964          1252.406
       260   08 Jun 2027 07:18:19.280   08 Jun 2027 07:18:23.013             3.733          1175.156
       261   08 Jun 2027 07:19:01.749   08 Jun 2027 07:19:05.891             4.142          1193.125
       262   08 Jun 2027 07:20:05.437   08 Jun 2027 07:20:08.241             2.804           586.688
       263   08 Jun 2027 07:21:08.579   08 Jun 2027 07:21:12.945             4.366          1733.469
       264   08 Jun 2027 07:21:18.923   08 Jun 2027 07:21:18.923             0.000             0.000
       265   08 Jun 2027 07:21:28.356   08 Jun 2027 07:21:29.401             1.045           328.156
       266   08 Jun 2027 08:51:08.202   08 Jun 2027 08:51:21.904            13.702          6741.750
       267   08 Jun 2027 08:52:21.586   08 Jun 2027 08:52:26.567             4.981           667.312
       268   08 Jun 2027 08:53:07.008   08 Jun 2027 08:53:07.541             0.533           266.500
       269   08 Jun 2027 08:53:12.516   08 Jun 2027 08:53:14.814             2.298           856.406
       270   08 Jun 2027 08:53:47.063   08 Jun 2027 08:53:52.428             5.365           930.063
       271   08 Jun 2027 08:54:21.641   08 Jun 2027 08:54:23.661             2.020           829.437
       272   08 Jun 2027 08:54:44.908   08 Jun 2027 08:54:47.347             2.439           616.187
       273   08 Jun 2027 08:54:52.504   08 Jun 2027 08:54:53.870             1.366            68.719
       274   08 Jun 2027 08:55:49.445   08 Jun 2027 08:55:57.788             8.343          1736.719
       275   08 Jun 2027 08:57:24.204   08 Jun 2027 08:57:30.621             6.417          2365.000
       276   08 Jun 2027 10:28:41.855   08 Jun 2027 10:28:57.813            15.958          7103.563
       277   08 Jun 2027 10:29:15.978   08 Jun 2027 10:29:17.154             1.176           488.469
       278   08 Jun 2027 10:29:17.923   08 Jun 2027 10:29:18.843             0.920            24.031
       279   08 Jun 2027 10:30:11.379   08 Jun 2027 10:30:16.283             4.904          1061.313
       280   08 Jun 2027 10:30:31.872   08 Jun 2027 10:30:32.370             0.498           249.000
       281   08 Jun 2027 10:30:46.688   08 Jun 2027 10:30:48.416             1.728           676.156
       282   08 Jun 2027 10:31:11.279   08 Jun 2027 10:31:16.138             4.859           591.906
       283   08 Jun 2027 10:31:51.514   08 Jun 2027 10:31:54.134             2.620          1105.500
       284   08 Jun 2027 10:32:52.997   08 Jun 2027 10:32:59.080             6.083          1839.469
       285   09 Jun 2027 04:15:12.375   09 Jun 2027 04:18:03.978           171.603         85801.500
       286   09 Jun 2027 05:51:49.241   09 Jun 2027 05:54:06.547           137.306         68653.000
       287   09 Jun 2027 05:54:49.866   09 Jun 2027 05:54:49.866             0.000             0.000
       288   09 Jun 2027 07:26:59.311   09 Jun 2027 07:27:20.493            21.182          8679.250
       289   09 Jun 2027 07:28:12.318   09 Jun 2027 07:28:17.016             4.698          1619.531
       290   09 Jun 2027 07:28:49.041   09 Jun 2027 07:28:51.572             2.531          1000.781
       291   09 Jun 2027 07:29:00.823   09 Jun 2027 07:29:00.981             0.158            79.000
       292   09 Jun 2027 07:29:07.444   09 Jun 2027 07:29:07.444             0.000             0.000
       293   09 Jun 2027 07:29:45.707   09 Jun 2027 07:29:49.276             3.569          1426.594
       294   09 Jun 2027 07:30:03.839   09 Jun 2027 07:30:07.673             3.834           455.094
       295   09 Jun 2027 07:30:46.732   09 Jun 2027 07:30:53.558             6.826           795.625
       296   09 Jun 2027 07:31:19.843   09 Jun 2027 07:31:21.542             1.699           651.875
       297   09 Jun 2027 07:32:13.387   09 Jun 2027 07:32:15.135             1.748           795.156
       298   09 Jun 2027 07:32:18.101   09 Jun 2027 07:32:18.101             0.000             0.000
       299   09 Jun 2027 07:32:49.197   09 Jun 2027 07:32:49.197             0.000             0.000
       300   09 Jun 2027 07:33:12.661   09 Jun 2027 07:33:21.026             8.365          1797.687
       301   09 Jun 2027 09:03:16.518   09 Jun 2027 09:03:34.216            17.698          7912.375
       302   09 Jun 2027 09:04:58.841   09 Jun 2027 09:05:04.047             5.206           673.844
       303   09 Jun 2027 09:05:38.306   09 Jun 2027 09:05:41.753             3.447          1011.062
       304   09 Jun 2027 09:05:48.985   09 Jun 2027 09:05:49.339             0.354            70.844
       305   09 Jun 2027 09:06:11.043   09 Jun 2027 09:06:12.342             1.299           465.687
       306   09 Jun 2027 09:06:25.726   09 Jun 2027 09:06:28.762             3.036           377.937
       307   09 Jun 2027 09:07:19.299   09 Jun 2027 09:07:22.136             2.837          1192.188
       308   09 Jun 2027 09:08:09.987   09 Jun 2027 09:08:12.457             2.470           857.312
       309   09 Jun 2027 09:08:37.239   09 Jun 2027 09:08:41.462             4.223           747.750
       310   09 Jun 2027 09:08:49.491   09 Jun 2027 09:08:52.612             3.121           250.906
       311   09 Jun 2027 10:40:47.050   09 Jun 2027 10:41:04.174            17.124          7760.594
       312   09 Jun 2027 10:41:31.849   09 Jun 2027 10:41:31.849             0.000             0.000
       313   09 Jun 2027 10:41:53.872   09 Jun 2027 10:41:59.705             5.833          1182.406
       314   09 Jun 2027 10:42:46.323   09 Jun 2027 10:42:50.935             4.612          1456.813
       315   09 Jun 2027 10:42:54.684   09 Jun 2027 10:42:56.784             2.100            58.156
       316   09 Jun 2027 10:43:41.943   09 Jun 2027 10:43:49.561             7.618          1411.219
       317   09 Jun 2027 10:44:21.222   09 Jun 2027 10:44:31.663            10.441           989.406
       318   09 Jun 2027 10:45:04.680   09 Jun 2027 10:45:09.564             4.884          1031.781
       319   10 Jun 2027 03:03:49.888   10 Jun 2027 03:04:57.412            67.524         33762.000
       320   10 Jun 2027 03:05:24.574   10 Jun 2027 03:05:52.268            27.694         13847.000
       321   10 Jun 2027 03:06:32.896   10 Jun 2027 03:06:32.896             0.000             0.000
       322   10 Jun 2027 03:07:06.232   10 Jun 2027 03:07:25.189            18.957          9478.500
       323   10 Jun 2027 04:27:48.452   10 Jun 2027 04:28:50.077            61.625         30812.500
       324   10 Jun 2027 04:29:14.965   10 Jun 2027 04:29:14.965             0.000             0.000
       325   10 Jun 2027 04:29:55.278   10 Jun 2027 04:30:30.229            34.951         17475.500
       326   10 Jun 2027 06:04:00.766   10 Jun 2027 06:05:55.548           114.782         56292.594
       327   10 Jun 2027 06:06:46.310   10 Jun 2027 06:06:47.779             1.469           734.500
       328   10 Jun 2027 07:38:27.792   10 Jun 2027 07:38:41.368            13.576          6733.594
       329   10 Jun 2027 07:40:15.623   10 Jun 2027 07:40:20.453             4.830          2275.469
       330   10 Jun 2027 07:40:23.981   10 Jun 2027 07:40:27.216             3.235           102.625
       331   10 Jun 2027 07:40:58.786   10 Jun 2027 07:41:01.453             2.667           376.219
       332   10 Jun 2027 07:41:18.868   10 Jun 2027 07:41:21.603             2.735           544.219
       333   10 Jun 2027 07:42:21.794   10 Jun 2027 07:42:30.870             9.076          1813.437
       334   10 Jun 2027 07:43:56.875   10 Jun 2027 07:44:02.106             5.231          2097.281
       335   10 Jun 2027 07:44:14.735   10 Jun 2027 07:44:16.633             1.898           394.656
       336   10 Jun 2027 07:44:36.553   10 Jun 2027 07:44:42.546             5.993           622.500
       337   10 Jun 2027 07:45:10.516   10 Jun 2027 07:45:14.779             4.263           432.500
       338   10 Jun 2027 07:45:36.517   10 Jun 2027 07:45:39.499             2.982           432.563
       339   10 Jun 2027 09:14:59.406   10 Jun 2027 09:15:22.244            22.838          8984.844
       340   10 Jun 2027 09:17:15.791   10 Jun 2027 09:17:17.957             2.166           860.906
       341   10 Jun 2027 09:18:04.032   10 Jun 2027 09:18:07.129             3.097           733.406
       342   10 Jun 2027 09:18:29.293   10 Jun 2027 09:18:30.025             0.732           185.531
       343   10 Jun 2027 09:18:33.703   10 Jun 2027 09:18:34.302             0.599           114.938
       344   10 Jun 2027 09:18:44.280   10 Jun 2027 09:18:44.672             0.392           148.844
       345   10 Jun 2027 09:19:33.391   10 Jun 2027 09:19:36.406             3.015          1235.906
       346   10 Jun 2027 09:20:11.538   10 Jun 2027 09:20:13.871             2.333          1097.875
       347   10 Jun 2027 09:20:56.558   10 Jun 2027 09:21:00.431             3.873          1303.375
       348   10 Jun 2027 10:53:17.173   10 Jun 2027 10:53:34.895            17.722          8059.344
       349   10 Jun 2027 10:53:35.830   10 Jun 2027 10:53:36.780             0.950            27.125
       350   10 Jun 2027 10:54:55.910   10 Jun 2027 10:54:59.136             3.226          1613.000
       351   10 Jun 2027 10:55:03.905   10 Jun 2027 10:55:06.608             2.703          1008.844
       352   10 Jun 2027 10:55:21.580   10 Jun 2027 10:55:26.353             4.773           136.594
       353   10 Jun 2027 10:55:54.564   10 Jun 2027 10:55:56.111             1.547           765.563
       354   10 Jun 2027 10:56:01.998   10 Jun 2027 10:56:01.998             0.000             0.000
       355   10 Jun 2027 10:56:33.304   10 Jun 2027 10:56:39.903             6.599          1045.812
       356   10 Jun 2027 10:56:56.255   10 Jun 2027 10:56:58.896             2.641           185.594
       357   11 Jun 2027 03:04:20.822   11 Jun 2027 03:04:52.804            31.982         15991.000
       358   11 Jun 2027 03:15:46.363   11 Jun 2027 03:18:17.539           151.176         75588.000
       359   11 Jun 2027 04:38:23.693   11 Jun 2027 04:39:08.697            45.004         22502.000
       360   11 Jun 2027 04:41:48.610   11 Jun 2027 04:42:14.797            26.187         13093.500
       361   11 Jun 2027 04:42:59.961   11 Jun 2027 04:42:59.961             0.000             0.000
       362   11 Jun 2027 04:43:01.076   11 Jun 2027 04:43:04.821             3.745          1872.500
       363   11 Jun 2027 06:13:48.121   11 Jun 2027 06:14:43.383            55.262         27631.000
       364   11 Jun 2027 06:15:18.886   11 Jun 2027 06:15:37.721            18.835          9323.593
       365   11 Jun 2027 06:15:48.072   11 Jun 2027 06:15:49.225             1.153           247.312
       366   11 Jun 2027 06:16:01.251   11 Jun 2027 06:16:01.904             0.653           253.313
       367   11 Jun 2027 06:18:19.996   11 Jun 2027 06:18:29.923             9.927          4315.375
       368   11 Jun 2027 06:19:28.744   11 Jun 2027 06:19:32.451             3.707          1274.281
       369   11 Jun 2027 06:19:55.820   11 Jun 2027 06:19:58.360             2.540           672.625
       370   11 Jun 2027 07:50:13.692   11 Jun 2027 07:50:24.270            10.578          5228.281
       371   11 Jun 2027 07:50:38.614   11 Jun 2027 07:50:41.040             2.426            54.125
       372   11 Jun 2027 07:51:39.677   11 Jun 2027 07:51:40.570             0.893           133.969
       373   11 Jun 2027 07:53:01.718   11 Jun 2027 07:53:07.861             6.143          1533.688
       374   11 Jun 2027 07:54:48.963   11 Jun 2027 07:54:55.362             6.399          3142.312
       375   11 Jun 2027 07:55:20.031   11 Jun 2027 07:55:23.626             3.595           770.906
       376   11 Jun 2027 07:56:11.899   11 Jun 2027 07:56:16.307             4.408          1508.531
       377   11 Jun 2027 07:57:27.670   11 Jun 2027 07:57:32.735             5.065          2184.531
       378   11 Jun 2027 09:27:19.868   11 Jun 2027 09:27:39.734            19.866          9698.938
       379   11 Jun 2027 09:28:05.511   11 Jun 2027 09:28:12.267             6.756           280.500
       380   11 Jun 2027 09:29:04.952   11 Jun 2027 09:29:07.814             2.862           865.594
       381   11 Jun 2027 09:29:16.369   11 Jun 2027 09:29:17.974             1.605           207.031
       382   11 Jun 2027 09:30:02.024   11 Jun 2027 09:30:03.459             1.435           667.187
       383   11 Jun 2027 09:30:04.567   11 Jun 2027 09:30:06.860             2.293            34.625
       384   11 Jun 2027 09:31:27.147   11 Jun 2027 09:31:30.989             3.842          1921.000
       385   11 Jun 2027 09:32:13.163   11 Jun 2027 09:32:16.113             2.950          1475.000
       386   11 Jun 2027 09:32:38.434   11 Jun 2027 09:32:42.265             3.831           855.031
       387   11 Jun 2027 09:33:18.749   11 Jun 2027 09:33:22.726             3.977          1140.125
       388   11 Jun 2027 11:05:14.950   11 Jun 2027 11:05:30.734            15.784          6546.937
       389   11 Jun 2027 11:05:30.765   11 Jun 2027 11:05:30.924             0.159             0.969
       390   11 Jun 2027 11:06:05.919   11 Jun 2027 11:06:20.470            14.551          1089.219
       391   11 Jun 2027 11:06:42.204   11 Jun 2027 11:06:43.533             1.329           284.344
       392   11 Jun 2027 11:07:18.678   11 Jun 2027 11:07:18.678             0.000             0.000
       393   11 Jun 2027 11:07:47.868   11 Jun 2027 11:07:54.445             6.577          1663.906
       394   11 Jun 2027 11:08:10.285   11 Jun 2027 11:08:16.860             6.575           481.906
       395   11 Jun 2027 11:08:34.531   11 Jun 2027 11:08:34.970             0.439           219.500
       396   11 Jun 2027 11:08:49.396   11 Jun 2027 11:08:55.105             5.709           570.125
       397   12 Jun 2027 03:15:59.074   12 Jun 2027 03:17:06.129            67.055         33527.500
       398   12 Jun 2027 03:27:48.005   12 Jun 2027 03:28:48.065            60.060         30030.000
       399   12 Jun 2027 04:50:03.069   12 Jun 2027 04:51:09.346            66.277         33138.500
       400   12 Jun 2027 04:51:57.260   12 Jun 2027 04:52:46.320            49.060         24530.000
       401   12 Jun 2027 04:53:09.978   12 Jun 2027 04:53:24.573            14.595          7297.500
       402   12 Jun 2027 04:54:11.991   12 Jun 2027 04:54:23.036            11.045          5522.500
       403   12 Jun 2027 06:24:57.455   12 Jun 2027 06:25:38.336            40.881         19731.313
       404   12 Jun 2027 06:26:28.063   12 Jun 2027 06:26:35.380             7.317           933.344
       405   12 Jun 2027 06:27:25.006   12 Jun 2027 06:27:28.394             3.388          1522.344
       406   12 Jun 2027 06:28:40.116   12 Jun 2027 06:28:44.628             4.512          1987.437
       407   12 Jun 2027 06:28:50.462   12 Jun 2027 06:28:50.462             0.000             0.000
       408   12 Jun 2027 06:30:08.953   12 Jun 2027 06:30:17.503             8.550          2604.938
       409   12 Jun 2027 06:31:23.517   12 Jun 2027 06:31:27.377             3.860          1838.844
       410   12 Jun 2027 06:31:32.710   12 Jun 2027 06:31:32.710             0.000             0.000
       411   12 Jun 2027 06:32:58.591   12 Jun 2027 06:33:05.892             7.301          2232.875
       412   12 Jun 2027 08:02:29.348   12 Jun 2027 08:02:39.151             9.803          4017.250
       413   12 Jun 2027 08:04:15.609   12 Jun 2027 08:04:26.605            10.996          2958.969
       414   12 Jun 2027 08:05:31.318   12 Jun 2027 08:05:38.285             6.967          1961.031
       415   12 Jun 2027 08:06:41.065   12 Jun 2027 08:06:44.564             3.499          1682.563
       416   12 Jun 2027 08:06:53.656   12 Jun 2027 08:06:54.686             1.030           275.094
       417   12 Jun 2027 08:07:53.510   12 Jun 2027 08:07:53.510             0.000             0.000
       418   12 Jun 2027 08:08:02.851   12 Jun 2027 08:08:07.939             5.088          1850.156
       419   12 Jun 2027 08:08:39.426   12 Jun 2027 08:08:43.806             4.380           891.094
       420   12 Jun 2027 08:09:47.611   12 Jun 2027 08:09:48.941             1.330           665.000
       421   12 Jun 2027 09:39:15.287   12 Jun 2027 09:39:35.259            19.972          8065.719
       422   12 Jun 2027 09:40:26.893   12 Jun 2027 09:40:33.384             6.491           507.156
       423   12 Jun 2027 09:41:39.310   12 Jun 2027 09:41:43.402             4.092          1969.594
       424   12 Jun 2027 09:42:47.924   12 Jun 2027 09:42:54.961             7.037          2016.313
       425   12 Jun 2027 09:42:59.902   12 Jun 2027 09:43:02.664             2.762           113.156
       426   12 Jun 2027 09:43:17.077   12 Jun 2027 09:43:21.893             4.816           424.625
       427   12 Jun 2027 09:43:50.926   12 Jun 2027 09:43:54.465             3.539           883.562
       428   12 Jun 2027 09:45:09.828   12 Jun 2027 09:45:14.991             5.163          2223.062
       429   12 Jun 2027 09:45:42.021   12 Jun 2027 09:45:47.380             5.359           841.875
       430   12 Jun 2027 11:17:14.879   12 Jun 2027 11:17:32.724            17.845          8393.031
       431   12 Jun 2027 11:18:01.210   12 Jun 2027 11:18:05.565             4.355           858.406
       432   12 Jun 2027 11:19:15.154   12 Jun 2027 11:19:19.776             4.622          2070.094
       433   12 Jun 2027 11:19:39.224   12 Jun 2027 11:19:41.625             2.401           563.844
       434   12 Jun 2027 11:19:48.495   12 Jun 2027 11:19:48.495             0.000             0.000
       435   12 Jun 2027 11:19:51.496   12 Jun 2027 11:19:58.315             6.819           287.656
       436   12 Jun 2027 11:20:36.624   12 Jun 2027 11:20:39.081             2.457           799.844
       437   12 Jun 2027 11:20:55.937   12 Jun 2027 11:20:55.937             0.000             0.000
       438   13 Jun 2027 03:27:39.046   13 Jun 2027 03:28:32.260            53.214         26607.000
       439   13 Jun 2027 03:29:33.444   13 Jun 2027 03:29:38.599             5.155          2577.500
       440   13 Jun 2027 03:39:54.716   13 Jun 2027 03:40:22.359            27.643         13821.500
       441   13 Jun 2027 05:01:34.769   13 Jun 2027 05:02:55.002            80.233         40116.500
       442   13 Jun 2027 05:03:43.268   13 Jun 2027 05:05:03.855            80.587         40293.500
       443   13 Jun 2027 05:05:33.345   13 Jun 2027 05:05:45.148            11.803          5901.500
       444   13 Jun 2027 05:06:32.749   13 Jun 2027 05:06:52.815            20.066         10033.000
       445   13 Jun 2027 06:36:28.353   13 Jun 2027 06:37:02.044            33.691         16845.500
       446   13 Jun 2027 06:38:03.048   13 Jun 2027 06:38:11.867             8.819          2190.313
       447   13 Jun 2027 06:39:13.892   13 Jun 2027 06:39:16.130             2.238          1102.531
       448   13 Jun 2027 06:39:51.581   13 Jun 2027 06:39:57.529             5.948           355.969
       449   13 Jun 2027 06:40:10.166   13 Jun 2027 06:40:11.148             0.982           394.906
       450   13 Jun 2027 06:40:50.737   13 Jun 2027 06:40:52.663             1.926           949.562
       451   13 Jun 2027 06:42:08.825   13 Jun 2027 06:42:13.966             5.141          2367.906
       452   13 Jun 2027 06:43:46.074   13 Jun 2027 06:43:50.736             4.662          2331.000
       453   13 Jun 2027 06:44:10.583   13 Jun 2027 06:44:14.381             3.798           739.094
       454   13 Jun 2027 06:44:53.987   13 Jun 2027 06:44:58.007             4.020          1038.531
       455   13 Jun 2027 08:14:24.252   13 Jun 2027 08:14:41.891            17.639          7438.000
       456   13 Jun 2027 08:16:14.662   13 Jun 2027 08:16:19.935             5.273          2636.500
       457   13 Jun 2027 08:17:52.220   13 Jun 2027 08:18:02.091             9.871          3112.656
       458   13 Jun 2027 08:18:27.253   13 Jun 2027 08:18:28.137             0.884           442.000
       459   13 Jun 2027 08:18:33.329   13 Jun 2027 08:18:37.591             4.262           405.219
       460   13 Jun 2027 08:19:30.222   13 Jun 2027 08:19:38.483             8.261          1590.875
       461   13 Jun 2027 08:20:19.731   13 Jun 2027 08:20:21.608             1.877           938.500
       462   13 Jun 2027 08:20:29.598   13 Jun 2027 08:20:43.933            14.335           347.937
       463   13 Jun 2027 08:21:38.338   13 Jun 2027 08:21:42.401             4.063          1652.781
       464   13 Jun 2027 09:51:11.858   13 Jun 2027 09:51:17.175             5.317          2658.500
       465   13 Jun 2027 09:51:44.743   13 Jun 2027 09:51:58.689            13.946          6523.719
       466   13 Jun 2027 09:52:31.415   13 Jun 2027 09:52:34.091             2.676          1022.687
       467   13 Jun 2027 09:53:40.851   13 Jun 2027 09:53:47.514             6.663          2058.500
       468   13 Jun 2027 09:53:58.441   13 Jun 2027 09:54:04.046             5.605           340.125
       469   13 Jun 2027 09:54:42.785   13 Jun 2027 09:54:53.283            10.498           862.281
       470   13 Jun 2027 09:56:13.360   13 Jun 2027 09:56:18.069             4.709          2354.500
       471   13 Jun 2027 09:56:40.498   13 Jun 2027 09:56:42.615             2.117           792.969
       472   13 Jun 2027 09:57:00.734   13 Jun 2027 09:57:02.903             2.169           254.844
       473   13 Jun 2027 09:57:37.801   13 Jun 2027 09:57:40.965             3.164          1033.656
       474   13 Jun 2027 11:29:02.192   13 Jun 2027 11:29:16.992            14.800          7397.219
       475   13 Jun 2027 11:29:53.295   13 Jun 2027 11:29:57.513             4.218          1074.438
       476   13 Jun 2027 11:31:09.651   13 Jun 2027 11:31:14.325             4.674          2147.062
       477   13 Jun 2027 11:31:37.907   13 Jun 2027 11:31:41.042             3.135           513.969
       478   13 Jun 2027 11:31:44.024   13 Jun 2027 11:31:44.384             0.360            35.781
       479   13 Jun 2027 11:32:16.847   13 Jun 2027 11:32:19.039             2.192           541.625
       480   13 Jun 2027 11:32:19.687   13 Jun 2027 11:32:22.224             2.537            20.250
       481   13 Jun 2027 11:32:54.237   13 Jun 2027 11:33:01.137             6.900          1000.406
       482   13 Jun 2027 11:33:09.130   13 Jun 2027 11:33:13.079             3.949           216.250
