uniorb/output/strategy_2/Camera/Camera_KinoSat_110304.txt

KinoSat_110304
-------------------------
    Access    *     Start Time (UTCG)     *     Stop Time (UTCG)  *   Duration (s) *   Data (Mbytes)
         1   01 Jun 2027 04:06:04.457   01 Jun 2027 04:06:14.357             9.900          4950.000
         2   01 Jun 2027 04:07:12.318   01 Jun 2027 04:07:18.878             6.560          3280.000
         3   01 Jun 2027 04:07:54.083   01 Jun 2027 04:08:11.720            17.637          8818.500
         4   01 Jun 2027 04:09:32.933   01 Jun 2027 04:09:35.973             3.040          1520.000
         5   01 Jun 2027 04:09:57.934   01 Jun 2027 04:10:02.973             5.039          2519.500
         6   01 Jun 2027 04:10:33.298   01 Jun 2027 04:10:37.904             4.606          2303.000
         7   01 Jun 2027 04:11:50.063   01 Jun 2027 04:11:53.549             3.486          1743.000
         8   01 Jun 2027 04:12:37.150   01 Jun 2027 04:12:40.670             3.520          1760.000
         9   01 Jun 2027 04:13:04.118   01 Jun 2027 04:13:18.886            14.768          7384.000
        10   01 Jun 2027 04:13:22.949   01 Jun 2027 04:13:23.415             0.466           233.000
        11   01 Jun 2027 05:42:52.317   01 Jun 2027 05:43:05.890            13.573          6786.500
        12   01 Jun 2027 05:44:04.547   01 Jun 2027 05:44:28.535            23.988         11994.000
        13   01 Jun 2027 05:46:09.831   01 Jun 2027 05:46:10.783             0.952           476.000
        14   01 Jun 2027 05:46:18.421   01 Jun 2027 05:46:20.594             2.173          1086.500
        15   01 Jun 2027 05:46:39.963   01 Jun 2027 05:46:45.499             5.536          2768.000
        16   01 Jun 2027 05:47:04.868   01 Jun 2027 05:47:14.612             9.744          4872.000
        17   01 Jun 2027 05:48:34.774   01 Jun 2027 05:48:39.835             5.061          2530.500
        18   01 Jun 2027 05:49:15.976   01 Jun 2027 05:49:19.982             4.006          2003.000
        19   01 Jun 2027 07:20:49.375   01 Jun 2027 07:20:51.839             2.464          1232.000
        20   01 Jun 2027 07:21:05.978   01 Jun 2027 07:21:06.025             0.047            23.500
        21   01 Jun 2027 07:21:28.595   01 Jun 2027 07:21:29.964             1.369           684.500
        22   01 Jun 2027 07:22:00.190   01 Jun 2027 07:22:07.356             7.166          3583.000
        23   01 Jun 2027 07:23:13.804   01 Jun 2027 07:23:14.526             0.722           361.000
        24   01 Jun 2027 07:23:32.897   01 Jun 2027 07:23:41.202             8.305          4152.500
        25   01 Jun 2027 07:23:57.015   01 Jun 2027 07:23:57.078             0.063            31.500
        26   01 Jun 2027 08:54:25.072   01 Jun 2027 08:54:40.120            15.048          7524.000
        27   01 Jun 2027 08:56:24.667   01 Jun 2027 08:56:30.151             5.484          2742.000
        28   01 Jun 2027 08:56:54.380   01 Jun 2027 08:57:00.901             6.521          3260.500
        29   01 Jun 2027 08:57:39.018   01 Jun 2027 08:57:58.474            19.456          9728.000
        30   01 Jun 2027 08:59:41.532   01 Jun 2027 08:59:43.464             1.932           966.000
        31   01 Jun 2027 09:00:01.650   01 Jun 2027 09:00:08.532             6.882          3441.000
        32   01 Jun 2027 09:01:08.046   01 Jun 2027 09:01:20.854            12.808          6404.000
        33   02 Jun 2027 04:17:58.399   02 Jun 2027 04:18:05.064             6.665          3332.500
        34   02 Jun 2027 04:18:37.951   02 Jun 2027 04:18:38.738             0.787           393.500
        35   02 Jun 2027 04:19:43.544   02 Jun 2027 04:19:59.063            15.519          7759.500
        36   02 Jun 2027 04:21:40.262   02 Jun 2027 04:21:44.610             4.348          2174.000
        37   02 Jun 2027 04:22:05.858   02 Jun 2027 04:22:12.016             6.158          3079.000
        38   02 Jun 2027 04:22:45.643   02 Jun 2027 04:22:50.918             5.275          2637.500
        39   02 Jun 2027 04:24:19.275   02 Jun 2027 04:24:30.787            11.512          5756.000
        40   02 Jun 2027 05:54:42.825   02 Jun 2027 05:54:51.939             9.114          4557.000
        41   02 Jun 2027 05:55:13.507   02 Jun 2027 05:55:20.318             6.811          3405.500
        42   02 Jun 2027 05:56:22.433   02 Jun 2027 05:56:39.091            16.658          8329.000
        43   02 Jun 2027 05:57:53.645   02 Jun 2027 05:57:54.092             0.447           223.500
        44   02 Jun 2027 05:58:40.175   02 Jun 2027 05:58:43.975             3.800          1900.000
        45   02 Jun 2027 05:59:04.004   02 Jun 2027 05:59:08.588             4.584          2292.000
        46   02 Jun 2027 06:00:16.537   02 Jun 2027 06:00:27.122            10.585          5292.500
        47   02 Jun 2027 06:01:02.847   02 Jun 2027 06:01:03.450             0.603           301.500
        48   02 Jun 2027 06:01:06.371   02 Jun 2027 06:01:07.208             0.837           418.500
        49   02 Jun 2027 06:01:18.298   02 Jun 2027 06:01:26.303             8.005          4002.500
        50   02 Jun 2027 07:32:51.437   02 Jun 2027 07:32:53.147             1.710           855.000
        51   02 Jun 2027 07:33:33.442   02 Jun 2027 07:33:53.442            20.000         10000.000
        52   02 Jun 2027 07:35:07.681   02 Jun 2027 07:35:11.301             3.620          1810.000
        53   02 Jun 2027 07:35:33.330   02 Jun 2027 07:35:36.000             2.670          1335.000
        54   02 Jun 2027 07:35:57.408   02 Jun 2027 07:36:00.588             3.180          1590.000
        55   02 Jun 2027 07:36:53.718   02 Jun 2027 07:36:57.538             3.820          1910.000
        56   02 Jun 2027 09:06:42.107   02 Jun 2027 09:06:52.070             9.963          4981.500
        57   02 Jun 2027 09:07:32.149   02 Jun 2027 09:07:41.619             9.470          4735.000
        58   02 Jun 2027 09:08:24.278   02 Jun 2027 09:08:34.486            10.208          5104.000
        59   02 Jun 2027 09:09:49.069   02 Jun 2027 09:09:51.715             2.646          1323.000
        60   02 Jun 2027 09:10:21.028   02 Jun 2027 09:10:24.096             3.068          1534.000
        61   02 Jun 2027 09:10:48.151   02 Jun 2027 09:11:04.973            16.822          8411.000
        62   02 Jun 2027 09:12:37.593   02 Jun 2027 09:12:56.223            18.630          9315.000
        63   03 Jun 2027 03:00:00.000   03 Jun 2027 03:00:00.180             0.180            90.000
        64   03 Jun 2027 03:00:39.283   03 Jun 2027 03:00:40.884             1.601           800.500
        65   03 Jun 2027 03:01:06.312   03 Jun 2027 03:01:12.072             5.760          2880.000
        66   03 Jun 2027 04:30:05.129   03 Jun 2027 04:30:20.761            15.632          7816.000
        67   03 Jun 2027 04:31:25.017   03 Jun 2027 04:31:26.067             1.050           525.000
        68   03 Jun 2027 04:31:59.584   03 Jun 2027 04:32:10.348            10.764          5382.000
        69   03 Jun 2027 04:33:11.224   03 Jun 2027 04:33:15.402             4.178          2089.000
        70   03 Jun 2027 04:33:49.857   03 Jun 2027 04:33:52.434             2.577          1288.500
        71   03 Jun 2027 04:34:05.981   03 Jun 2027 04:34:08.807             2.826          1413.000
        72   03 Jun 2027 04:34:26.153   03 Jun 2027 04:34:26.839             0.686           343.000
        73   03 Jun 2027 04:34:45.434   03 Jun 2027 04:34:54.442             9.008          4504.000
        74   03 Jun 2027 04:35:53.812   03 Jun 2027 04:35:57.856             4.044          2022.000
        75   03 Jun 2027 04:36:20.158   03 Jun 2027 04:36:36.340            16.182          8091.000
        76   03 Jun 2027 06:07:08.117   03 Jun 2027 06:07:15.997             7.880          3940.000
        77   03 Jun 2027 06:07:20.829   03 Jun 2027 06:07:55.314            34.485         17242.500
        78   03 Jun 2027 06:10:14.305   03 Jun 2027 06:10:16.447             2.142          1071.000
        79   03 Jun 2027 06:11:09.280   03 Jun 2027 06:11:10.111             0.831           415.500
        80   03 Jun 2027 06:11:42.332   03 Jun 2027 06:11:50.474             8.142          4071.000
        81   03 Jun 2027 06:12:27.658   03 Jun 2027 06:12:29.197             1.539           769.500
        82   03 Jun 2027 06:12:53.988   03 Jun 2027 06:12:56.165             2.177          1088.500
        83   03 Jun 2027 07:44:05.141   03 Jun 2027 07:44:08.522             3.381          1690.500
        84   03 Jun 2027 07:44:34.318   03 Jun 2027 07:44:40.314             5.996          2998.000
        85   03 Jun 2027 07:45:09.740   03 Jun 2027 07:45:25.518            15.778          7889.000
        86   03 Jun 2027 07:46:52.055   03 Jun 2027 07:46:53.707             1.652           826.000
        87   03 Jun 2027 07:47:51.038   03 Jun 2027 07:47:52.552             1.514           757.000
        88   03 Jun 2027 07:48:32.032   03 Jun 2027 07:48:48.900            16.868          8434.000
        89   03 Jun 2027 09:19:09.135   03 Jun 2027 09:19:10.977             1.842           921.000
        90   03 Jun 2027 09:20:48.843   03 Jun 2027 09:20:51.069             2.226          1113.000
        91   03 Jun 2027 09:22:33.895   03 Jun 2027 09:22:42.852             8.957          4478.500
        92   03 Jun 2027 09:23:31.496   03 Jun 2027 09:23:32.851             1.355           677.500
        93   03 Jun 2027 09:23:41.268   03 Jun 2027 09:23:41.288             0.020            10.000
        94   03 Jun 2027 09:23:47.266   03 Jun 2027 09:23:50.360             3.094          1547.000
        95   04 Jun 2027 03:03:38.615   04 Jun 2027 03:03:53.080            14.465          7232.500
        96   04 Jun 2027 03:05:02.681   04 Jun 2027 03:05:08.194             5.513          2756.500
        97   04 Jun 2027 03:05:44.589   04 Jun 2027 03:05:54.874            10.285          5142.500
        98   04 Jun 2027 03:06:37.775   04 Jun 2027 03:06:56.206            18.431          9215.500
        99   04 Jun 2027 03:07:59.713   04 Jun 2027 03:08:02.615             2.902          1451.000
       100   04 Jun 2027 03:08:56.979   04 Jun 2027 03:08:59.765             2.786          1393.000
       101   04 Jun 2027 03:09:38.688   04 Jun 2027 03:09:42.563             3.875          1937.500
       102   04 Jun 2027 03:10:01.639   04 Jun 2027 03:10:07.772             6.133          3066.500
       103   04 Jun 2027 03:10:46.478   04 Jun 2027 03:10:54.605             8.127          4063.500
       104   04 Jun 2027 03:11:16.660   04 Jun 2027 03:11:20.242             3.582          1791.000
       105   04 Jun 2027 03:11:56.419   04 Jun 2027 03:12:01.300             4.881          2440.500
       106   04 Jun 2027 03:12:34.676   04 Jun 2027 03:12:40.543             5.867          2933.500
       107   04 Jun 2027 03:13:02.439   04 Jun 2027 03:13:07.507             5.068          2534.000
       108   04 Jun 2027 04:42:31.428   04 Jun 2027 04:42:34.620             3.192          1596.000
       109   04 Jun 2027 04:42:40.986   04 Jun 2027 04:42:43.448             2.462          1231.000
       110   04 Jun 2027 04:43:07.991   04 Jun 2027 04:43:10.374             2.383          1191.500
       111   04 Jun 2027 04:44:09.487   04 Jun 2027 04:44:30.844            21.357         10678.500
       112   04 Jun 2027 04:45:22.738   04 Jun 2027 04:45:46.768            24.030         12015.000
       113   04 Jun 2027 04:47:48.569   04 Jun 2027 04:47:49.212             0.643           321.500
       114   04 Jun 2027 04:48:00.470   04 Jun 2027 04:48:08.878             8.408          4204.000
       115   04 Jun 2027 04:49:12.329   04 Jun 2027 04:49:12.687             0.358           179.000
       116   04 Jun 2027 06:19:28.159   04 Jun 2027 06:19:41.295            13.136          6568.000
       117   04 Jun 2027 06:19:47.761   04 Jun 2027 06:19:51.617             3.856          1928.000
       118   04 Jun 2027 06:20:31.730   04 Jun 2027 06:20:46.584            14.854          7427.000
       119   04 Jun 2027 06:21:54.032   04 Jun 2027 06:22:00.270             6.238          3119.000
       120   04 Jun 2027 06:22:43.850   04 Jun 2027 06:22:47.208             3.358          1679.000
       121   04 Jun 2027 06:23:07.111   04 Jun 2027 06:23:19.811            12.700          6350.000
       122   04 Jun 2027 06:24:23.059   04 Jun 2027 06:24:26.466             3.407          1703.500
       123   04 Jun 2027 06:24:46.762   04 Jun 2027 06:24:46.942             0.180            90.000
       124   04 Jun 2027 06:24:51.396   04 Jun 2027 06:24:58.536             7.140          3570.000
       125   04 Jun 2027 07:56:18.524   04 Jun 2027 07:56:29.453            10.929          5464.500
       126   04 Jun 2027 07:57:23.880   04 Jun 2027 07:57:24.396             0.516           258.000
       127   04 Jun 2027 07:57:58.264   04 Jun 2027 07:58:01.508             3.244          1622.000
       128   04 Jun 2027 07:58:55.185   04 Jun 2027 07:58:58.322             3.137          1568.500
       129   04 Jun 2027 07:59:51.862   04 Jun 2027 07:59:55.205             3.343          1671.500
       130   04 Jun 2027 08:00:16.926   04 Jun 2027 08:00:20.863             3.937          1968.500
       131   04 Jun 2027 09:34:16.786   04 Jun 2027 09:34:23.378             6.592          3296.000
       132   04 Jun 2027 09:34:53.122   04 Jun 2027 09:34:58.112             4.990          2495.000
       133   04 Jun 2027 09:35:20.585   04 Jun 2027 09:35:28.820             8.235          4117.500
       134   05 Jun 2027 03:18:30.929   05 Jun 2027 03:18:37.351             6.422          3211.000
       135   05 Jun 2027 03:19:11.124   05 Jun 2027 03:19:17.752             6.628          3314.000
       136   05 Jun 2027 03:19:59.727   05 Jun 2027 03:20:05.072             5.345          2672.500
       137   05 Jun 2027 03:20:57.890   05 Jun 2027 03:20:58.405             0.515           257.500
       138   05 Jun 2027 03:21:07.226   05 Jun 2027 03:21:28.082            20.856         10428.000
       139   05 Jun 2027 03:22:45.070   05 Jun 2027 03:22:48.990             3.920          1960.000
       140   05 Jun 2027 03:22:58.997   05 Jun 2027 03:22:58.997             0.000             0.000
       141   05 Jun 2027 03:23:02.790   05 Jun 2027 03:23:03.162             0.372           186.000
       142   05 Jun 2027 03:23:25.521   05 Jun 2027 03:23:32.262             6.741          3370.500
       143   05 Jun 2027 03:24:16.814   05 Jun 2027 03:24:17.645             0.831           415.500
       144   05 Jun 2027 03:24:30.215   05 Jun 2027 03:24:33.731             3.516          1758.000
       145   05 Jun 2027 03:25:06.464   05 Jun 2027 03:25:09.375             2.911          1455.500
       146   05 Jun 2027 03:25:21.388   05 Jun 2027 03:25:23.827             2.439          1219.500
       147   05 Jun 2027 04:54:39.469   05 Jun 2027 04:54:43.806             4.337          2168.500
       148   05 Jun 2027 04:55:03.388   05 Jun 2027 04:55:43.646            40.258         20129.000
       149   05 Jun 2027 04:58:30.543   05 Jun 2027 04:58:37.823             7.280          3640.000
       150   05 Jun 2027 04:58:45.959   05 Jun 2027 04:58:53.317             7.358          3679.000
       151   05 Jun 2027 04:59:48.916   05 Jun 2027 04:59:57.047             8.131          4065.500
       152   05 Jun 2027 05:00:12.363   05 Jun 2027 05:00:16.560             4.197          2098.500
       153   05 Jun 2027 05:00:51.861   05 Jun 2027 05:00:53.995             2.134          1067.000
       154   05 Jun 2027 06:32:23.537   05 Jun 2027 06:32:32.484             8.947          4473.500
       155   05 Jun 2027 06:33:27.524   05 Jun 2027 06:33:27.650             0.126            63.000
       156   05 Jun 2027 06:33:57.356   05 Jun 2027 06:34:01.537             4.181          2090.500
       157   05 Jun 2027 06:34:35.742   05 Jun 2027 06:34:38.359             2.617          1308.500
       158   05 Jun 2027 06:35:26.443   05 Jun 2027 06:35:29.018             2.575          1287.500
       159   05 Jun 2027 06:35:47.282   05 Jun 2027 06:35:48.442             1.160           580.000
       160   05 Jun 2027 06:35:58.328   05 Jun 2027 06:36:01.157             2.829          1414.500
       161   05 Jun 2027 06:36:13.264   05 Jun 2027 06:36:25.598            12.334          6167.000
       162   05 Jun 2027 08:08:28.872   05 Jun 2027 08:08:30.541             1.669           834.500
       163   05 Jun 2027 08:08:47.012   05 Jun 2027 08:08:57.101            10.089          5044.500
       164   05 Jun 2027 08:10:03.002   05 Jun 2027 08:10:03.746             0.744           372.000
       165   05 Jun 2027 08:10:09.021   05 Jun 2027 08:10:11.645             2.624          1312.000
       166   05 Jun 2027 08:10:44.277   05 Jun 2027 08:10:47.946             3.669          1834.500
       167   05 Jun 2027 08:11:04.903   05 Jun 2027 08:11:22.817            17.914          8957.000
       168   06 Jun 2027 03:30:48.418   06 Jun 2027 03:30:49.561             1.143           571.500
       169   06 Jun 2027 03:31:40.569   06 Jun 2027 03:31:42.449             1.880           940.000
       170   06 Jun 2027 03:31:56.852   06 Jun 2027 03:31:59.257             2.405          1202.500
       171   06 Jun 2027 03:32:18.728   06 Jun 2027 03:32:21.991             3.263          1631.500
       172   06 Jun 2027 03:32:37.886   06 Jun 2027 03:32:39.159             1.273           636.500
       173   06 Jun 2027 03:32:56.234   06 Jun 2027 03:32:59.011             2.777          1388.500
       174   06 Jun 2027 03:33:37.736   06 Jun 2027 03:33:46.618             8.882          4441.000
       175   06 Jun 2027 03:34:27.724   06 Jun 2027 03:34:30.284             2.560          1280.000
       176   06 Jun 2027 03:34:49.768   06 Jun 2027 03:34:59.397             9.629          4814.500
       177   06 Jun 2027 03:35:53.282   06 Jun 2027 03:35:59.873             6.591          3295.500
       178   06 Jun 2027 03:36:30.870   06 Jun 2027 03:36:34.517             3.647          1823.500
       179   06 Jun 2027 03:37:05.211   06 Jun 2027 03:37:05.644             0.433           216.500
       180   06 Jun 2027 03:37:11.945   06 Jun 2027 03:37:19.616             7.671          3835.500
       181   06 Jun 2027 05:07:11.226   06 Jun 2027 05:07:42.372            31.146         15573.000
       182   06 Jun 2027 05:10:12.813   06 Jun 2027 05:10:13.802             0.989           494.500
       183   06 Jun 2027 05:11:10.259   06 Jun 2027 05:11:27.409            17.150          8575.000
       184   06 Jun 2027 05:12:53.173   06 Jun 2027 05:13:04.520            11.347          5673.500
       185   06 Jun 2027 06:44:28.558   06 Jun 2027 06:44:32.607             4.049          2024.500
       186   06 Jun 2027 06:45:15.605   06 Jun 2027 06:45:21.729             6.124          3062.000
       187   06 Jun 2027 06:45:57.238   06 Jun 2027 06:45:59.789             2.551          1275.500
       188   06 Jun 2027 06:46:14.945   06 Jun 2027 06:46:22.594             7.649          3824.500
       189   06 Jun 2027 06:46:53.290   06 Jun 2027 06:46:56.365             3.075          1537.500
       190   06 Jun 2027 06:47:32.413   06 Jun 2027 06:47:36.991             4.578          2289.000
       191   06 Jun 2027 06:48:01.008   06 Jun 2027 06:48:02.189             1.181           590.500
       192   06 Jun 2027 06:48:29.257   06 Jun 2027 06:48:30.110             0.853           426.500
       193   06 Jun 2027 08:20:41.458   06 Jun 2027 08:20:42.964             1.506           753.000
       194   06 Jun 2027 08:20:55.279   06 Jun 2027 08:20:57.777             2.498          1249.000
       195   06 Jun 2027 08:21:15.238   06 Jun 2027 08:21:21.944             6.706          3353.000
       196   06 Jun 2027 08:21:36.646   06 Jun 2027 08:21:36.712             0.066            33.000
       197   06 Jun 2027 08:21:53.735   06 Jun 2027 08:21:58.440             4.705          2352.500
       198   06 Jun 2027 08:22:18.772   06 Jun 2027 08:22:30.662            11.890          5945.000
       199   06 Jun 2027 08:23:23.020   06 Jun 2027 08:23:23.992             0.972           486.000
       200   06 Jun 2027 08:23:35.918   06 Jun 2027 08:23:39.104             3.186          1593.000
       201   06 Jun 2027 08:24:09.566   06 Jun 2027 08:24:17.364             7.798          3899.000
       202   06 Jun 2027 08:25:06.534   06 Jun 2027 08:25:14.984             8.450          4225.000
       203   07 Jun 2027 03:42:25.881   07 Jun 2027 03:42:26.494             0.613           306.500
       204   07 Jun 2027 03:42:32.604   07 Jun 2027 03:42:36.833             4.229          2114.500
       205   07 Jun 2027 03:43:20.799   07 Jun 2027 03:43:26.663             5.864          2932.000
       206   07 Jun 2027 03:44:05.157   07 Jun 2027 03:44:07.924             2.767          1383.500
       207   07 Jun 2027 03:44:55.053   07 Jun 2027 03:45:26.918            31.865         15932.500
       208   07 Jun 2027 03:45:57.142   07 Jun 2027 03:46:02.808             5.666          2833.000
       209   07 Jun 2027 03:48:01.566   07 Jun 2027 03:48:02.640             1.074           537.000
       210   07 Jun 2027 03:48:25.216   07 Jun 2027 03:48:40.780            15.564          7782.000
       211   07 Jun 2027 05:18:45.596   07 Jun 2027 05:18:47.334             1.738           869.000
       212   07 Jun 2027 05:18:58.380   07 Jun 2027 05:19:06.961             8.581          4290.500
       213   07 Jun 2027 05:20:17.496   07 Jun 2027 05:20:23.484             5.988          2994.000
       214   07 Jun 2027 05:20:53.805   07 Jun 2027 05:20:55.249             1.444           722.000
       215   07 Jun 2027 05:21:23.141   07 Jun 2027 05:21:26.824             3.683          1841.500
       216   07 Jun 2027 05:21:41.630   07 Jun 2027 05:21:42.764             1.134           567.000
       217   07 Jun 2027 05:22:30.774   07 Jun 2027 05:22:32.895             2.121          1060.500
       218   07 Jun 2027 05:23:01.703   07 Jun 2027 05:23:02.006             0.303           151.500
       219   07 Jun 2027 05:24:25.010   07 Jun 2027 05:24:38.444            13.434          6717.000
       220   07 Jun 2027 06:57:01.779   07 Jun 2027 06:57:17.040            15.261          7630.500
       221   07 Jun 2027 06:58:54.125   07 Jun 2027 06:58:57.273             3.148          1574.000
       222   07 Jun 2027 06:59:14.961   07 Jun 2027 06:59:15.771             0.810           405.000
       223   07 Jun 2027 06:59:31.335   07 Jun 2027 06:59:36.126             4.791          2395.500
       224   07 Jun 2027 07:00:22.332   07 Jun 2027 07:00:23.203             0.871           435.500
       225   07 Jun 2027 08:32:22.369   07 Jun 2027 08:32:29.236             6.867          3433.500
       226   07 Jun 2027 08:33:35.000   07 Jun 2027 08:33:41.412             6.412          3206.000
       227   07 Jun 2027 08:34:31.325   07 Jun 2027 08:34:31.708             0.383           191.500
       228   07 Jun 2027 08:34:34.167   07 Jun 2027 08:34:50.121            15.954          7977.000
       229   07 Jun 2027 08:36:04.840   07 Jun 2027 08:36:07.483             2.643          1321.500
       230   07 Jun 2027 08:36:21.059   07 Jun 2027 08:36:27.898             6.839          3419.500
       231   07 Jun 2027 08:36:55.372   07 Jun 2027 08:36:58.753             3.381          1690.500
       232   07 Jun 2027 08:37:09.965   07 Jun 2027 08:37:18.162             8.197          4098.500
       233   08 Jun 2027 03:53:59.612   08 Jun 2027 03:54:02.382             2.770          1385.000
       234   08 Jun 2027 03:54:25.345   08 Jun 2027 03:54:28.468             3.123          1561.500
       235   08 Jun 2027 03:54:48.381   08 Jun 2027 03:54:59.726            11.345          5672.500
       236   08 Jun 2027 03:55:47.275   08 Jun 2027 03:55:57.966            10.691          5345.500
       237   08 Jun 2027 03:56:41.832   08 Jun 2027 03:56:48.735             6.903          3451.500
       238   08 Jun 2027 03:58:18.376   08 Jun 2027 03:58:20.892             2.516          1258.000
       239   08 Jun 2027 03:58:52.729   08 Jun 2027 03:58:55.650             2.921          1460.500
       240   08 Jun 2027 03:59:44.363   08 Jun 2027 03:59:47.881             3.518          1759.000
       241   08 Jun 2027 04:00:17.006   08 Jun 2027 04:00:18.739             1.733           866.500
       242   08 Jun 2027 04:00:50.851   08 Jun 2027 04:00:58.277             7.426          3713.000
       243   08 Jun 2027 04:01:25.862   08 Jun 2027 04:01:28.872             3.010          1505.000
       244   08 Jun 2027 04:01:33.872   08 Jun 2027 04:01:33.990             0.118            59.000
       245   08 Jun 2027 05:31:05.625   08 Jun 2027 05:31:09.884             4.259          2129.500
       246   08 Jun 2027 05:31:31.178   08 Jun 2027 05:31:47.460            16.282          8141.000
       247   08 Jun 2027 05:32:56.835   08 Jun 2027 05:33:01.627             4.792          2396.000
       248   08 Jun 2027 05:33:23.434   08 Jun 2027 05:33:34.200            10.766          5383.000
       249   08 Jun 2027 05:33:55.890   08 Jun 2027 05:34:11.233            15.343          7671.500
       250   08 Jun 2027 05:35:40.340   08 Jun 2027 05:35:57.475            17.135          8567.500
       251   08 Jun 2027 05:36:49.853   08 Jun 2027 05:37:03.079            13.226          6613.000
       252   08 Jun 2027 07:09:03.840   08 Jun 2027 07:09:14.059            10.219          5109.500
       253   08 Jun 2027 07:09:49.076   08 Jun 2027 07:10:11.252            22.176         11088.000
       254   08 Jun 2027 07:11:35.626   08 Jun 2027 07:11:36.716             1.090           545.000
       255   08 Jun 2027 07:11:51.888   08 Jun 2027 07:11:57.352             5.464          2732.000
       256   08 Jun 2027 07:12:27.497   08 Jun 2027 07:12:32.656             5.159          2579.500
       257   08 Jun 2027 07:12:55.689   08 Jun 2027 07:12:59.493             3.804          1902.000
       258   08 Jun 2027 08:42:12.708   08 Jun 2027 08:42:42.368            29.660         14830.000
       259   08 Jun 2027 08:45:09.235   08 Jun 2027 08:45:13.013             3.778          1889.000
       260   08 Jun 2027 08:45:29.527   08 Jun 2027 08:45:40.968            11.441          5720.500
       261   08 Jun 2027 08:46:32.923   08 Jun 2027 08:46:35.881             2.958          1479.000
       262   08 Jun 2027 08:47:02.574   08 Jun 2027 08:47:09.821             7.247          3623.500
       263   08 Jun 2027 08:48:01.981   08 Jun 2027 08:48:04.088             2.107          1053.500
       264   08 Jun 2027 08:48:16.936   08 Jun 2027 08:48:17.139             0.203           101.500
       265   08 Jun 2027 08:48:33.855   08 Jun 2027 08:48:41.072             7.217          3608.500
       266   08 Jun 2027 08:49:44.732   08 Jun 2027 08:49:53.395             8.663          4331.500
       267   09 Jun 2027 04:06:19.363   09 Jun 2027 04:06:30.268            10.905          5452.500
       268   09 Jun 2027 04:07:23.780   09 Jun 2027 04:07:28.716             4.936          2468.000
       269   09 Jun 2027 04:08:09.131   09 Jun 2027 04:08:09.766             0.635           317.500
       270   09 Jun 2027 04:08:39.387   09 Jun 2027 04:08:42.921             3.534          1767.000
       271   09 Jun 2027 04:09:19.201   09 Jun 2027 04:09:22.640             3.439          1719.500
       272   09 Jun 2027 04:09:37.313   09 Jun 2027 04:09:37.879             0.566           283.000
       273   09 Jun 2027 04:09:43.473   09 Jun 2027 04:09:47.574             4.101          2050.500
       274   09 Jun 2027 04:10:12.395   09 Jun 2027 04:10:12.828             0.433           216.500
       275   09 Jun 2027 04:10:25.316   09 Jun 2027 04:10:26.645             1.329           664.500
       276   09 Jun 2027 04:11:05.483   09 Jun 2027 04:11:06.788             1.305           652.500
       277   09 Jun 2027 04:12:04.927   09 Jun 2027 04:12:06.488             1.561           780.500
       278   09 Jun 2027 04:12:19.463   09 Jun 2027 04:12:20.566             1.103           551.500
       279   09 Jun 2027 04:12:25.086   09 Jun 2027 04:12:31.845             6.759          3379.500
       280   09 Jun 2027 04:13:20.331   09 Jun 2027 04:13:24.011             3.680          1840.000
       281   09 Jun 2027 05:43:06.954   09 Jun 2027 05:43:21.466            14.512          7256.000
       282   09 Jun 2027 05:44:19.630   09 Jun 2027 05:44:45.917            26.287         13143.500
       283   09 Jun 2027 05:46:33.076   09 Jun 2027 05:46:34.873             1.797           898.500
       284   09 Jun 2027 05:46:55.185   09 Jun 2027 05:46:59.444             4.259          2129.500
       285   09 Jun 2027 05:47:20.131   09 Jun 2027 05:47:28.772             8.641          4320.500
       286   09 Jun 2027 05:48:49.201   09 Jun 2027 05:48:52.179             2.978          1489.000
       287   09 Jun 2027 05:49:33.556   09 Jun 2027 05:49:35.571             2.015          1007.500
       288   09 Jun 2027 07:21:04.079   09 Jun 2027 07:21:09.251             5.172          2586.000
       289   09 Jun 2027 07:21:20.617   09 Jun 2027 07:21:26.762             6.145          3072.500
       290   09 Jun 2027 07:22:03.910   09 Jun 2027 07:22:12.378             8.468          4234.000
       291   09 Jun 2027 07:22:48.193   09 Jun 2027 07:22:59.823            11.630          5815.000
       292   09 Jun 2027 07:23:47.797   09 Jun 2027 07:23:51.077             3.280          1640.000
       293   09 Jun 2027 07:24:07.113   09 Jun 2027 07:24:10.504             3.391          1695.500
       294   09 Jun 2027 08:54:39.926   09 Jun 2027 08:54:55.039            15.113          7556.500
       295   09 Jun 2027 08:56:39.627   09 Jun 2027 08:56:44.728             5.101          2550.500
       296   09 Jun 2027 08:57:05.678   09 Jun 2027 08:57:08.890             3.212          1606.000
       297   09 Jun 2027 08:57:40.413   09 Jun 2027 08:57:53.568            13.155          6577.500
       298   09 Jun 2027 08:59:02.524   09 Jun 2027 08:59:28.535            26.011         13005.500
       299   09 Jun 2027 09:01:42.814   09 Jun 2027 09:01:48.988             6.174          3087.000
       300   10 Jun 2027 04:18:13.133   10 Jun 2027 04:18:33.314            20.181         10090.500
       301   10 Jun 2027 04:19:57.421   10 Jun 2027 04:20:17.150            19.729          9864.500
       302   10 Jun 2027 04:21:55.032   10 Jun 2027 04:21:59.477             4.445          2222.500
       303   10 Jun 2027 04:22:34.012   10 Jun 2027 04:22:37.948             3.936          1968.000
       304   10 Jun 2027 04:23:00.297   10 Jun 2027 04:23:06.296             5.999          2999.500
       305   10 Jun 2027 04:24:33.600   10 Jun 2027 04:24:45.453            11.853          5926.500
       306   10 Jun 2027 05:54:57.672   10 Jun 2027 05:55:06.452             8.780          4390.000
       307   10 Jun 2027 05:55:10.646   10 Jun 2027 05:55:10.774             0.128            64.000
       308   10 Jun 2027 05:56:14.715   10 Jun 2027 05:56:20.194             5.479          2739.500
       309   10 Jun 2027 05:56:57.731   10 Jun 2027 05:57:00.329             2.598          1299.000
       310   10 Jun 2027 05:57:24.815   10 Jun 2027 05:57:26.200             1.385           692.500
       311   10 Jun 2027 05:57:56.503   10 Jun 2027 05:58:02.163             5.660          2830.000
       312   10 Jun 2027 05:58:24.557   10 Jun 2027 05:58:28.058             3.501          1750.500
       313   10 Jun 2027 05:58:46.953   10 Jun 2027 05:58:50.592             3.639          1819.500
       314   10 Jun 2027 05:59:12.841   10 Jun 2027 05:59:15.305             2.464          1232.000
       315   10 Jun 2027 06:00:00.056   10 Jun 2027 06:00:05.987             5.931          2965.500
       316   10 Jun 2027 06:00:57.157   10 Jun 2027 06:00:59.895             2.738          1369.000
       317   10 Jun 2027 06:01:35.562   10 Jun 2027 06:01:36.325             0.763           381.500
       318   10 Jun 2027 07:33:06.211   10 Jun 2027 07:33:07.778             1.567           783.500
       319   10 Jun 2027 07:33:51.563   10 Jun 2027 07:34:07.953            16.390          8195.000
       320   10 Jun 2027 07:35:21.811   10 Jun 2027 07:35:25.885             4.074          2037.000
       321   10 Jun 2027 07:35:49.802   10 Jun 2027 07:35:50.882             1.080           540.000
       322   10 Jun 2027 07:36:00.569   10 Jun 2027 07:36:01.313             0.744           372.000
       323   10 Jun 2027 07:36:15.267   10 Jun 2027 07:36:19.647             4.380          2190.000
       324   10 Jun 2027 07:36:37.240   10 Jun 2027 07:36:52.969            15.729          7864.500
       325   10 Jun 2027 09:06:56.976   10 Jun 2027 09:07:06.803             9.827          4913.500
       326   10 Jun 2027 09:07:47.008   10 Jun 2027 09:07:56.172             9.164          4582.000
       327   10 Jun 2027 09:08:41.101   10 Jun 2027 09:08:49.504             8.403          4201.500
       328   10 Jun 2027 09:10:02.290   10 Jun 2027 09:10:06.769             4.479          2239.500
       329   10 Jun 2027 09:10:35.760   10 Jun 2027 09:10:38.019             2.259          1129.500
       330   10 Jun 2027 09:11:19.315   10 Jun 2027 09:11:26.952             7.637          3818.500
       331   10 Jun 2027 09:12:07.606   10 Jun 2027 09:12:12.595             4.989          2494.500
       332   10 Jun 2027 09:12:37.152   10 Jun 2027 09:12:38.214             1.062           531.000
       333   10 Jun 2027 09:12:44.751   10 Jun 2027 09:12:52.676             7.925          3962.500
       334   11 Jun 2027 03:00:00.000   11 Jun 2027 03:00:00.270             0.270           135.000
       335   11 Jun 2027 03:00:16.050   11 Jun 2027 03:00:18.850             2.800          1400.000
       336   11 Jun 2027 03:00:42.626   11 Jun 2027 03:00:44.759             2.133          1066.500
       337   11 Jun 2027 03:01:42.502   11 Jun 2027 03:01:42.854             0.352           176.000
       338   11 Jun 2027 04:30:20.129   11 Jun 2027 04:30:44.204            24.075         12037.500
       339   11 Jun 2027 04:32:22.144   11 Jun 2027 04:32:24.840             2.696          1348.000
       340   11 Jun 2027 04:32:38.762   11 Jun 2027 04:32:50.826            12.064          6032.000
       341   11 Jun 2027 04:33:57.737   11 Jun 2027 04:34:04.140             6.403          3201.500
       342   11 Jun 2027 04:34:46.450   11 Jun 2027 04:34:55.745             9.295          4647.500
       343   11 Jun 2027 04:35:37.151   11 Jun 2027 04:35:52.820            15.669          7834.500
       344   11 Jun 2027 04:36:38.616   11 Jun 2027 04:36:51.197            12.581          6290.500
       345   11 Jun 2027 04:37:04.033   11 Jun 2027 04:37:08.403             4.370          2185.000
       346   11 Jun 2027 06:07:22.916   11 Jun 2027 06:07:31.423             8.507          4253.500
       347   11 Jun 2027 06:08:10.427   11 Jun 2027 06:08:20.250             9.823          4911.500
       348   11 Jun 2027 06:09:10.391   11 Jun 2027 06:09:13.717             3.326          1663.000
       349   11 Jun 2027 06:09:37.068   11 Jun 2027 06:09:43.753             6.685          3342.500
       350   11 Jun 2027 06:10:16.917   11 Jun 2027 06:10:24.010             7.093          3546.500
       351   11 Jun 2027 06:11:09.927   11 Jun 2027 06:11:22.161            12.234          6117.000
       352   11 Jun 2027 06:11:57.294   11 Jun 2027 06:12:07.107             9.813          4906.500
       353   11 Jun 2027 06:12:43.279   11 Jun 2027 06:12:43.279             0.000             0.000
       354   11 Jun 2027 06:13:11.352   11 Jun 2027 06:13:18.929             7.577          3788.500
       355   11 Jun 2027 07:44:19.323   11 Jun 2027 07:44:31.354            12.031          6015.500
       356   11 Jun 2027 07:45:24.378   11 Jun 2027 07:45:41.159            16.781          8390.500
       357   11 Jun 2027 07:47:08.649   11 Jun 2027 07:47:09.789             1.140           570.000
       358   11 Jun 2027 07:48:05.962   11 Jun 2027 07:48:07.355             1.393           696.500
       359   11 Jun 2027 07:48:46.674   11 Jun 2027 07:49:02.985            16.311          8155.500
       360   11 Jun 2027 09:19:24.149   11 Jun 2027 09:19:25.194             1.045           522.500
       361   11 Jun 2027 09:21:03.615   11 Jun 2027 09:21:07.152             3.537          1768.500
       362   11 Jun 2027 09:21:32.377   11 Jun 2027 09:22:00.773            28.396         14198.000
       363   11 Jun 2027 09:23:59.135   11 Jun 2027 09:24:03.127             3.992          1996.000
       364   12 Jun 2027 03:03:52.913   12 Jun 2027 03:04:07.747            14.834          7417.000
       365   12 Jun 2027 03:05:17.267   12 Jun 2027 03:05:23.235             5.968          2984.000
       366   12 Jun 2027 03:06:00.364   12 Jun 2027 03:06:09.391             9.027          4513.500
       367   12 Jun 2027 03:06:29.584   12 Jun 2027 03:06:29.584             0.000             0.000
       368   12 Jun 2027 03:06:52.850   12 Jun 2027 03:07:07.874            15.024          7512.000
       369   12 Jun 2027 03:08:14.524   12 Jun 2027 03:08:23.277             8.753          4376.500
       370   12 Jun 2027 03:08:59.382   12 Jun 2027 03:09:00.280             0.898           449.000
       371   12 Jun 2027 03:09:34.121   12 Jun 2027 03:09:36.235             2.114          1057.000
       372   12 Jun 2027 03:10:10.550   12 Jun 2027 03:10:13.505             2.955          1477.500
       373   12 Jun 2027 03:10:33.069   12 Jun 2027 03:10:33.628             0.559           279.500
       374   12 Jun 2027 03:11:37.361   12 Jun 2027 03:11:42.501             5.140          2570.000
       375   12 Jun 2027 03:11:55.889   12 Jun 2027 03:11:57.136             1.247           623.500
       376   12 Jun 2027 03:12:24.867   12 Jun 2027 03:12:26.588             1.721           860.500
       377   12 Jun 2027 03:12:36.285   12 Jun 2027 03:12:45.874             9.589          4794.500
       378   12 Jun 2027 03:13:02.553   12 Jun 2027 03:13:10.207             7.654          3827.000
       379   12 Jun 2027 04:42:46.342   12 Jun 2027 04:42:51.887             5.545          2772.500
       380   12 Jun 2027 04:43:25.204   12 Jun 2027 04:44:10.119            44.915         22457.500
       381   12 Jun 2027 04:46:51.799   12 Jun 2027 04:46:55.549             3.750          1875.000
       382   12 Jun 2027 04:46:56.632   12 Jun 2027 04:46:57.071             0.439           219.500
       383   12 Jun 2027 04:48:03.799   12 Jun 2027 04:48:12.527             8.728          4364.000
       384   12 Jun 2027 04:48:38.926   12 Jun 2027 04:48:38.926             0.000             0.000
       385   12 Jun 2027 04:48:57.225   12 Jun 2027 04:48:59.297             2.072          1036.000
       386   12 Jun 2027 06:19:46.980   12 Jun 2027 06:19:56.023             9.043          4521.500
       387   12 Jun 2027 06:20:02.643   12 Jun 2027 06:20:06.744             4.101          2050.500
       388   12 Jun 2027 06:20:46.966   12 Jun 2027 06:21:01.612            14.646          7323.000
       389   12 Jun 2027 06:22:26.871   12 Jun 2027 06:22:28.335             1.464           732.000
       390   12 Jun 2027 06:22:50.372   12 Jun 2027 06:22:58.566             8.194          4097.000
       391   12 Jun 2027 06:23:34.949   12 Jun 2027 06:23:38.586             3.637          1818.500
       392   12 Jun 2027 06:23:55.054   12 Jun 2027 06:23:57.777             2.723          1361.500
       393   12 Jun 2027 06:24:40.913   12 Jun 2027 06:24:50.353             9.440          4720.000
       394   12 Jun 2027 07:56:32.784   12 Jun 2027 07:56:50.099            17.315          8657.500
       395   12 Jun 2027 07:58:02.926   12 Jun 2027 07:58:09.721             6.795          3397.500
       396   12 Jun 2027 07:59:09.842   12 Jun 2027 07:59:13.265             3.423          1711.500
       397   12 Jun 2027 07:59:45.729   12 Jun 2027 07:59:57.665            11.936          5968.000
       398   12 Jun 2027 09:34:39.898   12 Jun 2027 09:34:41.859             1.961           980.500
       399   12 Jun 2027 09:35:04.067   12 Jun 2027 09:35:12.738             8.671          4335.500
       400   12 Jun 2027 09:35:43.595   12 Jun 2027 09:35:50.258             6.663          3331.500
       401   13 Jun 2027 03:18:45.786   13 Jun 2027 03:18:52.907             7.121          3560.500
       402   13 Jun 2027 03:19:25.195   13 Jun 2027 03:19:29.477             4.282          2141.000
       403   13 Jun 2027 03:19:35.415   13 Jun 2027 03:19:36.348             0.933           466.500
       404   13 Jun 2027 03:20:17.604   13 Jun 2027 03:20:21.052             3.448          1724.000
       405   13 Jun 2027 03:20:29.674   13 Jun 2027 03:20:31.518             1.844           922.000
       406   13 Jun 2027 03:21:00.664   13 Jun 2027 03:21:06.975             6.311          3155.500
       407   13 Jun 2027 03:21:42.457   13 Jun 2027 03:21:48.259             5.802          2901.000
       408   13 Jun 2027 03:22:25.472   13 Jun 2027 03:22:33.120             7.648          3824.000
       409   13 Jun 2027 03:23:46.687   13 Jun 2027 03:24:02.729            16.042          8021.000
       410   13 Jun 2027 03:25:33.910   13 Jun 2027 03:25:38.645             4.735          2367.500
       411   13 Jun 2027 04:54:55.602   13 Jun 2027 04:55:01.658             6.056          3028.000
       412   13 Jun 2027 04:56:05.006   13 Jun 2027 04:56:18.563            13.557          6778.500
       413   13 Jun 2027 04:57:00.912   13 Jun 2027 04:57:05.187             4.275          2137.500
       414   13 Jun 2027 04:58:29.404   13 Jun 2027 04:58:35.965             6.561          3280.500
       415   13 Jun 2027 04:59:14.613   13 Jun 2027 04:59:27.342            12.729          6364.500
       416   13 Jun 2027 05:00:04.015   13 Jun 2027 05:00:11.657             7.642          3821.000
       417   13 Jun 2027 05:01:08.768   13 Jun 2027 05:01:12.329             3.561          1780.500
       418   13 Jun 2027 06:32:38.704   13 Jun 2027 06:32:47.057             8.353          4176.500
       419   13 Jun 2027 06:33:41.500   13 Jun 2027 06:33:42.547             1.047           523.500
       420   13 Jun 2027 06:34:37.586   13 Jun 2027 06:34:50.640            13.054          6527.000
       421   13 Jun 2027 06:35:19.964   13 Jun 2027 06:35:20.650             0.686           343.000
       422   13 Jun 2027 06:35:54.855   13 Jun 2027 06:35:54.990             0.135            67.500
       423   13 Jun 2027 06:36:10.292   13 Jun 2027 06:36:16.456             6.164          3082.000
       424   13 Jun 2027 06:36:52.742   13 Jun 2027 06:36:53.452             0.710           355.000
       425   13 Jun 2027 08:08:43.820   13 Jun 2027 08:08:45.645             1.825           912.500
       426   13 Jun 2027 08:09:12.788   13 Jun 2027 08:09:21.862             9.074          4537.000
       427   13 Jun 2027 08:10:11.230   13 Jun 2027 08:10:18.485             7.255          3627.500
       428   13 Jun 2027 08:10:54.083   13 Jun 2027 08:10:59.854             5.771          2885.500
       429   13 Jun 2027 08:11:55.388   13 Jun 2027 08:12:13.805            18.417          9208.500
