uniorb/output/strategy_2/Camera/Camera_KinoSat_111007.txt

KinoSat_111007
-------------------------
    Access    *     Start Time (UTCG)     *     Stop Time (UTCG)  *   Duration (s) *   Data (Mbytes)
         1   01 Jun 2027 03:08:36.485   01 Jun 2027 03:09:19.636            43.151         21575.500
         2   01 Jun 2027 03:09:22.741   01 Jun 2027 03:09:22.741             0.000             0.000
         3   01 Jun 2027 03:20:16.843   01 Jun 2027 03:21:42.338            85.495         42747.500
         4   01 Jun 2027 04:42:33.129   01 Jun 2027 04:43:48.689            75.560         37780.000
         5   01 Jun 2027 04:44:29.698   01 Jun 2027 04:45:12.037            42.339         21169.500
         6   01 Jun 2027 04:45:35.310   01 Jun 2027 04:45:37.121             1.811           905.500
         7   01 Jun 2027 04:46:59.583   01 Jun 2027 04:47:04.276             4.693          2346.500
         8   01 Jun 2027 04:47:18.040   01 Jun 2027 04:47:18.315             0.275           137.500
         9   01 Jun 2027 04:47:21.044   01 Jun 2027 04:47:37.261            16.217          8108.500
        10   01 Jun 2027 06:17:46.141   01 Jun 2027 06:19:10.131            83.990         41995.000
        11   01 Jun 2027 06:19:41.445   01 Jun 2027 06:21:06.628            85.183         42591.500
        12   01 Jun 2027 06:22:47.962   01 Jun 2027 06:22:48.587             0.625           312.500
        13   01 Jun 2027 06:23:45.434   01 Jun 2027 06:23:57.053            11.619          5809.500
        14   01 Jun 2027 07:54:49.864   01 Jun 2027 07:57:32.391           162.527         81263.500
        15   01 Jun 2027 07:59:15.178   01 Jun 2027 07:59:24.178             9.000          4500.000
        16   01 Jun 2027 08:01:20.342   01 Jun 2027 08:01:58.432            38.090         19045.000
        17   01 Jun 2027 09:31:47.811   01 Jun 2027 09:33:04.569            76.758         38379.000
        18   01 Jun 2027 09:33:06.085   01 Jun 2027 09:34:11.268            65.183         32591.500
        19   01 Jun 2027 09:36:10.707   01 Jun 2027 09:36:33.332            22.625         11312.500
        20   01 Jun 2027 09:37:32.130   01 Jun 2027 09:37:35.512             3.382          1691.000
        21   01 Jun 2027 11:09:44.334   01 Jun 2027 11:11:07.685            83.351         41675.500
        22   01 Jun 2027 11:11:22.392   01 Jun 2027 11:11:40.727            18.335          9167.500
        23   01 Jun 2027 11:12:14.157   01 Jun 2027 11:12:32.316            18.159          9079.500
        24   01 Jun 2027 11:13:36.277   01 Jun 2027 11:13:37.524             1.247           623.500
        25   02 Jun 2027 03:19:58.247   02 Jun 2027 03:20:49.469            51.222         25611.000
        26   02 Jun 2027 03:22:12.481   02 Jun 2027 03:22:15.096             2.615          1307.500
        27   02 Jun 2027 03:32:14.226   02 Jun 2027 03:33:09.598            55.372         27686.000
        28   02 Jun 2027 04:54:13.037   02 Jun 2027 04:55:36.191            83.154         41577.000
        29   02 Jun 2027 04:56:20.020   02 Jun 2027 04:57:01.613            41.593         20796.500
        30   02 Jun 2027 04:57:07.721   02 Jun 2027 04:57:10.788             3.067          1533.500
        31   02 Jun 2027 04:57:40.391   02 Jun 2027 04:57:40.391             0.000             0.000
        32   02 Jun 2027 04:59:00.355   02 Jun 2027 04:59:07.728             7.373          3686.500
        33   02 Jun 2027 04:59:19.741   02 Jun 2027 04:59:22.677             2.936          1468.000
        34   02 Jun 2027 04:59:39.976   02 Jun 2027 04:59:39.976             0.000             0.000
        35   02 Jun 2027 06:29:13.217   02 Jun 2027 06:31:24.538           131.321         65660.500
        36   02 Jun 2027 06:32:21.287   02 Jun 2027 06:32:43.510            22.223         11111.500
        37   02 Jun 2027 06:33:13.483   02 Jun 2027 06:33:25.578            12.095          6047.500
        38   02 Jun 2027 06:34:32.329   02 Jun 2027 06:34:36.912             4.583          2291.500
        39   02 Jun 2027 06:34:51.662   02 Jun 2027 06:34:51.662             0.000             0.000
        40   02 Jun 2027 06:36:46.665   02 Jun 2027 06:36:56.094             9.429          4714.500
        41   02 Jun 2027 08:06:51.834   02 Jun 2027 08:08:44.026           112.192         56096.000
        42   02 Jun 2027 08:10:12.562   02 Jun 2027 08:10:17.020             4.458          2229.000
        43   02 Jun 2027 08:11:06.361   02 Jun 2027 08:11:45.065            38.704         18796.311
        44   02 Jun 2027 08:14:00.058   02 Jun 2027 08:14:10.053             9.995          4016.031
        45   02 Jun 2027 09:43:38.162   02 Jun 2027 09:44:04.095            25.933         10677.406
        46   02 Jun 2027 09:44:29.510   02 Jun 2027 09:44:31.906             2.396           744.375
        47   02 Jun 2027 09:44:51.772   02 Jun 2027 09:44:53.955             2.183           430.250
        48   02 Jun 2027 09:45:41.458   02 Jun 2027 09:45:46.470             5.012          1239.187
        49   02 Jun 2027 09:46:48.089   02 Jun 2027 09:46:52.556             4.467          1191.250
        50   02 Jun 2027 09:47:16.354   02 Jun 2027 09:47:19.037             2.683            69.000
        51   02 Jun 2027 09:47:21.486   02 Jun 2027 09:47:24.250             2.764            56.719
        52   02 Jun 2027 09:47:27.987   02 Jun 2027 09:47:31.241             3.254            90.812
        53   02 Jun 2027 09:47:44.515   02 Jun 2027 09:47:46.375             1.860           414.813
        54   02 Jun 2027 09:47:53.664   02 Jun 2027 09:47:58.960             5.296           221.875
        55   02 Jun 2027 09:48:43.028   02 Jun 2027 09:48:44.348             1.320           660.000
        56   02 Jun 2027 09:49:54.157   02 Jun 2027 09:49:58.165             4.008          1792.094
        57   02 Jun 2027 09:50:18.554   02 Jun 2027 09:50:20.932             2.378           637.156
        58   02 Jun 2027 11:21:43.454   02 Jun 2027 11:21:59.613            16.159          8079.500
        59   02 Jun 2027 11:22:13.899   02 Jun 2027 11:22:14.661             0.762           381.000
        60   02 Jun 2027 11:23:06.683   02 Jun 2027 11:23:10.673             3.990          1926.000
        61   02 Jun 2027 11:23:30.084   02 Jun 2027 11:23:32.277             2.193           243.250
        62   02 Jun 2027 11:23:39.399   02 Jun 2027 11:23:40.402             1.003           182.688
        63   02 Jun 2027 11:23:59.856   02 Jun 2027 11:24:05.794             5.938           547.594
        64   02 Jun 2027 11:24:13.024   02 Jun 2027 11:24:17.528             4.504           125.094
        65   02 Jun 2027 11:24:40.096   02 Jun 2027 11:24:44.297             4.201           705.250
        66   02 Jun 2027 11:24:50.935   02 Jun 2027 11:24:53.114             2.179           207.438
        67   02 Jun 2027 11:25:06.937   02 Jun 2027 11:25:08.564             1.627           270.500
        68   03 Jun 2027 03:32:05.594   03 Jun 2027 03:33:25.210            79.616         39808.000
        69   03 Jun 2027 03:33:59.629   03 Jun 2027 03:34:05.143             5.514          2757.000
        70   03 Jun 2027 03:44:37.928   03 Jun 2027 03:44:41.201             3.273          1636.500
        71   03 Jun 2027 05:05:54.693   03 Jun 2027 05:08:46.733           172.040         86020.000
        72   03 Jun 2027 05:09:02.787   03 Jun 2027 05:09:08.787             6.000          3000.000
        73   03 Jun 2027 05:10:55.708   03 Jun 2027 05:10:55.708             0.000             0.000
        74   03 Jun 2027 05:11:00.833   03 Jun 2027 05:11:12.555            11.722          5861.000
        75   03 Jun 2027 06:40:46.809   03 Jun 2027 06:41:10.337            23.528         11764.000
        76   03 Jun 2027 06:41:48.093   03 Jun 2027 06:42:11.004            22.911          9666.563
        77   03 Jun 2027 06:42:49.498   03 Jun 2027 06:42:52.122             2.624          1202.938
        78   03 Jun 2027 06:43:17.693   03 Jun 2027 06:43:23.382             5.689           649.125
        79   03 Jun 2027 06:44:14.103   03 Jun 2027 06:44:18.688             4.585          1180.156
        80   03 Jun 2027 06:44:38.377   03 Jun 2027 06:44:40.365             1.988           580.313
        81   03 Jun 2027 06:44:54.446   03 Jun 2027 06:44:54.446             0.000             0.000
        82   03 Jun 2027 06:45:18.617   03 Jun 2027 06:45:21.745             3.128           825.187
        83   03 Jun 2027 06:45:30.192   03 Jun 2027 06:45:30.342             0.150            75.000
        84   03 Jun 2027 06:46:09.331   03 Jun 2027 06:46:13.727             4.396          1303.313
        85   03 Jun 2027 06:46:54.642   03 Jun 2027 06:46:56.126             1.484           564.344
        86   03 Jun 2027 06:47:47.282   03 Jun 2027 06:47:51.470             4.188          1586.906
        87   03 Jun 2027 06:48:02.656   03 Jun 2027 06:48:05.679             3.023           349.562
        88   03 Jun 2027 06:48:27.638   03 Jun 2027 06:48:28.801             1.163           543.563
        89   03 Jun 2027 06:49:44.297   03 Jun 2027 06:49:48.735             4.438          1905.500
        90   03 Jun 2027 06:49:52.084   03 Jun 2027 06:49:53.035             0.951            16.500
        91   03 Jun 2027 06:50:11.127   03 Jun 2027 06:50:14.923             3.796           509.969
        92   03 Jun 2027 08:18:53.027   03 Jun 2027 08:19:16.256            23.229          9704.938
        93   03 Jun 2027 08:19:40.753   03 Jun 2027 08:19:47.644             6.891           466.969
        94   03 Jun 2027 08:21:02.376   03 Jun 2027 08:21:06.690             4.314           666.750
        95   03 Jun 2027 08:21:23.519   03 Jun 2027 08:21:24.096             0.577           146.563
        96   03 Jun 2027 08:23:06.299   03 Jun 2027 08:23:06.448             0.149            74.500
        97   03 Jun 2027 08:23:32.973   03 Jun 2027 08:23:39.567             6.594          1380.156
        98   03 Jun 2027 08:24:10.046   03 Jun 2027 08:24:16.317             6.271           771.406
        99   03 Jun 2027 08:24:27.013   03 Jun 2027 08:24:28.773             1.760           334.250
       100   03 Jun 2027 08:25:00.545   03 Jun 2027 08:25:11.377            10.832           507.437
       101   03 Jun 2027 08:25:59.183   03 Jun 2027 08:26:02.377             3.194          1400.906
       102   03 Jun 2027 09:55:47.942   03 Jun 2027 09:56:07.793            19.851          9925.500
       103   03 Jun 2027 09:57:23.181   03 Jun 2027 09:57:30.044             6.863          2439.844
       104   03 Jun 2027 09:58:12.380   03 Jun 2027 09:58:14.514             2.134           764.937
       105   03 Jun 2027 09:58:26.570   03 Jun 2027 09:58:28.781             2.211           376.750
       106   03 Jun 2027 09:59:08.965   03 Jun 2027 09:59:12.091             3.126           918.906
       107   03 Jun 2027 09:59:29.510   03 Jun 2027 09:59:30.171             0.661           171.219
       108   03 Jun 2027 09:59:36.760   03 Jun 2027 09:59:37.770             1.010           205.906
       109   03 Jun 2027 09:59:43.021   03 Jun 2027 09:59:49.118             6.097           164.094
       110   03 Jun 2027 10:00:46.031   03 Jun 2027 10:00:50.099             4.068          1778.531
       111   03 Jun 2027 10:01:41.306   03 Jun 2027 10:01:42.713             1.407           703.500
       112   03 Jun 2027 10:02:09.540   03 Jun 2027 10:02:12.420             2.880          1440.000
       113   03 Jun 2027 11:32:56.061   03 Jun 2027 11:33:16.956            20.895          6531.375
       114   03 Jun 2027 11:33:22.908   03 Jun 2027 11:33:23.222             0.314            47.031
       115   03 Jun 2027 11:34:16.901   03 Jun 2027 11:34:19.653             2.752          1376.000
       116   03 Jun 2027 11:34:46.756   03 Jun 2027 11:34:55.949             9.193          1090.594
       117   03 Jun 2027 11:36:00.680   03 Jun 2027 11:36:05.101             4.421          2022.844
       118   03 Jun 2027 11:36:07.646   03 Jun 2027 11:36:07.646             0.000             0.000
       119   03 Jun 2027 11:36:08.828   03 Jun 2027 11:36:09.663             0.835           116.469
       120   03 Jun 2027 11:37:25.550   03 Jun 2027 11:37:30.452             4.902          2273.188
       121   04 Jun 2027 03:44:01.384   04 Jun 2027 03:44:44.277            42.893         21446.500
       122   04 Jun 2027 03:44:51.971   04 Jun 2027 03:45:21.436            29.465         14732.500
       123   04 Jun 2027 03:45:58.081   04 Jun 2027 03:46:05.918             7.837          3918.500
       124   04 Jun 2027 05:20:14.991   04 Jun 2027 05:23:22.961           187.970         93985.000
       125   04 Jun 2027 06:53:47.754   04 Jun 2027 06:54:40.952            53.198         26557.312
       126   04 Jun 2027 06:55:08.400   04 Jun 2027 06:55:10.183             1.783           575.281
       127   04 Jun 2027 06:56:11.723   04 Jun 2027 06:56:14.948             3.225          1283.219
       128   04 Jun 2027 06:56:30.876   04 Jun 2027 06:56:35.233             4.357           497.750
       129   04 Jun 2027 06:57:43.967   04 Jun 2027 06:57:49.578             5.611          2147.938
       130   04 Jun 2027 06:59:18.514   04 Jun 2027 06:59:24.597             6.083          2411.812
       131   04 Jun 2027 07:00:01.590   04 Jun 2027 07:00:01.590             0.000             0.000
       132   04 Jun 2027 07:00:39.513   04 Jun 2027 07:00:42.204             2.691          1345.500
       133   04 Jun 2027 07:00:44.664   04 Jun 2027 07:00:44.664             0.000             0.000
       134   04 Jun 2027 07:01:19.119   04 Jun 2027 07:01:24.159             5.040          1873.000
       135   04 Jun 2027 07:01:25.957   04 Jun 2027 07:01:27.993             2.036            56.187
       136   04 Jun 2027 07:02:03.409   04 Jun 2027 07:02:03.828             0.419           209.500
       137   04 Jun 2027 07:02:20.032   04 Jun 2027 07:02:20.032             0.000             0.000
       138   04 Jun 2027 08:31:20.180   04 Jun 2027 08:31:39.355            19.175          8756.906
       139   04 Jun 2027 08:33:21.783   04 Jun 2027 08:33:24.590             2.807          1136.437
       140   04 Jun 2027 08:34:55.160   04 Jun 2027 08:35:00.079             4.919          2364.031
       141   04 Jun 2027 08:35:39.347   04 Jun 2027 08:35:40.759             1.412           706.000
       142   04 Jun 2027 08:35:56.968   04 Jun 2027 08:35:56.968             0.000             0.000
       143   04 Jun 2027 08:36:08.542   04 Jun 2027 08:36:11.227             2.685          1027.344
       144   04 Jun 2027 08:36:41.453   04 Jun 2027 08:36:41.688             0.235           117.500
       145   04 Jun 2027 08:37:43.633   04 Jun 2027 08:37:49.966             6.333          2762.843
       146   04 Jun 2027 10:08:15.487   04 Jun 2027 10:08:28.447            12.960          6480.000
       147   04 Jun 2027 10:08:36.610   04 Jun 2027 10:08:41.113             4.503          1432.750
       148   04 Jun 2027 10:09:51.058   04 Jun 2027 10:09:53.732             2.674           269.281
       149   04 Jun 2027 10:10:01.232   04 Jun 2027 10:10:06.635             5.403            34.156
       150   04 Jun 2027 10:11:17.942   04 Jun 2027 10:11:22.240             4.298          2065.813
       151   04 Jun 2027 10:11:39.892   04 Jun 2027 10:11:43.623             3.731           523.656
       152   04 Jun 2027 10:12:03.821   04 Jun 2027 10:12:05.672             1.851           559.281
       153   04 Jun 2027 10:12:21.730   04 Jun 2027 10:12:24.629             2.899           359.875
       154   04 Jun 2027 10:12:59.365   04 Jun 2027 10:13:01.231             1.866           770.000
       155   04 Jun 2027 10:13:10.578   04 Jun 2027 10:13:11.303             0.725           292.094
       156   04 Jun 2027 10:14:00.258   04 Jun 2027 10:14:06.144             5.886          1529.844
       157   04 Jun 2027 11:45:09.603   04 Jun 2027 11:45:25.124            15.521          7038.000
       158   04 Jun 2027 11:45:43.323   04 Jun 2027 11:45:46.118             2.795           531.938
       159   04 Jun 2027 11:46:28.479   04 Jun 2027 11:46:31.312             2.833          1323.781
       160   04 Jun 2027 11:47:31.911   04 Jun 2027 11:47:35.744             3.833          1893.719
       161   04 Jun 2027 11:48:39.681   04 Jun 2027 11:48:50.577            10.896          1640.844
       162   04 Jun 2027 11:49:20.028   04 Jun 2027 11:49:25.376             5.348           333.969
       163   04 Jun 2027 11:49:37.943   04 Jun 2027 11:49:43.874             5.931           188.219
       164   05 Jun 2027 03:55:52.533   05 Jun 2027 03:56:59.843            67.310         33655.000
       165   05 Jun 2027 03:57:06.847   05 Jun 2027 03:57:19.511            12.664          6332.000
       166   05 Jun 2027 03:57:39.176   05 Jun 2027 03:57:58.696            19.520          9760.000
       167   05 Jun 2027 05:32:19.706   05 Jun 2027 05:34:26.876           127.170         63585.000
       168   05 Jun 2027 05:34:32.697   05 Jun 2027 05:35:14.732            42.035         21017.500
       169   05 Jun 2027 05:35:44.381   05 Jun 2027 05:35:55.415            11.034          5517.000
       170   05 Jun 2027 07:04:27.402   05 Jun 2027 07:04:38.431            11.029          5514.500
       171   05 Jun 2027 07:06:26.489   05 Jun 2027 07:07:02.539            36.050         15850.625
       172   05 Jun 2027 07:07:53.317   05 Jun 2027 07:07:57.333             4.016          1307.656
       173   05 Jun 2027 07:09:31.336   05 Jun 2027 07:09:37.707             6.371          2937.594
       174   05 Jun 2027 07:10:18.576   05 Jun 2027 07:10:20.844             2.268           925.719
       175   05 Jun 2027 07:10:56.058   05 Jun 2027 07:10:59.121             3.063           780.813
       176   05 Jun 2027 07:11:42.500   05 Jun 2027 07:11:42.500             0.000             0.000
       177   05 Jun 2027 07:12:40.329   05 Jun 2027 07:12:48.320             7.991          3128.656
       178   05 Jun 2027 07:13:25.473   05 Jun 2027 07:13:29.491             4.018           956.781
       179   05 Jun 2027 07:14:07.051   05 Jun 2027 07:14:09.150             2.099           895.656
       180   05 Jun 2027 08:43:25.010   05 Jun 2027 08:43:42.257            17.247          7692.094
       181   05 Jun 2027 08:44:44.695   05 Jun 2027 08:44:47.494             2.799           919.500
       182   05 Jun 2027 08:45:41.441   05 Jun 2027 08:45:43.907             2.466           104.312
       183   05 Jun 2027 08:47:32.972   05 Jun 2027 08:47:36.274             3.302           882.719
       184   05 Jun 2027 08:47:39.315   05 Jun 2027 08:47:42.236             2.921            77.000
       185   05 Jun 2027 08:48:18.187   05 Jun 2027 08:48:20.957             2.770          1049.250
       186   05 Jun 2027 08:49:12.061   05 Jun 2027 08:49:16.065             4.004          1559.656
       187   05 Jun 2027 08:49:48.360   05 Jun 2027 08:49:52.094             3.734           971.781
       188   05 Jun 2027 10:20:53.089   05 Jun 2027 10:21:11.882            18.793          8832.812
       189   05 Jun 2027 10:22:12.045   05 Jun 2027 10:22:13.615             1.570           387.375
       190   05 Jun 2027 10:23:12.068   05 Jun 2027 10:23:13.870             1.802           901.000
       191   05 Jun 2027 10:23:17.084   05 Jun 2027 10:23:18.719             1.635           644.344
       192   05 Jun 2027 10:23:32.991   05 Jun 2027 10:23:35.774             2.783           446.000
       193   05 Jun 2027 10:23:37.072   05 Jun 2027 10:23:38.321             1.249            40.563
       194   05 Jun 2027 10:24:22.867   05 Jun 2027 10:24:25.530             2.663          1236.156
       195   05 Jun 2027 10:24:40.156   05 Jun 2027 10:24:41.098             0.942           457.063
       196   05 Jun 2027 10:25:15.023   05 Jun 2027 10:25:18.522             3.499          1060.156
       197   05 Jun 2027 10:25:20.491   05 Jun 2027 10:25:22.329             1.838            61.531
       198   05 Jun 2027 10:25:25.468   05 Jun 2027 10:25:25.682             0.214            98.094
       199   05 Jun 2027 10:25:32.056   05 Jun 2027 10:25:32.391             0.335           167.500
       200   05 Jun 2027 11:57:12.981   05 Jun 2027 11:57:29.504            16.523          8185.375
       201   05 Jun 2027 11:57:50.792   05 Jun 2027 11:57:54.098             3.306           406.844
       202   05 Jun 2027 11:58:37.415   05 Jun 2027 11:58:43.267             5.852          1286.406
       203   05 Jun 2027 11:58:58.836   05 Jun 2027 11:58:58.836             0.000             0.000
       204   05 Jun 2027 11:59:02.294   05 Jun 2027 11:59:04.575             2.281           362.656
       205   06 Jun 2027 04:08:00.703   06 Jun 2027 04:09:16.281            75.578         37789.000
       206   06 Jun 2027 04:09:23.849   06 Jun 2027 04:09:27.603             3.754          1877.000
       207   06 Jun 2027 04:09:54.621   06 Jun 2027 04:09:58.026             3.405          1702.500
       208   06 Jun 2027 04:10:45.618   06 Jun 2027 04:10:45.618             0.000             0.000
       209   06 Jun 2027 05:44:29.490   06 Jun 2027 05:47:28.807           179.317         89658.500
       210   06 Jun 2027 07:19:40.479   06 Jun 2027 07:20:34.790            54.311         27026.094
       211   06 Jun 2027 07:20:57.317   06 Jun 2027 07:20:59.533             2.216           516.562
       212   06 Jun 2027 07:21:21.329   06 Jun 2027 07:21:21.329             0.000             0.000
       213   06 Jun 2027 07:21:37.332   06 Jun 2027 07:21:40.608             3.276          1025.875
       214   06 Jun 2027 07:21:49.074   06 Jun 2027 07:21:49.655             0.581           264.562
       215   06 Jun 2027 07:21:58.881   06 Jun 2027 07:22:05.096             6.215           258.844
       216   06 Jun 2027 07:22:40.264   06 Jun 2027 07:22:44.681             4.417           282.437
       217   06 Jun 2027 07:23:14.804   06 Jun 2027 07:23:16.830             2.026           519.375
       218   06 Jun 2027 07:23:25.249   06 Jun 2027 07:23:29.138             3.889           263.094
       219   06 Jun 2027 07:24:40.685   06 Jun 2027 07:24:48.517             7.832          2235.844
       220   06 Jun 2027 07:25:40.024   06 Jun 2027 07:25:40.024             0.000             0.000
       221   06 Jun 2027 07:25:46.581   06 Jun 2027 07:25:53.199             6.618          1553.187
       222   06 Jun 2027 07:26:09.175   06 Jun 2027 07:26:12.670             3.495           499.250
       223   06 Jun 2027 08:55:59.472   06 Jun 2027 08:56:17.006            17.534          8392.531
       224   06 Jun 2027 08:56:42.884   06 Jun 2027 08:56:44.120             1.236           612.531
       225   06 Jun 2027 08:57:47.346   06 Jun 2027 08:57:56.166             8.820          1925.594
       226   06 Jun 2027 08:58:22.306   06 Jun 2027 08:58:25.546             3.240           804.250
       227   06 Jun 2027 08:58:28.192   06 Jun 2027 08:58:31.276             3.084            77.719
       228   06 Jun 2027 08:58:50.822   06 Jun 2027 08:58:54.829             4.007           610.813
       229   06 Jun 2027 08:59:29.023   06 Jun 2027 08:59:31.988             2.965           653.625
       230   06 Jun 2027 09:00:09.506   06 Jun 2027 09:00:09.506             0.000             0.000
       231   06 Jun 2027 09:00:16.639   06 Jun 2027 09:00:20.087             3.448          1395.344
       232   06 Jun 2027 09:00:32.652   06 Jun 2027 09:00:37.894             5.242            92.375
       233   06 Jun 2027 10:33:22.821   06 Jun 2027 10:33:39.294            16.473          7882.906
       234   06 Jun 2027 10:33:59.510   06 Jun 2027 10:34:02.250             2.740           631.750
       235   06 Jun 2027 10:34:08.027   06 Jun 2027 10:34:15.367             7.340           133.375
       236   06 Jun 2027 10:34:22.547   06 Jun 2027 10:34:24.400             1.853           224.375
       237   06 Jun 2027 10:34:53.555   06 Jun 2027 10:34:56.110             2.555           821.219
       238   06 Jun 2027 10:35:01.896   06 Jun 2027 10:35:03.833             1.937           180.813
       239   06 Jun 2027 10:35:54.537   06 Jun 2027 10:35:59.928             5.391          1407.344
       240   06 Jun 2027 10:36:46.579   06 Jun 2027 10:36:50.620             4.041          1457.844
       241   06 Jun 2027 10:37:27.621   06 Jun 2027 10:37:30.586             2.965          1156.281
       242   06 Jun 2027 10:37:46.902   06 Jun 2027 10:37:49.660             2.758           319.031
       243   07 Jun 2027 03:00:00.000   07 Jun 2027 03:00:06.822             6.822          3411.000
       244   07 Jun 2027 04:20:43.137   07 Jun 2027 04:22:48.432           125.295         62647.500
       245   07 Jun 2027 05:56:27.633   07 Jun 2027 05:58:09.038           101.405         50702.500
       246   07 Jun 2027 05:58:32.660   07 Jun 2027 05:59:15.897            43.237         21618.500
       247   07 Jun 2027 05:59:36.732   07 Jun 2027 05:59:58.142            21.410         10705.000
       248   07 Jun 2027 07:31:32.662   07 Jun 2027 07:31:56.077            23.415         10209.156
       249   07 Jun 2027 07:32:58.329   07 Jun 2027 07:33:05.993             7.664          1893.000
       250   07 Jun 2027 07:33:07.844   07 Jun 2027 07:33:09.546             1.702            57.844
       251   07 Jun 2027 07:34:13.495   07 Jun 2027 07:34:16.791             3.296           831.750
       252   07 Jun 2027 07:34:27.463   07 Jun 2027 07:34:27.503             0.040            20.000
       253   07 Jun 2027 07:35:05.059   07 Jun 2027 07:35:08.093             3.034          1341.656
       254   07 Jun 2027 07:36:40.506   07 Jun 2027 07:36:48.367             7.861          2183.969
       255   07 Jun 2027 07:37:07.154   07 Jun 2027 07:37:10.890             3.736           172.156
       256   07 Jun 2027 07:38:20.311   07 Jun 2027 07:38:24.004             3.693          1730.500
       257   07 Jun 2027 09:07:37.556   07 Jun 2027 09:07:55.364            17.808          7748.375
       258   07 Jun 2027 09:08:54.474   07 Jun 2027 09:08:57.251             2.777           864.094
       259   07 Jun 2027 09:09:37.590   07 Jun 2027 09:09:40.361             2.771          1260.594
       260   07 Jun 2027 09:10:17.471   07 Jun 2027 09:10:18.761             1.290           261.531
       261   07 Jun 2027 09:10:43.546   07 Jun 2027 09:10:49.356             5.810           649.563
       262   07 Jun 2027 09:10:57.283   07 Jun 2027 09:10:58.759             1.476           204.563
       263   07 Jun 2027 09:11:16.526   07 Jun 2027 09:11:19.221             2.695           555.219
       264   07 Jun 2027 09:11:58.685   07 Jun 2027 09:12:01.418             2.733          1233.250
       265   07 Jun 2027 09:12:29.084   07 Jun 2027 09:12:31.440             2.356           625.156
       266   07 Jun 2027 10:45:35.507   07 Jun 2027 10:45:53.985            18.478          9086.344
       267   07 Jun 2027 10:46:13.006   07 Jun 2027 10:46:16.607             3.601           416.156
       268   07 Jun 2027 10:46:19.856   07 Jun 2027 10:46:31.914            12.058           101.531
       269   07 Jun 2027 10:47:00.639   07 Jun 2027 10:47:05.617             4.978           779.500
       270   07 Jun 2027 10:47:33.927   07 Jun 2027 10:47:36.448             2.521           884.688
       271   07 Jun 2027 10:47:39.125   07 Jun 2027 10:47:39.659             0.534            83.656
       272   07 Jun 2027 10:47:57.469   07 Jun 2027 10:48:00.546             3.077           556.563
       273   07 Jun 2027 10:48:01.036   07 Jun 2027 10:48:01.962             0.926            15.312
       274   07 Jun 2027 10:48:02.504   07 Jun 2027 10:48:07.852             5.348            16.938
       275   07 Jun 2027 10:48:34.886   07 Jun 2027 10:48:38.429             3.543           507.969
       276   07 Jun 2027 10:49:38.329   07 Jun 2027 10:49:42.240             3.911          1871.875
       277   07 Jun 2027 10:49:46.321   07 Jun 2027 10:49:46.530             0.209           104.500
       278   08 Jun 2027 03:08:31.488   08 Jun 2027 03:10:53.950           142.462         71231.000
       279   08 Jun 2027 03:11:16.994   08 Jun 2027 03:11:18.929             1.935           967.500
       280   08 Jun 2027 03:11:46.042   08 Jun 2027 03:11:59.032            12.990          6495.000
       281   08 Jun 2027 04:31:49.784   08 Jun 2027 04:32:44.716            54.932         27466.000
       282   08 Jun 2027 04:35:14.046   08 Jun 2027 04:35:26.285            12.239          6119.500
       283   08 Jun 2027 06:08:12.225   08 Jun 2027 06:08:48.529            36.304         18152.000
       284   08 Jun 2027 06:09:50.875   08 Jun 2027 06:10:45.522            54.647         27323.500
       285   08 Jun 2027 06:12:05.885   08 Jun 2027 06:12:17.759            11.874          5871.188
       286   08 Jun 2027 07:42:57.726   08 Jun 2027 07:43:16.506            18.780          4895.750
       287   08 Jun 2027 07:43:37.406   08 Jun 2027 07:43:41.175             3.769           546.750
       288   08 Jun 2027 07:47:36.322   08 Jun 2027 07:47:43.627             7.305          3538.094
       289   08 Jun 2027 07:47:46.266   08 Jun 2027 07:47:52.337             6.071            82.469
       290   08 Jun 2027 07:48:32.235   08 Jun 2027 07:48:33.580             1.345           160.125
       291   08 Jun 2027 07:48:57.727   08 Jun 2027 07:49:00.750             3.023           581.500
       292   08 Jun 2027 07:49:06.535   08 Jun 2027 07:49:12.687             6.152           173.500
       293   08 Jun 2027 07:49:44.399   08 Jun 2027 07:49:49.932             5.533           991.000
       294   08 Jun 2027 07:50:25.185   08 Jun 2027 07:50:28.055             2.870           629.312
       295   08 Jun 2027 09:19:47.124   08 Jun 2027 09:20:08.592            21.468          9852.406
       296   08 Jun 2027 09:20:50.066   08 Jun 2027 09:20:52.042             1.976           811.812
       297   08 Jun 2027 09:21:47.965   08 Jun 2027 09:21:50.200             2.235           618.375
       298   08 Jun 2027 09:22:08.045   08 Jun 2027 09:22:11.272             3.227           557.656
       299   08 Jun 2027 09:22:33.639   08 Jun 2027 09:22:40.517             6.878           433.969
       300   08 Jun 2027 09:22:50.365   08 Jun 2027 09:22:51.589             1.224           307.750
       301   08 Jun 2027 09:23:09.303   08 Jun 2027 09:23:09.849             0.546           273.000
       302   08 Jun 2027 09:23:16.099   08 Jun 2027 09:23:18.102             2.003           430.812
       303   08 Jun 2027 09:23:48.593   08 Jun 2027 09:23:51.880             3.287           803.844
       304   08 Jun 2027 09:24:12.332   08 Jun 2027 09:24:15.016             2.684           639.125
       305   08 Jun 2027 09:24:33.702   08 Jun 2027 09:24:35.412             1.710           143.687
       306   08 Jun 2027 09:24:53.524   08 Jun 2027 09:24:55.761             2.237           156.469
       307   08 Jun 2027 09:24:58.841   08 Jun 2027 09:24:58.841             0.000             0.000
       308   08 Jun 2027 09:25:21.590   08 Jun 2027 09:25:24.190             2.600           807.156
       309   08 Jun 2027 10:57:57.753   08 Jun 2027 10:58:11.987            14.234          7114.625
       310   08 Jun 2027 10:58:38.805   08 Jun 2027 10:58:44.185             5.380           838.063
       311   08 Jun 2027 10:59:03.917   08 Jun 2027 10:59:06.248             2.331           447.281
       312   08 Jun 2027 10:59:38.947   08 Jun 2027 10:59:39.803             0.856           428.000
       313   08 Jun 2027 10:59:44.789   08 Jun 2027 10:59:45.174             0.385           158.375
       314   08 Jun 2027 11:00:00.451   08 Jun 2027 11:00:02.513             2.062           337.812
       315   08 Jun 2027 11:00:24.105   08 Jun 2027 11:00:25.513             1.408           674.750
       316   08 Jun 2027 11:00:29.334   08 Jun 2027 11:00:33.632             4.298           118.781
       317   08 Jun 2027 11:00:42.195   08 Jun 2027 11:00:43.116             0.921           215.469
       318   08 Jun 2027 11:01:40.114   08 Jun 2027 11:01:43.264             3.150          1521.719
       319   09 Jun 2027 03:08:51.293   09 Jun 2027 03:09:35.936            44.643         22321.500
       320   09 Jun 2027 03:20:32.122   09 Jun 2027 03:21:56.487            84.365         42182.500
       321   09 Jun 2027 04:42:47.848   09 Jun 2027 04:44:03.510            75.662         37831.000
       322   09 Jun 2027 04:44:44.844   09 Jun 2027 04:45:27.004            42.160         21080.000
       323   09 Jun 2027 04:47:15.037   09 Jun 2027 04:47:19.360             4.323          2161.500
       324   09 Jun 2027 04:47:42.178   09 Jun 2027 04:47:53.203            11.025          5512.500
       325   09 Jun 2027 06:18:00.278   09 Jun 2027 06:19:00.315            60.037         30018.500
       326   09 Jun 2027 06:19:16.205   09 Jun 2027 06:19:19.709             3.504           760.188
       327   09 Jun 2027 06:20:09.854   09 Jun 2027 06:20:11.740             1.886           896.219
       328   09 Jun 2027 06:21:22.923   09 Jun 2027 06:21:25.571             2.648          1324.000
       329   09 Jun 2027 06:22:55.791   09 Jun 2027 06:23:04.408             8.617          3407.750
       330   09 Jun 2027 06:23:31.505   09 Jun 2027 06:23:35.867             4.362           831.594
       331   09 Jun 2027 06:23:46.111   09 Jun 2027 06:23:53.973             7.862           243.000
       332   09 Jun 2027 06:24:26.592   09 Jun 2027 06:24:28.926             2.334           856.062
       333   09 Jun 2027 06:24:47.776   09 Jun 2027 06:24:50.776             3.000           564.375
       334   09 Jun 2027 07:55:04.800   09 Jun 2027 07:55:14.348             9.548          4774.000
       335   09 Jun 2027 07:55:18.329   09 Jun 2027 07:55:19.635             1.306           613.531
       336   09 Jun 2027 07:55:44.550   09 Jun 2027 07:55:46.056             1.506           417.531
       337   09 Jun 2027 07:56:28.997   09 Jun 2027 07:56:32.834             3.837          1341.906
       338   09 Jun 2027 07:57:06.786   09 Jun 2027 07:57:08.614             1.828           347.594
       339   09 Jun 2027 07:58:08.459   09 Jun 2027 07:58:09.441             0.982           491.000
       340   09 Jun 2027 07:58:15.393   09 Jun 2027 07:58:21.654             6.261          1387.188
       341   09 Jun 2027 07:59:08.919   09 Jun 2027 07:59:12.753             3.834          1477.031
       342   09 Jun 2027 08:00:21.461   09 Jun 2027 08:00:27.666             6.205          1517.438
       343   09 Jun 2027 08:00:37.311   09 Jun 2027 08:00:37.311             0.000             0.000
       344   09 Jun 2027 08:01:01.993   09 Jun 2027 08:01:05.826             3.833          1025.594
       345   09 Jun 2027 08:02:27.475   09 Jun 2027 08:02:30.538             3.063          1531.500
       346   09 Jun 2027 09:32:02.874   09 Jun 2027 09:32:22.596            19.722          9415.719
       347   09 Jun 2027 09:32:41.565   09 Jun 2027 09:32:46.198             4.633           393.812
       348   09 Jun 2027 09:33:26.628   09 Jun 2027 09:33:30.095             3.467           323.938
       349   09 Jun 2027 09:33:51.006   09 Jun 2027 09:33:51.668             0.662           283.406
       350   09 Jun 2027 09:34:31.411   09 Jun 2027 09:34:33.367             1.956           750.406
       351   09 Jun 2027 09:35:46.006   09 Jun 2027 09:35:53.260             7.254          2267.250
       352   09 Jun 2027 09:36:15.410   09 Jun 2027 09:36:23.705             8.295           543.500
       353   09 Jun 2027 09:36:48.435   09 Jun 2027 09:36:52.450             4.015           710.438
       354   09 Jun 2027 09:37:48.404   09 Jun 2027 09:37:51.958             3.554          1722.375
       355   09 Jun 2027 11:09:59.198   09 Jun 2027 11:10:15.088            15.890          7927.750
       356   09 Jun 2027 11:10:43.809   09 Jun 2027 11:10:49.723             5.914           897.531
       357   09 Jun 2027 11:11:59.538   09 Jun 2027 11:12:03.368             3.830          1456.875
       358   09 Jun 2027 11:12:24.150   09 Jun 2027 11:12:28.163             4.013           649.437
       359   09 Jun 2027 11:12:47.861   09 Jun 2027 11:12:51.128             3.267           615.563
       360   09 Jun 2027 11:13:19.244   09 Jun 2027 11:13:19.244             0.000             0.000
       361   09 Jun 2027 11:13:40.586   09 Jun 2027 11:13:45.686             5.100          1449.438
       362   10 Jun 2027 03:20:14.194   10 Jun 2027 03:20:58.123            43.929         21964.500
       363   10 Jun 2027 03:20:58.715   10 Jun 2027 03:21:04.398             5.683          2841.500
       364   10 Jun 2027 03:21:06.999   10 Jun 2027 03:21:36.249            29.250         14625.000
       365   10 Jun 2027 03:21:39.055   10 Jun 2027 03:21:39.055             0.000             0.000
       366   10 Jun 2027 03:32:29.341   10 Jun 2027 03:33:24.513            55.172         27586.000
       367   10 Jun 2027 04:54:29.109   10 Jun 2027 04:55:50.516            81.407         40703.500
       368   10 Jun 2027 04:56:35.006   10 Jun 2027 04:57:00.150            25.144         12572.000
       369   10 Jun 2027 04:57:13.453   10 Jun 2027 04:57:22.523             9.070          4535.000
       370   10 Jun 2027 04:58:04.901   10 Jun 2027 04:58:04.901             0.000             0.000
       371   10 Jun 2027 04:58:24.119   10 Jun 2027 04:58:54.723            30.604         15302.000
       372   10 Jun 2027 06:29:28.072   10 Jun 2027 06:30:04.808            36.736         16408.000
       373   10 Jun 2027 06:31:04.317   10 Jun 2027 06:31:07.826             3.509           785.188
       374   10 Jun 2027 06:31:47.472   10 Jun 2027 06:31:50.309             2.837          1154.875
       375   10 Jun 2027 06:32:48.632   10 Jun 2027 06:32:54.208             5.576          1822.594
       376   10 Jun 2027 06:33:06.381   10 Jun 2027 06:33:09.206             2.825           317.250
       377   10 Jun 2027 06:33:18.895   10 Jun 2027 06:33:18.895             0.000             0.000
       378   10 Jun 2027 06:33:33.487   10 Jun 2027 06:33:36.448             2.961           758.781
       379   10 Jun 2027 06:34:47.548   10 Jun 2027 06:34:51.008             3.460          1730.000
       380   10 Jun 2027 06:35:21.078   10 Jun 2027 06:35:24.473             3.395          1213.281
       381   10 Jun 2027 06:35:33.001   10 Jun 2027 06:35:34.689             1.688           185.406
       382   10 Jun 2027 06:36:07.271   10 Jun 2027 06:36:08.870             1.599           133.406
       383   10 Jun 2027 06:36:40.113   10 Jun 2027 06:36:42.124             2.011           698.875
       384   10 Jun 2027 06:36:52.812   10 Jun 2027 06:36:54.224             1.412           140.094
       385   10 Jun 2027 06:37:57.286   10 Jun 2027 06:38:02.033             4.747          1892.406
       386   10 Jun 2027 08:07:06.865   10 Jun 2027 08:07:22.148            15.283          7440.094
       387   10 Jun 2027 08:07:52.301   10 Jun 2027 08:07:59.715             7.414           866.281
       388   10 Jun 2027 08:08:34.405   10 Jun 2027 08:08:40.950             6.545          1084.062
       389   10 Jun 2027 08:09:17.389   10 Jun 2027 08:09:19.086             1.697           591.750
       390   10 Jun 2027 08:09:56.261   10 Jun 2027 08:09:58.368             2.107           952.781
       391   10 Jun 2027 08:10:36.285   10 Jun 2027 08:10:38.883             2.598          1184.906
       392   10 Jun 2027 08:11:50.568   10 Jun 2027 08:11:53.207             2.639          1256.156
       393   10 Jun 2027 08:13:00.759   10 Jun 2027 08:13:04.067             3.308          1649.375
       394   10 Jun 2027 08:13:13.881   10 Jun 2027 08:13:15.928             2.047            83.125
       395   10 Jun 2027 08:13:37.390   10 Jun 2027 08:13:37.390             0.000             0.000
       396   10 Jun 2027 08:13:59.658   10 Jun 2027 08:14:02.411             2.753          1272.938
       397   10 Jun 2027 08:14:15.305   10 Jun 2027 08:14:17.387             2.082            92.500
       398   10 Jun 2027 09:43:53.480   10 Jun 2027 09:44:14.197            20.717         10161.094
       399   10 Jun 2027 09:44:46.014   10 Jun 2027 09:44:49.709             3.695           798.406
       400   10 Jun 2027 09:45:06.949   10 Jun 2027 09:45:13.216             6.267           446.781
       401   10 Jun 2027 09:45:17.184   10 Jun 2027 09:45:17.331             0.147            54.906
       402   10 Jun 2027 09:46:32.236   10 Jun 2027 09:46:36.934             4.698          2300.719
       403   10 Jun 2027 09:47:33.691   10 Jun 2027 09:47:36.563             2.872          1436.000
       404   10 Jun 2027 09:48:05.563   10 Jun 2027 09:48:08.040             2.477          1238.500
       405   10 Jun 2027 09:48:59.088   10 Jun 2027 09:49:03.415             4.327          1600.656
       406   10 Jun 2027 09:49:26.197   10 Jun 2027 09:49:27.924             1.727           584.219
       407   10 Jun 2027 09:50:21.525   10 Jun 2027 09:50:24.686             3.161          1317.906
       408   10 Jun 2027 11:21:56.535   10 Jun 2027 11:22:14.985            18.450          6304.937
       409   10 Jun 2027 11:23:21.944   10 Jun 2027 11:23:25.336             3.392          1641.344
       410   10 Jun 2027 11:23:46.711   10 Jun 2027 11:23:48.290             1.579           287.500
       411   10 Jun 2027 11:23:54.505   10 Jun 2027 11:23:56.368             1.863           194.219
       412   10 Jun 2027 11:24:17.058   10 Jun 2027 11:24:20.490             3.432           605.406
       413   10 Jun 2027 11:24:29.283   10 Jun 2027 11:24:32.402             3.119           167.531
       414   10 Jun 2027 11:24:54.814   10 Jun 2027 11:24:57.982             3.168           700.375
       415   10 Jun 2027 11:25:04.613   10 Jun 2027 11:25:05.407             0.794           177.156
       416   10 Jun 2027 11:25:16.721   10 Jun 2027 11:25:17.705             0.984           302.750
       417   10 Jun 2027 11:25:53.669   10 Jun 2027 11:26:01.283             7.614          1123.875
       418   10 Jun 2027 11:26:03.819   10 Jun 2027 11:26:04.588             0.769            27.094
       419   11 Jun 2027 03:32:20.770   11 Jun 2027 03:32:59.104            38.334         19167.000
       420   11 Jun 2027 03:33:26.719   11 Jun 2027 03:34:09.182            42.463         21231.500
       421   11 Jun 2027 03:34:10.668   11 Jun 2027 03:34:15.404             4.736          2368.000
       422   11 Jun 2027 03:44:53.867   11 Jun 2027 03:44:55.948             2.081          1040.500
       423   11 Jun 2027 05:06:09.257   11 Jun 2027 05:09:03.196           173.939         86969.500
       424   11 Jun 2027 05:09:32.771   11 Jun 2027 05:09:32.771             0.000             0.000
       425   11 Jun 2027 05:10:21.123   11 Jun 2027 05:10:21.123             0.000             0.000
       426   11 Jun 2027 05:10:36.534   11 Jun 2027 05:10:58.687            22.153         11076.500
       427   11 Jun 2027 05:11:04.076   11 Jun 2027 05:11:12.217             8.141          4070.500
       428   11 Jun 2027 06:41:01.877   11 Jun 2027 06:41:24.816            22.939         11469.500
       429   11 Jun 2027 06:42:03.463   11 Jun 2027 06:42:10.333             6.870          3435.000
       430   11 Jun 2027 06:42:25.338   11 Jun 2027 06:42:25.338             0.000             0.000
       431   11 Jun 2027 06:43:05.219   11 Jun 2027 06:43:11.449             6.230          2999.374
       432   11 Jun 2027 06:43:30.232   11 Jun 2027 06:43:33.552             3.320           586.969
       433   11 Jun 2027 06:44:31.687   11 Jun 2027 06:44:34.993             3.306          1205.656
       434   11 Jun 2027 06:45:15.242   11 Jun 2027 06:45:18.816             3.574           952.125
       435   11 Jun 2027 06:45:46.297   11 Jun 2027 06:45:50.313             4.016           725.500
       436   11 Jun 2027 06:46:51.989   11 Jun 2027 06:46:55.358             3.369          1517.844
       437   11 Jun 2027 06:47:10.686   11 Jun 2027 06:47:11.731             1.045           406.312
       438   11 Jun 2027 06:47:46.663   11 Jun 2027 06:47:48.485             1.822           911.000
       439   11 Jun 2027 06:47:55.621   11 Jun 2027 06:48:01.895             6.274           403.625
       440   11 Jun 2027 06:49:37.158   11 Jun 2027 06:49:48.991            11.833          2975.844
       441   11 Jun 2027 06:50:14.211   11 Jun 2027 06:50:18.347             4.136           705.406
       442   11 Jun 2027 06:50:30.431   11 Jun 2027 06:50:35.922             5.491           129.687
       443   11 Jun 2027 08:19:08.647   11 Jun 2027 08:19:22.094            13.447          6408.063
       444   11 Jun 2027 08:19:48.084   11 Jun 2027 08:19:55.304             7.220           769.219
       445   11 Jun 2027 08:20:57.216   11 Jun 2027 08:21:04.137             6.921          1847.000
       446   11 Jun 2027 08:22:19.082   11 Jun 2027 08:22:24.648             5.566          2061.406
       447   11 Jun 2027 08:23:22.143   11 Jun 2027 08:23:26.249             4.106          1796.719
       448   11 Jun 2027 08:23:48.450   11 Jun 2027 08:23:55.258             6.808           504.844
       449   11 Jun 2027 08:24:26.798   11 Jun 2027 08:24:32.085             5.287           751.031
       450   11 Jun 2027 08:24:41.024   11 Jun 2027 08:24:43.585             2.561           279.344
       451   11 Jun 2027 08:25:13.769   11 Jun 2027 08:25:14.779             1.010           458.438
       452   11 Jun 2027 08:25:28.991   11 Jun 2027 08:25:30.322             1.331           444.125
       453   11 Jun 2027 09:56:03.637   11 Jun 2027 09:56:23.422            19.785          9703.469
       454   11 Jun 2027 09:56:40.550   11 Jun 2027 09:56:44.757             4.207           439.406
       455   11 Jun 2027 09:56:51.668   11 Jun 2027 09:56:55.811             4.143           127.719
       456   11 Jun 2027 09:58:27.368   11 Jun 2027 09:58:29.096             1.728           713.781
       457   11 Jun 2027 09:58:55.197   11 Jun 2027 09:58:56.926             1.729           815.656
       458   11 Jun 2027 10:00:17.778   11 Jun 2027 10:00:22.493             4.715          2073.844
       459   11 Jun 2027 10:00:52.727   11 Jun 2027 10:00:54.606             1.879           886.063
       460   11 Jun 2027 10:01:58.927   11 Jun 2027 10:02:04.112             5.185          1911.437
       461   11 Jun 2027 10:02:21.358   11 Jun 2027 10:02:21.729             0.371           185.500
       462   11 Jun 2027 11:33:11.191   11 Jun 2027 11:33:31.637            20.446          6301.500
       463   11 Jun 2027 11:33:39.003   11 Jun 2027 11:33:39.645             0.642            47.375
       464   11 Jun 2027 11:34:32.507   11 Jun 2027 11:34:36.358             3.851          1651.938
       465   11 Jun 2027 11:35:03.937   11 Jun 2027 11:35:11.237             7.300           861.844
       466   11 Jun 2027 11:36:15.777   11 Jun 2027 11:36:20.028             4.251          2016.875
       467   11 Jun 2027 11:36:55.043   11 Jun 2027 11:36:58.180             3.137          1094.219
       468   11 Jun 2027 11:38:04.592   11 Jun 2027 11:38:05.107             0.515           257.500
       469   12 Jun 2027 03:44:15.959   12 Jun 2027 03:45:00.708            44.749         22374.500
       470   12 Jun 2027 03:45:06.698   12 Jun 2027 03:45:37.782            31.084         15542.000
       471   12 Jun 2027 03:45:59.915   12 Jun 2027 03:46:09.287             9.372          4686.000
       472   12 Jun 2027 03:46:20.644   12 Jun 2027 03:46:20.644             0.000             0.000
       473   12 Jun 2027 05:20:30.871   12 Jun 2027 05:23:36.049           185.178         92589.000
       474   12 Jun 2027 06:54:03.221   12 Jun 2027 06:54:47.566            44.345         21384.375
       475   12 Jun 2027 06:55:25.815   12 Jun 2027 06:55:28.129             2.314           628.875
       476   12 Jun 2027 06:56:25.257   12 Jun 2027 06:56:25.605             0.348           174.000
       477   12 Jun 2027 06:56:49.963   12 Jun 2027 06:56:51.656             1.693           837.375
       478   12 Jun 2027 06:57:03.555   12 Jun 2027 06:57:06.878             3.323           333.688
       479   12 Jun 2027 06:57:15.791   12 Jun 2027 06:57:15.791             0.000             0.000
       480   12 Jun 2027 06:57:38.435   12 Jun 2027 06:57:43.792             5.357           870.469
       481   12 Jun 2027 06:58:31.666   12 Jun 2027 06:58:32.863             1.197           598.500
       482   12 Jun 2027 06:59:03.743   12 Jun 2027 06:59:08.647             4.904          1756.625
       483   12 Jun 2027 06:59:27.971   12 Jun 2027 06:59:28.196             0.225           112.500
       484   12 Jun 2027 06:59:28.331   12 Jun 2027 06:59:30.480             2.149           310.437
       485   12 Jun 2027 06:59:50.168   12 Jun 2027 06:59:51.946             1.778           615.250
       486   12 Jun 2027 07:02:16.401   12 Jun 2027 07:02:25.802             9.401          4200.531
       487   12 Jun 2027 08:31:35.823   12 Jun 2027 08:31:52.843            17.020          7756.531
       488   12 Jun 2027 08:33:28.628   12 Jun 2027 08:33:31.459             2.831           980.656
       489   12 Jun 2027 08:33:56.912   12 Jun 2027 08:33:59.900             2.988           637.562
       490   12 Jun 2027 08:34:28.662   12 Jun 2027 08:34:29.404             0.742             2.000
       491   12 Jun 2027 08:34:41.240   12 Jun 2027 08:34:41.476             0.236            57.281
       492   12 Jun 2027 08:34:54.909   12 Jun 2027 08:34:55.414             0.505            44.719
       493   12 Jun 2027 08:35:26.419   12 Jun 2027 08:35:28.414             1.995           906.969
       494   12 Jun 2027 08:35:54.966   12 Jun 2027 08:35:55.503             0.537           155.219
       495   12 Jun 2027 08:36:47.455   12 Jun 2027 08:36:51.247             3.792          1619.656
       496   12 Jun 2027 08:37:08.481   12 Jun 2027 08:37:13.351             4.870           383.156
       497   12 Jun 2027 08:37:28.270   12 Jun 2027 08:37:28.482             0.212            65.906
       498   12 Jun 2027 10:08:30.509   12 Jun 2027 10:08:46.457            15.948          7079.000
       499   12 Jun 2027 10:08:52.188   12 Jun 2027 10:08:52.601             0.413           179.094
       500   12 Jun 2027 10:09:57.686   12 Jun 2027 10:10:00.044             2.358           620.469
       501   12 Jun 2027 10:11:33.298   12 Jun 2027 10:11:39.255             5.957          2077.656
       502   12 Jun 2027 10:12:28.500   12 Jun 2027 10:12:34.773             6.273          1045.156
       503   12 Jun 2027 10:13:04.943   12 Jun 2027 10:13:07.914             2.971           850.438
       504   12 Jun 2027 10:14:15.761   12 Jun 2027 10:14:20.900             5.139          1934.531
       505   12 Jun 2027 11:45:24.930   12 Jun 2027 11:45:41.669            16.739          6171.469
       506   12 Jun 2027 11:46:21.797   12 Jun 2027 11:46:24.991             3.194          1254.000
       507   12 Jun 2027 11:47:47.903   12 Jun 2027 11:47:53.265             5.362          1933.344
       508   12 Jun 2027 11:48:54.476   12 Jun 2027 11:48:57.909             3.433          1631.937
       509   13 Jun 2027 03:56:07.746   13 Jun 2027 03:57:28.738            80.992         40496.000
       510   13 Jun 2027 03:57:44.809   13 Jun 2027 03:57:55.184            10.375          5187.500
       511   13 Jun 2027 05:32:34.933   13 Jun 2027 05:34:40.852           125.919         62959.500
       512   13 Jun 2027 05:34:47.380   13 Jun 2027 05:35:29.378            41.998         20999.000
       513   13 Jun 2027 07:04:42.961   13 Jun 2027 07:04:53.354            10.393          5196.500
       514   13 Jun 2027 07:06:41.946   13 Jun 2027 07:07:28.877            46.931         23108.406
       515   13 Jun 2027 07:08:35.121   13 Jun 2027 07:08:37.661             2.540          1077.625
       516   13 Jun 2027 07:08:54.554   13 Jun 2027 07:08:54.554             0.000             0.000
       517   13 Jun 2027 07:09:12.280   13 Jun 2027 07:09:15.589             3.309          1081.844
       518   13 Jun 2027 07:09:44.762   13 Jun 2027 07:09:46.688             1.926           800.406
       519   13 Jun 2027 07:10:47.656   13 Jun 2027 07:10:49.222             1.566           783.000
       520   13 Jun 2027 07:11:11.249   13 Jun 2027 07:11:16.549             5.300           922.156
       521   13 Jun 2027 07:11:46.551   13 Jun 2027 07:11:46.551             0.000             0.000
       522   13 Jun 2027 07:11:56.898   13 Jun 2027 07:12:01.056             4.158          1238.312
       523   13 Jun 2027 07:12:39.423   13 Jun 2027 07:12:41.140             1.717           841.937
       524   13 Jun 2027 07:13:11.293   13 Jun 2027 07:13:14.256             2.963           843.500
       525   13 Jun 2027 07:13:54.649   13 Jun 2027 07:13:59.388             4.739          1262.281
       526   13 Jun 2027 07:14:07.611   13 Jun 2027 07:14:08.282             0.671            86.063
       527   13 Jun 2027 08:43:40.399   13 Jun 2027 08:43:58.271            17.872          6827.938
       528   13 Jun 2027 08:46:18.792   13 Jun 2027 08:46:24.710             5.918          1577.781
       529   13 Jun 2027 08:46:44.393   13 Jun 2027 08:46:46.251             1.858           131.406
       530   13 Jun 2027 08:48:30.658   13 Jun 2027 08:48:35.496             4.838          1500.875
       531   13 Jun 2027 08:48:35.500   13 Jun 2027 08:48:36.385             0.885             0.125
       532   13 Jun 2027 08:49:26.673   13 Jun 2027 08:49:32.582             5.909          1541.312
       533   13 Jun 2027 08:50:03.107   13 Jun 2027 08:50:05.870             2.763           953.906
       534   13 Jun 2027 10:21:11.427   13 Jun 2027 10:21:29.935            18.508          9197.281
       535   13 Jun 2027 10:22:06.132   13 Jun 2027 10:22:08.406             2.274           558.219
       536   13 Jun 2027 10:22:25.381   13 Jun 2027 10:22:26.955             1.574           306.875
       537   13 Jun 2027 10:23:27.523   13 Jun 2027 10:23:29.321             1.798           899.000
       538   13 Jun 2027 10:23:33.391   13 Jun 2027 10:23:40.002             6.611           606.406
       539   13 Jun 2027 10:23:48.756   13 Jun 2027 10:23:50.761             2.005           248.719
       540   13 Jun 2027 10:23:51.339   13 Jun 2027 10:23:55.791             4.452            18.062
       541   13 Jun 2027 10:24:38.050   13 Jun 2027 10:24:42.582             4.532          1237.094
       542   13 Jun 2027 10:25:01.210   13 Jun 2027 10:25:02.000             0.790           395.000
       543   13 Jun 2027 10:25:04.002   13 Jun 2027 10:25:09.060             5.058            79.094
       544   13 Jun 2027 10:25:23.329   13 Jun 2027 10:25:23.866             0.537           259.469
       545   13 Jun 2027 11:57:29.838   13 Jun 2027 11:57:45.936            16.098          8005.219
       546   13 Jun 2027 11:58:52.120   13 Jun 2027 11:58:55.882             3.762          1825.656
       547   13 Jun 2027 11:59:49.077   13 Jun 2027 11:59:55.453             6.376          1662.344
