uniorb/output/strategy_2/Camera/Camera_KinoSat_110810.txt

KinoSat_110810
-------------------------
    Access    *     Start Time (UTCG)     *     Stop Time (UTCG)  *   Duration (s) *   Data (Mbytes)
         1   01 Jun 2027 04:23:32.640   01 Jun 2027 04:25:58.463           145.823         72911.500
         2   01 Jun 2027 04:26:00.820   01 Jun 2027 04:26:03.826             3.006          1503.000
         3   01 Jun 2027 04:26:28.654   01 Jun 2027 04:26:34.203             5.549          2774.500
         4   01 Jun 2027 05:57:01.952   01 Jun 2027 05:59:21.899           139.947         69973.500
         5   01 Jun 2027 05:59:22.845   01 Jun 2027 05:59:35.708            12.863          6431.500
         6   01 Jun 2027 06:01:34.573   01 Jun 2027 06:01:38.553             3.980          1990.000
         7   01 Jun 2027 06:02:10.569   01 Jun 2027 06:02:16.932             6.363          3181.500
         8   01 Jun 2027 06:03:07.016   01 Jun 2027 06:03:09.775             2.759          1379.500
         9   01 Jun 2027 06:03:33.097   01 Jun 2027 06:04:01.692            28.595         14297.500
        10   01 Jun 2027 06:05:22.666   01 Jun 2027 06:05:31.602             8.936          4468.000
        11   01 Jun 2027 07:34:33.964   01 Jun 2027 07:37:22.638           168.674         84337.000
        12   01 Jun 2027 07:38:12.926   01 Jun 2027 07:38:18.255             5.329          2664.500
        13   01 Jun 2027 07:38:28.861   01 Jun 2027 07:38:33.912             5.051          2525.500
        14   01 Jun 2027 07:39:19.110   01 Jun 2027 07:39:24.835             5.725          2862.500
        15   01 Jun 2027 07:40:12.831   01 Jun 2027 07:40:15.727             2.896          1448.000
        16   01 Jun 2027 07:40:26.866   01 Jun 2027 07:40:55.099            28.233         14116.500
        17   01 Jun 2027 09:11:30.273   01 Jun 2027 09:13:42.003           131.730         65865.000
        18   01 Jun 2027 09:14:01.898   01 Jun 2027 09:14:09.030             7.132          3566.000
        19   01 Jun 2027 09:14:41.363   01 Jun 2027 09:14:47.442             6.079          3039.500
        20   01 Jun 2027 09:15:48.770   01 Jun 2027 09:15:56.446             7.676          3838.000
        21   01 Jun 2027 09:16:01.890   01 Jun 2027 09:16:04.736             2.846          1423.000
        22   01 Jun 2027 09:16:30.901   01 Jun 2027 09:16:32.803             1.902           951.000
        23   01 Jun 2027 10:48:20.909   01 Jun 2027 10:50:24.949           124.040         62020.000
        24   01 Jun 2027 10:52:36.375   01 Jun 2027 10:52:50.249            13.874          6937.000
        25   02 Jun 2027 03:00:00.000   02 Jun 2027 03:00:18.807            18.807          9403.500
        26   02 Jun 2027 03:00:36.965   02 Jun 2027 03:00:36.965             0.000             0.000
        27   02 Jun 2027 03:00:48.832   02 Jun 2027 03:00:51.419             2.587          1293.500
        28   02 Jun 2027 04:35:34.217   02 Jun 2027 04:38:49.268           195.051         97525.500
        29   02 Jun 2027 06:09:41.529   02 Jun 2027 06:11:43.490           121.961         60980.500
        30   02 Jun 2027 06:11:48.304   02 Jun 2027 06:12:03.958            15.654          7827.000
        31   02 Jun 2027 06:13:36.972   02 Jun 2027 06:13:36.972             0.000             0.000
        32   02 Jun 2027 06:13:48.775   02 Jun 2027 06:13:57.452             8.677          4338.500
        33   02 Jun 2027 06:15:25.538   02 Jun 2027 06:15:38.132            12.594          6297.000
        34   02 Jun 2027 06:16:28.071   02 Jun 2027 06:16:28.287             0.216           108.000
        35   02 Jun 2027 06:16:30.955   02 Jun 2027 06:16:32.467             1.512           756.000
        36   02 Jun 2027 07:46:40.015   02 Jun 2027 07:49:01.315           141.300         70650.000
        37   02 Jun 2027 07:49:02.291   02 Jun 2027 07:49:31.530            29.239         14619.500
        38   02 Jun 2027 07:52:10.271   02 Jun 2027 07:52:25.941            15.670          7835.000
        39   02 Jun 2027 09:24:19.235   02 Jun 2027 09:25:25.169            65.934         32967.000
        40   02 Jun 2027 09:25:35.388   02 Jun 2027 09:25:46.547            11.159          3281.468
        41   02 Jun 2027 09:26:53.503   02 Jun 2027 09:26:56.377             2.874          1437.000
        42   02 Jun 2027 09:27:54.371   02 Jun 2027 09:28:01.921             7.550          2249.313
        43   02 Jun 2027 11:00:23.967   02 Jun 2027 11:00:46.628            22.661          8975.906
        44   02 Jun 2027 11:00:54.976   02 Jun 2027 11:01:02.072             7.096           102.188
        45   02 Jun 2027 11:02:22.043   02 Jun 2027 11:02:26.806             4.763          2101.875
        46   02 Jun 2027 11:02:30.715   02 Jun 2027 11:02:33.056             2.341           122.156
        47   02 Jun 2027 11:02:48.004   02 Jun 2027 11:02:49.042             1.038           467.125
        48   02 Jun 2027 11:03:48.276   02 Jun 2027 11:03:54.659             6.383          1851.063
        49   02 Jun 2027 11:04:15.159   02 Jun 2027 11:04:16.813             1.654           589.188
        50   02 Jun 2027 11:04:22.799   02 Jun 2027 11:04:35.861            13.062           187.062
        51   02 Jun 2027 11:04:43.305   02 Jun 2027 11:04:45.784             2.479           232.625
        52   02 Jun 2027 11:05:08.930   02 Jun 2027 11:05:12.026             3.096           176.438
        53   03 Jun 2027 03:11:13.449   03 Jun 2027 03:11:54.204            40.755         20377.500
        54   03 Jun 2027 03:12:34.736   03 Jun 2027 03:12:43.943             9.207          4603.500
        55   03 Jun 2027 03:14:10.975   03 Jun 2027 03:14:14.276             3.301          1650.500
        56   03 Jun 2027 04:47:44.026   03 Jun 2027 04:50:42.689           178.663         89331.500
        57   03 Jun 2027 04:50:45.602   03 Jun 2027 04:51:19.038            33.436         16718.000
        58   03 Jun 2027 06:22:54.068   03 Jun 2027 06:23:46.379            52.311         24471.313
        59   03 Jun 2027 06:24:19.919   03 Jun 2027 06:24:22.381             2.462           886.281
        60   03 Jun 2027 06:25:00.645   03 Jun 2027 06:25:02.881             2.236           535.938
        61   03 Jun 2027 06:25:10.832   03 Jun 2027 06:25:12.018             1.186           122.250
        62   03 Jun 2027 06:27:24.814   03 Jun 2027 06:27:33.764             8.950          3914.250
        63   03 Jun 2027 06:28:42.834   03 Jun 2027 06:28:47.548             4.714          1924.562
        64   03 Jun 2027 06:29:15.424   03 Jun 2027 06:29:18.191             2.767           845.875
        65   03 Jun 2027 07:59:16.100   03 Jun 2027 07:59:37.222            21.122         10465.906
        66   03 Jun 2027 08:01:05.576   03 Jun 2027 08:01:07.351             1.775           472.562
        67   03 Jun 2027 08:01:56.516   03 Jun 2027 08:01:59.458             2.942           704.906
        68   03 Jun 2027 08:02:33.940   03 Jun 2027 08:02:36.082             2.142           342.875
        69   03 Jun 2027 08:03:00.710   03 Jun 2027 08:03:03.961             3.251           693.844
        70   03 Jun 2027 08:04:11.733   03 Jun 2027 08:04:18.937             7.204          2106.375
        71   03 Jun 2027 08:04:36.981   03 Jun 2027 08:04:39.141             2.160           554.188
        72   03 Jun 2027 08:05:07.867   03 Jun 2027 08:05:10.116             2.249           706.875
        73   03 Jun 2027 08:05:18.281   03 Jun 2027 08:05:20.565             2.284           213.188
        74   03 Jun 2027 09:36:33.720   03 Jun 2027 09:36:54.847            21.127         10189.219
        75   03 Jun 2027 09:37:09.484   03 Jun 2027 09:37:16.708             7.224           457.406
        76   03 Jun 2027 09:37:48.367   03 Jun 2027 09:37:53.483             5.116           942.156
        77   03 Jun 2027 09:38:33.895   03 Jun 2027 09:38:36.717             2.822          1199.094
        78   03 Jun 2027 09:38:54.302   03 Jun 2027 09:38:59.130             4.828           411.125
        79   03 Jun 2027 09:40:25.228   03 Jun 2027 09:40:32.137             6.909          2659.031
        80   03 Jun 2027 09:40:45.730   03 Jun 2027 09:40:46.550             0.820           158.875
        81   03 Jun 2027 11:12:46.142   03 Jun 2027 11:13:01.455            15.313          7141.531
        82   03 Jun 2027 11:13:25.485   03 Jun 2027 11:13:27.538             2.053           531.406
        83   03 Jun 2027 11:13:43.063   03 Jun 2027 11:13:45.438             2.375           393.094
        84   03 Jun 2027 11:14:23.443   03 Jun 2027 11:14:28.548             5.105          1180.906
        85   03 Jun 2027 11:14:32.406   03 Jun 2027 11:14:33.142             0.736           120.562
        86   03 Jun 2027 11:14:51.115   03 Jun 2027 11:14:55.623             4.508           472.250
        87   03 Jun 2027 11:16:10.758   03 Jun 2027 11:16:13.500             2.742          1371.000
        88   03 Jun 2027 11:16:27.713   03 Jun 2027 11:16:27.714             0.001             0.500
        89   03 Jun 2027 11:17:05.307   03 Jun 2027 11:17:12.274             6.967          2494.437
        90   04 Jun 2027 03:23:53.254   04 Jun 2027 03:25:27.380            94.126         47063.000
        91   04 Jun 2027 03:26:00.423   04 Jun 2027 03:26:00.423             0.000             0.000
        92   04 Jun 2027 04:59:38.910   04 Jun 2027 05:00:50.525            71.615         35807.500
        93   04 Jun 2027 05:00:56.122   04 Jun 2027 05:02:30.494            94.372         47186.000
        94   04 Jun 2027 05:03:10.624   04 Jun 2027 05:03:18.324             7.700          3850.000
        95   04 Jun 2027 06:34:36.315   04 Jun 2027 06:35:19.582            43.267         19730.031
        96   04 Jun 2027 06:35:54.798   04 Jun 2027 06:35:59.266             4.468           458.125
        97   04 Jun 2027 06:36:30.098   04 Jun 2027 06:36:31.799             1.701           775.062
        98   04 Jun 2027 06:37:00.390   04 Jun 2027 06:37:01.927             1.537           768.500
        99   04 Jun 2027 06:37:15.563   04 Jun 2027 06:37:18.056             2.493           537.469
       100   04 Jun 2027 06:37:30.685   04 Jun 2027 06:37:31.567             0.882           381.156
       101   04 Jun 2027 06:38:07.626   04 Jun 2027 06:38:08.862             1.236           618.000
       102   04 Jun 2027 06:39:27.937   04 Jun 2027 06:39:37.222             9.285          2785.594
       103   04 Jun 2027 06:40:34.229   04 Jun 2027 06:40:37.737             3.508          1560.812
       104   04 Jun 2027 06:40:53.039   04 Jun 2027 06:40:56.010             2.971           402.625
       105   04 Jun 2027 06:41:12.667   04 Jun 2027 06:41:14.527             1.860           371.937
       106   04 Jun 2027 08:10:48.793   04 Jun 2027 08:11:14.977            26.184         12012.906
       107   04 Jun 2027 08:11:41.169   04 Jun 2027 08:11:43.037             1.868           590.719
       108   04 Jun 2027 08:12:49.981   04 Jun 2027 08:12:56.418             6.437          1648.687
       109   04 Jun 2027 08:13:26.258   04 Jun 2027 08:13:30.672             4.414           191.781
       110   04 Jun 2027 08:15:10.125   04 Jun 2027 08:15:17.391             7.266          2954.219
       111   04 Jun 2027 08:15:51.972   04 Jun 2027 08:15:54.459             2.487          1080.656
       112   04 Jun 2027 08:16:46.455   04 Jun 2027 08:16:50.236             3.781          1464.438
       113   04 Jun 2027 09:48:49.958   04 Jun 2027 09:49:10.698            20.740          9080.688
       114   04 Jun 2027 09:49:44.235   04 Jun 2027 09:49:46.736             2.501           916.656
       115   04 Jun 2027 09:50:32.886   04 Jun 2027 09:50:35.076             2.190           871.375
       116   04 Jun 2027 09:51:03.335   04 Jun 2027 09:51:06.104             2.769           871.656
       117   04 Jun 2027 09:51:13.939   04 Jun 2027 09:51:15.924             1.985            93.594
       118   04 Jun 2027 09:51:35.240   04 Jun 2027 09:51:35.711             0.471           200.375
       119   04 Jun 2027 09:52:04.194   04 Jun 2027 09:52:13.996             9.802           890.094
       120   04 Jun 2027 09:52:42.349   04 Jun 2027 09:52:42.349             0.000             0.000
       121   04 Jun 2027 11:24:29.825   04 Jun 2027 11:24:45.638            15.813          7026.187
       122   04 Jun 2027 11:25:17.843   04 Jun 2027 11:25:20.318             2.475           659.688
       123   04 Jun 2027 11:25:38.693   04 Jun 2027 11:25:44.582             5.889           301.875
       124   04 Jun 2027 11:26:17.881   04 Jun 2027 11:26:21.526             3.645           354.531
       125   04 Jun 2027 11:26:51.215   04 Jun 2027 11:26:53.709             2.494           581.375
       126   04 Jun 2027 11:27:03.025   04 Jun 2027 11:27:04.157             1.132           291.125
       127   04 Jun 2027 11:27:41.805   04 Jun 2027 11:27:46.771             4.966          1103.844
       128   04 Jun 2027 11:28:17.337   04 Jun 2027 11:28:19.324             1.987           749.281
       129   04 Jun 2027 11:28:39.184   04 Jun 2027 11:28:42.453             3.269           620.625
       130   04 Jun 2027 11:29:24.465   04 Jun 2027 11:29:24.631             0.166            83.000
       131   04 Jun 2027 11:29:35.064   04 Jun 2027 11:29:37.939             2.875          1223.407
       132   05 Jun 2027 03:34:42.563   05 Jun 2027 03:35:34.235            51.672         25836.000
       133   05 Jun 2027 03:36:39.166   05 Jun 2027 03:36:43.283             4.117          2058.500
       134   05 Jun 2027 03:38:16.644   05 Jun 2027 03:38:16.644             0.000             0.000
       135   05 Jun 2027 05:10:14.942   05 Jun 2027 05:10:21.817             6.875          3437.500
       136   05 Jun 2027 05:11:24.698   05 Jun 2027 05:14:39.649           194.951         97475.500
       137   05 Jun 2027 05:15:42.595   05 Jun 2027 05:15:51.548             8.953          4476.500
       138   05 Jun 2027 06:46:10.009   05 Jun 2027 06:46:58.734            48.725         22688.156
       139   05 Jun 2027 06:47:21.392   05 Jun 2027 06:47:31.112             9.720           708.062
       140   05 Jun 2027 06:48:20.096   05 Jun 2027 06:48:22.722             2.626          1271.250
       141   05 Jun 2027 06:48:25.325   05 Jun 2027 06:48:27.089             1.764            81.344
       142   05 Jun 2027 06:50:13.897   05 Jun 2027 06:50:19.756             5.859          2344.719
       143   05 Jun 2027 06:51:30.876   05 Jun 2027 06:51:39.983             9.107          1945.469
       144   05 Jun 2027 06:52:14.255   05 Jun 2027 06:52:21.560             7.305           844.844
       145   05 Jun 2027 06:53:01.232   05 Jun 2027 06:53:03.422             2.190          1045.000
       146   05 Jun 2027 08:23:10.237   05 Jun 2027 08:23:36.268            26.031         12876.406
       147   05 Jun 2027 08:24:19.962   05 Jun 2027 08:24:23.004             3.042           703.063
       148   05 Jun 2027 08:24:46.496   05 Jun 2027 08:24:47.855             1.359           425.281
       149   05 Jun 2027 08:24:51.192   05 Jun 2027 08:24:51.844             0.652           104.281
       150   05 Jun 2027 08:25:59.745   05 Jun 2027 08:26:07.281             7.536          1519.969
       151   05 Jun 2027 08:26:08.177   05 Jun 2027 08:26:08.993             0.816            28.000
       152   05 Jun 2027 08:26:21.663   05 Jun 2027 08:26:23.418             1.755           176.281
       153   05 Jun 2027 08:26:56.516   05 Jun 2027 08:26:58.696             2.180           582.313
       154   05 Jun 2027 08:27:02.231   05 Jun 2027 08:27:04.680             2.449           110.469
       155   05 Jun 2027 08:27:08.361   05 Jun 2027 08:27:12.180             3.819            13.437
       156   05 Jun 2027 08:27:57.283   05 Jun 2027 08:28:04.486             7.203          1409.469
       157   05 Jun 2027 08:28:55.429   05 Jun 2027 08:28:58.311             2.882          1142.750
       158   05 Jun 2027 08:29:11.132   05 Jun 2027 08:29:11.132             0.000             0.000
       159   05 Jun 2027 10:01:11.466   05 Jun 2027 10:01:28.720            17.254          8434.438
       160   05 Jun 2027 10:02:00.666   05 Jun 2027 10:02:08.243             7.577           998.313
       161   05 Jun 2027 10:02:32.304   05 Jun 2027 10:02:33.597             1.293           454.594
       162   05 Jun 2027 10:02:42.690   05 Jun 2027 10:02:43.436             0.746            71.563
       163   05 Jun 2027 10:03:27.488   05 Jun 2027 10:03:31.903             4.415           875.781
       164   05 Jun 2027 10:04:03.817   05 Jun 2027 10:04:05.132             1.315           498.406
       165   05 Jun 2027 10:04:54.333   05 Jun 2027 10:04:57.075             2.742          1251.750
       166   05 Jun 2027 11:34:25.637   05 Jun 2027 11:34:43.358            17.721          8193.562
       167   05 Jun 2027 11:36:14.016   05 Jun 2027 11:36:18.819             4.803          1731.906
       168   05 Jun 2027 11:36:33.372   05 Jun 2027 11:36:35.904             2.532           328.344
       169   05 Jun 2027 11:36:55.466   05 Jun 2027 11:36:55.466             0.000             0.000
       170   05 Jun 2027 11:37:11.260   05 Jun 2027 11:37:17.239             5.979           805.281
       171   05 Jun 2027 11:37:33.774   05 Jun 2027 11:37:33.774             0.000             0.000
       172   05 Jun 2027 11:37:46.032   05 Jun 2027 11:37:48.517             2.485           540.562
       173   05 Jun 2027 11:38:14.473   05 Jun 2027 11:38:18.520             4.047           652.094
       174   05 Jun 2027 11:39:21.124   05 Jun 2027 11:39:21.754             0.630           315.000
       175   05 Jun 2027 11:40:36.057   05 Jun 2027 11:40:47.516            11.459          3934.375
       176   05 Jun 2027 11:41:11.565   05 Jun 2027 11:41:13.236             1.671           414.125
       177   05 Jun 2027 11:41:59.380   05 Jun 2027 11:41:59.380             0.000             0.000
       178   05 Jun 2027 11:42:11.805   05 Jun 2027 11:42:14.968             3.163          1267.937
       179   06 Jun 2027 03:45:58.808   06 Jun 2027 03:46:30.447            31.639         15819.500
       180   06 Jun 2027 03:46:39.771   06 Jun 2027 03:47:09.090            29.319         14659.500
       181   06 Jun 2027 03:48:39.520   06 Jun 2027 03:48:41.969             2.449          1224.500
       182   06 Jun 2027 03:48:50.933   06 Jun 2027 03:49:36.339            45.406         22703.000
       183   06 Jun 2027 03:49:45.748   06 Jun 2027 03:49:45.748             0.000             0.000
       184   06 Jun 2027 03:50:36.424   06 Jun 2027 03:50:36.424             0.000             0.000
       185   06 Jun 2027 03:50:54.558   06 Jun 2027 03:50:54.558             0.000             0.000
       186   06 Jun 2027 03:51:04.872   06 Jun 2027 03:51:08.208             3.336          1668.000
       187   06 Jun 2027 05:21:06.689   06 Jun 2027 05:22:39.913            93.224         46612.000
       188   06 Jun 2027 05:23:08.018   06 Jun 2027 05:23:55.828            47.810         23905.000
       189   06 Jun 2027 05:24:07.631   06 Jun 2027 05:24:46.903            39.272         19636.000
       190   06 Jun 2027 05:26:20.466   06 Jun 2027 05:26:27.179             6.713          3356.500
       191   06 Jun 2027 06:59:09.452   06 Jun 2027 07:00:01.125            51.673         23801.656
       192   06 Jun 2027 07:01:29.275   06 Jun 2027 07:01:32.899             3.624          1398.531
       193   06 Jun 2027 07:02:18.230   06 Jun 2027 07:02:21.665             3.435          1139.844
       194   06 Jun 2027 07:02:45.179   06 Jun 2027 07:02:48.298             3.119            79.250
       195   06 Jun 2027 07:03:51.173   06 Jun 2027 07:03:56.210             5.037          1854.875
       196   06 Jun 2027 07:04:23.095   06 Jun 2027 07:04:27.155             4.060           840.156
       197   06 Jun 2027 07:05:37.767   06 Jun 2027 07:05:43.774             6.007          1866.656
       198   06 Jun 2027 08:35:15.684   06 Jun 2027 08:35:49.398            33.714         13930.844
       199   06 Jun 2027 08:36:19.329   06 Jun 2027 08:36:20.507             1.178           229.344
       200   06 Jun 2027 08:36:42.495   06 Jun 2027 08:36:44.696             2.201           425.500
       201   06 Jun 2027 08:37:36.248   06 Jun 2027 08:37:41.200             4.952          1093.437
       202   06 Jun 2027 08:37:54.735   06 Jun 2027 08:37:56.027             1.292           177.562
       203   06 Jun 2027 08:38:17.354   06 Jun 2027 08:38:19.184             1.830           528.250
       204   06 Jun 2027 08:39:07.516   06 Jun 2027 08:39:11.057             3.541          1414.063
       205   06 Jun 2027 08:39:22.271   06 Jun 2027 08:39:23.876             1.605           128.500
       206   06 Jun 2027 08:40:01.016   06 Jun 2027 08:40:06.532             5.516          1147.000
       207   06 Jun 2027 08:40:35.167   06 Jun 2027 08:40:40.122             4.955           823.313
       208   06 Jun 2027 08:41:20.054   06 Jun 2027 08:41:22.533             2.479          1219.594
       209   06 Jun 2027 10:13:08.679   06 Jun 2027 10:13:28.387            19.708          8178.500
       210   06 Jun 2027 10:13:37.163   06 Jun 2027 10:13:38.505             1.342           272.938
       211   06 Jun 2027 10:14:27.840   06 Jun 2027 10:14:31.374             3.534          1541.719
       212   06 Jun 2027 10:14:41.536   06 Jun 2027 10:14:42.636             1.100           317.562
       213   06 Jun 2027 10:16:03.800   06 Jun 2027 10:16:11.584             7.784          1919.406
       214   06 Jun 2027 10:16:22.193   06 Jun 2027 10:16:23.047             0.854           324.781
       215   06 Jun 2027 10:16:53.563   06 Jun 2027 10:16:55.561             1.998           953.625
       216   06 Jun 2027 11:46:36.792   06 Jun 2027 11:46:40.831             4.039          1585.562
       217   06 Jun 2027 11:47:21.087   06 Jun 2027 11:47:23.156             2.069           296.281
       218   06 Jun 2027 11:48:06.518   06 Jun 2027 11:48:07.881             1.363           415.875
       219   06 Jun 2027 11:48:22.510   06 Jun 2027 11:48:23.576             1.066           280.656
       220   06 Jun 2027 11:48:33.509   06 Jun 2027 11:48:34.744             1.235           215.562
       221   06 Jun 2027 11:48:56.435   06 Jun 2027 11:48:56.435             0.000             0.000
       222   06 Jun 2027 11:49:05.806   06 Jun 2027 11:49:09.443             3.637           967.656
       223   06 Jun 2027 11:49:35.441   06 Jun 2027 11:49:37.420             1.979           397.594
       224   06 Jun 2027 11:49:50.573   06 Jun 2027 11:50:00.652            10.079           226.250
       225   06 Jun 2027 11:50:09.701   06 Jun 2027 11:50:15.909             6.208           129.844
       226   06 Jun 2027 11:50:40.891   06 Jun 2027 11:50:41.706             0.815           407.500
       227   06 Jun 2027 11:50:47.733   06 Jun 2027 11:50:48.483             0.750           259.719
       228   06 Jun 2027 11:50:57.233   06 Jun 2027 11:50:58.494             1.261           263.906
       229   06 Jun 2027 11:51:35.835   06 Jun 2027 11:51:37.647             1.812           417.906
       230   06 Jun 2027 11:52:13.891   06 Jun 2027 11:52:16.159             2.268          1132.625
       231   06 Jun 2027 11:52:42.258   06 Jun 2027 11:52:44.654             2.396           591.219
       232   06 Jun 2027 11:53:08.666   06 Jun 2027 11:53:10.722             2.056           747.781
       233   06 Jun 2027 11:54:04.266   06 Jun 2027 11:54:06.820             2.554          1073.375
       234   07 Jun 2027 03:57:43.851   07 Jun 2027 03:59:03.866            80.015         40007.500
       235   07 Jun 2027 04:02:14.322   07 Jun 2027 04:02:44.308            29.986         14993.000
       236   07 Jun 2027 04:02:50.385   07 Jun 2027 04:02:50.781             0.396           198.000
       237   07 Jun 2027 05:32:36.342   07 Jun 2027 05:35:37.841           181.499         90749.500
       238   07 Jun 2027 05:39:39.124   07 Jun 2027 05:39:45.731             6.607          3303.500
       239   07 Jun 2027 05:40:10.270   07 Jun 2027 05:40:10.270             0.000             0.000
       240   07 Jun 2027 05:40:16.398   07 Jun 2027 05:40:16.789             0.391           195.500
       241   07 Jun 2027 05:41:26.102   07 Jun 2027 05:41:33.763             7.661          3830.500
       242   07 Jun 2027 07:10:19.770   07 Jun 2027 07:10:33.280            13.510          6755.000
       243   07 Jun 2027 07:11:04.899   07 Jun 2027 07:11:53.287            48.388         22000.875
       244   07 Jun 2027 07:12:36.373   07 Jun 2027 07:12:45.964             9.591          1006.750
       245   07 Jun 2027 07:13:09.945   07 Jun 2027 07:13:11.413             1.468           656.719
       246   07 Jun 2027 07:13:46.114   07 Jun 2027 07:13:46.499             0.385           192.500
       247   07 Jun 2027 07:14:25.612   07 Jun 2027 07:14:27.699             2.087          1043.500
       248   07 Jun 2027 07:14:38.071   07 Jun 2027 07:14:43.166             5.095          1166.906
       249   07 Jun 2027 07:15:18.123   07 Jun 2027 07:15:20.234             2.111           863.156
       250   07 Jun 2027 07:15:53.301   07 Jun 2027 07:15:58.575             5.274           986.812
       251   07 Jun 2027 07:16:06.821   07 Jun 2027 07:16:08.321             1.500            98.375
       252   07 Jun 2027 07:16:23.454   07 Jun 2027 07:16:24.996             1.542            85.094
       253   07 Jun 2027 08:47:07.921   07 Jun 2027 08:47:34.864            26.943         13284.125
       254   07 Jun 2027 08:49:51.752   07 Jun 2027 08:50:00.304             8.552          3048.312
       255   07 Jun 2027 08:50:39.462   07 Jun 2027 08:50:42.890             3.428          1024.781
       256   07 Jun 2027 08:50:59.940   07 Jun 2027 08:51:02.431             2.491           311.906
       257   07 Jun 2027 08:51:16.709   07 Jun 2027 08:51:20.196             3.487           436.812
       258   07 Jun 2027 08:51:24.866   07 Jun 2027 08:51:26.249             1.383           119.906
       259   07 Jun 2027 08:52:20.901   07 Jun 2027 08:52:24.550             3.649           812.594
       260   07 Jun 2027 08:53:31.787   07 Jun 2027 08:53:36.785             4.998          1920.781
       261   07 Jun 2027 10:25:10.263   07 Jun 2027 10:25:26.784            16.521          8027.031
       262   07 Jun 2027 10:25:40.595   07 Jun 2027 10:25:43.308             2.713           288.000
       263   07 Jun 2027 10:26:50.521   07 Jun 2027 10:26:53.863             3.342          1106.156
       264   07 Jun 2027 10:27:13.326   07 Jun 2027 10:27:15.968             2.642           139.000
       265   07 Jun 2027 10:28:19.773   07 Jun 2027 10:28:24.904             5.131          1846.656
       266   07 Jun 2027 10:28:49.074   07 Jun 2027 10:28:50.339             1.265           578.438
       267   07 Jun 2027 11:59:02.238   07 Jun 2027 11:59:10.709             8.471          1919.594
       268   07 Jun 2027 11:59:34.055   07 Jun 2027 11:59:37.001             2.946           645.688
       269   08 Jun 2027 04:11:30.623   08 Jun 2027 04:12:42.549            71.926         35963.000
       270   08 Jun 2027 04:13:39.933   08 Jun 2027 04:14:15.681            35.748         17874.000
       271   08 Jun 2027 04:14:44.649   08 Jun 2027 04:15:24.346            39.697         19848.500
       272   08 Jun 2027 05:45:20.232   08 Jun 2027 05:47:35.615           135.383         67691.500
       273   08 Jun 2027 05:48:28.201   08 Jun 2027 05:48:32.486             4.285          2142.500
       274   08 Jun 2027 05:49:44.152   08 Jun 2027 05:49:50.538             6.386          3193.000
       275   08 Jun 2027 05:49:54.626   08 Jun 2027 05:50:11.661            17.035          8517.500
       276   08 Jun 2027 05:52:18.540   08 Jun 2027 05:52:18.540             0.000             0.000
       277   08 Jun 2027 05:53:09.001   08 Jun 2027 05:53:33.942            24.941         12470.500
       278   08 Jun 2027 05:53:43.268   08 Jun 2027 05:53:44.470             1.202           601.000
       279   08 Jun 2027 07:22:23.066   08 Jun 2027 07:22:32.844             9.778          4889.000
       280   08 Jun 2027 07:23:17.379   08 Jun 2027 07:23:55.769            38.390         18604.562
       281   08 Jun 2027 07:24:43.525   08 Jun 2027 07:24:47.354             3.829           815.750
       282   08 Jun 2027 07:26:28.939   08 Jun 2027 07:26:31.709             2.770          1385.000
       283   08 Jun 2027 07:26:32.978   08 Jun 2027 07:26:36.191             3.213          1285.594
       284   08 Jun 2027 07:27:07.748   08 Jun 2027 07:27:10.773             3.025           566.719
       285   08 Jun 2027 07:27:30.577   08 Jun 2027 07:27:37.799             7.222           366.969
       286   08 Jun 2027 07:28:33.592   08 Jun 2027 07:28:35.772             2.180           747.906
       287   08 Jun 2027 08:59:17.960   08 Jun 2027 08:59:40.226            22.266         10813.438
       288   08 Jun 2027 09:00:32.713   08 Jun 2027 09:00:37.307             4.594           879.500
       289   08 Jun 2027 09:01:08.731   08 Jun 2027 09:01:12.372             3.641           693.344
       290   08 Jun 2027 09:01:17.777   08 Jun 2027 09:01:20.141             2.364             7.875
       291   08 Jun 2027 09:01:47.076   08 Jun 2027 09:01:48.843             1.767           729.875
       292   08 Jun 2027 09:02:38.713   08 Jun 2027 09:02:43.919             5.206          1558.438
       293   08 Jun 2027 09:03:23.116   08 Jun 2027 09:03:25.256             2.140           928.719
       294   08 Jun 2027 09:03:26.427   08 Jun 2027 09:03:27.468             1.041            36.594
       295   08 Jun 2027 09:04:12.218   08 Jun 2027 09:04:17.680             5.462          1269.375
       296   08 Jun 2027 09:04:32.266   08 Jun 2027 09:04:34.334             2.068           410.125
       297   08 Jun 2027 10:36:23.892   08 Jun 2027 10:36:41.984            18.092          8516.719
       298   08 Jun 2027 10:37:00.357   08 Jun 2027 10:37:02.823             2.466           574.156
       299   08 Jun 2027 10:37:40.760   08 Jun 2027 10:37:43.766             3.006          1185.531
       300   08 Jun 2027 10:38:36.224   08 Jun 2027 10:38:43.278             7.054          1467.438
       301   08 Jun 2027 10:39:07.375   08 Jun 2027 10:39:09.437             2.062           563.219
       302   08 Jun 2027 10:40:01.699   08 Jun 2027 10:40:05.176             3.477          1523.969
       303   08 Jun 2027 10:40:26.470   08 Jun 2027 10:40:29.852             3.382           271.938
       304   08 Jun 2027 10:40:41.628   08 Jun 2027 10:40:43.513             1.885           335.688
       305   09 Jun 2027 04:23:47.733   09 Jun 2027 04:26:49.071           181.338         90669.000
       306   09 Jun 2027 05:57:17.421   09 Jun 2027 05:58:08.953            51.532         25766.000
       307   09 Jun 2027 05:58:34.526   09 Jun 2027 05:59:51.485            76.959         38200.875
       308   09 Jun 2027 05:59:55.790   09 Jun 2027 05:59:58.522             2.732           134.531
       309   09 Jun 2027 06:01:51.011   09 Jun 2027 06:01:53.044             2.033          1016.500
       310   09 Jun 2027 06:03:40.444   09 Jun 2027 06:03:41.991             1.547           773.500
       311   09 Jun 2027 06:04:16.992   09 Jun 2027 06:04:20.270             3.278          1639.000
       312   09 Jun 2027 06:04:41.672   09 Jun 2027 06:04:52.387            10.715          5080.188
       313   09 Jun 2027 06:05:26.437   09 Jun 2027 06:05:29.131             2.694           755.937
       314   09 Jun 2027 07:34:48.793   09 Jun 2027 07:35:14.111            25.318         11256.406
       315   09 Jun 2027 07:37:54.522   09 Jun 2027 07:38:00.392             5.870          1530.187
       316   09 Jun 2027 07:38:33.105   09 Jun 2027 07:38:37.790             4.685           184.125
       317   09 Jun 2027 07:38:49.728   09 Jun 2027 07:38:50.163             0.435            19.313
       318   09 Jun 2027 07:38:57.021   09 Jun 2027 07:38:57.850             0.829           214.313
       319   09 Jun 2027 07:39:34.020   09 Jun 2027 07:39:38.388             4.368          1130.312
       320   09 Jun 2027 07:40:29.511   09 Jun 2027 07:40:33.774             4.263          1597.594
       321   09 Jun 2027 07:40:49.028   09 Jun 2027 07:40:50.815             1.787           209.125
       322   09 Jun 2027 07:41:27.875   09 Jun 2027 07:41:31.443             3.568          1041.906
       323   09 Jun 2027 09:11:45.276   09 Jun 2027 09:12:04.855            19.579          9760.500
       324   09 Jun 2027 09:12:49.087   09 Jun 2027 09:12:53.055             3.968           853.031
       325   09 Jun 2027 09:13:33.604   09 Jun 2027 09:13:38.872             5.268          1087.344
       326   09 Jun 2027 09:14:26.757   09 Jun 2027 09:14:33.043             6.286          1496.406
       327   09 Jun 2027 09:15:22.541   09 Jun 2027 09:15:27.183             4.642          1546.812
       328   09 Jun 2027 09:15:45.583   09 Jun 2027 09:15:47.684             2.101           575.000
       329   09 Jun 2027 09:16:03.331   09 Jun 2027 09:16:04.355             1.024           412.625
       330   09 Jun 2027 10:48:36.024   09 Jun 2027 10:48:51.726            15.702          7294.844
       331   09 Jun 2027 10:49:42.113   09 Jun 2027 10:49:44.942             2.829          1176.406
       332   09 Jun 2027 10:49:58.542   09 Jun 2027 10:50:01.701             3.159           275.656
       333   09 Jun 2027 10:50:50.807   09 Jun 2027 10:50:53.588             2.781          1065.500
       334   09 Jun 2027 10:51:00.888   09 Jun 2027 10:51:02.157             1.269           228.125
       335   09 Jun 2027 10:51:41.156   09 Jun 2027 10:51:41.156             0.000             0.000
       336   09 Jun 2027 10:52:30.190   09 Jun 2027 10:52:34.597             4.407          2203.500
       337   10 Jun 2027 03:00:00.000   10 Jun 2027 03:00:09.725             9.725          4862.500
       338   10 Jun 2027 03:00:34.291   10 Jun 2027 03:00:42.067             7.776          3888.000
       339   10 Jun 2027 03:00:47.244   10 Jun 2027 03:01:04.188            16.944          8472.000
       340   10 Jun 2027 04:35:49.786   10 Jun 2027 04:36:31.728            41.942         20971.000
       341   10 Jun 2027 04:36:32.365   10 Jun 2027 04:37:20.967            48.602         24301.000
       342   10 Jun 2027 04:37:47.847   10 Jun 2027 04:39:23.614            95.767         47883.500
       343   10 Jun 2027 06:09:56.876   10 Jun 2027 06:11:24.361            87.485         43666.562
       344   10 Jun 2027 06:11:53.259   10 Jun 2027 06:11:53.259             0.000             0.000
       345   10 Jun 2027 06:11:58.041   10 Jun 2027 06:11:59.577             1.536           714.031
       346   10 Jun 2027 06:12:28.121   10 Jun 2027 06:12:31.350             3.229           699.312
       347   10 Jun 2027 06:13:51.916   10 Jun 2027 06:13:53.700             1.784           892.000
       348   10 Jun 2027 06:13:55.863   10 Jun 2027 06:13:58.532             2.669          1334.500
       349   10 Jun 2027 06:14:54.442   10 Jun 2027 06:15:00.420             5.978          2006.219
       350   10 Jun 2027 06:15:37.796   10 Jun 2027 06:15:42.892             5.096           924.500
       351   10 Jun 2027 06:15:55.244   10 Jun 2027 06:15:55.244             0.000             0.000
       352   10 Jun 2027 06:16:45.868   10 Jun 2027 06:16:50.926             5.058          1898.062
       353   10 Jun 2027 06:17:34.532   10 Jun 2027 06:17:37.774             3.242          1362.688
       354   10 Jun 2027 06:17:42.370   10 Jun 2027 06:17:42.372             0.002             1.000
       355   10 Jun 2027 07:46:55.098   10 Jun 2027 07:47:17.612            22.514         10197.688
       356   10 Jun 2027 07:49:40.418   10 Jun 2027 07:49:44.833             4.415          1085.312
       357   10 Jun 2027 07:50:32.735   10 Jun 2027 07:50:37.086             4.351          1441.875
       358   10 Jun 2027 07:51:14.576   10 Jun 2027 07:51:16.999             2.423           717.719
       359   10 Jun 2027 07:51:55.588   10 Jun 2027 07:51:57.344             1.756           785.219
       360   10 Jun 2027 07:52:10.878   10 Jun 2027 07:52:13.773             2.895           274.094
       361   10 Jun 2027 07:52:30.062   10 Jun 2027 07:52:34.580             4.518           163.562
       362   10 Jun 2027 07:53:04.624   10 Jun 2027 07:53:07.824             3.200           691.250
       363   10 Jun 2027 07:53:26.724   10 Jun 2027 07:53:27.543             0.819           221.563
       364   10 Jun 2027 09:24:35.623   10 Jun 2027 09:24:57.397            21.774         10820.094
       365   10 Jun 2027 09:25:31.429   10 Jun 2027 09:25:33.628             2.199           989.219
       366   10 Jun 2027 09:26:37.075   10 Jun 2027 09:26:41.117             4.042          1656.219
       367   10 Jun 2027 09:26:59.047   10 Jun 2027 09:27:01.914             2.867           534.625
       368   10 Jun 2027 09:28:07.992   10 Jun 2027 09:28:09.923             1.931           965.500
       369   10 Jun 2027 09:28:35.691   10 Jun 2027 09:28:44.145             8.454          1863.094
       370   10 Jun 2027 11:00:38.519   10 Jun 2027 11:00:55.768            17.249          8548.063
       371   10 Jun 2027 11:01:24.531   10 Jun 2027 11:01:25.902             1.371           630.937
       372   10 Jun 2027 11:02:36.036   10 Jun 2027 11:02:42.044             6.008          1966.375
       373   10 Jun 2027 11:02:47.387   10 Jun 2027 11:02:47.901             0.514           166.969
       374   10 Jun 2027 11:03:04.467   10 Jun 2027 11:03:08.571             4.104           517.688
       375   10 Jun 2027 11:03:12.045   10 Jun 2027 11:03:12.450             0.405           108.562
       376   10 Jun 2027 11:04:31.486   10 Jun 2027 11:04:37.925             6.439          1894.438
       377   10 Jun 2027 11:04:55.307   10 Jun 2027 11:04:57.597             2.290           543.187
       378   11 Jun 2027 03:11:28.216   11 Jun 2027 03:12:11.570            43.354         21677.000
       379   11 Jun 2027 03:12:15.509   11 Jun 2027 03:12:33.904            18.395          9197.500
       380   11 Jun 2027 03:12:49.002   11 Jun 2027 03:12:49.488             0.486           243.000
       381   11 Jun 2027 03:12:57.849   11 Jun 2027 03:13:04.888             7.039          3519.500
       382   11 Jun 2027 03:13:06.945   11 Jun 2027 03:13:47.732            40.787         20393.500
       383   11 Jun 2027 03:13:49.196   11 Jun 2027 03:13:49.196             0.000             0.000
       384   11 Jun 2027 03:14:15.008   11 Jun 2027 03:14:15.008             0.000             0.000
       385   11 Jun 2027 04:47:59.031   11 Jun 2027 04:50:06.351           127.320         63660.000
       386   11 Jun 2027 04:50:32.172   11 Jun 2027 04:50:44.287            12.115          6057.500
       387   11 Jun 2027 06:23:08.966   11 Jun 2027 06:24:13.025            64.059         30836.344
       388   11 Jun 2027 06:25:20.096   11 Jun 2027 06:25:23.744             3.648          1389.156
       389   11 Jun 2027 06:26:03.240   11 Jun 2027 06:26:08.514             5.274           908.125
       390   11 Jun 2027 06:26:33.275   11 Jun 2027 06:26:33.275             0.000             0.000
       391   11 Jun 2027 06:27:43.372   11 Jun 2027 06:27:49.000             5.628          2445.719
       392   11 Jun 2027 06:28:58.473   11 Jun 2027 06:29:02.303             3.830          1878.812
       393   11 Jun 2027 06:29:44.253   11 Jun 2027 06:29:45.769             1.516           758.000
       394   11 Jun 2027 07:59:31.169   11 Jun 2027 07:59:48.427            17.258          8164.906
       395   11 Jun 2027 08:01:20.162   11 Jun 2027 08:01:21.613             1.451           472.031
       396   11 Jun 2027 08:02:10.723   11 Jun 2027 08:02:15.163             4.440           678.719
       397   11 Jun 2027 08:02:49.153   11 Jun 2027 08:02:50.849             1.696           294.156
       398   11 Jun 2027 08:03:57.408   11 Jun 2027 08:04:03.373             5.965          1994.375
       399   11 Jun 2027 08:04:47.685   11 Jun 2027 08:04:53.456             5.771          1384.750
       400   11 Jun 2027 09:36:47.769   11 Jun 2027 09:37:09.504            21.735          8965.875
       401   11 Jun 2027 09:37:19.344   11 Jun 2027 09:37:19.984             0.640           307.500
       402   11 Jun 2027 09:37:56.406   11 Jun 2027 09:38:02.834             6.428          1138.187
       403   11 Jun 2027 09:38:21.967   11 Jun 2027 09:38:26.942             4.975           585.250
       404   11 Jun 2027 09:38:55.739   11 Jun 2027 09:38:58.564             2.825           849.094
       405   11 Jun 2027 09:39:29.964   11 Jun 2027 09:39:33.514             3.550           981.250
       406   11 Jun 2027 09:39:44.035   11 Jun 2027 09:39:47.547             3.512           328.781
       407   11 Jun 2027 09:40:40.408   11 Jun 2027 09:40:43.501             3.093          1330.594
       408   11 Jun 2027 09:41:00.809   11 Jun 2027 09:41:01.650             0.841           144.000
       409   11 Jun 2027 11:13:01.207   11 Jun 2027 11:13:17.055            15.848          7338.938
       410   11 Jun 2027 11:13:34.680   11 Jun 2027 11:13:37.088             2.408           430.500
       411   11 Jun 2027 11:14:52.183   11 Jun 2027 11:14:57.626             5.443          2241.031
       412   11 Jun 2027 11:16:19.731   11 Jun 2027 11:16:24.817             5.086          2066.562
       413   11 Jun 2027 11:16:28.701   11 Jun 2027 11:16:31.282             2.581            90.687
       414   11 Jun 2027 11:16:42.826   11 Jun 2027 11:16:43.765             0.939           231.219
       415   11 Jun 2027 11:17:17.824   11 Jun 2027 11:17:20.287             2.463          1047.406
       416   12 Jun 2027 03:24:08.084   12 Jun 2027 03:25:06.973            58.889         29444.500
       417   12 Jun 2027 03:26:27.731   12 Jun 2027 03:26:40.121            12.390          6195.000
       418   12 Jun 2027 04:59:53.565   12 Jun 2027 05:00:30.365            36.800         18400.000
       419   12 Jun 2027 05:01:05.102   12 Jun 2027 05:03:49.021           163.919         81959.500
       420   12 Jun 2027 06:34:50.937   12 Jun 2027 06:35:24.137            33.200         16571.313
       421   12 Jun 2027 06:35:35.530   12 Jun 2027 06:35:37.877             2.347           219.000
       422   12 Jun 2027 06:36:20.877   12 Jun 2027 06:36:21.491             0.614           270.406
       423   12 Jun 2027 06:37:45.575   12 Jun 2027 06:37:45.575             0.000             0.000
       424   12 Jun 2027 06:38:24.885   12 Jun 2027 06:38:27.945             3.060          1530.000
       425   12 Jun 2027 06:38:40.174   12 Jun 2027 06:38:48.624             8.450          1945.062
       426   12 Jun 2027 06:39:37.431   12 Jun 2027 06:39:43.355             5.924           825.844
       427   12 Jun 2027 06:40:01.376   12 Jun 2027 06:40:02.559             1.183           563.156
       428   12 Jun 2027 06:40:38.457   12 Jun 2027 06:40:49.058            10.601           100.656
       429   12 Jun 2027 06:41:16.492   12 Jun 2027 06:41:18.165             1.673           829.562
       430   12 Jun 2027 08:11:03.478   12 Jun 2027 08:11:30.908            27.430         13208.531
       431   12 Jun 2027 08:12:11.886   12 Jun 2027 08:12:14.429             2.543           442.750
       432   12 Jun 2027 08:12:46.025   12 Jun 2027 08:12:49.404             3.379           987.375
       433   12 Jun 2027 08:13:34.569   12 Jun 2027 08:13:40.870             6.301          1193.063
       434   12 Jun 2027 08:15:25.724   12 Jun 2027 08:15:32.069             6.345          3111.844
       435   12 Jun 2027 08:16:06.778   12 Jun 2027 08:16:09.593             2.815          1071.406
       436   12 Jun 2027 08:17:02.861   12 Jun 2027 08:17:06.291             3.430          1506.000
       437   12 Jun 2027 08:17:28.609   12 Jun 2027 08:17:30.737             2.128           697.438
       438   12 Jun 2027 09:49:14.912   12 Jun 2027 09:49:30.901            15.989          7801.688
       439   12 Jun 2027 09:49:56.593   12 Jun 2027 09:50:00.120             3.527            49.188
       440   12 Jun 2027 09:50:11.575   12 Jun 2027 09:50:16.873             5.298           357.969
       441   12 Jun 2027 09:50:52.088   12 Jun 2027 09:50:54.450             2.362          1068.281
       442   12 Jun 2027 09:51:29.053   12 Jun 2027 09:51:30.547             1.494           535.437
       443   12 Jun 2027 09:52:19.831   12 Jun 2027 09:52:29.443             9.612          1516.156
       444   12 Jun 2027 11:24:44.333   12 Jun 2027 11:25:00.806            16.473          7709.437
       445   12 Jun 2027 11:25:13.437   12 Jun 2027 11:25:16.775             3.338           140.906
       446   12 Jun 2027 11:26:17.394   12 Jun 2027 11:26:21.225             3.831          1894.344
       447   12 Jun 2027 11:26:32.461   12 Jun 2027 11:26:37.512             5.051           351.125
       448   12 Jun 2027 11:27:05.607   12 Jun 2027 11:27:10.109             4.502           547.250
       449   12 Jun 2027 11:27:35.161   12 Jun 2027 11:27:37.075             1.914           501.250
       450   12 Jun 2027 11:28:28.518   12 Jun 2027 11:28:31.855             3.337           621.500
       451   12 Jun 2027 11:28:50.679   12 Jun 2027 11:28:50.679             0.000             0.000
       452   12 Jun 2027 11:29:14.923   12 Jun 2027 11:29:17.852             2.929          1225.312
       453   12 Jun 2027 11:29:45.900   12 Jun 2027 11:29:50.109             4.209           862.063
       454   12 Jun 2027 11:29:52.656   12 Jun 2027 11:29:55.353             2.697            79.594
       455   13 Jun 2027 03:34:56.878   13 Jun 2027 03:35:06.694             9.816          4908.000
       456   13 Jun 2027 03:35:22.909   13 Jun 2027 03:36:05.738            42.829         21414.500
       457   13 Jun 2027 03:37:09.967   13 Jun 2027 03:37:09.967             0.000             0.000
       458   13 Jun 2027 03:37:42.593   13 Jun 2027 03:37:50.966             8.373          4186.500
       459   13 Jun 2027 03:38:08.871   13 Jun 2027 03:38:26.575            17.704          8852.000
       460   13 Jun 2027 03:38:50.871   13 Jun 2027 03:38:57.759             6.888          3444.000
       461   13 Jun 2027 05:10:29.357   13 Jun 2027 05:10:37.236             7.879          3939.500
       462   13 Jun 2027 05:11:39.485   13 Jun 2027 05:13:01.767            82.282         41141.000
       463   13 Jun 2027 05:13:43.330   13 Jun 2027 05:14:55.961            72.631         36315.500
       464   13 Jun 2027 05:15:59.146   13 Jun 2027 05:16:07.059             7.913          3956.500
       465   13 Jun 2027 06:46:24.555   13 Jun 2027 06:47:21.951            57.396         28274.250
       466   13 Jun 2027 06:48:15.416   13 Jun 2027 06:48:20.551             5.135           587.813
       467   13 Jun 2027 06:48:38.645   13 Jun 2027 06:48:41.286             2.641           311.719
       468   13 Jun 2027 06:48:59.080   13 Jun 2027 06:49:03.928             4.848           294.406
       469   13 Jun 2027 06:49:21.498   13 Jun 2027 06:49:22.597             1.099           463.750
       470   13 Jun 2027 06:49:35.512   13 Jun 2027 06:49:37.388             1.876           403.594
       471   13 Jun 2027 06:49:45.182   13 Jun 2027 06:49:46.009             0.827           243.563
       472   13 Jun 2027 06:50:28.572   13 Jun 2027 06:50:37.612             9.040          1164.813
       473   13 Jun 2027 06:50:59.096   13 Jun 2027 06:51:03.304             4.208           574.406
       474   13 Jun 2027 06:51:25.907   13 Jun 2027 06:51:28.577             2.670           536.031
       475   13 Jun 2027 06:52:16.925   13 Jun 2027 06:52:19.959             3.034          1211.688
       476   13 Jun 2027 06:53:01.539   13 Jun 2027 06:53:05.949             4.410          1169.000
       477   13 Jun 2027 08:23:25.244   13 Jun 2027 08:23:51.989            26.745         12113.469
       478   13 Jun 2027 08:25:04.414   13 Jun 2027 08:25:08.072             3.658          1582.312
       479   13 Jun 2027 08:25:26.774   13 Jun 2027 08:25:28.059             1.285           584.438
       480   13 Jun 2027 08:26:18.465   13 Jun 2027 08:26:22.550             4.085           846.250
       481   13 Jun 2027 08:26:24.159   13 Jun 2027 08:26:26.439             2.280            35.688
       482   13 Jun 2027 08:26:36.350   13 Jun 2027 08:26:36.350             0.000             0.000
       483   13 Jun 2027 08:27:44.013   13 Jun 2027 08:27:50.480             6.467          2277.281
       484   13 Jun 2027 08:28:11.593   13 Jun 2027 08:28:12.819             1.226           540.469
       485   13 Jun 2027 08:28:53.695   13 Jun 2027 08:28:56.319             2.624           554.719
       486   13 Jun 2027 10:01:25.975   13 Jun 2027 10:01:43.147            17.172          8267.469
       487   13 Jun 2027 10:02:15.352   13 Jun 2027 10:02:23.805             8.453          1006.406
       488   13 Jun 2027 10:03:06.411   13 Jun 2027 10:03:07.094             0.683           276.656
       489   13 Jun 2027 10:03:18.237   13 Jun 2027 10:03:19.576             1.339           199.688
       490   13 Jun 2027 10:03:41.389   13 Jun 2027 10:03:43.137             1.748           489.188
       491   13 Jun 2027 10:04:11.857   13 Jun 2027 10:04:18.770             6.913           897.500
       492   13 Jun 2027 10:05:00.704   13 Jun 2027 10:05:06.321             5.617          1301.937
       493   13 Jun 2027 10:05:20.369   13 Jun 2027 10:05:22.649             2.280           365.687
       494   13 Jun 2027 11:34:39.880   13 Jun 2027 11:34:53.477            13.597          6742.031
       495   13 Jun 2027 11:35:23.956   13 Jun 2027 11:35:25.994             2.038           952.469
       496   13 Jun 2027 11:36:38.295   13 Jun 2027 11:36:41.652             3.357          1678.500
       497   13 Jun 2027 11:36:44.060   13 Jun 2027 11:36:46.872             2.812           423.781
       498   13 Jun 2027 11:37:02.246   13 Jun 2027 11:37:04.132             1.886           439.906
       499   13 Jun 2027 11:37:22.131   13 Jun 2027 11:37:26.297             4.166           562.469
       500   13 Jun 2027 11:37:45.204   13 Jun 2027 11:37:48.435             3.231           590.844
       501   13 Jun 2027 11:38:47.949   13 Jun 2027 11:38:52.918             4.969          1859.813
       502   13 Jun 2027 11:39:38.819   13 Jun 2027 11:39:43.803             4.984          1388.000
       503   13 Jun 2027 11:40:44.263   13 Jun 2027 11:40:51.143             6.880          1889.375
       504   13 Jun 2027 11:42:18.030   13 Jun 2027 11:42:25.587             7.557          2715.219
       505   13 Jun 2027 11:42:31.640   13 Jun 2027 11:42:32.492             0.852           189.156
