uniorb/output/strategy_2/Camera/Camera_KinoSat_111009.txt

KinoSat_111009
-------------------------
    Access    *     Start Time (UTCG)     *     Stop Time (UTCG)  *   Duration (s) *   Data (Mbytes)
         1   01 Jun 2027 03:01:09.997   01 Jun 2027 03:01:48.909            38.912         19456.000
         2   01 Jun 2027 03:02:19.613   01 Jun 2027 03:02:25.482             5.869          2934.500
         3   01 Jun 2027 03:02:31.407   01 Jun 2027 03:02:34.357             2.950          1475.000
         4   01 Jun 2027 03:03:02.562   01 Jun 2027 03:03:09.986             7.424          3712.000
         5   01 Jun 2027 03:03:50.189   01 Jun 2027 03:04:40.184            49.995         24997.500
         6   01 Jun 2027 04:25:04.788   01 Jun 2027 04:25:30.304            25.516         12758.000
         7   01 Jun 2027 04:26:00.798   01 Jun 2027 04:26:28.654            27.856         13928.000
         8   01 Jun 2027 06:00:59.739   01 Jun 2027 06:03:33.097           153.358         76679.000
         9   01 Jun 2027 06:04:03.283   01 Jun 2027 06:04:36.669            33.386         16693.000
        10   01 Jun 2027 07:35:54.972   01 Jun 2027 07:38:08.875           133.903         66951.500
        11   01 Jun 2027 07:38:29.263   01 Jun 2027 07:38:57.762            28.499         14249.500
        12   01 Jun 2027 07:41:59.187   01 Jun 2027 07:42:21.908            22.721         11360.500
        13   01 Jun 2027 07:42:33.051   01 Jun 2027 07:42:55.664            22.613         11306.500
        14   01 Jun 2027 09:12:15.311   01 Jun 2027 09:14:25.011           129.700         64850.000
        15   01 Jun 2027 09:14:40.390   01 Jun 2027 09:14:41.363             0.973           486.500
        16   01 Jun 2027 09:14:47.442   01 Jun 2027 09:14:59.604            12.162          6081.000
        17   01 Jun 2027 09:15:48.382   01 Jun 2027 09:15:48.770             0.388           194.000
        18   01 Jun 2027 09:18:36.818   01 Jun 2027 09:18:40.720             3.902          1951.000
        19   01 Jun 2027 10:50:31.908   01 Jun 2027 10:52:36.375           124.467         62233.500
        20   01 Jun 2027 10:53:35.064   01 Jun 2027 10:53:45.089            10.025          5012.500
        21   01 Jun 2027 10:54:09.981   01 Jun 2027 10:54:13.925             3.944          1972.000
        22   02 Jun 2027 03:01:50.849   02 Jun 2027 03:02:10.894            20.045         10022.500
        23   02 Jun 2027 03:13:06.298   02 Jun 2027 03:14:47.183           100.885         50442.500
        24   02 Jun 2027 03:15:14.672   02 Jun 2027 03:15:53.446            38.774         19387.000
        25   02 Jun 2027 03:16:00.152   02 Jun 2027 03:16:14.500            14.348          7174.000
        26   02 Jun 2027 04:35:42.295   02 Jun 2027 04:36:24.088            41.793         20896.500
        27   02 Jun 2027 04:38:27.312   02 Jun 2027 04:38:37.170             9.858          4929.000
        28   02 Jun 2027 04:38:49.268   02 Jun 2027 04:39:11.655            22.387         11193.500
        29   02 Jun 2027 04:40:07.261   02 Jun 2027 04:40:07.261             0.000             0.000
        30   02 Jun 2027 06:11:17.253   02 Jun 2027 06:11:59.446            42.193         21096.500
        31   02 Jun 2027 06:12:43.737   02 Jun 2027 06:14:11.905            88.168         44084.000
        32   02 Jun 2027 06:15:27.436   02 Jun 2027 06:15:27.460             0.024            12.000
        33   02 Jun 2027 06:16:43.862   02 Jun 2027 06:17:14.245            30.383         15191.500
        34   02 Jun 2027 07:47:29.203   02 Jun 2027 07:49:33.982           124.779         62389.500
        35   02 Jun 2027 07:50:23.151   02 Jun 2027 07:50:45.107            21.956         10978.000
        36   02 Jun 2027 07:51:42.278   02 Jun 2027 07:52:10.271            27.993         13996.500
        37   02 Jun 2027 07:52:15.148   02 Jun 2027 07:52:19.939             4.791          2395.500
        38   02 Jun 2027 07:52:33.346   02 Jun 2027 07:52:36.460             3.114          1557.000
        39   02 Jun 2027 07:53:02.244   02 Jun 2027 07:53:11.282             9.038          4519.000
        40   02 Jun 2027 07:54:11.666   02 Jun 2027 07:54:11.666             0.000             0.000
        41   02 Jun 2027 09:24:35.513   02 Jun 2027 09:25:46.547            71.034         32118.750
        42   02 Jun 2027 09:26:20.954   02 Jun 2027 09:26:22.410             1.456           682.813
        43   02 Jun 2027 09:26:42.495   02 Jun 2027 09:26:43.803             1.308           493.938
        44   02 Jun 2027 09:27:01.440   02 Jun 2027 09:27:05.039             3.599           379.250
        45   02 Jun 2027 09:28:21.113   02 Jun 2027 09:28:27.062             5.949          1864.438
        46   02 Jun 2027 09:29:15.133   02 Jun 2027 09:29:18.044             2.911          1192.875
        47   02 Jun 2027 09:29:34.137   02 Jun 2027 09:29:35.341             1.204           219.531
        48   02 Jun 2027 09:29:43.308   02 Jun 2027 09:29:52.808             9.500           248.969
        49   02 Jun 2027 09:30:39.071   02 Jun 2027 09:30:42.826             3.755          1445.719
        50   02 Jun 2027 09:30:49.326   02 Jun 2027 09:30:53.547             4.221            17.937
        51   02 Jun 2027 11:02:33.641   02 Jun 2027 11:02:49.042            15.401          7473.531
        52   02 Jun 2027 11:03:25.706   02 Jun 2027 11:03:28.927             3.221          1145.750
        53   02 Jun 2027 11:04:14.050   02 Jun 2027 11:04:16.185             2.135           805.438
        54   02 Jun 2027 11:04:40.384   02 Jun 2027 11:04:42.183             1.799           549.531
        55   02 Jun 2027 11:05:58.360   02 Jun 2027 11:06:05.718             7.358          2345.469
        56   02 Jun 2027 11:06:24.327   02 Jun 2027 11:06:26.556             2.229           581.531
        57   03 Jun 2027 03:13:25.190   03 Jun 2027 03:14:10.975            45.785         22892.500
        58   03 Jun 2027 03:25:09.340   03 Jun 2027 03:26:19.050            69.710         34855.000
        59   03 Jun 2027 04:47:23.225   03 Jun 2027 04:48:31.088            67.863         33931.500
        60   03 Jun 2027 04:49:21.538   03 Jun 2027 04:50:02.609            41.071         20535.500
        61   03 Jun 2027 04:51:48.399   03 Jun 2027 04:51:58.790            10.391          5195.500
        62   03 Jun 2027 04:52:16.087   03 Jun 2027 04:52:34.794            18.707          9353.500
        63   03 Jun 2027 06:22:23.985   03 Jun 2027 06:23:22.173            58.188         28365.344
        64   03 Jun 2027 06:23:47.283   03 Jun 2027 06:23:50.079             2.796           784.688
        65   03 Jun 2027 06:24:49.879   03 Jun 2027 06:24:49.879             0.000             0.000
        66   03 Jun 2027 06:24:52.015   03 Jun 2027 06:24:59.148             7.133          1868.844
        67   03 Jun 2027 06:25:32.610   03 Jun 2027 06:25:34.368             1.758           873.938
        68   03 Jun 2027 06:25:39.820   03 Jun 2027 06:25:39.820             0.000             0.000
        69   03 Jun 2027 06:25:40.902   03 Jun 2027 06:25:44.517             3.615           204.188
        70   03 Jun 2027 06:26:12.356   03 Jun 2027 06:26:16.075             3.719           865.781
        71   03 Jun 2027 06:27:26.426   03 Jun 2027 06:27:27.933             1.507           753.500
        72   03 Jun 2027 06:27:41.248   03 Jun 2027 06:27:46.257             5.009          1861.063
        73   03 Jun 2027 06:28:06.542   03 Jun 2027 06:28:08.875             2.333           584.875
        74   03 Jun 2027 06:28:43.949   03 Jun 2027 06:28:45.923             1.974            34.844
        75   03 Jun 2027 06:29:39.835   03 Jun 2027 06:29:40.503             0.668           334.000
        76   03 Jun 2027 07:59:49.158   03 Jun 2027 07:59:57.409             8.251          4125.500
        77   03 Jun 2027 08:00:24.405   03 Jun 2027 08:00:28.714             4.309          1235.000
        78   03 Jun 2027 08:02:44.732   03 Jun 2027 08:02:46.596             1.864           585.656
        79   03 Jun 2027 08:02:59.220   03 Jun 2027 08:03:00.710             1.490           353.219
        80   03 Jun 2027 08:03:43.961   03 Jun 2027 08:03:47.451             3.490          1242.625
        81   03 Jun 2027 08:04:05.836   03 Jun 2027 08:04:07.448             1.612            93.125
        82   03 Jun 2027 08:05:12.568   03 Jun 2027 08:05:18.281             5.713          1675.969
        83   03 Jun 2027 08:05:32.517   03 Jun 2027 08:05:37.371             4.854           444.875
        84   03 Jun 2027 08:05:49.259   03 Jun 2027 08:05:56.571             7.312           371.500
        85   03 Jun 2027 08:06:14.577   03 Jun 2027 08:06:19.893             5.316           423.469
        86   03 Jun 2027 08:06:32.142   03 Jun 2027 08:06:36.418             4.276            23.344
        87   03 Jun 2027 09:36:36.654   03 Jun 2027 09:36:57.810            21.156          9792.906
        88   03 Jun 2027 09:37:18.218   03 Jun 2027 09:37:19.202             0.984           492.000
        89   03 Jun 2027 09:38:28.481   03 Jun 2027 09:38:33.073             4.592          2179.562
        90   03 Jun 2027 09:39:06.305   03 Jun 2027 09:39:08.593             2.288          1012.813
        91   03 Jun 2027 09:39:23.874   03 Jun 2027 09:39:23.874             0.000             0.000
        92   03 Jun 2027 09:39:44.679   03 Jun 2027 09:39:50.440             5.761          1127.687
        93   03 Jun 2027 09:40:12.186   03 Jun 2027 09:40:12.186             0.000             0.000
        94   03 Jun 2027 09:40:46.550   03 Jun 2027 09:40:53.295             6.745          1699.594
        95   03 Jun 2027 09:41:23.065   03 Jun 2027 09:41:26.227             3.162           930.312
        96   03 Jun 2027 09:42:25.671   03 Jun 2027 09:42:30.621             4.950          1857.625
        97   03 Jun 2027 09:43:01.590   03 Jun 2027 09:43:03.289             1.699           809.656
        98   03 Jun 2027 11:14:33.964   03 Jun 2027 11:14:51.115            17.151          8505.531
        99   03 Jun 2027 11:16:10.758   03 Jun 2027 11:16:16.169             5.411          2247.000
       100   03 Jun 2027 11:16:37.982   03 Jun 2027 11:16:40.915             2.933           647.937
       101   03 Jun 2027 11:17:07.853   03 Jun 2027 11:17:07.853             0.000             0.000
       102   03 Jun 2027 11:17:12.274   03 Jun 2027 11:17:22.151             9.877           291.687
       103   03 Jun 2027 11:17:47.419   03 Jun 2027 11:17:48.746             1.327           663.500
       104   04 Jun 2027 03:24:57.260   04 Jun 2027 03:26:11.407            74.147         37073.500
       105   04 Jun 2027 03:27:04.085   04 Jun 2027 03:27:06.502             2.417          1208.500
       106   04 Jun 2027 03:37:09.860   04 Jun 2027 03:37:41.608            31.748         15874.000
       107   04 Jun 2027 04:59:04.226   04 Jun 2027 05:00:17.810            73.584         36792.000
       108   04 Jun 2027 05:01:07.309   04 Jun 2027 05:02:30.494            83.185         41592.500
       109   04 Jun 2027 05:03:30.035   04 Jun 2027 05:03:36.661             6.626          3313.000
       110   04 Jun 2027 05:04:12.573   04 Jun 2027 05:04:12.573             0.000             0.000
       111   04 Jun 2027 05:04:19.831   04 Jun 2027 05:04:31.963            12.132          6066.000
       112   04 Jun 2027 06:33:52.762   04 Jun 2027 06:34:21.925            29.163         13218.500
       113   04 Jun 2027 06:35:03.365   04 Jun 2027 06:35:05.401             2.036           995.500
       114   04 Jun 2027 06:35:40.138   04 Jun 2027 06:35:42.534             2.396           787.062
       115   04 Jun 2027 06:36:05.296   04 Jun 2027 06:36:06.047             0.751           328.063
       116   04 Jun 2027 06:36:59.857   04 Jun 2027 06:37:03.004             3.147          1245.313
       117   04 Jun 2027 06:37:11.351   04 Jun 2027 06:37:14.006             2.655           260.844
       118   04 Jun 2027 06:37:30.685   04 Jun 2027 06:37:31.567             0.882           381.156
       119   04 Jun 2027 06:37:44.089   04 Jun 2027 06:37:44.089             0.000             0.000
       120   04 Jun 2027 06:38:08.862   04 Jun 2027 06:38:10.630             1.768           833.812
       121   04 Jun 2027 06:38:26.900   04 Jun 2027 06:38:33.325             6.425           468.344
       122   04 Jun 2027 06:38:58.892   04 Jun 2027 06:39:00.625             1.733           385.188
       123   04 Jun 2027 06:39:44.283   04 Jun 2027 06:39:46.173             1.890           510.812
       124   04 Jun 2027 06:40:11.064   04 Jun 2027 06:40:15.049             3.985            96.031
       125   04 Jun 2027 06:41:07.690   04 Jun 2027 06:41:11.512             3.822          1562.344
       126   04 Jun 2027 06:41:28.624   04 Jun 2027 06:41:31.128             2.504           498.656
       127   04 Jun 2027 06:42:40.817   04 Jun 2027 06:42:45.358             4.541          1934.906
       128   04 Jun 2027 08:11:43.117   04 Jun 2027 08:11:59.544            16.427          8213.500
       129   04 Jun 2027 08:13:33.091   04 Jun 2027 08:13:43.933            10.842          4131.563
       130   04 Jun 2027 08:14:34.781   04 Jun 2027 08:14:37.608             2.827          1330.313
       131   04 Jun 2027 08:15:17.391   04 Jun 2027 08:15:22.413             5.022           227.063
       132   04 Jun 2027 08:15:54.459   04 Jun 2027 08:15:57.378             2.919           936.844
       133   04 Jun 2027 08:16:15.482   04 Jun 2027 08:16:15.634             0.152            65.844
       134   04 Jun 2027 08:17:02.050   04 Jun 2027 08:17:07.135             5.085          1326.469
       135   04 Jun 2027 08:17:39.357   04 Jun 2027 08:17:41.469             2.112          1006.938
       136   04 Jun 2027 08:18:05.328   04 Jun 2027 08:18:09.549             4.221           745.594
       137   04 Jun 2027 08:18:25.140   04 Jun 2027 08:18:31.120             5.980           487.219
       138   04 Jun 2027 08:18:43.220   04 Jun 2027 08:18:43.990             0.770           335.281
       139   04 Jun 2027 09:48:27.834   04 Jun 2027 09:48:46.485            18.651          8785.062
       140   04 Jun 2027 09:48:59.029   04 Jun 2027 09:49:00.770             1.741           249.219
       141   04 Jun 2027 09:49:16.240   04 Jun 2027 09:49:22.393             6.153           460.563
       142   04 Jun 2027 09:49:26.952   04 Jun 2027 09:49:28.200             1.248           142.469
       143   04 Jun 2027 09:49:41.606   04 Jun 2027 09:49:44.235             2.629            56.156
       144   04 Jun 2027 09:51:07.149   04 Jun 2027 09:51:11.491             4.342          2171.000
       145   04 Jun 2027 09:51:35.711   04 Jun 2027 09:51:39.731             4.020           889.500
       146   04 Jun 2027 09:52:15.683   04 Jun 2027 09:52:18.184             2.501          1123.500
       147   04 Jun 2027 09:52:43.843   04 Jun 2027 09:52:48.316             4.473           801.844
       148   04 Jun 2027 09:53:06.803   04 Jun 2027 09:53:10.111             3.308           577.719
       149   04 Jun 2027 09:53:45.433   04 Jun 2027 09:53:48.530             3.097          1076.469
       150   04 Jun 2027 09:54:27.056   04 Jun 2027 09:54:30.921             3.865          1101.000
       151   04 Jun 2027 09:55:02.876   04 Jun 2027 09:55:05.151             2.275           998.594
       152   04 Jun 2027 11:26:36.384   04 Jun 2027 11:26:51.215            14.831          6206.375
       153   04 Jun 2027 11:27:20.424   04 Jun 2027 11:27:27.421             6.997           912.781
       154   04 Jun 2027 11:27:53.360   04 Jun 2027 11:27:53.360             0.000             0.000
       155   04 Jun 2027 11:28:13.308   04 Jun 2027 11:28:16.463             3.155          1105.375
       156   04 Jun 2027 11:28:58.286   04 Jun 2027 11:29:02.039             3.753          1279.656
       157   04 Jun 2027 11:29:05.440   04 Jun 2027 11:29:05.440             0.000             0.000
       158   04 Jun 2027 11:29:31.182   04 Jun 2027 11:29:34.235             3.053           910.719
       159   04 Jun 2027 11:29:37.939   04 Jun 2027 11:29:39.189             1.250            89.844
       160   04 Jun 2027 11:30:39.258   04 Jun 2027 11:30:42.195             2.937          1468.500
       161   05 Jun 2027 03:36:54.968   05 Jun 2027 03:37:39.463            44.495         22247.500
       162   05 Jun 2027 03:37:53.804   05 Jun 2027 03:37:53.804             0.000             0.000
       163   05 Jun 2027 03:38:11.649   05 Jun 2027 03:38:16.644             4.995          2497.500
       164   05 Jun 2027 03:38:44.445   05 Jun 2027 03:38:57.342            12.897          6448.500
       165   05 Jun 2027 05:12:52.226   05 Jun 2027 05:16:13.352           201.126        100563.000
       166   05 Jun 2027 05:16:38.599   05 Jun 2027 05:16:38.599             0.000             0.000
       167   05 Jun 2027 06:46:40.871   05 Jun 2027 06:47:31.112            50.241         24034.657
       168   05 Jun 2027 06:47:57.996   05 Jun 2027 06:48:00.363             2.367           534.438
       169   05 Jun 2027 06:48:39.258   05 Jun 2027 06:48:41.395             2.137           598.813
       170   05 Jun 2027 06:49:06.466   05 Jun 2027 06:49:09.911             3.445           728.000
       171   05 Jun 2027 06:49:58.294   05 Jun 2027 06:50:04.020             5.726          1511.969
       172   05 Jun 2027 06:50:27.292   05 Jun 2027 06:50:28.621             1.329           528.719
       173   05 Jun 2027 06:52:09.253   05 Jun 2027 06:52:14.255             5.002          2450.594
       174   05 Jun 2027 06:52:27.792   05 Jun 2027 06:52:33.668             5.876           423.031
       175   05 Jun 2027 06:52:52.012   05 Jun 2027 06:52:54.955             2.943           457.250
       176   05 Jun 2027 06:53:30.042   05 Jun 2027 06:53:32.285             2.243           900.313
       177   05 Jun 2027 06:54:26.633   05 Jun 2027 06:54:29.765             3.132          1543.469
       178   05 Jun 2027 06:54:46.885   05 Jun 2027 06:54:47.503             0.618           177.875
       179   05 Jun 2027 08:23:50.286   05 Jun 2027 08:24:05.991            15.705          7175.844
       180   05 Jun 2027 08:25:03.378   05 Jun 2027 08:25:04.341             0.963           465.625
       181   05 Jun 2027 08:26:58.696   05 Jun 2027 08:27:04.680             5.984          2596.844
       182   05 Jun 2027 08:27:28.109   05 Jun 2027 08:27:29.505             1.396           424.687
       183   05 Jun 2027 08:27:56.435   05 Jun 2027 08:27:57.283             0.848           424.000
       184   05 Jun 2027 08:28:25.326   05 Jun 2027 08:28:28.053             2.727           970.344
       185   05 Jun 2027 08:28:54.661   05 Jun 2027 08:28:55.429             0.768           384.000
       186   05 Jun 2027 08:29:07.085   05 Jun 2027 08:29:09.207             2.122           811.750
       187   05 Jun 2027 08:29:15.709   05 Jun 2027 08:29:17.968             2.259           203.188
       188   05 Jun 2027 08:29:34.282   05 Jun 2027 08:29:35.153             0.871           116.094
       189   05 Jun 2027 08:30:33.783   05 Jun 2027 08:30:41.662             7.879          1797.344
       190   05 Jun 2027 10:01:18.518   05 Jun 2027 10:01:37.671            19.153          8929.094
       191   05 Jun 2027 10:03:04.269   05 Jun 2027 10:03:09.609             5.340          2179.531
       192   05 Jun 2027 10:03:23.889   05 Jun 2027 10:03:27.488             3.599           446.250
       193   05 Jun 2027 10:03:57.237   05 Jun 2027 10:04:03.817             6.580           929.656
       194   05 Jun 2027 10:04:44.226   05 Jun 2027 10:04:48.210             3.984          1262.781
       195   05 Jun 2027 10:04:55.573   05 Jun 2027 10:04:56.803             1.230           230.094
       196   05 Jun 2027 10:05:23.418   05 Jun 2027 10:05:29.997             6.579           674.687
       197   05 Jun 2027 10:05:54.584   05 Jun 2027 10:05:56.372             1.788           548.781
       198   05 Jun 2027 10:06:01.412   05 Jun 2027 10:06:01.412             0.000             0.000
       199   05 Jun 2027 10:06:54.865   05 Jun 2027 10:06:58.911             4.046          1827.906
       200   05 Jun 2027 11:37:48.517   05 Jun 2027 11:38:02.071            13.554          6755.594
       201   05 Jun 2027 11:38:39.544   05 Jun 2027 11:38:39.544             0.000             0.000
       202   05 Jun 2027 11:39:24.026   05 Jun 2027 11:39:27.481             3.455          1624.000
       203   05 Jun 2027 11:40:28.975   05 Jun 2027 11:40:36.057             7.082          1921.312
       204   05 Jun 2027 11:40:37.761   05 Jun 2027 11:40:40.624             2.863            53.250
       205   05 Jun 2027 11:40:51.943   05 Jun 2027 11:40:52.690             0.747           353.719
       206   05 Jun 2027 11:41:31.231   05 Jun 2027 11:41:32.555             1.324           662.000
       207   05 Jun 2027 11:42:02.375   05 Jun 2027 11:42:10.463             8.088          1405.844
       208   05 Jun 2027 11:42:17.141   05 Jun 2027 11:42:17.679             0.538           208.688
       209   05 Jun 2027 11:42:28.933   05 Jun 2027 11:42:29.800             0.867           219.844
       210   05 Jun 2027 11:42:39.206   05 Jun 2027 11:42:39.921             0.715           293.937
       211   06 Jun 2027 03:48:47.607   06 Jun 2027 03:49:36.339            48.732         24366.000
       212   06 Jun 2027 03:49:45.748   06 Jun 2027 03:50:13.130            27.382         13691.000
       213   06 Jun 2027 05:25:10.006   06 Jun 2027 05:28:19.631           189.625         94812.500
       214   06 Jun 2027 06:59:01.674   06 Jun 2027 06:59:53.457            51.783         25887.313
       215   06 Jun 2027 07:00:22.465   06 Jun 2027 07:00:25.559             3.094           807.500
       216   06 Jun 2027 07:01:18.915   06 Jun 2027 07:01:20.382             1.467           697.469
       217   06 Jun 2027 07:02:39.925   06 Jun 2027 07:02:45.109             5.184          2207.812
       218   06 Jun 2027 07:04:47.920   06 Jun 2027 07:04:55.868             7.948          3539.125
       219   06 Jun 2027 07:05:50.404   06 Jun 2027 07:05:53.651             3.247          1354.656
       220   06 Jun 2027 07:06:08.752   06 Jun 2027 07:06:09.207             0.455             7.844
       221   06 Jun 2027 07:06:12.796   06 Jun 2027 07:06:13.246             0.450            88.656
       222   06 Jun 2027 07:06:44.786   06 Jun 2027 07:06:47.978             3.192           901.656
       223   06 Jun 2027 07:07:00.788   06 Jun 2027 07:07:02.849             2.061           327.219
       224   06 Jun 2027 07:07:09.245   06 Jun 2027 07:07:10.828             1.583           126.156
       225   06 Jun 2027 08:36:16.806   06 Jun 2027 08:36:37.047            20.241          9284.500
       226   06 Jun 2027 08:37:51.180   06 Jun 2027 08:37:56.027             4.847          2136.062
       227   06 Jun 2027 08:39:09.483   06 Jun 2027 08:39:11.057             1.574           106.844
       228   06 Jun 2027 08:39:56.419   06 Jun 2027 08:40:01.016             4.597           979.156
       229   06 Jun 2027 08:40:32.926   06 Jun 2027 08:40:35.167             2.241           997.187
       230   06 Jun 2027 08:40:54.725   06 Jun 2027 08:40:58.805             4.080           357.687
       231   06 Jun 2027 08:41:30.876   06 Jun 2027 08:41:32.973             2.097           908.437
       232   06 Jun 2027 08:41:41.472   06 Jun 2027 08:41:41.472             0.000             0.000
       233   06 Jun 2027 08:41:44.194   06 Jun 2027 08:41:49.138             4.944           343.250
       234   06 Jun 2027 08:42:05.033   06 Jun 2027 08:42:11.764             6.731            30.781
       235   06 Jun 2027 08:42:24.837   06 Jun 2027 08:42:24.837             0.000             0.000
       236   06 Jun 2027 10:13:17.766   06 Jun 2027 10:13:37.163            19.397          8045.375
       237   06 Jun 2027 10:15:16.332   06 Jun 2027 10:15:18.581             2.249          1070.719
       238   06 Jun 2027 10:15:51.381   06 Jun 2027 10:15:54.611             3.230           979.750
       239   06 Jun 2027 10:16:34.105   06 Jun 2027 10:16:34.289             0.184            92.000
       240   06 Jun 2027 10:16:44.188   06 Jun 2027 10:16:46.996             2.808          1164.375
       241   06 Jun 2027 10:17:27.981   06 Jun 2027 10:17:32.630             4.649          1227.031
       242   06 Jun 2027 10:17:43.639   06 Jun 2027 10:17:47.898             4.259           171.469
       243   06 Jun 2027 10:18:15.889   06 Jun 2027 10:18:22.722             6.833           843.250
       244   06 Jun 2027 10:18:35.002   06 Jun 2027 10:18:40.134             5.132           289.562
       245   06 Jun 2027 11:50:02.453   06 Jun 2027 11:50:24.985            22.532          6912.563
       246   06 Jun 2027 11:50:29.967   06 Jun 2027 11:50:32.201             2.234           137.500
       247   06 Jun 2027 11:50:38.301   06 Jun 2027 11:50:40.891             2.590           178.562
       248   06 Jun 2027 11:51:33.234   06 Jun 2027 11:51:35.835             2.601          1300.500
       249   06 Jun 2027 11:52:37.766   06 Jun 2027 11:52:42.258             4.492          2246.000
       250   06 Jun 2027 11:52:44.737   06 Jun 2027 11:52:45.287             0.550           102.031
       251   06 Jun 2027 11:53:29.918   06 Jun 2027 11:53:30.734             0.816           408.000
       252   06 Jun 2027 11:54:00.835   06 Jun 2027 11:54:04.266             3.431          1715.500
       253   06 Jun 2027 11:54:08.195   06 Jun 2027 11:54:10.819             2.624           148.844
       254   07 Jun 2027 04:00:36.282   07 Jun 2027 04:01:57.376            81.094         40547.000
       255   07 Jun 2027 04:01:58.823   07 Jun 2027 04:02:14.322            15.499          7749.500
       256   07 Jun 2027 04:02:50.781   07 Jun 2027 04:03:23.532            32.751         16375.500
       257   07 Jun 2027 05:37:13.461   07 Jun 2027 05:37:33.423            19.962          9981.000
       258   07 Jun 2027 05:38:05.108   07 Jun 2027 05:40:10.270           125.162         62581.000
       259   07 Jun 2027 07:12:16.972   07 Jun 2027 07:13:09.945            52.973         26486.500
       260   07 Jun 2027 07:13:18.706   07 Jun 2027 07:13:21.213             2.507           589.656
       261   07 Jun 2027 07:13:46.499   07 Jun 2027 07:13:50.286             3.787           783.250
       262   07 Jun 2027 07:14:22.940   07 Jun 2027 07:14:22.940             0.000             0.000
       263   07 Jun 2027 07:15:24.003   07 Jun 2027 07:15:30.126             6.123          2809.656
       264   07 Jun 2027 07:16:20.731   07 Jun 2027 07:16:23.454             2.723          1267.656
       265   07 Jun 2027 07:17:31.730   07 Jun 2027 07:17:39.590             7.860          2133.625
       266   07 Jun 2027 07:18:01.388   07 Jun 2027 07:18:02.607             1.219           600.344
       267   07 Jun 2027 07:18:11.723   07 Jun 2027 07:18:14.925             3.202           284.875
       268   07 Jun 2027 07:18:35.642   07 Jun 2027 07:18:38.262             2.620           601.750
       269   07 Jun 2027 07:19:00.066   07 Jun 2027 07:19:00.149             0.083            41.500
       270   07 Jun 2027 07:19:01.734   07 Jun 2027 07:19:02.874             1.140           563.781
       271   07 Jun 2027 08:48:40.047   07 Jun 2027 08:48:57.022            16.975          7606.875
       272   07 Jun 2027 08:49:24.715   07 Jun 2027 08:49:27.817             3.102           557.719
       273   07 Jun 2027 08:50:07.889   07 Jun 2027 08:50:13.263             5.374           504.281
       274   07 Jun 2027 08:50:57.917   07 Jun 2027 08:50:59.267             1.350           244.375
       275   07 Jun 2027 08:51:09.422   07 Jun 2027 08:51:09.957             0.535           207.438
       276   07 Jun 2027 08:51:59.637   07 Jun 2027 08:52:02.184             2.547          1086.594
       277   07 Jun 2027 08:53:08.020   07 Jun 2027 08:53:13.158             5.138          2009.500
       278   07 Jun 2027 08:53:42.774   07 Jun 2027 08:53:42.774             0.000             0.000
       279   07 Jun 2027 08:54:11.582   07 Jun 2027 08:54:18.995             7.413          1442.813
       280   07 Jun 2027 08:54:49.458   07 Jun 2027 08:54:50.841             1.383           684.094
       281   07 Jun 2027 08:54:51.674   07 Jun 2027 08:54:52.024             0.350            26.031
       282   07 Jun 2027 10:26:09.622   07 Jun 2027 10:26:32.558            22.936          7942.969
       283   07 Jun 2027 10:26:43.461   07 Jun 2027 10:26:44.651             1.190           224.344
       284   07 Jun 2027 10:27:08.878   07 Jun 2027 10:27:13.326             4.448           573.656
       285   07 Jun 2027 10:27:46.704   07 Jun 2027 10:27:52.638             5.934          1043.062
       286   07 Jun 2027 10:28:15.796   07 Jun 2027 10:28:18.092             2.296           723.688
       287   07 Jun 2027 10:28:56.959   07 Jun 2027 10:29:00.314             3.355          1162.063
       288   07 Jun 2027 10:29:35.783   07 Jun 2027 10:29:37.786             2.003           844.094
       289   07 Jun 2027 10:29:40.826   07 Jun 2027 10:29:47.316             6.490            95.000
       290   07 Jun 2027 10:29:54.773   07 Jun 2027 10:30:00.621             5.848           230.562
       291   08 Jun 2027 04:12:50.130   08 Jun 2027 04:14:44.649           114.519         57259.500
       292   08 Jun 2027 05:49:23.264   08 Jun 2027 05:51:57.715           154.451         77225.500
       293   08 Jun 2027 07:24:33.582   08 Jun 2027 07:25:32.736            59.154         29089.344
       294   08 Jun 2027 07:26:31.709   08 Jun 2027 07:26:34.029             2.320          1160.000
       295   08 Jun 2027 07:26:51.032   08 Jun 2027 07:26:55.508             4.476           935.750
       296   08 Jun 2027 07:28:09.659   08 Jun 2027 07:28:14.567             4.908          2184.719
       297   08 Jun 2027 07:29:31.874   08 Jun 2027 07:29:39.497             7.623          2222.250
       298   08 Jun 2027 07:30:26.153   08 Jun 2027 07:30:26.153             0.000             0.000
       299   08 Jun 2027 07:30:36.186   08 Jun 2027 07:30:42.442             6.256          1613.437
       300   08 Jun 2027 09:00:55.168   08 Jun 2027 09:01:12.372            17.204          7147.094
       301   08 Jun 2027 09:01:32.802   08 Jun 2027 09:01:37.959             5.157           469.531
       302   08 Jun 2027 09:03:01.291   08 Jun 2027 09:03:07.155             5.864           637.875
       303   08 Jun 2027 09:03:27.909   08 Jun 2027 09:03:30.918             3.009           149.781
       304   08 Jun 2027 09:05:13.384   08 Jun 2027 09:05:18.367             4.983          2491.500
       305   08 Jun 2027 09:05:44.213   08 Jun 2027 09:05:47.497             3.284          1383.031
       306   08 Jun 2027 10:38:13.402   08 Jun 2027 10:38:26.452            13.050          6525.000
       307   08 Jun 2027 10:38:49.352   08 Jun 2027 10:38:50.514             1.162           581.000
       308   08 Jun 2027 10:39:07.375   08 Jun 2027 10:39:09.437             2.062           970.469
       309   08 Jun 2027 10:40:17.768   08 Jun 2027 10:40:22.035             4.267          1663.031
       310   08 Jun 2027 10:40:30.886   08 Jun 2027 10:40:31.582             0.696           126.219
       311   08 Jun 2027 10:41:18.722   08 Jun 2027 10:41:22.335             3.613          1473.125
       312   08 Jun 2027 10:41:25.130   08 Jun 2027 10:41:25.294             0.164            77.469
       313   08 Jun 2027 10:41:42.266   08 Jun 2027 10:41:42.266             0.000             0.000
       314   08 Jun 2027 10:42:05.875   08 Jun 2027 10:42:08.356             2.481           910.000
       315   08 Jun 2027 10:42:39.904   08 Jun 2027 10:42:42.161             2.257           985.875
       316   08 Jun 2027 10:42:43.788   08 Jun 2027 10:42:45.178             1.390            33.969
       317   09 Jun 2027 03:01:25.279   09 Jun 2027 03:02:31.121            65.842         32921.000
       318   09 Jun 2027 03:03:30.682   09 Jun 2027 03:04:05.862            35.180         17590.000
       319   09 Jun 2027 03:04:42.643   09 Jun 2027 03:04:49.646             7.003          3501.500
       320   09 Jun 2027 03:04:56.851   09 Jun 2027 03:04:58.205             1.354           677.000
       321   09 Jun 2027 04:25:19.727   09 Jun 2027 04:26:17.160            57.433         28716.500
       322   09 Jun 2027 04:26:43.075   09 Jun 2027 04:27:36.312            53.237         26618.500
       323   09 Jun 2027 06:01:14.540   09 Jun 2027 06:02:52.602            98.062         48971.031
       324   09 Jun 2027 07:36:08.486   09 Jun 2027 07:36:24.584            16.098          6684.688
       325   09 Jun 2027 07:37:49.878   09 Jun 2027 07:37:54.522             4.644          2170.031
       326   09 Jun 2027 07:38:03.329   09 Jun 2027 07:38:03.963             0.634           275.219
       327   09 Jun 2027 07:38:19.025   09 Jun 2027 07:38:19.833             0.808           329.375
       328   09 Jun 2027 07:39:38.388   09 Jun 2027 07:39:41.372             2.984           959.594
       329   09 Jun 2027 07:41:31.443   09 Jun 2027 07:41:35.747             4.304          2130.281
       330   09 Jun 2027 07:41:51.306   09 Jun 2027 07:41:52.338             1.032           375.656
       331   09 Jun 2027 07:42:15.256   09 Jun 2027 07:42:15.256             0.000             0.000
       332   09 Jun 2027 07:42:38.657   09 Jun 2027 07:42:44.909             6.252          1346.844
       333   09 Jun 2027 09:12:30.898   09 Jun 2027 09:12:53.055            22.157          9208.469
       334   09 Jun 2027 09:14:27.705   09 Jun 2027 09:14:33.043             5.338          1156.844
       335   09 Jun 2027 09:15:21.180   09 Jun 2027 09:15:22.541             1.361           203.969
       336   09 Jun 2027 09:16:08.479   09 Jun 2027 09:16:12.460             3.981          1377.875
       337   09 Jun 2027 09:16:21.364   09 Jun 2027 09:16:22.013             0.649           159.062
       338   09 Jun 2027 09:17:48.875   09 Jun 2027 09:17:53.856             4.981          1889.938
       339   09 Jun 2027 10:50:47.770   09 Jun 2027 10:51:08.783            21.013          9145.906
       340   09 Jun 2027 10:51:10.482   09 Jun 2027 10:51:11.050             0.568            53.094
       341   09 Jun 2027 10:51:27.950   09 Jun 2027 10:51:36.905             8.955           382.938
       342   09 Jun 2027 10:52:51.687   09 Jun 2027 10:53:00.201             8.514          2289.563
       343   09 Jun 2027 10:53:34.849   09 Jun 2027 10:53:37.901             3.052           877.906
       344   09 Jun 2027 10:53:43.547   09 Jun 2027 10:53:43.547             0.000             0.000
       345   09 Jun 2027 10:54:07.510   09 Jun 2027 10:54:09.411             1.901           925.281
       346   09 Jun 2027 10:54:27.652   09 Jun 2027 10:54:28.751             1.099            67.281
       347   10 Jun 2027 03:02:04.789   10 Jun 2027 03:02:47.548            42.759         21379.500
       348   10 Jun 2027 03:13:21.472   10 Jun 2027 03:15:18.082           116.610         58305.000
       349   10 Jun 2027 03:15:24.508   10 Jun 2027 03:15:36.057            11.549          5774.500
       350   10 Jun 2027 03:16:24.555   10 Jun 2027 03:16:29.081             4.526          2263.000
       351   10 Jun 2027 04:35:57.222   10 Jun 2027 04:36:38.124            40.902         20451.000
       352   10 Jun 2027 04:36:43.262   10 Jun 2027 04:36:43.262             0.000             0.000
       353   10 Jun 2027 04:39:03.968   10 Jun 2027 04:39:03.968             0.000             0.000
       354   10 Jun 2027 04:39:26.118   10 Jun 2027 04:40:05.561            39.443         19721.500
       355   10 Jun 2027 06:11:31.886   10 Jun 2027 06:12:15.741            43.855         21927.500
       356   10 Jun 2027 06:12:58.315   10 Jun 2027 06:13:31.764            33.449         15559.969
       357   10 Jun 2027 06:15:58.667   10 Jun 2027 06:16:08.618             9.951          4417.063
       358   10 Jun 2027 06:17:11.125   10 Jun 2027 06:17:16.590             5.465           859.219
       359   10 Jun 2027 07:47:44.511   10 Jun 2027 07:48:01.980            17.469          5233.969
       360   10 Jun 2027 07:49:50.258   10 Jun 2027 07:49:57.819             7.561          2204.094
       361   10 Jun 2027 07:50:48.499   10 Jun 2027 07:50:51.046             2.547           973.563
       362   10 Jun 2027 07:51:04.592   10 Jun 2027 07:51:05.572             0.980            84.500
       363   10 Jun 2027 07:51:59.281   10 Jun 2027 07:52:04.704             5.423          1514.438
       364   10 Jun 2027 07:52:37.001   10 Jun 2027 07:52:42.504             5.503           270.844
       365   10 Jun 2027 07:53:19.634   10 Jun 2027 07:53:24.931             5.297           893.344
       366   10 Jun 2027 07:53:52.396   10 Jun 2027 07:53:52.819             0.423           211.500
       367   10 Jun 2027 07:54:00.782   10 Jun 2027 07:54:07.058             6.276           855.813
       368   10 Jun 2027 07:55:17.529   10 Jun 2027 07:55:19.105             1.576           788.000
       369   10 Jun 2027 09:24:50.881   10 Jun 2027 09:25:08.161            17.280          7776.781
       370   10 Jun 2027 09:25:29.834   10 Jun 2027 09:25:31.429             1.595           129.688
       371   10 Jun 2027 09:26:28.193   10 Jun 2027 09:26:30.624             2.431           368.156
       372   10 Jun 2027 09:26:50.135   10 Jun 2027 09:26:53.608             3.473           388.719
       373   10 Jun 2027 09:27:34.789   10 Jun 2027 09:27:36.299             1.510           722.406
       374   10 Jun 2027 09:28:35.691   10 Jun 2027 09:28:44.145             8.454          1856.000
       375   10 Jun 2027 09:28:58.844   10 Jun 2027 09:29:01.136             2.292            26.000
       376   10 Jun 2027 09:29:16.483   10 Jun 2027 09:29:17.702             1.219           479.594
       377   10 Jun 2027 09:29:53.122   10 Jun 2027 09:29:55.239             2.117           979.906
       378   10 Jun 2027 09:30:53.854   10 Jun 2027 09:30:57.550             3.696          1303.344
       379   10 Jun 2027 09:31:04.628   10 Jun 2027 09:31:07.146             2.518           221.187
       380   10 Jun 2027 11:02:48.872   10 Jun 2027 11:03:01.450            12.578          6289.000
       381   10 Jun 2027 11:03:41.568   10 Jun 2027 11:03:50.217             8.649          1630.625
       382   10 Jun 2027 11:04:29.244   10 Jun 2027 11:04:30.929             1.685           811.219
       383   10 Jun 2027 11:04:54.270   10 Jun 2027 11:04:55.260             0.990           495.000
       384   10 Jun 2027 11:05:23.635   10 Jun 2027 11:05:26.523             2.888          1121.125
       385   10 Jun 2027 11:05:31.796   10 Jun 2027 11:05:34.558             2.762            36.969
       386   10 Jun 2027 11:06:09.174   10 Jun 2027 11:06:11.008             1.834           767.188
       387   10 Jun 2027 11:06:36.914   10 Jun 2027 11:06:39.366             2.452           796.531
       388   11 Jun 2027 03:13:40.252   11 Jun 2027 03:14:29.302            49.050         24525.000
       389   11 Jun 2027 03:25:24.068   11 Jun 2027 03:26:33.163            69.095         34547.500
       390   11 Jun 2027 04:47:39.267   11 Jun 2027 04:48:45.793            66.526         33263.000
       391   11 Jun 2027 04:49:36.342   11 Jun 2027 04:50:17.568            41.226         20613.000
       392   11 Jun 2027 04:52:02.711   11 Jun 2027 04:52:23.171            20.460         10230.000
       393   11 Jun 2027 06:22:38.647   11 Jun 2027 06:23:45.942            67.295         31425.563
       394   11 Jun 2027 06:23:54.739   11 Jun 2027 06:23:54.739             0.000             0.000
       395   11 Jun 2027 06:23:56.187   11 Jun 2027 06:23:59.770             3.583           320.156
       396   11 Jun 2027 06:24:42.222   11 Jun 2027 06:24:46.724             4.502          1093.219
       397   11 Jun 2027 06:25:09.357   11 Jun 2027 06:25:14.359             5.002           156.844
       398   11 Jun 2027 06:25:56.234   11 Jun 2027 06:25:56.234             0.000             0.000
       399   11 Jun 2027 06:25:58.906   11 Jun 2027 06:26:00.329             1.423           711.500
       400   11 Jun 2027 06:27:13.786   11 Jun 2027 06:27:19.755             5.969          2796.844
       401   11 Jun 2027 06:27:51.290   11 Jun 2027 06:27:56.363             5.073           373.594
       402   11 Jun 2027 06:28:04.814   11 Jun 2027 06:28:10.758             5.944           264.094
       403   11 Jun 2027 06:29:11.913   11 Jun 2027 06:29:17.456             5.543          1512.469
       404   11 Jun 2027 06:29:35.907   11 Jun 2027 06:29:35.907             0.000             0.000
       405   11 Jun 2027 06:29:42.958   11 Jun 2027 06:29:45.769             2.811           796.937
       406   11 Jun 2027 06:30:41.378   11 Jun 2027 06:30:47.817             6.439          1602.844
       407   11 Jun 2027 08:00:04.440   11 Jun 2027 08:00:14.526            10.086          4266.812
       408   11 Jun 2027 08:00:41.475   11 Jun 2027 08:00:43.242             1.767           835.250
       409   11 Jun 2027 08:02:59.755   11 Jun 2027 08:03:01.278             1.523           587.469
       410   11 Jun 2027 08:03:15.930   11 Jun 2027 08:03:17.467             1.537           402.938
       411   11 Jun 2027 08:04:17.384   11 Jun 2027 08:04:22.393             5.009          1775.469
       412   11 Jun 2027 08:04:53.456   11 Jun 2027 08:04:54.871             1.415           611.375
       413   11 Jun 2027 08:05:22.444   11 Jun 2027 08:05:24.876             2.432           712.000
       414   11 Jun 2027 08:06:01.202   11 Jun 2027 08:06:05.442             4.240          1024.406
       415   11 Jun 2027 08:07:18.196   11 Jun 2027 08:07:22.846             4.650          2215.313
       416   11 Jun 2027 09:36:51.445   11 Jun 2027 09:37:13.495            22.050          9804.500
       417   11 Jun 2027 09:37:14.483   11 Jun 2027 09:37:16.728             2.245            30.875
       418   11 Jun 2027 09:37:34.745   11 Jun 2027 09:37:36.397             1.652           560.281
       419   11 Jun 2027 09:38:03.239   11 Jun 2027 09:38:07.409             4.170           541.062
       420   11 Jun 2027 09:38:45.280   11 Jun 2027 09:38:47.801             2.521           728.531
       421   11 Jun 2027 09:39:23.756   11 Jun 2027 09:39:29.964             6.208          1048.375
       422   11 Jun 2027 09:39:33.514   11 Jun 2027 09:39:38.224             4.710           104.813
       423   11 Jun 2027 09:40:07.578   11 Jun 2027 09:40:14.110             6.532           228.531
       424   11 Jun 2027 09:40:21.829   11 Jun 2027 09:40:26.776             4.947            55.750
       425   11 Jun 2027 09:41:01.650   11 Jun 2027 09:41:04.566             2.916          1089.812
       426   11 Jun 2027 09:41:38.199   11 Jun 2027 09:41:40.746             2.547           933.281
       427   11 Jun 2027 09:42:39.944   11 Jun 2027 09:42:43.659             3.715          1849.937
       428   11 Jun 2027 09:43:16.249   11 Jun 2027 09:43:18.424             2.175           806.406
       429   11 Jun 2027 11:14:49.411   11 Jun 2027 11:15:06.982            17.571          7721.781
       430   11 Jun 2027 11:16:19.731   11 Jun 2027 11:16:24.817             5.086          2066.562
       431   11 Jun 2027 11:16:28.701   11 Jun 2027 11:16:31.282             2.581            90.687
       432   11 Jun 2027 11:17:20.287   11 Jun 2027 11:17:24.085             3.798          1170.656
       433   11 Jun 2027 11:17:27.175   11 Jun 2027 11:17:39.978            12.803            96.563
       434   11 Jun 2027 11:18:23.118   11 Jun 2027 11:18:25.767             2.649          1244.812
       435   12 Jun 2027 03:25:12.563   12 Jun 2027 03:26:27.731            75.168         37584.000
       436   12 Jun 2027 03:37:25.145   12 Jun 2027 03:37:56.823            31.678         15839.000
       437   12 Jun 2027 04:59:19.244   12 Jun 2027 05:00:32.349            73.105         36552.500
       438   12 Jun 2027 05:01:22.007   12 Jun 2027 05:02:39.557            77.550         38775.000
       439   12 Jun 2027 05:03:29.840   12 Jun 2027 05:03:29.840             0.000             0.000
       440   12 Jun 2027 05:04:07.113   12 Jun 2027 05:04:28.739            21.626         10813.000
       441   12 Jun 2027 06:34:07.322   12 Jun 2027 06:34:45.224            37.902         16887.876
       442   12 Jun 2027 06:35:18.524   12 Jun 2027 06:35:21.306             2.782           968.281
       443   12 Jun 2027 06:35:55.869   12 Jun 2027 06:35:57.548             1.679           828.438
       444   12 Jun 2027 06:38:14.687   12 Jun 2027 06:38:24.885            10.198          3845.438
       445   12 Jun 2027 06:39:43.355   12 Jun 2027 06:39:52.128             8.773          2452.188
       446   12 Jun 2027 06:40:49.946   12 Jun 2027 06:40:54.284             4.338          1517.813
       447   12 Jun 2027 06:41:25.139   12 Jun 2027 06:41:26.425             1.286           313.656
       448   12 Jun 2027 06:41:44.676   12 Jun 2027 06:41:45.785             1.109           542.687
       449   12 Jun 2027 06:42:58.411   12 Jun 2027 06:43:06.716             8.305          1898.125
       450   12 Jun 2027 06:43:17.488   12 Jun 2027 06:43:17.488             0.000             0.000
       451   12 Jun 2027 08:11:58.501   12 Jun 2027 08:12:12.678            14.177          6907.125
       452   12 Jun 2027 08:12:45.755   12 Jun 2027 08:12:49.404             3.649           903.156
       453   12 Jun 2027 08:14:10.170   12 Jun 2027 08:14:13.735             3.565           652.469
       454   12 Jun 2027 08:15:05.837   12 Jun 2027 08:15:10.577             4.740          1611.000
       455   12 Jun 2027 08:15:32.493   12 Jun 2027 08:15:33.500             1.007           211.531
       456   12 Jun 2027 08:16:09.593   12 Jun 2027 08:16:12.096             2.503           948.062
       457   12 Jun 2027 08:16:29.989   12 Jun 2027 08:16:30.997             1.008            60.469
       458   12 Jun 2027 08:17:16.604   12 Jun 2027 08:17:22.103             5.499          1290.688
       459   12 Jun 2027 08:17:35.144   12 Jun 2027 08:17:35.144             0.000             0.000
       460   12 Jun 2027 08:18:06.012   12 Jun 2027 08:18:15.421             9.409          1336.250
       461   12 Jun 2027 08:19:17.075   12 Jun 2027 08:19:23.247             6.172          1784.500
       462   12 Jun 2027 09:48:43.076   12 Jun 2027 09:49:03.897            20.821          9341.813
       463   12 Jun 2027 09:49:14.835   12 Jun 2027 09:49:16.361             1.526           309.844
       464   12 Jun 2027 09:49:42.485   12 Jun 2027 09:49:42.980             0.495           112.813
       465   12 Jun 2027 09:51:22.503   12 Jun 2027 09:51:27.567             5.064          2284.719
       466   12 Jun 2027 09:51:51.327   12 Jun 2027 09:51:53.990             2.663           742.500
       467   12 Jun 2027 09:52:09.317   12 Jun 2027 09:52:10.334             1.017           328.062
       468   12 Jun 2027 09:53:03.568   12 Jun 2027 09:53:07.354             3.786          1503.906
       469   12 Jun 2027 09:53:12.630   12 Jun 2027 09:53:15.075             2.445           164.875
       470   12 Jun 2027 09:53:27.052   12 Jun 2027 09:53:28.270             1.218           240.563
       471   12 Jun 2027 09:54:04.872   12 Jun 2027 09:54:07.427             2.555          1143.812
       472   12 Jun 2027 09:54:25.550   12 Jun 2027 09:54:25.550             0.000             0.000
       473   12 Jun 2027 09:54:33.611   12 Jun 2027 09:54:35.265             1.654           588.031
       474   12 Jun 2027 09:54:46.175   12 Jun 2027 09:54:47.237             1.062           190.344
       475   12 Jun 2027 09:55:16.759   12 Jun 2027 09:55:16.760             0.001             0.500
       476   12 Jun 2027 11:26:52.049   12 Jun 2027 11:27:05.607            13.558          6592.437
       477   12 Jun 2027 11:27:19.121   12 Jun 2027 11:27:21.749             2.628           422.312
       478   12 Jun 2027 11:28:08.630   12 Jun 2027 11:28:12.575             3.945          1355.406
       479   12 Jun 2027 11:28:33.987   12 Jun 2027 11:28:34.377             0.390           170.906
       480   12 Jun 2027 11:28:47.224   12 Jun 2027 11:28:47.717             0.493           150.625
       481   12 Jun 2027 11:29:18.314   12 Jun 2027 11:29:20.141             1.827           863.594
       482   12 Jun 2027 11:29:45.900   12 Jun 2027 11:29:50.109             4.209           800.375
       483   12 Jun 2027 11:30:11.609   12 Jun 2027 11:30:12.457             0.848           424.000
       484   12 Jun 2027 11:30:28.889   12 Jun 2027 11:30:34.478             5.589           681.781
       485   13 Jun 2027 03:37:10.007   13 Jun 2027 03:38:08.871            58.864         29432.000
       486   13 Jun 2027 03:38:26.575   13 Jun 2027 03:38:28.477             1.902           951.000
       487   13 Jun 2027 03:39:00.251   13 Jun 2027 03:39:15.463            15.212          7606.000
       488   13 Jun 2027 03:39:15.953   13 Jun 2027 03:39:26.424            10.471          5235.500
       489   13 Jun 2027 05:13:07.858   13 Jun 2027 05:15:56.680           168.822         84411.000
       490   13 Jun 2027 05:16:08.111   13 Jun 2027 05:16:26.603            18.492          9246.000
       491   13 Jun 2027 06:46:56.030   13 Jun 2027 06:47:45.553            49.523         23356.250
       492   13 Jun 2027 06:48:15.416   13 Jun 2027 06:48:20.551             5.135           587.813
       493   13 Jun 2027 06:48:49.008   13 Jun 2027 06:48:53.605             4.597           442.312
       494   13 Jun 2027 06:49:27.552   13 Jun 2027 06:49:29.018             1.466           593.969
       495   13 Jun 2027 06:50:00.704   13 Jun 2027 06:50:00.704             0.000             0.000
       496   13 Jun 2027 06:50:27.124   13 Jun 2027 06:50:37.612            10.488          1612.875
       497   13 Jun 2027 06:51:28.577   13 Jun 2027 06:51:28.577             0.000             0.000
       498   13 Jun 2027 06:52:26.194   13 Jun 2027 06:52:35.704             9.510          3393.188
       499   13 Jun 2027 06:53:15.809   13 Jun 2027 06:53:18.972             3.163           993.562
       500   13 Jun 2027 06:53:46.075   13 Jun 2027 06:53:46.935             0.860           254.531
       501   13 Jun 2027 06:54:29.044   13 Jun 2027 06:54:32.577             3.533          1123.344
       502   13 Jun 2027 06:54:55.870   13 Jun 2027 06:54:59.637             3.767           727.906
       503   13 Jun 2027 08:24:05.602   13 Jun 2027 08:24:18.676            13.074          6194.250
       504   13 Jun 2027 08:25:47.722   13 Jun 2027 08:25:51.146             3.424          1189.781
       505   13 Jun 2027 08:26:23.017   13 Jun 2027 08:26:26.439             3.422           956.719
       506   13 Jun 2027 08:26:48.986   13 Jun 2027 08:26:50.380             1.394           328.125
       507   13 Jun 2027 08:27:30.091   13 Jun 2027 08:27:38.325             8.234           856.969
       508   13 Jun 2027 08:27:54.298   13 Jun 2027 08:27:57.071             2.773           350.906
       509   13 Jun 2027 08:28:48.592   13 Jun 2027 08:28:53.695             5.103          1188.844
       510   13 Jun 2027 08:29:11.899   13 Jun 2027 08:29:12.821             0.922           372.906
       511   13 Jun 2027 08:29:28.507   13 Jun 2027 08:29:29.833             1.326           187.125
       512   13 Jun 2027 08:29:49.063   13 Jun 2027 08:29:50.828             1.765           157.094
       513   13 Jun 2027 08:29:56.748   13 Jun 2027 08:29:57.330             0.582            53.219
       514   13 Jun 2027 08:30:26.908   13 Jun 2027 08:30:26.908             0.000             0.000
       515   13 Jun 2027 08:30:45.662   13 Jun 2027 08:30:48.811             3.149          1505.219
       516   13 Jun 2027 08:30:59.600   13 Jun 2027 08:31:04.307             4.707           337.156
       517   13 Jun 2027 10:01:09.247   13 Jun 2027 10:01:31.127            21.880          8687.656
       518   13 Jun 2027 10:03:19.576   13 Jun 2027 10:03:25.735             6.159          3041.844
       519   13 Jun 2027 10:04:02.573   13 Jun 2027 10:04:07.711             5.138          1134.031
       520   13 Jun 2027 10:04:12.687   13 Jun 2027 10:04:18.770             6.083           155.500
       521   13 Jun 2027 10:05:11.438   13 Jun 2027 10:05:14.214             2.776          1330.563
       522   13 Jun 2027 10:05:29.355   13 Jun 2027 10:05:31.318             1.963           409.469
       523   13 Jun 2027 10:06:39.178   13 Jun 2027 10:06:46.478             7.300          2120.625
       524   13 Jun 2027 10:07:04.301   13 Jun 2027 10:07:10.352             6.051           505.656
       525   13 Jun 2027 11:38:02.926   13 Jun 2027 11:38:16.708            13.782          6301.906
       526   13 Jun 2027 11:38:33.954   13 Jun 2027 11:38:35.623             1.669           153.656
       527   13 Jun 2027 11:38:59.703   13 Jun 2027 11:39:01.274             1.571           708.344
       528   13 Jun 2027 11:39:31.075   13 Jun 2027 11:39:34.349             3.274           791.594
       529   13 Jun 2027 11:39:50.712   13 Jun 2027 11:39:53.200             2.488           444.625
       530   13 Jun 2027 11:40:24.348   13 Jun 2027 11:40:24.348             0.000             0.000
       531   13 Jun 2027 11:40:28.669   13 Jun 2027 11:40:31.247             2.578           951.750
       532   13 Jun 2027 11:41:22.258   13 Jun 2027 11:41:25.904             3.646          1410.438
       533   13 Jun 2027 11:41:50.031   13 Jun 2027 11:41:54.245             4.214           440.344
       534   13 Jun 2027 11:42:27.470   13 Jun 2027 11:42:27.470             0.000             0.000
