uniorb/output/strategy_2/Camera/Camera_KinoSat_110610.txt

KinoSat_110610
-------------------------
    Access    *     Start Time (UTCG)     *     Stop Time (UTCG)  *   Duration (s) *   Data (Mbytes)
         1   01 Jun 2027 04:28:54.882   01 Jun 2027 04:32:06.345           191.463         95731.500
         2   01 Jun 2027 04:32:09.041   01 Jun 2027 04:32:15.610             6.569          3284.500
         3   01 Jun 2027 04:32:22.876   01 Jun 2027 04:32:34.500            11.624          5812.000
         4   01 Jun 2027 04:34:43.279   01 Jun 2027 04:34:50.735             7.456          3728.000
         5   01 Jun 2027 04:35:01.079   01 Jun 2027 04:35:01.079             0.000             0.000
         6   01 Jun 2027 04:36:01.518   01 Jun 2027 04:36:10.886             9.368          4684.000
         7   01 Jun 2027 04:37:11.641   01 Jun 2027 04:37:24.342            12.701          6350.500
         8   01 Jun 2027 04:37:45.323   01 Jun 2027 04:37:46.682             1.359           679.500
         9   01 Jun 2027 06:06:41.190   01 Jun 2027 06:08:19.867            98.677         49338.500
        10   01 Jun 2027 06:08:58.300   01 Jun 2027 06:09:45.724            47.424         23712.000
        11   01 Jun 2027 06:10:05.663   01 Jun 2027 06:10:52.104            46.441         23220.500
        12   01 Jun 2027 06:13:22.381   01 Jun 2027 06:14:06.679            44.298         22149.000
        13   01 Jun 2027 07:43:26.594   01 Jun 2027 07:45:16.773           110.179         55089.500
        14   01 Jun 2027 07:45:31.433   01 Jun 2027 07:46:25.640            54.207         27103.500
        15   01 Jun 2027 07:47:04.819   01 Jun 2027 07:47:05.440             0.621           310.500
        16   01 Jun 2027 07:47:20.810   01 Jun 2027 07:47:29.561             8.751          4375.500
        17   01 Jun 2027 07:48:48.662   01 Jun 2027 07:49:16.142            27.480         13740.000
        18   01 Jun 2027 09:21:31.801   01 Jun 2027 09:21:59.099            27.298         13649.000
        19   01 Jun 2027 09:22:19.300   01 Jun 2027 09:23:56.173            96.873         48436.500
        20   01 Jun 2027 09:24:26.603   01 Jun 2027 09:24:31.372             4.769          2384.500
        21   01 Jun 2027 10:55:22.796   01 Jun 2027 10:57:26.849           124.053         62026.500
        22   01 Jun 2027 10:59:56.127   01 Jun 2027 11:00:10.903            14.776          7388.000
        23   01 Jun 2027 11:01:48.688   01 Jun 2027 11:01:53.061             4.373          2186.500
        24   02 Jun 2027 03:05:38.938   02 Jun 2027 03:06:36.128            57.190         28595.000
        25   02 Jun 2027 03:07:56.348   02 Jun 2027 03:08:29.072            32.724         16362.000
        26   02 Jun 2027 03:09:39.908   02 Jun 2027 03:09:39.908             0.000             0.000
        27   02 Jun 2027 04:41:40.749   02 Jun 2027 04:44:20.242           159.493         79746.500
        28   02 Jun 2027 04:45:35.612   02 Jun 2027 04:45:53.586            17.974          8987.000
        29   02 Jun 2027 04:49:27.548   02 Jun 2027 04:49:32.077             4.529          2264.500
        30   02 Jun 2027 04:49:43.244   02 Jun 2027 04:49:51.558             8.314          4157.000
        31   02 Jun 2027 06:18:44.785   02 Jun 2027 06:20:34.609           109.824         54912.000
        32   02 Jun 2027 06:20:58.424   02 Jun 2027 06:20:58.654             0.230           115.000
        33   02 Jun 2027 06:21:46.724   02 Jun 2027 06:22:39.749            53.025         26512.500
        34   02 Jun 2027 06:22:52.693   02 Jun 2027 06:22:57.295             4.602          2301.000
        35   02 Jun 2027 06:23:19.817   02 Jun 2027 06:23:38.432            18.615          9307.500
        36   02 Jun 2027 06:24:11.762   02 Jun 2027 06:24:41.574            29.812         14906.000
        37   02 Jun 2027 06:24:51.404   02 Jun 2027 06:25:02.988            11.584          5792.000
        38   02 Jun 2027 06:25:18.914   02 Jun 2027 06:25:36.181            17.267          8633.500
        39   02 Jun 2027 07:55:40.581   02 Jun 2027 07:57:57.390           136.809         68404.500
        40   02 Jun 2027 08:00:15.095   02 Jun 2027 08:00:38.826            23.731         11865.500
        41   02 Jun 2027 08:00:58.892   02 Jun 2027 08:01:16.694            17.802          8901.000
        42   02 Jun 2027 08:01:57.296   02 Jun 2027 08:01:58.018             0.722           361.000
        43   02 Jun 2027 09:32:45.460   02 Jun 2027 09:33:11.399            25.939         12969.500
        44   02 Jun 2027 09:33:13.155   02 Jun 2027 09:33:17.730             4.575          2287.500
        45   02 Jun 2027 09:33:48.378   02 Jun 2027 09:33:51.243             2.865          1132.468
        46   02 Jun 2027 09:34:29.101   02 Jun 2027 09:34:29.101             0.000             0.000
        47   02 Jun 2027 09:34:45.241   02 Jun 2027 09:34:48.941             3.700          1320.937
        48   02 Jun 2027 09:35:03.064   02 Jun 2027 09:35:06.476             3.412           441.344
        49   02 Jun 2027 09:35:11.529   02 Jun 2027 09:35:13.015             1.486           157.906
        50   02 Jun 2027 09:35:47.084   02 Jun 2027 09:35:51.775             4.691           702.969
        51   02 Jun 2027 09:37:14.386   02 Jun 2027 09:37:21.003             6.617          2553.313
        52   02 Jun 2027 11:07:48.878   02 Jun 2027 11:07:57.734             8.856          4278.406
        53   02 Jun 2027 11:08:09.017   02 Jun 2027 11:08:11.155             2.138           352.594
        54   02 Jun 2027 11:09:26.916   02 Jun 2027 11:09:35.035             8.119           762.813
        55   02 Jun 2027 11:10:43.651   02 Jun 2027 11:10:48.085             4.434          1995.031
        56   02 Jun 2027 11:12:11.663   02 Jun 2027 11:12:21.628             9.965          2188.219
        57   03 Jun 2027 03:20:10.276   03 Jun 2027 03:20:30.609            20.333         10166.500
        58   03 Jun 2027 03:21:13.375   03 Jun 2027 03:21:15.528             2.153          1076.500
        59   03 Jun 2027 03:21:25.394   03 Jun 2027 03:21:37.774            12.380          6190.000
        60   03 Jun 2027 03:21:53.466   03 Jun 2027 03:22:15.640            22.174         11087.000
        61   03 Jun 2027 04:53:38.816   03 Jun 2027 04:56:39.448           180.632         90316.000
        62   03 Jun 2027 04:56:53.912   03 Jun 2027 04:57:13.358            19.446          9723.000
        63   03 Jun 2027 04:57:22.124   03 Jun 2027 04:57:36.888            14.764          7382.000
        64   03 Jun 2027 05:00:58.762   03 Jun 2027 05:01:06.842             8.080          4040.000
        65   03 Jun 2027 05:02:07.387   03 Jun 2027 05:02:09.588             2.201          1100.500
        66   03 Jun 2027 06:31:11.073   03 Jun 2027 06:32:38.797            87.724         43437.312
        67   03 Jun 2027 06:33:30.280   03 Jun 2027 06:33:31.756             1.476           690.375
        68   03 Jun 2027 06:33:50.766   03 Jun 2027 06:33:56.259             5.493           312.937
        69   03 Jun 2027 06:34:16.709   03 Jun 2027 06:34:19.469             2.760           316.656
        70   03 Jun 2027 06:35:03.927   03 Jun 2027 06:35:07.726             3.799          1067.875
        71   03 Jun 2027 06:35:43.019   03 Jun 2027 06:35:46.328             3.309           921.531
        72   03 Jun 2027 06:35:47.106   03 Jun 2027 06:35:50.445             3.339            24.313
        73   03 Jun 2027 06:36:52.579   03 Jun 2027 06:36:56.696             4.117          1326.469
        74   03 Jun 2027 08:08:05.867   03 Jun 2027 08:08:41.451            35.584         16847.531
        75   03 Jun 2027 08:08:55.536   03 Jun 2027 08:08:57.536             2.000           433.437
        76   03 Jun 2027 08:09:16.578   03 Jun 2027 08:09:18.028             1.450           595.062
        77   03 Jun 2027 08:10:19.720   03 Jun 2027 08:10:22.632             2.912          1456.000
        78   03 Jun 2027 08:10:38.726   03 Jun 2027 08:10:38.726             0.000             0.000
        79   03 Jun 2027 08:11:26.355   03 Jun 2027 08:11:31.708             5.353          2054.375
        80   03 Jun 2027 08:11:50.694   03 Jun 2027 08:11:51.962             1.268           526.656
        81   03 Jun 2027 08:12:24.502   03 Jun 2027 08:12:27.418             2.916           962.031
        82   03 Jun 2027 08:13:09.208   03 Jun 2027 08:13:11.892             2.684          1178.750
        83   03 Jun 2027 09:44:56.697   03 Jun 2027 09:45:15.145            18.448          9014.844
        84   03 Jun 2027 09:45:35.598   03 Jun 2027 09:45:37.284             1.686           639.156
        85   03 Jun 2027 09:46:20.690   03 Jun 2027 09:46:21.583             0.893           446.500
        86   03 Jun 2027 09:47:02.585   03 Jun 2027 09:47:10.061             7.476          1722.781
        87   03 Jun 2027 09:47:22.971   03 Jun 2027 09:47:24.580             1.609           403.438
        88   03 Jun 2027 09:48:03.022   03 Jun 2027 09:48:05.068             2.046          1023.000
        89   03 Jun 2027 09:48:09.693   03 Jun 2027 09:48:14.530             4.837           196.500
        90   03 Jun 2027 09:48:27.515   03 Jun 2027 09:48:28.713             1.198           405.781
        91   03 Jun 2027 09:48:48.335   03 Jun 2027 09:48:48.335             0.000             0.000
        92   03 Jun 2027 09:49:11.884   03 Jun 2027 09:49:17.568             5.684          1326.156
        93   03 Jun 2027 09:49:21.578   03 Jun 2027 09:49:23.911             2.333           102.594
        94   03 Jun 2027 11:22:33.304   03 Jun 2027 11:22:37.741             4.437          2143.906
        95   03 Jun 2027 11:22:53.789   03 Jun 2027 11:22:56.469             2.680           501.500
        96   03 Jun 2027 11:23:11.319   03 Jun 2027 11:23:19.261             7.942           156.406
        97   03 Jun 2027 11:23:43.971   03 Jun 2027 11:23:52.206             8.235           694.188
        98   03 Jun 2027 11:23:56.328   03 Jun 2027 11:23:58.609             2.281           105.375
        99   04 Jun 2027 03:32:11.767   04 Jun 2027 03:32:40.594            28.827         14413.500
       100   04 Jun 2027 03:33:16.561   04 Jun 2027 03:33:16.980             0.419           209.500
       101   04 Jun 2027 03:33:51.682   04 Jun 2027 03:34:17.913            26.231         13115.500
       102   04 Jun 2027 05:06:41.378   04 Jun 2027 05:08:59.006           137.628         68814.000
       103   04 Jun 2027 05:09:18.490   04 Jun 2027 05:10:22.116            63.626         31813.000
       104   04 Jun 2027 05:12:17.546   04 Jun 2027 05:12:40.917            23.371         11685.500
       105   04 Jun 2027 05:13:45.925   04 Jun 2027 05:14:05.364            19.439          9719.500
       106   04 Jun 2027 06:43:18.064   04 Jun 2027 06:44:10.552            52.488         25984.250
       107   04 Jun 2027 06:44:48.287   04 Jun 2027 06:44:48.917             0.630           112.375
       108   04 Jun 2027 06:45:18.103   04 Jun 2027 06:45:24.502             6.399           438.625
       109   04 Jun 2027 06:45:57.449   04 Jun 2027 06:46:01.561             4.112           712.125
       110   04 Jun 2027 06:46:32.841   04 Jun 2027 06:46:34.889             2.048           841.094
       111   04 Jun 2027 06:47:07.207   04 Jun 2027 06:47:09.888             2.681            67.969
       112   04 Jun 2027 06:47:47.919   04 Jun 2027 06:47:53.595             5.676          1188.469
       113   04 Jun 2027 06:48:01.037   04 Jun 2027 06:48:02.305             1.268            99.344
       114   04 Jun 2027 06:49:03.796   04 Jun 2027 06:49:07.053             3.257          1628.500
       115   04 Jun 2027 08:21:00.235   04 Jun 2027 08:21:33.189            32.954         13879.531
       116   04 Jun 2027 08:22:18.993   04 Jun 2027 08:22:23.147             4.154          1428.688
       117   04 Jun 2027 08:22:28.542   04 Jun 2027 08:22:29.004             0.462           163.812
       118   04 Jun 2027 08:22:35.403   04 Jun 2027 08:22:36.658             1.255           189.656
       119   04 Jun 2027 08:23:16.298   04 Jun 2027 08:23:16.646             0.348           174.000
       120   04 Jun 2027 08:23:41.667   04 Jun 2027 08:23:43.659             1.992           996.000
       121   04 Jun 2027 08:24:20.755   04 Jun 2027 08:24:26.275             5.520          1946.312
       122   04 Jun 2027 09:56:58.877   04 Jun 2027 09:57:15.390            16.513          8052.250
       123   04 Jun 2027 09:57:42.232   04 Jun 2027 09:57:46.963             4.731           604.406
       124   04 Jun 2027 09:58:22.184   04 Jun 2027 09:58:25.645             3.461          1002.469
       125   04 Jun 2027 09:58:33.739   04 Jun 2027 09:58:37.291             3.552            51.656
       126   04 Jun 2027 09:59:07.236   04 Jun 2027 09:59:09.116             1.880           935.781
       127   04 Jun 2027 10:00:15.000   04 Jun 2027 10:00:20.412             5.412          1966.719
       128   04 Jun 2027 10:00:36.224   04 Jun 2027 10:00:37.835             1.611           494.125
       129   05 Jun 2027 03:44:20.439   05 Jun 2027 03:45:17.433            56.994         28497.000
       130   05 Jun 2027 03:45:43.921   05 Jun 2027 03:46:04.142            20.221         10110.500
       131   05 Jun 2027 03:47:18.807   05 Jun 2027 03:47:47.281            28.474         14237.000
       132   05 Jun 2027 03:47:51.918   05 Jun 2027 03:47:53.175             1.257           628.500
       133   05 Jun 2027 05:19:29.555   05 Jun 2027 05:21:57.852           148.297         74148.500
       134   05 Jun 2027 05:22:14.509   05 Jun 2027 05:22:27.560            13.051          6525.500
       135   05 Jun 2027 05:23:41.375   05 Jun 2027 05:23:58.465            17.090          8545.000
       136   05 Jun 2027 05:25:04.442   05 Jun 2027 05:25:07.185             2.743          1371.500
       137   05 Jun 2027 05:25:16.275   05 Jun 2027 05:25:16.275             0.000             0.000
       138   05 Jun 2027 05:25:40.956   05 Jun 2027 05:25:46.679             5.723          2861.500
       139   05 Jun 2027 05:25:55.750   05 Jun 2027 05:26:06.752            11.002          5501.000
       140   05 Jun 2027 06:55:53.278   05 Jun 2027 06:56:52.859            59.581         29267.406
       141   05 Jun 2027 06:56:58.447   05 Jun 2027 06:56:59.348             0.901           153.688
       142   05 Jun 2027 06:57:15.685   05 Jun 2027 06:57:18.243             2.558           400.219
       143   05 Jun 2027 06:58:27.999   05 Jun 2027 06:58:30.222             2.223           981.906
       144   05 Jun 2027 06:59:20.721   05 Jun 2027 06:59:24.249             3.528           599.063
       145   05 Jun 2027 06:59:39.538   05 Jun 2027 06:59:47.823             8.285            94.313
       146   05 Jun 2027 07:00:17.544   05 Jun 2027 07:00:20.500             2.956           545.062
       147   05 Jun 2027 07:00:54.167   05 Jun 2027 07:00:57.866             3.699           964.844
       148   05 Jun 2027 08:33:06.985   05 Jun 2027 08:33:36.899            29.914         14839.719
       149   05 Jun 2027 08:34:41.860   05 Jun 2027 08:34:51.556             9.696          1751.281
       150   05 Jun 2027 08:35:17.358   05 Jun 2027 08:35:19.122             1.764           806.312
       151   05 Jun 2027 08:35:42.184   05 Jun 2027 08:35:44.746             2.562           720.687
       152   05 Jun 2027 08:37:07.016   05 Jun 2027 08:37:13.889             6.873          2367.062
       153   05 Jun 2027 10:09:25.901   05 Jun 2027 10:09:48.662            22.761          8238.406
       154   05 Jun 2027 10:10:29.229   05 Jun 2027 10:10:30.884             1.655           244.656
       155   05 Jun 2027 10:11:12.858   05 Jun 2027 10:11:17.025             4.167          1223.750
       156   05 Jun 2027 10:11:53.788   05 Jun 2027 10:11:59.195             5.407           641.094
       157   05 Jun 2027 10:12:24.554   05 Jun 2027 10:12:26.759             2.205           620.156
       158   05 Jun 2027 10:12:55.891   05 Jun 2027 10:12:59.556             3.665           910.375
       159   06 Jun 2027 03:56:13.351   06 Jun 2027 03:57:00.750            47.399         23699.500
       160   06 Jun 2027 03:57:45.428   06 Jun 2027 03:58:09.883            24.455         12227.500
       161   06 Jun 2027 03:58:15.396   06 Jun 2027 03:58:15.614             0.218           109.000
       162   06 Jun 2027 03:59:48.431   06 Jun 2027 03:59:49.858             1.427           713.500
       163   06 Jun 2027 05:31:10.897   06 Jun 2027 05:34:23.550           192.653         96326.500
       164   06 Jun 2027 05:35:24.081   06 Jun 2027 05:35:36.704            12.623          6311.500
       165   06 Jun 2027 05:36:25.790   06 Jun 2027 05:36:38.847            13.057          6528.500
       166   06 Jun 2027 05:37:10.784   06 Jun 2027 05:37:13.222             2.438          1219.000
       167   06 Jun 2027 05:37:46.913   06 Jun 2027 05:38:11.616            24.703         12351.500
       168   06 Jun 2027 07:07:24.879   06 Jun 2027 07:08:36.555            71.676         33507.937
       169   06 Jun 2027 07:09:58.314   06 Jun 2027 07:10:00.961             2.647           389.156
       170   06 Jun 2027 07:10:37.514   06 Jun 2027 07:10:44.866             7.352          1113.406
       171   06 Jun 2027 07:11:20.111   06 Jun 2027 07:11:22.378             2.267          1067.844
       172   06 Jun 2027 07:11:38.338   06 Jun 2027 07:11:51.014            12.676           101.094
       173   06 Jun 2027 07:12:02.083   06 Jun 2027 07:12:04.501             2.418           225.312
       174   06 Jun 2027 07:12:19.365   06 Jun 2027 07:12:22.928             3.563           260.469
       175   06 Jun 2027 07:12:54.587   06 Jun 2027 07:12:58.959             4.372           917.937
       176   06 Jun 2027 08:45:44.867   06 Jun 2027 08:46:07.094            22.227         11113.500
       177   06 Jun 2027 08:46:27.214   06 Jun 2027 08:46:29.144             1.930           965.000
       178   06 Jun 2027 08:47:15.365   06 Jun 2027 08:47:26.218            10.853          1676.719
       179   06 Jun 2027 08:47:39.624   06 Jun 2027 08:47:47.329             7.705           418.938
       180   06 Jun 2027 08:48:11.553   06 Jun 2027 08:48:14.079             2.526           347.563
       181   06 Jun 2027 10:21:04.266   06 Jun 2027 10:21:20.433            16.167          8083.500
       182   06 Jun 2027 10:21:33.903   06 Jun 2027 10:21:36.633             2.730          1028.031
       183   06 Jun 2027 10:23:15.983   06 Jun 2027 10:23:22.638             6.655          2221.594
       184   06 Jun 2027 10:24:54.370   06 Jun 2027 10:25:03.622             9.252          2642.531
       185   06 Jun 2027 10:26:08.370   06 Jun 2027 10:26:11.181             2.811          1405.500
       186   06 Jun 2027 10:26:12.675   06 Jun 2027 10:26:14.570             1.895            87.875
       187   06 Jun 2027 10:26:27.529   06 Jun 2027 10:26:31.527             3.998           297.906
       188   07 Jun 2027 04:06:35.532   07 Jun 2027 04:07:01.491            25.959         12979.500
       189   07 Jun 2027 04:07:58.039   07 Jun 2027 04:09:06.270            68.231         34115.500
       190   07 Jun 2027 04:09:12.857   07 Jun 2027 04:09:17.656             4.799          2399.500
       191   07 Jun 2027 04:10:16.914   07 Jun 2027 04:10:16.914             0.000             0.000
       192   07 Jun 2027 04:11:14.888   07 Jun 2027 04:11:27.053            12.165          6082.500
       193   07 Jun 2027 04:12:02.182   07 Jun 2027 04:12:19.597            17.415          8707.500
       194   07 Jun 2027 05:42:43.881   07 Jun 2027 05:45:32.981           169.100         84550.000
       195   07 Jun 2027 05:49:14.875   07 Jun 2027 05:49:22.551             7.676          3838.000
       196   07 Jun 2027 05:49:35.092   07 Jun 2027 05:49:40.232             5.140          2570.000
       197   07 Jun 2027 05:50:15.581   07 Jun 2027 05:50:18.090             2.509          1254.500
       198   07 Jun 2027 07:19:46.388   07 Jun 2027 07:21:12.074            85.686         42231.656
       199   07 Jun 2027 07:21:59.861   07 Jun 2027 07:22:02.180             2.319          1139.594
       200   07 Jun 2027 07:24:05.241   07 Jun 2027 07:24:11.892             6.651          2789.344
       201   07 Jun 2027 07:24:49.111   07 Jun 2027 07:24:49.111             0.000             0.000
       202   07 Jun 2027 07:25:07.625   07 Jun 2027 07:25:12.819             5.194          1669.375
       203   07 Jun 2027 07:25:24.017   07 Jun 2027 07:25:26.621             2.604           304.125
       204   07 Jun 2027 08:57:45.996   07 Jun 2027 08:58:09.380            23.384         11692.000
       205   07 Jun 2027 08:58:47.535   07 Jun 2027 08:58:53.896             6.361          3056.250
       206   07 Jun 2027 08:59:37.113   07 Jun 2027 08:59:46.685             9.572          1256.406
       207   07 Jun 2027 09:00:21.995   07 Jun 2027 09:00:25.037             3.042           951.781
       208   07 Jun 2027 09:00:35.968   07 Jun 2027 09:00:41.217             5.249           229.937
       209   07 Jun 2027 09:01:29.946   07 Jun 2027 09:01:32.917             2.971          1461.437
       210   07 Jun 2027 09:01:37.037   07 Jun 2027 09:01:37.804             0.767            99.219
       211   07 Jun 2027 10:30:57.356   07 Jun 2027 10:31:19.587            22.231          7845.500
       212   07 Jun 2027 10:32:26.426   07 Jun 2027 10:32:32.471             6.045          1303.250
       213   07 Jun 2027 10:32:52.574   07 Jun 2027 10:32:57.743             5.169           454.906
       214   07 Jun 2027 10:34:18.908   07 Jun 2027 10:34:21.659             2.751          1375.500
       215   07 Jun 2027 10:34:25.592   07 Jun 2027 10:34:28.279             2.687          1283.813
       216   07 Jun 2027 10:35:15.039   07 Jun 2027 10:35:17.792             2.753          1187.937
       217   07 Jun 2027 10:35:45.468   07 Jun 2027 10:35:49.533             4.065           792.313
       218   07 Jun 2027 10:36:22.813   07 Jun 2027 10:36:22.813             0.000             0.000
       219   07 Jun 2027 10:36:25.002   07 Jun 2027 10:36:27.076             2.074           692.031
       220   07 Jun 2027 10:37:17.714   07 Jun 2027 10:37:30.103            12.389          1400.375
       221   07 Jun 2027 10:38:00.874   07 Jun 2027 10:38:03.505             2.631           724.406
       222   07 Jun 2027 10:38:20.281   07 Jun 2027 10:38:21.623             1.342           433.813
       223   08 Jun 2027 04:17:39.968   08 Jun 2027 04:19:09.494            89.526         44763.000
       224   08 Jun 2027 04:19:42.015   08 Jun 2027 04:19:52.697            10.682          5341.000
       225   08 Jun 2027 04:20:40.876   08 Jun 2027 04:21:03.421            22.545         11272.500
       226   08 Jun 2027 04:21:35.954   08 Jun 2027 04:21:35.954             0.000             0.000
       227   08 Jun 2027 04:22:51.014   08 Jun 2027 04:23:10.883            19.869          9934.500
       228   08 Jun 2027 04:23:18.012   08 Jun 2027 04:23:22.415             4.403          2201.500
       229   08 Jun 2027 04:23:52.590   08 Jun 2027 04:24:20.803            28.213         14106.500
       230   08 Jun 2027 04:25:38.658   08 Jun 2027 04:25:44.104             5.446          2723.000
       231   08 Jun 2027 05:54:55.636   08 Jun 2027 05:55:58.232            62.596         31298.000
       232   08 Jun 2027 05:56:17.073   08 Jun 2027 05:57:11.706            54.633         27316.500
       233   08 Jun 2027 05:57:20.200   08 Jun 2027 05:57:36.135            15.935          7967.500
       234   08 Jun 2027 05:57:57.021   08 Jun 2027 05:58:08.435            11.414          5707.000
       235   08 Jun 2027 06:00:30.184   08 Jun 2027 06:00:56.395            26.211         12641.407
       236   08 Jun 2027 06:01:44.645   08 Jun 2027 06:01:44.900             0.255           127.500
       237   08 Jun 2027 07:31:49.558   08 Jun 2027 07:32:52.407            62.849         29962.875
       238   08 Jun 2027 07:33:52.989   08 Jun 2027 07:33:59.228             6.239          1215.719
       239   08 Jun 2027 07:35:12.025   08 Jun 2027 07:35:12.025             0.000             0.000
       240   08 Jun 2027 07:36:00.170   08 Jun 2027 07:36:07.238             7.068          3034.125
       241   08 Jun 2027 07:36:07.553   08 Jun 2027 07:36:07.888             0.335             9.844
       242   08 Jun 2027 07:36:37.531   08 Jun 2027 07:36:40.611             3.080           926.344
       243   08 Jun 2027 07:37:23.283   08 Jun 2027 07:37:27.831             4.548          1333.500
       244   08 Jun 2027 09:09:45.736   08 Jun 2027 09:10:08.538            22.802         11401.000
       245   08 Jun 2027 09:11:05.808   08 Jun 2027 09:11:12.379             6.571          2398.188
       246   08 Jun 2027 09:12:16.124   08 Jun 2027 09:12:19.955             3.831          1912.250
       247   08 Jun 2027 09:13:37.871   08 Jun 2027 09:13:42.266             4.395          2000.438
       248   08 Jun 2027 10:43:19.576   08 Jun 2027 10:43:22.985             3.409          1681.500
       249   08 Jun 2027 10:44:08.126   08 Jun 2027 10:44:12.493             4.367           415.469
       250   08 Jun 2027 10:44:24.335   08 Jun 2027 10:44:25.973             1.638           370.063
       251   08 Jun 2027 10:45:09.354   08 Jun 2027 10:45:19.737            10.383          1072.594
       252   08 Jun 2027 10:45:24.698   08 Jun 2027 10:45:25.523             0.825           155.031
       253   08 Jun 2027 10:47:00.373   08 Jun 2027 10:47:05.695             5.322          2137.312
       254   08 Jun 2027 10:47:52.975   08 Jun 2027 10:47:56.439             3.464          1144.094
       255   08 Jun 2027 10:48:54.726   08 Jun 2027 10:48:58.475             3.749          1365.250
       256   08 Jun 2027 10:49:10.904   08 Jun 2027 10:49:11.693             0.789           283.500
       257   08 Jun 2027 10:49:16.002   08 Jun 2027 10:49:19.581             3.579            70.656
       258   08 Jun 2027 10:49:57.806   08 Jun 2027 10:50:01.953             4.147           900.219
       259   08 Jun 2027 10:50:27.769   08 Jun 2027 10:50:32.201             4.432           777.750
       260   09 Jun 2027 04:29:09.215   09 Jun 2027 04:32:33.287           204.072        102036.000
       261   09 Jun 2027 04:33:48.882   09 Jun 2027 04:34:03.158            14.276          7138.000
       262   09 Jun 2027 04:34:24.886   09 Jun 2027 04:34:26.595             1.709           854.500
       263   09 Jun 2027 04:35:31.312   09 Jun 2027 04:35:39.276             7.964          3982.000
       264   09 Jun 2027 04:36:09.861   09 Jun 2027 04:36:17.540             7.679          3839.500
       265   09 Jun 2027 04:37:39.807   09 Jun 2027 04:37:42.788             2.981          1490.500
       266   09 Jun 2027 04:37:48.213   09 Jun 2027 04:38:00.916            12.703          6351.500
       267   09 Jun 2027 06:06:55.770   09 Jun 2027 06:08:37.416           101.646         50788.281
       268   09 Jun 2027 06:09:27.349   09 Jun 2027 06:09:30.101             2.752          1269.281
       269   09 Jun 2027 06:09:39.352   09 Jun 2027 06:09:39.352             0.000             0.000
       270   09 Jun 2027 06:09:59.672   09 Jun 2027 06:10:00.601             0.929           464.500
       271   09 Jun 2027 06:10:20.389   09 Jun 2027 06:10:23.652             3.263           937.219
       272   09 Jun 2027 06:11:14.413   09 Jun 2027 06:11:17.820             3.407           959.219
       273   09 Jun 2027 06:11:28.676   09 Jun 2027 06:11:29.480             0.804            79.437
       274   09 Jun 2027 06:11:42.360   09 Jun 2027 06:11:43.849             1.489           402.500
       275   09 Jun 2027 06:12:08.579   09 Jun 2027 06:12:09.841             1.262           631.000
       276   09 Jun 2027 06:12:41.452   09 Jun 2027 06:12:46.277             4.825          1129.656
       277   09 Jun 2027 06:13:06.997   09 Jun 2027 06:13:10.255             3.258            44.312
       278   09 Jun 2027 06:13:37.468   09 Jun 2027 06:13:42.267             4.799            14.906
       279   09 Jun 2027 07:43:40.920   09 Jun 2027 07:44:27.790            46.870         23396.500
       280   09 Jun 2027 07:46:40.258   09 Jun 2027 07:46:44.708             4.450          1694.438
       281   09 Jun 2027 07:47:13.432   09 Jun 2027 07:47:15.460             2.028           592.781
       282   09 Jun 2027 07:47:25.857   09 Jun 2027 07:47:30.452             4.595           203.937
       283   09 Jun 2027 07:48:02.448   09 Jun 2027 07:48:06.443             3.995           859.156
       284   09 Jun 2027 07:48:25.471   09 Jun 2027 07:48:27.847             2.376           585.094
       285   09 Jun 2027 07:49:43.536   09 Jun 2027 07:49:49.124             5.588          2155.188
       286   09 Jun 2027 07:50:23.758   09 Jun 2027 07:50:25.844             2.086           469.344
       287   09 Jun 2027 09:21:46.413   09 Jun 2027 09:22:08.068            21.655          9757.781
       288   09 Jun 2027 09:22:09.938   09 Jun 2027 09:22:10.904             0.966            50.000
       289   09 Jun 2027 09:23:15.963   09 Jun 2027 09:23:22.427             6.464          1914.656
       290   09 Jun 2027 09:23:51.144   09 Jun 2027 09:24:03.699            12.555           853.813
       291   09 Jun 2027 09:24:33.608   09 Jun 2027 09:24:33.608             0.000             0.000
       292   09 Jun 2027 09:24:46.179   09 Jun 2027 09:24:48.960             2.781          1278.813
       293   09 Jun 2027 09:25:39.015   09 Jun 2027 09:25:43.066             4.051          1511.250
       294   09 Jun 2027 10:55:37.516   09 Jun 2027 10:55:40.941             3.425          1373.281
       295   09 Jun 2027 10:56:14.273   09 Jun 2027 10:56:16.766             2.493           793.906
       296   09 Jun 2027 10:57:03.032   09 Jun 2027 10:57:03.032             0.000             0.000
       297   09 Jun 2027 10:57:14.872   09 Jun 2027 10:57:21.834             6.962          1589.313
       298   09 Jun 2027 10:57:59.424   09 Jun 2027 10:58:00.820             1.396           565.844
       299   09 Jun 2027 10:58:40.281   09 Jun 2027 10:58:43.355             3.074           738.719
       300   09 Jun 2027 10:58:54.464   09 Jun 2027 10:59:03.255             8.791           347.156
       301   09 Jun 2027 11:00:09.327   09 Jun 2027 11:00:16.155             6.828          1863.063
       302   09 Jun 2027 11:01:33.555   09 Jun 2027 11:01:44.689            11.134          2118.719
       303   09 Jun 2027 11:02:11.370   09 Jun 2027 11:02:17.401             6.031           324.875
       304   10 Jun 2027 03:05:53.356   10 Jun 2027 03:06:49.279            55.923         27961.500
       305   10 Jun 2027 03:08:10.847   10 Jun 2027 03:08:10.847             0.000             0.000
       306   10 Jun 2027 03:08:49.868   10 Jun 2027 03:08:49.868             0.000             0.000
       307   10 Jun 2027 03:09:53.587   10 Jun 2027 03:09:55.663             2.076          1038.000
       308   10 Jun 2027 03:10:26.696   10 Jun 2027 03:10:39.812            13.116          6558.000
       309   10 Jun 2027 04:41:55.307   10 Jun 2027 04:44:53.147           177.840         88920.000
       310   10 Jun 2027 04:45:02.675   10 Jun 2027 04:45:16.632            13.957          6978.500
       311   10 Jun 2027 04:46:06.832   10 Jun 2027 04:46:08.181             1.349           674.500
       312   10 Jun 2027 04:48:18.615   10 Jun 2027 04:48:30.494            11.879          5939.500
       313   10 Jun 2027 06:18:59.807   10 Jun 2027 06:20:36.387            96.580         47814.562
       314   10 Jun 2027 06:21:47.824   10 Jun 2027 06:21:51.372             3.548           868.969
       315   10 Jun 2027 06:22:57.217   10 Jun 2027 06:23:01.545             4.328          1977.500
       316   10 Jun 2027 06:23:09.099   10 Jun 2027 06:23:12.129             3.030            47.906
       317   10 Jun 2027 06:23:47.486   10 Jun 2027 06:23:50.439             2.953          1104.906
       318   10 Jun 2027 06:24:44.266   10 Jun 2027 06:24:48.892             4.626          1604.531
       319   10 Jun 2027 06:25:52.089   10 Jun 2027 06:25:55.889             3.800          1366.438
       320   10 Jun 2027 06:26:15.936   10 Jun 2027 06:26:20.031             4.095           559.781
       321   10 Jun 2027 07:55:58.923   10 Jun 2027 07:56:16.060            17.137          8568.500
       322   10 Jun 2027 07:56:27.959   10 Jun 2027 07:56:50.010            22.051          9981.906
       323   10 Jun 2027 07:57:56.137   10 Jun 2027 07:58:00.064             3.927          1963.500
       324   10 Jun 2027 07:58:13.564   10 Jun 2027 07:58:15.221             1.657           524.844
       325   10 Jun 2027 07:58:53.728   10 Jun 2027 07:58:56.520             2.792           777.250
       326   10 Jun 2027 07:59:34.633   10 Jun 2027 07:59:40.731             6.098          1127.781
       327   10 Jun 2027 08:01:07.526   10 Jun 2027 08:01:12.888             5.362          2641.344
       328   10 Jun 2027 08:01:46.082   10 Jun 2027 08:01:51.263             5.181           482.812
       329   10 Jun 2027 09:33:00.253   10 Jun 2027 09:33:19.528            19.275          8965.875
       330   10 Jun 2027 09:34:25.319   10 Jun 2027 09:34:30.306             4.987          1580.906
       331   10 Jun 2027 09:34:57.051   10 Jun 2027 09:35:00.492             3.441           753.562
       332   10 Jun 2027 09:36:11.726   10 Jun 2027 09:36:17.836             6.110          2226.062
       333   10 Jun 2027 09:36:52.023   10 Jun 2027 09:36:56.371             4.348          1058.219
       334   10 Jun 2027 09:37:16.831   10 Jun 2027 09:37:16.831             0.000             0.000
       335   10 Jun 2027 09:37:36.581   10 Jun 2027 09:37:37.858             1.277           638.500
       336   10 Jun 2027 11:08:03.892   10 Jun 2027 11:08:12.566             8.674          3344.906
       337   10 Jun 2027 11:09:42.454   10 Jun 2027 11:09:51.124             8.670          1044.562
       338   10 Jun 2027 11:10:58.181   10 Jun 2027 11:11:01.876             3.695          1627.844
       339   10 Jun 2027 11:11:16.612   10 Jun 2027 11:11:18.640             2.028           460.500
       340   10 Jun 2027 11:12:26.519   10 Jun 2027 11:12:37.139            10.620          2098.656
       341   11 Jun 2027 03:20:25.159   11 Jun 2027 03:20:45.249            20.090         10045.000
       342   11 Jun 2027 03:21:31.690   11 Jun 2027 03:21:36.672             4.982          2491.000
       343   11 Jun 2027 03:21:43.042   11 Jun 2027 03:21:44.139             1.097           548.500
       344   11 Jun 2027 03:21:53.549   11 Jun 2027 03:22:09.715            16.166          8083.000
       345   11 Jun 2027 03:22:37.026   11 Jun 2027 03:22:41.528             4.502          2251.000
       346   11 Jun 2027 04:53:53.371   11 Jun 2027 04:57:21.593           208.222        104111.000
       347   11 Jun 2027 04:58:11.885   11 Jun 2027 04:58:17.657             5.772          2886.000
       348   11 Jun 2027 05:00:18.327   11 Jun 2027 05:00:25.072             6.745          3372.500
       349   11 Jun 2027 05:01:22.365   11 Jun 2027 05:01:22.671             0.306           153.000
       350   11 Jun 2027 05:01:22.853   11 Jun 2027 05:01:27.500             4.647          2323.500
       351   11 Jun 2027 05:02:14.835   11 Jun 2027 05:02:24.223             9.388          4694.000
       352   11 Jun 2027 06:31:26.534   11 Jun 2027 06:32:51.050            84.516         41868.780
       353   11 Jun 2027 06:33:03.788   11 Jun 2027 06:33:05.052             1.264            70.687
       354   11 Jun 2027 06:33:48.260   11 Jun 2027 06:33:50.071             1.811           495.656
       355   11 Jun 2027 06:34:05.540   11 Jun 2027 06:34:12.379             6.839           322.438
       356   11 Jun 2027 06:34:44.413   11 Jun 2027 06:34:48.210             3.797           722.937
       357   11 Jun 2027 06:35:00.805   11 Jun 2027 06:35:02.299             1.494           287.438
       358   11 Jun 2027 06:35:03.640   11 Jun 2027 06:35:04.429             0.789            41.906
       359   11 Jun 2027 06:35:29.236   11 Jun 2027 06:35:32.483             3.247           723.188
       360   11 Jun 2027 06:36:25.021   11 Jun 2027 06:36:27.319             2.298          1149.000
       361   11 Jun 2027 06:37:00.658   11 Jun 2027 06:37:04.283             3.625          1266.688
       362   11 Jun 2027 06:37:14.221   11 Jun 2027 06:37:16.061             1.840            33.906
       363   11 Jun 2027 08:08:20.586   11 Jun 2027 08:08:57.660            37.074         16150.781
       364   11 Jun 2027 08:10:37.413   11 Jun 2027 08:10:40.659             3.246          1619.219
       365   11 Jun 2027 08:10:50.877   11 Jun 2027 08:10:51.778             0.901           145.281
       366   11 Jun 2027 08:11:37.044   11 Jun 2027 08:11:42.659             5.615          1381.688
       367   11 Jun 2027 08:12:50.343   11 Jun 2027 08:12:59.192             8.849          2110.469
       368   11 Jun 2027 08:12:59.931   11 Jun 2027 08:13:00.072             0.141            23.094
       369   11 Jun 2027 08:13:22.839   11 Jun 2027 08:13:23.566             0.727           208.469
       370   11 Jun 2027 09:45:11.676   11 Jun 2027 09:45:30.151            18.475          8201.687
       371   11 Jun 2027 09:45:50.741   11 Jun 2027 09:45:51.833             1.092           432.281
       372   11 Jun 2027 09:46:14.674   11 Jun 2027 09:46:18.403             3.729           713.781
       373   11 Jun 2027 09:46:48.096   11 Jun 2027 09:46:50.505             2.409           787.000
       374   11 Jun 2027 09:47:08.294   11 Jun 2027 09:47:12.462             4.168           555.906
       375   11 Jun 2027 09:47:42.304   11 Jun 2027 09:47:43.934             1.630           512.219
       376   11 Jun 2027 09:48:17.676   11 Jun 2027 09:48:19.621             1.945           814.875
       377   11 Jun 2027 09:48:32.788   11 Jun 2027 09:48:38.648             5.860           408.969
       378   11 Jun 2027 09:49:04.407   11 Jun 2027 09:49:07.272             2.865           689.719
       379   11 Jun 2027 11:22:48.042   11 Jun 2027 11:22:53.109             5.067          1328.563
       380   11 Jun 2027 11:23:08.792   11 Jun 2027 11:23:12.307             3.515           489.500
       381   11 Jun 2027 11:24:25.584   11 Jun 2027 11:24:27.497             1.913           956.500
       382   12 Jun 2027 03:32:26.424   12 Jun 2027 03:32:57.765            31.341         15670.500
       383   12 Jun 2027 03:34:08.265   12 Jun 2027 03:34:41.215            32.950         16475.000
       384   12 Jun 2027 05:07:08.930   12 Jun 2027 05:10:17.607           188.677         94338.500
       385   12 Jun 2027 05:10:28.221   12 Jun 2027 05:11:03.788            35.567         17783.500
       386   12 Jun 2027 05:11:44.977   12 Jun 2027 05:11:48.699             3.722          1861.000
       387   12 Jun 2027 05:11:52.808   12 Jun 2027 05:12:03.610            10.802          4073.906
       388   12 Jun 2027 05:13:25.176   12 Jun 2027 05:13:25.839             0.663           331.500
       389   12 Jun 2027 05:13:26.715   12 Jun 2027 05:13:30.375             3.660          1360.031
       390   12 Jun 2027 05:14:16.963   12 Jun 2027 05:14:20.090             3.127          1455.875
       391   12 Jun 2027 06:43:32.870   12 Jun 2027 06:44:31.963            59.093         29048.688
       392   12 Jun 2027 06:45:32.644   12 Jun 2027 06:45:33.304             0.660           330.000
       393   12 Jun 2027 06:46:04.099   12 Jun 2027 06:46:07.172             3.073          1245.687
       394   12 Jun 2027 06:46:20.622   12 Jun 2027 06:46:23.269             2.647           407.000
       395   12 Jun 2027 06:47:24.698   12 Jun 2027 06:47:27.822             3.124          1162.656
       396   12 Jun 2027 06:49:21.593   12 Jun 2027 06:49:28.592             6.999          3486.406
       397   12 Jun 2027 08:21:15.371   12 Jun 2027 08:21:47.813            32.442         14498.906
       398   12 Jun 2027 08:22:39.080   12 Jun 2027 08:22:42.902             3.822          1598.219
       399   12 Jun 2027 08:23:25.802   12 Jun 2027 08:23:30.942             5.140          1332.594
       400   12 Jun 2027 08:24:33.938   12 Jun 2027 08:24:38.556             4.618          1968.625
       401   12 Jun 2027 08:24:50.996   12 Jun 2027 08:24:54.729             3.733           149.719
       402   12 Jun 2027 08:25:01.247   12 Jun 2027 08:25:01.546             0.299            46.250
       403   12 Jun 2027 08:25:14.388   12 Jun 2027 08:25:16.791             2.403           401.312
       404   12 Jun 2027 09:57:13.739   12 Jun 2027 09:57:33.051            19.312          8638.125
       405   12 Jun 2027 09:58:06.668   12 Jun 2027 09:58:10.503             3.835           780.906
       406   12 Jun 2027 09:58:46.745   12 Jun 2027 09:58:48.491             1.746           303.281
       407   12 Jun 2027 09:59:49.375   12 Jun 2027 10:00:00.262            10.887          1885.688
       408   12 Jun 2027 10:00:29.862   12 Jun 2027 10:00:31.395             1.533           520.844
       409   12 Jun 2027 10:01:00.693   12 Jun 2027 10:01:04.775             4.082           866.469
       410   12 Jun 2027 10:01:47.694   12 Jun 2027 10:01:51.684             3.990           892.000
       411   13 Jun 2027 03:44:35.101   13 Jun 2027 03:44:51.050            15.949          7974.500
       412   13 Jun 2027 03:45:35.781   13 Jun 2027 03:46:29.216            53.435         26717.500
       413   13 Jun 2027 03:46:33.580   13 Jun 2027 03:46:40.387             6.807          3403.500
       414   13 Jun 2027 03:48:03.624   13 Jun 2027 03:48:07.619             3.995          1997.500
       415   13 Jun 2027 05:19:44.328   13 Jun 2027 05:22:29.777           165.449         82724.500
       416   13 Jun 2027 05:23:32.486   13 Jun 2027 05:23:37.092             4.606          2303.000
       417   13 Jun 2027 05:25:45.412   13 Jun 2027 05:26:21.427            36.015         18007.500
       418   13 Jun 2027 06:56:08.300   13 Jun 2027 06:57:13.264            64.964         32054.594
       419   13 Jun 2027 06:57:33.834   13 Jun 2027 06:57:35.272             1.438           642.813
       420   13 Jun 2027 06:57:50.573   13 Jun 2027 06:57:52.177             1.604           478.156
       421   13 Jun 2027 06:58:33.466   13 Jun 2027 06:58:35.533             2.067           755.563
       422   13 Jun 2027 06:59:16.882   13 Jun 2027 06:59:17.310             0.428           214.000
       423   13 Jun 2027 06:59:35.665   13 Jun 2027 06:59:38.877             3.212          1452.031
       424   13 Jun 2027 07:00:41.786   13 Jun 2027 07:00:45.482             3.696          1580.625
       425   13 Jun 2027 07:01:21.994   13 Jun 2027 07:01:23.946             1.952           960.250
       426   13 Jun 2027 07:01:35.230   13 Jun 2027 07:01:40.833             5.603           352.625
       427   13 Jun 2027 07:01:53.815   13 Jun 2027 07:01:54.516             0.701           350.500
       428   13 Jun 2027 07:02:15.976   13 Jun 2027 07:02:18.511             2.535           689.937
       429   13 Jun 2027 08:33:21.729   13 Jun 2027 08:33:54.163            32.434         14866.719
       430   13 Jun 2027 08:34:32.772   13 Jun 2027 08:34:34.402             1.630           470.531
       431   13 Jun 2027 08:35:40.244   13 Jun 2027 08:35:44.249             4.005          1959.375
       432   13 Jun 2027 08:36:04.761   13 Jun 2027 08:36:05.964             1.203           367.844
       433   13 Jun 2027 08:36:31.598   13 Jun 2027 08:36:32.863             1.265           186.438
       434   13 Jun 2027 08:36:50.092   13 Jun 2027 08:36:52.509             2.417           538.406
       435   13 Jun 2027 08:37:18.142   13 Jun 2027 08:37:20.336             2.194           725.937
       436   13 Jun 2027 10:09:40.401   13 Jun 2027 10:09:55.608            15.207          7594.812
       437   13 Jun 2027 10:10:38.389   13 Jun 2027 10:10:44.369             5.980          1333.594
       438   13 Jun 2027 10:11:27.514   13 Jun 2027 10:11:30.236             2.722          1348.281
       439   13 Jun 2027 10:12:22.552   13 Jun 2027 10:12:26.828             4.276          1081.500
       440   13 Jun 2027 10:12:41.649   13 Jun 2027 10:12:42.400             0.751            41.281
       441   13 Jun 2027 10:13:56.196   13 Jun 2027 10:14:00.364             4.168          2003.219
