uniorb/output/strategy_2/Camera/Camera_KinoSat_110907.txt

KinoSat_110907
-------------------------
    Access    *     Start Time (UTCG)     *     Stop Time (UTCG)  *   Duration (s) *   Data (Mbytes)
         1   01 Jun 2027 03:11:59.260   01 Jun 2027 03:12:47.740            48.480         24240.000
         2   01 Jun 2027 03:13:05.032   01 Jun 2027 03:13:27.124            22.092         11046.000
         3   01 Jun 2027 04:47:58.350   01 Jun 2027 04:51:16.091           197.741         98870.500
         4   01 Jun 2027 06:21:44.833   01 Jun 2027 06:23:31.559           106.726         53363.000
         5   01 Jun 2027 06:23:44.522   01 Jun 2027 06:24:10.521            25.999         12999.500
         6   01 Jun 2027 06:24:35.817   01 Jun 2027 06:24:57.590            21.773         10886.500
         7   01 Jun 2027 06:25:22.228   01 Jun 2027 06:25:43.462            21.234         10617.000
         8   01 Jun 2027 06:26:11.475   01 Jun 2027 06:26:11.475             0.000             0.000
         9   01 Jun 2027 06:28:08.462   01 Jun 2027 06:28:09.151             0.689           344.500
        10   01 Jun 2027 06:29:06.927   01 Jun 2027 06:29:15.673             8.746          4373.000
        11   01 Jun 2027 06:29:35.995   01 Jun 2027 06:30:08.554            32.559         16279.500
        12   01 Jun 2027 06:30:16.562   01 Jun 2027 06:30:17.491             0.929           464.500
        13   01 Jun 2027 07:59:02.572   01 Jun 2027 08:00:47.551           104.979         52489.500
        14   01 Jun 2027 08:02:12.513   01 Jun 2027 08:02:14.019             1.506           753.000
        15   01 Jun 2027 08:02:37.367   01 Jun 2027 08:03:25.308            47.941         23970.500
        16   01 Jun 2027 08:04:08.412   01 Jun 2027 08:04:09.798             1.386           693.000
        17   01 Jun 2027 08:04:48.673   01 Jun 2027 08:05:14.135            25.462         12731.000
        18   01 Jun 2027 09:36:12.035   01 Jun 2027 09:37:50.805            98.770         49385.000
        19   01 Jun 2027 09:38:13.055   01 Jun 2027 09:39:09.905            56.850         28425.000
        20   01 Jun 2027 09:39:41.356   01 Jun 2027 09:39:42.582             1.226           613.000
        21   01 Jun 2027 09:41:29.089   01 Jun 2027 09:41:29.089             0.000             0.000
        22   01 Jun 2027 11:12:55.994   01 Jun 2027 11:14:44.970           108.976         54488.000
        23   01 Jun 2027 11:15:47.678   01 Jun 2027 11:15:54.587             6.909          3454.500
        24   01 Jun 2027 11:16:09.633   01 Jun 2027 11:16:13.236             3.603          1801.500
        25   02 Jun 2027 03:23:50.552   02 Jun 2027 03:24:27.275            36.723         18361.500
        26   02 Jun 2027 03:24:47.977   02 Jun 2027 03:25:03.808            15.831          7915.500
        27   02 Jun 2027 05:00:12.645   02 Jun 2027 05:03:18.017           185.372         92686.000
        28   02 Jun 2027 06:32:29.702   02 Jun 2027 06:32:49.037            19.335          9667.500
        29   02 Jun 2027 06:34:16.705   02 Jun 2027 06:35:37.160            80.455         40227.500
        30   02 Jun 2027 06:35:46.313   02 Jun 2027 06:36:46.665            60.352         30176.000
        31   02 Jun 2027 06:37:08.322   02 Jun 2027 06:37:34.687            26.365         13182.500
        32   02 Jun 2027 06:40:44.508   02 Jun 2027 06:40:59.572            15.064          7532.000
        33   02 Jun 2027 06:41:18.214   02 Jun 2027 06:41:39.471            21.257         10628.500
        34   02 Jun 2027 08:11:21.084   02 Jun 2027 08:12:44.120            83.036         41518.000
        35   02 Jun 2027 08:13:14.290   02 Jun 2027 08:13:47.622            33.332         14941.469
        36   02 Jun 2027 08:14:18.470   02 Jun 2027 08:14:20.272             1.802           566.375
        37   02 Jun 2027 08:14:31.349   02 Jun 2027 08:14:32.567             1.218            19.344
        38   02 Jun 2027 08:16:57.999   02 Jun 2027 08:17:08.399            10.400          3964.813
        39   02 Jun 2027 08:17:50.389   02 Jun 2027 08:17:53.725             3.336          1312.187
        40   02 Jun 2027 09:48:17.457   02 Jun 2027 09:48:38.596            21.139         10383.563
        41   02 Jun 2027 09:48:40.864   02 Jun 2027 09:48:43.028             2.164             5.906
        42   02 Jun 2027 09:48:51.567   02 Jun 2027 09:49:00.439             8.872           126.062
        43   02 Jun 2027 09:50:11.499   02 Jun 2027 09:50:18.554             7.055          2079.125
        44   02 Jun 2027 09:51:18.920   02 Jun 2027 09:51:22.810             3.890          1886.438
        45   02 Jun 2027 09:51:35.992   02 Jun 2027 09:51:39.613             3.621           398.563
        46   02 Jun 2027 09:52:09.648   02 Jun 2027 09:52:14.557             4.909           933.906
        47   02 Jun 2027 09:52:36.712   02 Jun 2027 09:52:39.145             2.433           634.281
        48   02 Jun 2027 11:25:04.035   02 Jun 2027 11:25:16.948            12.913          6395.969
        49   02 Jun 2027 11:25:57.844   02 Jun 2027 11:26:01.494             3.650          1094.469
        50   02 Jun 2027 11:26:28.332   02 Jun 2027 11:26:28.886             0.554           277.000
        51   02 Jun 2027 11:27:01.515   02 Jun 2027 11:27:05.145             3.630          1175.250
        52   02 Jun 2027 11:27:18.650   02 Jun 2027 11:27:22.847             4.197           422.031
        53   02 Jun 2027 11:27:50.248   02 Jun 2027 11:27:50.899             0.651           325.500
        54   02 Jun 2027 11:28:35.387   02 Jun 2027 11:28:42.367             6.980          1921.031
        55   02 Jun 2027 11:29:08.972   02 Jun 2027 11:29:10.051             1.079           539.500
        56   02 Jun 2027 11:29:44.111   02 Jun 2027 11:29:45.152             1.041           520.500
        57   03 Jun 2027 03:35:54.012   03 Jun 2027 03:36:04.940            10.928          5464.000
        58   03 Jun 2027 03:36:29.378   03 Jun 2027 03:37:39.844            70.466         35233.000
        59   03 Jun 2027 03:37:46.316   03 Jun 2027 03:38:33.289            46.973         23486.500
        60   03 Jun 2027 05:12:23.185   03 Jun 2027 05:12:40.705            17.520          8760.000
        61   03 Jun 2027 05:13:23.509   03 Jun 2027 05:15:17.051           113.542         56771.000
        62   03 Jun 2027 05:15:22.454   03 Jun 2027 05:15:28.814             6.360          3180.000
        63   03 Jun 2027 06:47:28.057   03 Jun 2027 06:48:14.095            46.038         22157.500
        64   03 Jun 2027 06:48:21.985   03 Jun 2027 06:48:22.814             0.829           209.000
        65   03 Jun 2027 06:49:04.136   03 Jun 2027 06:49:10.941             6.805          1133.375
        66   03 Jun 2027 06:49:13.152   03 Jun 2027 06:49:14.197             1.045            28.437
        67   03 Jun 2027 06:50:23.190   03 Jun 2027 06:50:29.244             6.054          2156.031
        68   03 Jun 2027 06:50:34.980   03 Jun 2027 06:50:39.103             4.123           179.250
        69   03 Jun 2027 06:52:24.360   03 Jun 2027 06:52:32.956             8.596          3197.281
        70   03 Jun 2027 06:53:04.707   03 Jun 2027 06:53:07.186             2.479           754.781
        71   03 Jun 2027 06:53:14.959   03 Jun 2027 06:53:24.850             9.891            24.000
        72   03 Jun 2027 08:23:49.638   03 Jun 2027 08:24:08.952            19.314          8838.188
        73   03 Jun 2027 08:27:08.502   03 Jun 2027 08:27:11.949             3.447          1492.406
        74   03 Jun 2027 08:27:21.680   03 Jun 2027 08:27:22.732             1.052           192.250
        75   03 Jun 2027 08:27:40.169   03 Jun 2027 08:27:45.253             5.084           430.688
        76   03 Jun 2027 08:29:07.135   03 Jun 2027 08:29:11.975             4.840          2406.031
        77   03 Jun 2027 08:29:38.344   03 Jun 2027 08:29:40.340             1.996           586.000
        78   03 Jun 2027 10:01:20.399   03 Jun 2027 10:01:36.333            15.934          7967.000
        79   03 Jun 2027 10:02:12.420   03 Jun 2027 10:02:17.745             5.325          2252.500
        80   03 Jun 2027 10:02:48.556   03 Jun 2027 10:02:56.661             8.105           875.000
        81   03 Jun 2027 10:04:05.324   03 Jun 2027 10:04:13.769             8.445          2145.719
        82   03 Jun 2027 10:04:19.400   03 Jun 2027 10:04:22.546             3.146           175.969
        83   03 Jun 2027 10:04:45.378   03 Jun 2027 10:04:51.878             6.500           664.906
        84   03 Jun 2027 10:05:04.802   03 Jun 2027 10:05:07.019             2.217           380.781
        85   03 Jun 2027 10:05:44.122   03 Jun 2027 10:05:45.986             1.864           828.625
        86   03 Jun 2027 11:37:24.958   03 Jun 2027 11:37:39.398            14.440          6797.438
        87   03 Jun 2027 11:37:50.410   03 Jun 2027 11:37:51.575             1.165           344.125
        88   03 Jun 2027 11:38:19.571   03 Jun 2027 11:38:20.924             1.353           540.500
        89   03 Jun 2027 11:39:04.475   03 Jun 2027 11:39:12.893             8.418          1234.250
        90   03 Jun 2027 11:39:15.933   03 Jun 2027 11:39:19.385             3.452            95.000
        91   03 Jun 2027 11:39:38.908   03 Jun 2027 11:39:42.982             4.074           610.094
        92   03 Jun 2027 11:40:26.098   03 Jun 2027 11:40:29.908             3.810          1014.563
        93   03 Jun 2027 11:40:55.852   03 Jun 2027 11:40:58.436             2.584           257.938
        94   04 Jun 2027 03:47:50.189   04 Jun 2027 03:48:07.158            16.969          8484.500
        95   04 Jun 2027 03:48:53.110   04 Jun 2027 03:48:58.901             5.791          2895.500
        96   04 Jun 2027 03:49:28.790   04 Jun 2027 03:50:04.655            35.865         17932.500
        97   04 Jun 2027 03:50:38.130   04 Jun 2027 03:51:01.135            23.005         11502.500
        98   04 Jun 2027 05:24:28.002   04 Jun 2027 05:27:29.513           181.511         90755.500
        99   04 Jun 2027 06:59:38.133   04 Jun 2027 07:00:29.631            51.498         25619.313
       100   04 Jun 2027 07:00:53.276   04 Jun 2027 07:00:55.419             2.143           430.094
       101   04 Jun 2027 07:01:24.159   04 Jun 2027 07:01:25.532             1.373           304.719
       102   04 Jun 2027 07:02:03.226   04 Jun 2027 07:02:08.479             5.253          1177.938
       103   04 Jun 2027 07:02:34.961   04 Jun 2027 07:02:36.267             1.306           499.125
       104   04 Jun 2027 07:02:47.330   04 Jun 2027 07:02:52.445             5.115           271.438
       105   04 Jun 2027 07:03:27.528   04 Jun 2027 07:03:30.206             2.678           657.156
       106   04 Jun 2027 07:04:45.124   04 Jun 2027 07:04:46.556             1.432           645.875
       107   04 Jun 2027 07:04:54.046   04 Jun 2027 07:04:54.046             0.000             0.000
       108   04 Jun 2027 07:05:41.875   04 Jun 2027 07:05:45.817             3.942          1728.719
       109   04 Jun 2027 08:35:54.194   04 Jun 2027 08:36:14.093            19.899          9430.625
       110   04 Jun 2027 08:36:55.019   04 Jun 2027 08:36:58.196             3.177           423.938
       111   04 Jun 2027 08:37:13.645   04 Jun 2027 08:37:20.553             6.908           124.719
       112   04 Jun 2027 08:37:42.034   04 Jun 2027 08:37:43.633             1.599           421.687
       113   04 Jun 2027 08:38:23.077   04 Jun 2027 08:38:23.372             0.295            83.125
       114   04 Jun 2027 08:38:47.856   04 Jun 2027 08:38:49.534             1.678           765.125
       115   04 Jun 2027 08:39:08.983   04 Jun 2027 08:39:08.983             0.000             0.000
       116   04 Jun 2027 08:39:24.189   04 Jun 2027 08:39:26.846             2.657           667.219
       117   04 Jun 2027 08:39:29.656   04 Jun 2027 08:39:30.831             1.175            87.813
       118   04 Jun 2027 08:40:10.996   04 Jun 2027 08:40:13.222             2.226           349.250
       119   04 Jun 2027 08:41:17.934   04 Jun 2027 08:41:24.611             6.677          1774.125
       120   04 Jun 2027 08:41:51.375   04 Jun 2027 08:41:54.340             2.965           593.156
       121   04 Jun 2027 10:13:25.943   04 Jun 2027 10:13:43.236            17.293          8313.563
       122   04 Jun 2027 10:13:47.599   04 Jun 2027 10:13:51.678             4.079            11.594
       123   04 Jun 2027 10:14:06.785   04 Jun 2027 10:14:11.990             5.205           203.969
       124   04 Jun 2027 10:14:49.669   04 Jun 2027 10:14:54.713             5.044          1156.063
       125   04 Jun 2027 10:15:33.929   04 Jun 2027 10:15:35.730             1.801           900.500
       126   04 Jun 2027 10:15:39.211   04 Jun 2027 10:15:43.700             4.489           136.156
       127   04 Jun 2027 10:15:50.822   04 Jun 2027 10:15:51.124             0.302           133.000
       128   04 Jun 2027 10:16:54.619   04 Jun 2027 10:17:03.607             8.988          1984.219
       129   04 Jun 2027 10:17:47.618   04 Jun 2027 10:17:53.532             5.914          1174.344
       130   04 Jun 2027 11:49:27.183   04 Jun 2027 11:49:43.874            16.691          7503.563
       131   04 Jun 2027 11:50:00.952   04 Jun 2027 11:50:03.975             3.023           328.031
       132   04 Jun 2027 11:50:35.938   04 Jun 2027 11:50:37.834             1.896           755.531
       133   04 Jun 2027 11:51:51.187   04 Jun 2027 11:51:55.465             4.278          2123.156
       134   04 Jun 2027 11:52:52.338   04 Jun 2027 11:53:04.965            12.627          1765.031
       135   04 Jun 2027 11:53:13.710   04 Jun 2027 11:53:14.996             1.286           246.031
       136   04 Jun 2027 11:54:23.409   04 Jun 2027 11:54:26.874             3.465          1732.500
       137   05 Jun 2027 04:00:26.147   05 Jun 2027 04:01:14.083            47.936         23968.000
       138   05 Jun 2027 04:02:06.196   05 Jun 2027 04:02:36.369            30.173         15086.500
       139   05 Jun 2027 04:02:40.856   05 Jun 2027 04:03:04.271            23.415         11707.500
       140   05 Jun 2027 05:36:11.567   05 Jun 2027 05:36:38.231            26.664         13332.000
       141   05 Jun 2027 05:38:14.809   05 Jun 2027 05:39:44.110            89.301         44650.500
       142   05 Jun 2027 05:40:17.723   05 Jun 2027 05:40:25.411             7.688          3844.000
       143   05 Jun 2027 07:11:02.965   05 Jun 2027 07:11:56.034            53.069         26534.500
       144   05 Jun 2027 07:12:41.858   05 Jun 2027 07:13:29.491            47.633         23127.844
       145   05 Jun 2027 07:13:59.142   05 Jun 2027 07:14:01.604             2.462           283.094
       146   05 Jun 2027 07:14:31.806   05 Jun 2027 07:14:32.516             0.710           355.000
       147   05 Jun 2027 07:14:42.407   05 Jun 2027 07:14:45.206             2.799           677.594
       148   05 Jun 2027 07:16:23.979   05 Jun 2027 07:16:32.142             8.163          3041.844
       149   05 Jun 2027 07:16:45.202   05 Jun 2027 07:16:47.319             2.117           240.000
       150   05 Jun 2027 07:17:29.546   05 Jun 2027 07:17:36.091             6.545          1294.656
       151   05 Jun 2027 08:47:38.497   05 Jun 2027 08:48:04.888            26.391         11182.750
       152   05 Jun 2027 08:48:37.166   05 Jun 2027 08:48:39.673             2.507           236.906
       153   05 Jun 2027 08:49:19.425   05 Jun 2027 08:49:20.691             1.266           230.125
       154   05 Jun 2027 08:49:53.807   05 Jun 2027 08:49:58.421             4.614           170.219
       155   05 Jun 2027 08:51:22.922   05 Jun 2027 08:51:27.142             4.220          2110.000
       156   05 Jun 2027 08:51:59.900   05 Jun 2027 08:52:05.483             5.583          1079.750
       157   05 Jun 2027 08:52:10.090   05 Jun 2027 08:52:10.586             0.496            93.937
       158   05 Jun 2027 08:52:19.780   05 Jun 2027 08:52:22.479             2.699           287.312
       159   05 Jun 2027 08:52:49.385   05 Jun 2027 08:52:51.200             1.815           646.875
       160   05 Jun 2027 08:53:18.867   05 Jun 2027 08:53:21.777             2.910           864.594
       161   05 Jun 2027 08:53:29.861   05 Jun 2027 08:53:30.851             0.990           252.625
       162   05 Jun 2027 08:53:55.782   05 Jun 2027 08:53:59.697             3.915           579.375
       163   05 Jun 2027 10:25:56.098   05 Jun 2027 10:26:12.182            16.084          8042.000
       164   05 Jun 2027 10:26:16.752   05 Jun 2027 10:26:19.831             3.079           294.500
       165   05 Jun 2027 10:26:51.033   05 Jun 2027 10:26:52.708             1.675           623.937
       166   05 Jun 2027 10:27:44.895   05 Jun 2027 10:27:51.273             6.378          1630.844
       167   05 Jun 2027 10:29:09.850   05 Jun 2027 10:29:18.451             8.601          2260.500
       168   05 Jun 2027 10:29:26.345   05 Jun 2027 10:29:28.676             2.331           246.688
       169   05 Jun 2027 11:59:55.891   05 Jun 2027 12:00:00.000             4.109          2054.500
       170   06 Jun 2027 04:11:04.748   06 Jun 2027 04:12:03.705            58.957         29478.500
       171   06 Jun 2027 04:12:40.374   06 Jun 2027 04:13:04.291            23.917         11958.500
       172   06 Jun 2027 04:13:09.172   06 Jun 2027 04:13:15.853             6.681          3340.500
       173   06 Jun 2027 04:14:10.967   06 Jun 2027 04:14:27.099            16.132          8066.000
       174   06 Jun 2027 04:14:38.283   06 Jun 2027 04:14:48.018             9.735          4867.500
       175   06 Jun 2027 05:46:25.141   06 Jun 2027 05:47:23.391            58.250         29125.000
       176   06 Jun 2027 05:47:56.679   06 Jun 2027 05:48:07.448            10.769          5384.500
       177   06 Jun 2027 05:48:26.877   06 Jun 2027 05:49:38.362            71.485         35742.500
       178   06 Jun 2027 05:51:03.539   06 Jun 2027 05:51:18.696            15.157          7578.500
       179   06 Jun 2027 05:52:29.152   06 Jun 2027 05:52:31.393             2.241          1120.500
       180   06 Jun 2027 07:22:54.596   06 Jun 2027 07:23:47.872            53.276         26275.875
       181   06 Jun 2027 07:24:08.835   06 Jun 2027 07:24:10.364             1.529            93.125
       182   06 Jun 2027 07:24:57.685   06 Jun 2027 07:25:01.859             4.174          1373.125
       183   06 Jun 2027 07:25:12.329   06 Jun 2027 07:25:15.689             3.360           286.438
       184   06 Jun 2027 07:25:54.176   06 Jun 2027 07:25:57.271             3.095           296.781
       185   06 Jun 2027 07:26:09.175   06 Jun 2027 07:26:09.175             0.000             0.000
       186   06 Jun 2027 07:26:41.681   06 Jun 2027 07:26:47.691             6.010          1387.812
       187   06 Jun 2027 07:28:22.831   06 Jun 2027 07:28:29.532             6.701          2945.875
       188   06 Jun 2027 07:28:53.682   06 Jun 2027 07:28:58.802             5.120           568.563
       189   06 Jun 2027 07:29:48.760   06 Jun 2027 07:29:53.428             4.668          1388.812
       190   06 Jun 2027 07:29:58.720   06 Jun 2027 07:29:59.339             0.619            88.844
       191   06 Jun 2027 07:30:19.843   06 Jun 2027 07:30:19.843             0.000             0.000
       192   06 Jun 2027 08:59:59.608   06 Jun 2027 09:00:23.488            23.880         10920.187
       193   06 Jun 2027 09:01:20.040   06 Jun 2027 09:01:24.868             4.828           343.312
       194   06 Jun 2027 09:03:23.409   06 Jun 2027 09:03:31.304             7.895          3084.625
       195   06 Jun 2027 09:04:05.598   06 Jun 2027 09:04:07.274             1.676           828.469
       196   06 Jun 2027 09:04:14.344   06 Jun 2027 09:04:21.330             6.986           191.500
       197   06 Jun 2027 09:04:26.053   06 Jun 2027 09:04:26.327             0.274           101.188
       198   06 Jun 2027 09:04:48.829   06 Jun 2027 09:04:49.379             0.550           275.000
       199   06 Jun 2027 09:05:04.598   06 Jun 2027 09:05:04.598             0.000             0.000
       200   06 Jun 2027 09:05:38.939   06 Jun 2027 09:05:43.635             4.696          1568.687
       201   06 Jun 2027 09:05:55.407   06 Jun 2027 09:05:58.260             2.853           367.875
       202   06 Jun 2027 10:37:53.788   06 Jun 2027 10:38:07.712            13.924          6921.062
       203   06 Jun 2027 10:38:38.329   06 Jun 2027 10:38:41.900             3.571           956.781
       204   06 Jun 2027 10:39:03.378   06 Jun 2027 10:39:08.305             4.927           443.656
       205   06 Jun 2027 10:39:21.838   06 Jun 2027 10:39:25.641             3.803           383.094
       206   06 Jun 2027 10:39:33.573   06 Jun 2027 10:39:44.740            11.167           230.125
       207   06 Jun 2027 10:40:20.910   06 Jun 2027 10:40:23.254             2.344          1021.375
       208   06 Jun 2027 10:40:31.069   06 Jun 2027 10:40:35.931             4.862           232.250
       209   06 Jun 2027 10:40:50.374   06 Jun 2027 10:40:51.620             1.246           186.875
       210   06 Jun 2027 10:41:31.338   06 Jun 2027 10:41:35.013             3.675          1052.531
       211   06 Jun 2027 10:41:47.088   06 Jun 2027 10:41:47.088             0.000             0.000
       212   07 Jun 2027 03:00:25.065   07 Jun 2027 03:01:21.090            56.025         28012.500
       213   07 Jun 2027 04:22:40.626   07 Jun 2027 04:23:47.227            66.601         33300.500
       214   07 Jun 2027 04:24:36.145   07 Jun 2027 04:25:02.302            26.157         13078.500
       215   07 Jun 2027 04:26:40.600   07 Jun 2027 04:26:40.600             0.000             0.000
       216   07 Jun 2027 04:26:46.020   07 Jun 2027 04:26:51.687             5.667          2833.500
       217   07 Jun 2027 04:27:34.399   07 Jun 2027 04:27:42.949             8.550          4275.000
       218   07 Jun 2027 04:27:49.272   07 Jun 2027 04:27:54.893             5.621          2810.500
       219   07 Jun 2027 05:57:34.563   07 Jun 2027 05:59:36.732           122.169         61084.500
       220   07 Jun 2027 06:00:39.245   07 Jun 2027 06:00:54.758            15.513          7756.500
       221   07 Jun 2027 06:01:04.726   07 Jun 2027 06:01:12.001             7.275          3637.500
       222   07 Jun 2027 06:02:40.809   07 Jun 2027 06:02:42.972             2.163          1081.500
       223   07 Jun 2027 06:02:47.610   07 Jun 2027 06:02:47.610             0.000             0.000
       224   07 Jun 2027 06:03:50.236   07 Jun 2027 06:03:50.598             0.362           181.000
       225   07 Jun 2027 06:04:06.198   07 Jun 2027 06:04:14.705             8.507          4253.500
       226   07 Jun 2027 06:04:55.715   07 Jun 2027 06:04:56.071             0.356           178.000
       227   07 Jun 2027 07:35:08.093   07 Jun 2027 07:35:29.546            21.453          9843.719
       228   07 Jun 2027 07:35:57.148   07 Jun 2027 07:36:00.553             3.405           778.562
       229   07 Jun 2027 07:37:31.997   07 Jun 2027 07:37:36.194             4.197           911.906
       230   07 Jun 2027 07:38:34.474   07 Jun 2027 07:38:37.450             2.976           442.594
       231   07 Jun 2027 07:39:24.660   07 Jun 2027 07:39:26.707             2.047          1023.500
       232   07 Jun 2027 07:39:38.182   07 Jun 2027 07:39:40.342             2.160           412.125
       233   07 Jun 2027 07:40:55.071   07 Jun 2027 07:41:02.107             7.036          2155.719
       234   07 Jun 2027 07:42:12.452   07 Jun 2027 07:42:18.760             6.308          2019.656
       235   07 Jun 2027 09:11:50.563   07 Jun 2027 09:12:09.079            18.516          9082.969
       236   07 Jun 2027 09:12:55.208   07 Jun 2027 09:12:57.207             1.999           944.437
       237   07 Jun 2027 09:13:05.642   07 Jun 2027 09:13:05.955             0.313           134.969
       238   07 Jun 2027 09:13:35.507   07 Jun 2027 09:13:43.568             8.061           670.125
       239   07 Jun 2027 09:14:23.547   07 Jun 2027 09:14:24.244             0.697           343.031
       240   07 Jun 2027 09:14:24.294   07 Jun 2027 09:14:24.991             0.697             1.562
       241   07 Jun 2027 09:15:10.494   07 Jun 2027 09:15:20.710            10.216          1327.438
       242   07 Jun 2027 09:16:03.643   07 Jun 2027 09:16:04.962             1.319           659.500
       243   07 Jun 2027 09:16:56.377   07 Jun 2027 09:17:01.037             4.660          2005.938
       244   07 Jun 2027 09:17:02.445   07 Jun 2027 09:17:02.752             0.307            44.000
       245   07 Jun 2027 09:17:31.107   07 Jun 2027 09:17:33.047             1.940           860.656
       246   07 Jun 2027 10:49:53.699   07 Jun 2027 10:50:06.340            12.641          6285.219
       247   07 Jun 2027 10:51:00.704   07 Jun 2027 10:51:01.956             1.252           626.000
       248   07 Jun 2027 10:51:05.138   07 Jun 2027 10:51:08.454             3.316          1153.812
       249   07 Jun 2027 10:51:14.547   07 Jun 2027 10:51:20.511             5.964           168.531
       250   07 Jun 2027 10:51:45.633   07 Jun 2027 10:51:47.038             1.405           529.875
       251   07 Jun 2027 10:51:54.748   07 Jun 2027 10:52:07.614            12.866           172.187
       252   07 Jun 2027 10:53:01.549   07 Jun 2027 10:53:05.468             3.919          1587.844
       253   07 Jun 2027 10:53:39.664   07 Jun 2027 10:53:42.768             3.104          1068.625
       254   07 Jun 2027 10:53:46.769   07 Jun 2027 10:53:48.716             1.947           125.031
       255   08 Jun 2027 03:00:17.862   08 Jun 2027 03:00:29.191            11.329          5664.500
       256   08 Jun 2027 03:01:18.250   08 Jun 2027 03:01:40.952            22.702         11351.000
       257   08 Jun 2027 03:02:07.173   08 Jun 2027 03:02:11.209             4.036          2018.000
       258   08 Jun 2027 03:12:33.501   08 Jun 2027 03:13:00.278            26.777         13388.500
       259   08 Jun 2027 04:34:09.920   08 Jun 2027 04:35:33.037            83.117         41558.500
       260   08 Jun 2027 04:36:09.805   08 Jun 2027 04:37:12.325            62.520         31260.000
       261   08 Jun 2027 04:38:39.645   08 Jun 2027 04:38:59.736            20.091         10045.500
       262   08 Jun 2027 04:39:03.170   08 Jun 2027 04:39:06.696             3.526          1763.000
       263   08 Jun 2027 04:39:18.035   08 Jun 2027 04:39:31.574            13.539          6769.500
       264   08 Jun 2027 06:09:05.197   08 Jun 2027 06:10:13.560            68.363         34181.500
       265   08 Jun 2027 06:10:35.797   08 Jun 2027 06:10:35.797             0.000             0.000
       266   08 Jun 2027 06:11:02.559   08 Jun 2027 06:11:12.062             9.503          2403.000
       267   08 Jun 2027 06:11:22.507   08 Jun 2027 06:11:23.237             0.730           326.406
       268   08 Jun 2027 06:12:43.816   08 Jun 2027 06:12:48.901             5.085          2274.688
       269   08 Jun 2027 06:14:25.661   08 Jun 2027 06:14:32.192             6.531          3023.750
       270   08 Jun 2027 06:15:00.714   08 Jun 2027 06:15:04.708             3.994           891.313
       271   08 Jun 2027 06:15:40.762   08 Jun 2027 06:15:40.762             0.000             0.000
       272   08 Jun 2027 06:16:13.218   08 Jun 2027 06:16:19.012             5.794          1846.219
       273   08 Jun 2027 06:17:08.723   08 Jun 2027 06:17:12.724             4.001          1450.063
       274   08 Jun 2027 06:17:35.228   08 Jun 2027 06:17:35.228             0.000             0.000
       275   08 Jun 2027 07:47:02.039   08 Jun 2027 07:47:19.517            17.478          7840.375
       276   08 Jun 2027 07:48:39.690   08 Jun 2027 07:48:45.369             5.679          2033.563
       277   08 Jun 2027 07:49:24.427   08 Jun 2027 07:49:26.279             1.852           921.094
       278   08 Jun 2027 07:49:39.780   08 Jun 2027 07:49:40.940             1.160           404.125
       279   08 Jun 2027 07:50:36.136   08 Jun 2027 07:50:39.659             3.523          1442.062
       280   08 Jun 2027 07:51:17.907   08 Jun 2027 07:51:19.841             1.934           573.437
       281   08 Jun 2027 07:51:36.243   08 Jun 2027 07:51:37.083             0.840           351.938
       282   08 Jun 2027 07:52:04.241   08 Jun 2027 07:52:06.307             2.066            93.687
       283   08 Jun 2027 07:52:13.868   08 Jun 2027 07:52:15.976             2.108           236.281
       284   08 Jun 2027 07:52:28.281   08 Jun 2027 07:52:38.192             9.911           376.594
       285   08 Jun 2027 07:52:50.950   08 Jun 2027 07:52:52.493             1.543            33.000
       286   08 Jun 2027 07:53:52.517   08 Jun 2027 07:53:57.949             5.432          1875.750
       287   08 Jun 2027 07:54:15.630   08 Jun 2027 07:54:22.609             6.979           531.594
       288   08 Jun 2027 09:23:55.217   08 Jun 2027 09:24:15.016            19.799          9331.063
       289   08 Jun 2027 09:25:01.900   08 Jun 2027 09:25:03.596             1.696           267.781
       290   08 Jun 2027 09:26:18.326   08 Jun 2027 09:26:19.710             1.384           210.469
       291   08 Jun 2027 09:26:44.902   08 Jun 2027 09:26:47.285             2.383           787.250
       292   08 Jun 2027 09:27:36.299   08 Jun 2027 09:27:41.217             4.918          1415.969
       293   08 Jun 2027 09:28:47.231   08 Jun 2027 09:28:51.800             4.569          1891.344
       294   08 Jun 2027 09:28:54.935   08 Jun 2027 09:28:55.570             0.635            97.969
       295   08 Jun 2027 09:29:39.805   08 Jun 2027 09:29:42.322             2.517          1258.500
       296   08 Jun 2027 09:30:12.091   08 Jun 2027 09:30:14.931             2.840          1054.125
       297   08 Jun 2027 11:01:40.134   08 Jun 2027 11:01:55.390            15.256          7421.469
       298   08 Jun 2027 11:02:05.068   08 Jun 2027 11:02:07.314             2.246           190.625
       299   08 Jun 2027 11:02:56.416   08 Jun 2027 11:02:58.752             2.336          1168.000
       300   08 Jun 2027 11:03:58.889   08 Jun 2027 11:04:03.295             4.406          2164.531
       301   08 Jun 2027 11:04:20.486   08 Jun 2027 11:04:21.584             1.098           413.156
       302   08 Jun 2027 11:05:09.838   08 Jun 2027 11:05:12.430             2.592          1296.000
       303   09 Jun 2027 03:12:13.682   09 Jun 2027 03:13:18.924            65.242         32621.000
       304   09 Jun 2027 03:14:08.016   09 Jun 2027 03:14:08.016             0.000             0.000
       305   09 Jun 2027 04:48:13.414   09 Jun 2027 04:50:59.802           166.388         83194.000
       306   09 Jun 2027 04:51:10.348   09 Jun 2027 04:51:19.577             9.229          4614.500
       307   09 Jun 2027 04:51:44.528   09 Jun 2027 04:51:44.528             0.000             0.000
       308   09 Jun 2027 06:21:58.901   09 Jun 2027 06:23:05.696            66.795         33397.500
       309   09 Jun 2027 06:24:01.041   09 Jun 2027 06:24:04.952             3.911          1939.249
       310   09 Jun 2027 06:24:12.956   09 Jun 2027 06:24:13.428             0.472             5.438
       311   09 Jun 2027 06:24:37.373   09 Jun 2027 06:24:40.058             2.685           336.906
       312   09 Jun 2027 06:24:50.981   09 Jun 2027 06:24:50.981             0.000             0.000
       313   09 Jun 2027 06:25:01.113   09 Jun 2027 06:25:02.108             0.995           416.781
       314   09 Jun 2027 06:26:00.845   09 Jun 2027 06:26:07.324             6.479          1751.469
       315   09 Jun 2027 06:27:15.348   09 Jun 2027 06:27:16.921             1.573           786.500
       316   09 Jun 2027 06:27:20.295   09 Jun 2027 06:27:22.143             1.848           848.781
       317   09 Jun 2027 06:27:46.821   09 Jun 2027 06:27:46.821             0.000             0.000
       318   09 Jun 2027 06:28:07.991   09 Jun 2027 06:28:12.499             4.508          1432.750
       319   09 Jun 2027 06:28:48.942   09 Jun 2027 06:28:52.782             3.840           916.594
       320   09 Jun 2027 06:29:22.684   09 Jun 2027 06:29:22.684             0.000             0.000
       321   09 Jun 2027 06:30:24.067   09 Jun 2027 06:30:27.980             3.913          1956.500
       322   09 Jun 2027 07:59:22.735   09 Jun 2027 07:59:40.548            17.813          8267.063
       323   09 Jun 2027 08:01:28.203   09 Jun 2027 08:01:31.298             3.095          1419.938
       324   09 Jun 2027 08:01:41.426   09 Jun 2027 08:01:43.591             2.165           199.406
       325   09 Jun 2027 08:02:58.568   09 Jun 2027 08:03:02.680             4.112           926.219
       326   09 Jun 2027 08:03:15.677   09 Jun 2027 08:03:17.079             1.402           225.812
       327   09 Jun 2027 08:04:38.988   09 Jun 2027 08:04:43.998             5.010          2043.312
       328   09 Jun 2027 08:04:54.356   09 Jun 2027 08:04:55.379             1.023           323.687
       329   09 Jun 2027 08:05:45.980   09 Jun 2027 08:05:46.721             0.741           370.500
       330   09 Jun 2027 08:06:02.539   09 Jun 2027 08:06:08.847             6.308          1597.375
       331   09 Jun 2027 09:36:26.719   09 Jun 2027 09:36:48.435            21.716          8700.250
       332   09 Jun 2027 09:38:24.645   09 Jun 2027 09:38:26.761             2.116           738.687
       333   09 Jun 2027 09:39:25.564   09 Jun 2027 09:39:30.134             4.570          1802.938
       334   09 Jun 2027 09:39:41.753   09 Jun 2027 09:39:41.753             0.000             0.000
       335   09 Jun 2027 09:40:37.251   09 Jun 2027 09:40:41.798             4.547          2097.406
       336   09 Jun 2027 09:40:52.947   09 Jun 2027 09:40:54.587             1.640           168.312
       337   09 Jun 2027 09:41:06.958   09 Jun 2027 09:41:10.229             3.271           175.188
       338   09 Jun 2027 09:41:43.951   09 Jun 2027 09:41:46.362             2.411           714.906
       339   09 Jun 2027 09:42:05.696   09 Jun 2027 09:42:08.747             3.051           375.344
       340   09 Jun 2027 11:13:11.271   09 Jun 2027 11:13:24.088            12.817          5919.562
       341   09 Jun 2027 11:14:00.221   09 Jun 2027 11:14:02.404             2.183          1021.906
       342   09 Jun 2027 11:14:36.174   09 Jun 2027 11:14:42.593             6.419          1055.313
       343   09 Jun 2027 11:15:13.331   09 Jun 2027 11:15:17.191             3.860           924.594
       344   09 Jun 2027 11:16:03.246   09 Jun 2027 11:16:10.249             7.003          1439.219
       345   09 Jun 2027 11:17:23.041   09 Jun 2027 11:17:27.450             4.409          2009.813
       346   09 Jun 2027 11:17:43.808   09 Jun 2027 11:17:44.966             1.158           479.781
       347   09 Jun 2027 11:17:56.009   09 Jun 2027 11:17:58.587             2.578           240.000
       348   10 Jun 2027 03:24:05.243   10 Jun 2027 03:25:19.853            74.610         37305.000
       349   10 Jun 2027 03:25:35.833   10 Jun 2027 03:25:35.833             0.000             0.000
       350   10 Jun 2027 03:25:42.796   10 Jun 2027 03:25:52.040             9.244          4622.000
       351   10 Jun 2027 03:26:01.308   10 Jun 2027 03:26:07.031             5.723          2861.500
       352   10 Jun 2027 05:00:27.698   10 Jun 2027 05:03:33.088           185.390         92695.000
       353   10 Jun 2027 06:34:31.691   10 Jun 2027 06:35:08.761            37.070         17503.719
       354   10 Jun 2027 06:36:17.749   10 Jun 2027 06:36:19.403             1.654           327.437
       355   10 Jun 2027 06:36:48.329   10 Jun 2027 06:36:49.822             1.493           256.750
       356   10 Jun 2027 06:37:24.254   10 Jun 2027 06:37:27.052             2.798           982.563
       357   10 Jun 2027 06:38:05.019   10 Jun 2027 06:38:06.783             1.764           847.094
       358   10 Jun 2027 06:38:18.822   10 Jun 2027 06:38:19.938             1.116           244.094
       359   10 Jun 2027 06:38:39.487   10 Jun 2027 06:38:40.615             1.128           447.563
       360   10 Jun 2027 06:38:46.919   10 Jun 2027 06:38:46.919             0.000             0.000
       361   10 Jun 2027 06:38:56.201   10 Jun 2027 06:38:56.571             0.370           185.000
       362   10 Jun 2027 06:39:54.909   10 Jun 2027 06:40:02.291             7.382          2125.125
       363   10 Jun 2027 06:40:16.566   10 Jun 2027 06:40:16.566             0.000             0.000
       364   10 Jun 2027 06:40:46.562   10 Jun 2027 06:40:50.013             3.451          1321.188
       365   10 Jun 2027 06:41:16.642   10 Jun 2027 06:41:17.236             0.594           297.000
       366   10 Jun 2027 06:41:25.012   10 Jun 2027 06:41:25.012             0.000             0.000
       367   10 Jun 2027 06:41:56.912   10 Jun 2027 06:41:58.530             1.618           809.000
       368   10 Jun 2027 06:42:06.575   10 Jun 2027 06:42:09.569             2.994          1205.844
       369   10 Jun 2027 06:42:23.205   10 Jun 2027 06:42:24.615             1.410           426.125
       370   10 Jun 2027 08:11:36.273   10 Jun 2027 08:11:52.860            16.587          7817.313
       371   10 Jun 2027 08:13:28.939   10 Jun 2027 08:13:37.222             8.283           876.531
       372   10 Jun 2027 08:14:33.759   10 Jun 2027 08:14:38.075             4.316           576.687
       373   10 Jun 2027 08:14:46.377   10 Jun 2027 08:14:46.698             0.321            42.781
       374   10 Jun 2027 08:15:30.352   10 Jun 2027 08:15:33.540             3.188           763.187
       375   10 Jun 2027 08:15:41.668   10 Jun 2027 08:15:42.673             1.005           178.844
       376   10 Jun 2027 08:15:58.238   10 Jun 2027 08:15:59.135             0.897           415.500
       377   10 Jun 2027 08:16:59.055   10 Jun 2027 08:17:11.890            12.835          1515.187
       378   10 Jun 2027 08:17:39.852   10 Jun 2027 08:17:44.205             4.353           804.125
       379   10 Jun 2027 08:18:04.922   10 Jun 2027 08:18:08.457             3.535           647.031
       380   10 Jun 2027 09:48:32.232   10 Jun 2027 09:48:54.020            21.788          9667.219
       381   10 Jun 2027 09:49:07.502   10 Jun 2027 09:49:16.399             8.897           311.063
       382   10 Jun 2027 09:50:13.763   10 Jun 2027 09:50:17.642             3.879          1486.438
       383   10 Jun 2027 09:50:28.447   10 Jun 2027 09:50:32.492             4.045           216.313
       384   10 Jun 2027 09:51:28.396   10 Jun 2027 09:51:29.887             1.491           335.250
       385   10 Jun 2027 09:51:38.700   10 Jun 2027 09:51:40.343             1.643           134.031
       386   10 Jun 2027 09:51:50.768   10 Jun 2027 09:51:54.719             3.951           325.781
       387   10 Jun 2027 09:52:26.544   10 Jun 2027 09:52:29.096             2.552           994.531
       388   10 Jun 2027 09:52:49.521   10 Jun 2027 09:52:51.506             1.985           290.937
       389   10 Jun 2027 09:53:10.792   10 Jun 2027 09:53:13.951             3.159           557.531
       390   10 Jun 2027 11:25:18.788   10 Jun 2027 11:25:35.341            16.553          8122.125
       391   10 Jun 2027 11:26:07.483   10 Jun 2027 11:26:11.805             4.322           906.812
       392   10 Jun 2027 11:26:31.268   10 Jun 2027 11:26:32.634             1.366           583.906
       393   10 Jun 2027 11:26:59.820   10 Jun 2027 11:27:04.468             4.648           532.500
       394   10 Jun 2027 11:27:33.664   10 Jun 2027 11:27:33.664             0.000             0.000
       395   10 Jun 2027 11:27:43.994   10 Jun 2027 11:27:45.055             1.061           530.500
       396   10 Jun 2027 11:28:07.038   10 Jun 2027 11:28:09.247             2.209          1104.500
       397   10 Jun 2027 11:28:36.902   10 Jun 2027 11:28:42.729             5.827          1033.687
       398   10 Jun 2027 11:29:00.537   10 Jun 2027 11:29:01.954             1.417           322.250
       399   10 Jun 2027 11:29:24.334   10 Jun 2027 11:29:27.410             3.076           182.281
       400   10 Jun 2027 11:29:53.120   10 Jun 2027 11:29:53.280             0.160            80.000
       401   11 Jun 2027 03:36:09.198   11 Jun 2027 03:37:33.256            84.058         42029.000
       402   11 Jun 2027 05:12:38.245   11 Jun 2027 05:13:37.992            59.747         29873.500
       403   11 Jun 2027 05:15:30.314   11 Jun 2027 05:16:02.959            32.645         16322.500
       404   11 Jun 2027 06:47:43.216   11 Jun 2027 06:50:05.294           142.078         69941.812
       405   11 Jun 2027 06:50:27.527   11 Jun 2027 06:50:30.431             2.904           554.094
       406   11 Jun 2027 06:50:49.065   11 Jun 2027 06:50:49.065             0.000             0.000
       407   11 Jun 2027 06:50:49.986   11 Jun 2027 06:50:54.481             4.495           365.063
       408   11 Jun 2027 06:51:22.717   11 Jun 2027 06:51:22.717             0.000             0.000
       409   11 Jun 2027 06:52:40.065   11 Jun 2027 06:52:48.809             8.744          3165.063
       410   11 Jun 2027 06:53:45.722   11 Jun 2027 06:53:46.625             0.903           451.500
       411   11 Jun 2027 06:54:26.809   11 Jun 2027 06:54:30.985             4.176          2088.000
       412   11 Jun 2027 08:24:05.183   11 Jun 2027 08:24:25.050            19.867          8958.719
       413   11 Jun 2027 08:25:24.200   11 Jun 2027 08:25:28.795             4.595           325.969
       414   11 Jun 2027 08:26:14.563   11 Jun 2027 08:26:16.955             2.392           168.188
       415   11 Jun 2027 08:27:10.828   11 Jun 2027 08:27:13.941             3.113            32.250
       416   11 Jun 2027 08:27:36.153   11 Jun 2027 08:27:37.519             1.366           549.906
       417   11 Jun 2027 08:27:50.996   11 Jun 2027 08:27:52.400             1.404           421.156
       418   11 Jun 2027 08:28:16.728   11 Jun 2027 08:28:18.649             1.921           680.594
       419   11 Jun 2027 08:28:42.884   11 Jun 2027 08:28:53.080            10.196           757.344
       420   11 Jun 2027 08:29:15.021   11 Jun 2027 08:29:16.436             1.415           685.656
       421   11 Jun 2027 08:29:43.382   11 Jun 2027 08:29:46.888             3.506           630.687
       422   11 Jun 2027 08:30:02.451   11 Jun 2027 08:30:02.535             0.084            42.000
       423   11 Jun 2027 10:01:35.406   11 Jun 2027 10:01:51.055            15.649          7824.500
       424   11 Jun 2027 10:02:17.924   11 Jun 2027 10:02:21.358             3.434          1717.000
       425   11 Jun 2027 10:02:21.729   11 Jun 2027 10:02:24.320             2.591           294.219
       426   11 Jun 2027 10:03:00.844   11 Jun 2027 10:03:03.507             2.663          1055.531
       427   11 Jun 2027 10:03:47.768   11 Jun 2027 10:03:52.160             4.392           913.719
       428   11 Jun 2027 10:03:55.887   11 Jun 2027 10:03:56.678             0.791           116.469
       429   11 Jun 2027 10:04:29.229   11 Jun 2027 10:04:35.674             6.445           889.687
       430   11 Jun 2027 10:04:47.506   11 Jun 2027 10:04:50.037             2.531           369.750
       431   11 Jun 2027 10:05:33.647   11 Jun 2027 10:05:37.226             3.579          1231.406
       432   11 Jun 2027 10:05:56.774   11 Jun 2027 10:05:58.399             1.625           308.563
       433   11 Jun 2027 11:37:40.104   11 Jun 2027 11:37:57.286            17.182          8085.125
       434   11 Jun 2027 11:38:40.149   11 Jun 2027 11:38:43.789             3.640          1092.469
       435   11 Jun 2027 11:38:59.266   11 Jun 2027 11:39:00.031             0.765           145.875
       436   11 Jun 2027 11:39:34.407   11 Jun 2027 11:39:41.180             6.773          1074.250
       437   11 Jun 2027 11:40:10.148   11 Jun 2027 11:40:13.608             3.460           555.219
       438   11 Jun 2027 11:40:36.745   11 Jun 2027 11:40:36.745             0.000             0.000
       439   11 Jun 2027 11:41:19.507   11 Jun 2027 11:41:29.431             9.924          1949.938
       440   12 Jun 2027 03:48:05.101   12 Jun 2027 03:48:47.932            42.831         21415.500
       441   12 Jun 2027 03:49:26.954   12 Jun 2027 03:49:43.619            16.665          8332.500
       442   12 Jun 2027 03:50:01.039   12 Jun 2027 03:50:19.382            18.343          9171.500
       443   12 Jun 2027 03:51:15.741   12 Jun 2027 03:51:15.741             0.000             0.000
       444   12 Jun 2027 05:24:42.841   12 Jun 2027 05:26:53.784           130.943         65471.500
       445   12 Jun 2027 05:28:01.462   12 Jun 2027 05:28:08.151             6.689          3344.500
       446   12 Jun 2027 06:59:53.301   12 Jun 2027 07:01:30.827            97.526         48763.000
       447   12 Jun 2027 07:02:18.379   12 Jun 2027 07:02:18.507             0.128            64.000
       448   12 Jun 2027 07:03:22.926   12 Jun 2027 07:03:30.164             7.238          3539.312
       449   12 Jun 2027 07:04:14.786   12 Jun 2027 07:04:15.039             0.253            80.625
       450   12 Jun 2027 07:05:02.532   12 Jun 2027 07:05:04.532             2.000           699.813
       451   12 Jun 2027 07:05:34.313   12 Jun 2027 07:05:36.772             2.459           755.687
       452   12 Jun 2027 07:06:09.569   12 Jun 2027 07:06:13.013             3.444          1024.906
       453   12 Jun 2027 07:06:23.094   12 Jun 2027 07:06:23.970             0.876           315.031
       454   12 Jun 2027 08:36:07.719   12 Jun 2027 08:36:30.871            23.152         11402.937
       455   12 Jun 2027 08:37:43.740   12 Jun 2027 08:37:47.124             3.384          1101.844
       456   12 Jun 2027 08:38:30.008   12 Jun 2027 08:38:32.559             2.551          1078.781
       457   12 Jun 2027 08:38:38.317   12 Jun 2027 08:38:38.804             0.487           105.969
       458   12 Jun 2027 08:39:38.323   12 Jun 2027 08:39:42.311             3.988          1570.000
       459   12 Jun 2027 08:39:44.638   12 Jun 2027 08:39:45.716             1.078            72.719
       460   12 Jun 2027 08:40:21.241   12 Jun 2027 08:40:21.966             0.725           186.594
       461   12 Jun 2027 08:40:45.020   12 Jun 2027 08:40:46.498             1.478           720.438
       462   12 Jun 2027 08:41:46.300   12 Jun 2027 08:41:49.661             3.361          1447.031
       463   12 Jun 2027 10:13:41.026   12 Jun 2027 10:13:58.265            17.239          8128.281
       464   12 Jun 2027 10:14:20.900   12 Jun 2027 10:14:27.312             6.412           546.281
       465   12 Jun 2027 10:15:04.357   12 Jun 2027 10:15:10.973             6.616          1157.656
       466   12 Jun 2027 10:15:50.708   12 Jun 2027 10:15:54.120             3.412           995.375
       467   12 Jun 2027 10:16:14.516   12 Jun 2027 10:16:16.269             1.753           637.375
       468   12 Jun 2027 10:16:59.789   12 Jun 2027 10:17:01.838             2.049           992.469
       469   12 Jun 2027 10:17:24.422   12 Jun 2027 10:17:30.329             5.907           705.750
       470   12 Jun 2027 10:17:40.583   12 Jun 2027 10:17:41.149             0.566           192.344
       471   12 Jun 2027 11:49:42.347   12 Jun 2027 11:49:58.686            16.339          6644.156
       472   12 Jun 2027 11:50:57.861   12 Jun 2027 11:51:02.223             4.362          1837.719
       473   12 Jun 2027 11:51:13.549   12 Jun 2027 11:51:20.772             7.223           279.406
       474   12 Jun 2027 11:51:41.496   12 Jun 2027 11:51:46.259             4.763           621.031
       475   12 Jun 2027 11:52:30.682   12 Jun 2027 11:52:34.014             3.332          1212.594
       476   12 Jun 2027 11:53:44.735   12 Jun 2027 11:53:49.847             5.112          2028.687
       477   12 Jun 2027 11:54:21.362   12 Jun 2027 11:54:32.877            11.515           984.844
       478   13 Jun 2027 04:00:40.813   13 Jun 2027 04:01:51.362            70.549         35274.500
       479   13 Jun 2027 04:03:19.496   13 Jun 2027 04:03:20.596             1.100           550.000
       480   13 Jun 2027 05:36:26.585   13 Jun 2027 05:38:29.210           122.625         61312.500
       481   13 Jun 2027 05:39:38.653   13 Jun 2027 05:40:40.498            61.845         30922.500
       482   13 Jun 2027 07:11:17.564   13 Jun 2027 07:12:12.481            54.917         27268.125
       483   13 Jun 2027 07:13:14.256   13 Jun 2027 07:13:17.124             2.868           560.250
       484   13 Jun 2027 07:13:34.243   13 Jun 2027 07:13:37.155             2.912           509.906
       485   13 Jun 2027 07:13:46.598   13 Jun 2027 07:13:50.384             3.786           222.281
       486   13 Jun 2027 07:14:08.570   13 Jun 2027 07:14:14.047             5.477            41.062
       487   13 Jun 2027 07:14:31.884   13 Jun 2027 07:14:33.341             1.457           265.125
       488   13 Jun 2027 07:14:57.176   13 Jun 2027 07:14:59.308             2.132           270.844
       489   13 Jun 2027 07:15:28.900   13 Jun 2027 07:15:34.356             5.456           798.687
       490   13 Jun 2027 07:16:46.397   13 Jun 2027 07:16:51.207             4.810          1153.313
       491   13 Jun 2027 07:17:01.228   13 Jun 2027 07:17:01.980             0.752           279.000
       492   13 Jun 2027 07:17:27.755   13 Jun 2027 07:17:34.630             6.875           695.094
       493   13 Jun 2027 07:18:03.862   13 Jun 2027 07:18:09.880             6.018           557.031
       494   13 Jun 2027 07:18:18.510   13 Jun 2027 07:18:20.576             2.066           265.312
       495   13 Jun 2027 08:47:53.381   13 Jun 2027 08:48:16.321            22.940         11316.219
       496   13 Jun 2027 08:48:45.043   13 Jun 2027 08:48:46.488             1.445           449.531
       497   13 Jun 2027 08:49:35.860   13 Jun 2027 08:49:39.767             3.907           287.094
       498   13 Jun 2027 08:50:11.071   13 Jun 2027 08:50:12.065             0.994           248.875
       499   13 Jun 2027 08:50:40.356   13 Jun 2027 08:50:43.101             2.745           383.844
       500   13 Jun 2027 08:51:20.512   13 Jun 2027 08:51:24.094             3.582          1131.031
       501   13 Jun 2027 08:52:15.501   13 Jun 2027 08:52:20.630             5.129          1468.687
       502   13 Jun 2027 08:52:34.303   13 Jun 2027 08:52:35.268             0.965           245.375
       503   13 Jun 2027 08:53:04.752   13 Jun 2027 08:53:06.037             1.285           642.500
       504   13 Jun 2027 08:53:33.399   13 Jun 2027 08:53:37.742             4.343           867.750
       505   13 Jun 2027 08:54:12.799   13 Jun 2027 08:54:17.244             4.445          1080.906
       506   13 Jun 2027 10:26:11.044   13 Jun 2027 10:26:26.809            15.765          7882.500
       507   13 Jun 2027 10:26:28.023   13 Jun 2027 10:26:30.510             2.487           496.375
       508   13 Jun 2027 10:27:07.388   13 Jun 2027 10:27:12.386             4.998          1130.469
       509   13 Jun 2027 10:27:37.552   13 Jun 2027 10:27:40.110             2.558           723.719
       510   13 Jun 2027 10:27:51.117   13 Jun 2027 10:27:51.567             0.450            52.906
       511   13 Jun 2027 10:28:15.475   13 Jun 2027 10:28:16.066             0.591           295.500
       512   13 Jun 2027 10:28:44.196   13 Jun 2027 10:28:44.973             0.777           388.500
       513   13 Jun 2027 10:29:04.269   13 Jun 2027 10:29:14.132             9.863          1489.219
       514   13 Jun 2027 10:29:33.926   13 Jun 2027 10:29:36.522             2.596           272.156
       515   13 Jun 2027 10:30:05.537   13 Jun 2027 10:30:05.881             0.344           172.000
       516   13 Jun 2027 11:59:31.692   13 Jun 2027 11:59:41.435             9.743          4871.500
