uniorb/output/strategy_2/Camera/Camera_KinoSat_110110.txt

KinoSat_110110
-------------------------
    Access    *     Start Time (UTCG)     *     Stop Time (UTCG)  *   Duration (s) *   Data (Mbytes)
         1   01 Jun 2027 03:18:28.183   01 Jun 2027 03:18:35.848             7.665          3832.500
         2   01 Jun 2027 03:19:08.447   01 Jun 2027 03:19:15.677             7.230          3615.000
         3   01 Jun 2027 03:20:04.850   01 Jun 2027 03:20:05.574             0.724           362.000
         4   01 Jun 2027 03:20:10.098   01 Jun 2027 03:20:17.610             7.512          3756.000
         5   01 Jun 2027 03:21:30.784   01 Jun 2027 03:21:40.344             9.560          4780.000
         6   01 Jun 2027 03:22:30.968   01 Jun 2027 03:22:37.858             6.890          3445.000
         7   01 Jun 2027 03:23:09.076   01 Jun 2027 03:23:12.280             3.204          1602.000
         8   01 Jun 2027 03:23:44.855   01 Jun 2027 03:23:45.783             0.928           464.000
         9   01 Jun 2027 03:23:50.926   01 Jun 2027 03:24:07.881            16.955          8477.500
        10   01 Jun 2027 04:55:22.725   01 Jun 2027 04:55:35.565            12.840          6420.000
        11   01 Jun 2027 04:55:43.425   01 Jun 2027 04:55:43.863             0.438           219.000
        12   01 Jun 2027 04:56:51.152   01 Jun 2027 04:56:57.512             6.360          3180.000
        13   01 Jun 2027 04:58:07.239   01 Jun 2027 04:58:13.594             6.355          3177.500
        14   01 Jun 2027 04:58:50.751   01 Jun 2027 04:58:50.850             0.099            49.500
        15   01 Jun 2027 04:59:10.582   01 Jun 2027 04:59:15.278             4.696          2348.000
        16   01 Jun 2027 04:59:58.279   01 Jun 2027 05:00:09.603            11.324          5662.000
        17   01 Jun 2027 05:01:05.518   01 Jun 2027 05:01:08.715             3.197          1598.500
        18   01 Jun 2027 06:32:13.680   01 Jun 2027 06:32:18.373             4.693          2346.500
        19   01 Jun 2027 06:32:44.026   01 Jun 2027 06:32:46.689             2.663          1331.500
        20   01 Jun 2027 06:33:06.528   01 Jun 2027 06:33:07.861             1.333           666.500
        21   01 Jun 2027 06:33:15.819   01 Jun 2027 06:33:17.519             1.700           850.000
        22   01 Jun 2027 06:33:23.170   01 Jun 2027 06:33:25.740             2.570          1285.000
        23   01 Jun 2027 06:33:54.215   01 Jun 2027 06:33:54.507             0.292           146.000
        24   01 Jun 2027 06:34:01.864   01 Jun 2027 06:34:02.451             0.587           293.500
        25   01 Jun 2027 06:34:19.835   01 Jun 2027 06:34:28.252             8.417          4208.500
        26   01 Jun 2027 06:35:14.215   01 Jun 2027 06:35:18.984             4.769          2384.500
        27   01 Jun 2027 06:35:39.616   01 Jun 2027 06:35:41.169             1.553           776.500
        28   01 Jun 2027 06:35:49.262   01 Jun 2027 06:35:53.163             3.901          1950.500
        29   01 Jun 2027 06:36:18.342   01 Jun 2027 06:36:28.914            10.572          5286.000
        30   01 Jun 2027 08:09:50.162   01 Jun 2027 08:09:57.053             6.891          3445.500
        31   01 Jun 2027 08:10:35.075   01 Jun 2027 08:10:36.473             1.398           699.000
        32   01 Jun 2027 08:11:33.323   01 Jun 2027 08:11:34.621             1.298           649.000
        33   02 Jun 2027 03:30:35.017   02 Jun 2027 03:30:40.870             5.853          2926.500
        34   02 Jun 2027 03:31:15.787   02 Jun 2027 03:31:20.469             4.682          2341.000
        35   02 Jun 2027 03:31:54.954   02 Jun 2027 03:31:57.833             2.879          1439.500
        36   02 Jun 2027 03:32:31.551   02 Jun 2027 03:32:35.806             4.255          2127.500
        37   02 Jun 2027 03:33:05.578   02 Jun 2027 03:33:05.721             0.143            71.500
        38   02 Jun 2027 03:33:49.509   02 Jun 2027 03:33:59.382             9.873          4936.500
        39   02 Jun 2027 03:35:07.567   02 Jun 2027 03:35:10.550             2.983          1491.500
        40   02 Jun 2027 03:35:41.285   02 Jun 2027 03:35:44.673             3.388          1694.000
        41   02 Jun 2027 03:36:06.127   02 Jun 2027 03:36:17.967            11.840          5920.000
        42   02 Jun 2027 03:37:05.554   02 Jun 2027 03:37:11.754             6.200          3100.000
        43   02 Jun 2027 05:08:17.370   02 Jun 2027 05:08:28.529            11.159          5579.500
        44   02 Jun 2027 05:10:03.648   02 Jun 2027 05:10:05.230             1.582           791.000
        45   02 Jun 2027 05:10:10.308   02 Jun 2027 05:10:13.234             2.926          1463.000
        46   02 Jun 2027 05:10:26.997   02 Jun 2027 05:10:27.443             0.446           223.000
        47   02 Jun 2027 05:10:39.265   02 Jun 2027 05:10:48.142             8.877          4438.500
        48   02 Jun 2027 05:11:28.202   02 Jun 2027 05:11:31.795             3.593          1796.500
        49   02 Jun 2027 05:11:58.963   02 Jun 2027 05:11:59.346             0.383           191.500
        50   02 Jun 2027 06:44:15.872   02 Jun 2027 06:44:17.113             1.241           620.500
        51   02 Jun 2027 06:44:32.304   02 Jun 2027 06:44:37.898             5.594          2797.000
        52   02 Jun 2027 06:45:26.025   02 Jun 2027 06:45:29.897             3.872          1936.000
        53   02 Jun 2027 06:46:28.870   02 Jun 2027 06:46:36.809             7.939          3969.500
        54   02 Jun 2027 06:47:13.683   02 Jun 2027 06:47:19.788             6.105          3052.500
        55   02 Jun 2027 06:47:47.619   02 Jun 2027 06:47:51.517             3.898          1949.000
        56   02 Jun 2027 06:48:18.245   02 Jun 2027 06:48:21.299             3.054          1527.000
        57   02 Jun 2027 06:48:53.583   02 Jun 2027 06:49:02.309             8.726          4363.000
        58   03 Jun 2027 03:43:10.405   03 Jun 2027 03:43:12.889             2.484          1242.000
        59   03 Jun 2027 03:43:26.460   03 Jun 2027 03:43:27.825             1.365           682.500
        60   03 Jun 2027 03:43:39.569   03 Jun 2027 03:43:45.337             5.768          2884.000
        61   03 Jun 2027 03:44:24.473   03 Jun 2027 03:44:32.440             7.967          3983.500
        62   03 Jun 2027 03:45:20.373   03 Jun 2027 03:45:21.033             0.660           330.000
        63   03 Jun 2027 03:45:55.354   03 Jun 2027 03:46:05.487            10.133          5066.500
        64   03 Jun 2027 03:46:47.412   03 Jun 2027 03:46:55.976             8.564          4282.000
        65   03 Jun 2027 03:47:57.353   03 Jun 2027 03:48:09.474            12.121          6060.500
        66   03 Jun 2027 03:48:36.073   03 Jun 2027 03:48:41.280             5.207          2603.500
        67   03 Jun 2027 05:20:23.935   03 Jun 2027 05:20:25.067             1.132           566.000
        68   03 Jun 2027 05:20:33.080   03 Jun 2027 05:20:47.883            14.803          7401.500
        69   03 Jun 2027 05:22:03.638   03 Jun 2027 05:22:07.331             3.693          1846.500
        70   03 Jun 2027 05:22:31.287   03 Jun 2027 05:22:36.380             5.093          2546.500
        71   03 Jun 2027 05:22:57.836   03 Jun 2027 05:23:05.604             7.768          3884.000
        72   03 Jun 2027 05:23:30.053   03 Jun 2027 05:23:39.867             9.814          4907.000
        73   03 Jun 2027 06:56:42.879   03 Jun 2027 06:56:47.461             4.582          2291.000
        74   03 Jun 2027 06:57:28.118   03 Jun 2027 06:57:31.302             3.184          1592.000
        75   03 Jun 2027 06:58:06.054   03 Jun 2027 06:58:15.886             9.832          4916.000
        76   03 Jun 2027 06:59:01.653   03 Jun 2027 06:59:05.247             3.594          1797.000
        77   03 Jun 2027 06:59:30.129   03 Jun 2027 06:59:30.346             0.217           108.500
        78   03 Jun 2027 06:59:41.347   03 Jun 2027 06:59:42.764             1.417           708.500
        79   03 Jun 2027 07:00:21.157   03 Jun 2027 07:00:22.156             0.999           499.500
        80   04 Jun 2027 03:54:42.057   04 Jun 2027 03:55:04.054            21.997         10998.500
        81   04 Jun 2027 03:56:32.302   04 Jun 2027 03:56:39.462             7.160          3580.000
        82   04 Jun 2027 03:57:26.979   04 Jun 2027 03:57:31.480             4.501          2250.500
        83   04 Jun 2027 03:57:50.125   04 Jun 2027 03:57:54.140             4.015          2007.500
        84   04 Jun 2027 03:58:12.230   04 Jun 2027 03:58:13.715             1.485           742.500
        85   04 Jun 2027 03:58:19.924   04 Jun 2027 03:58:20.351             0.427           213.500
        86   04 Jun 2027 03:58:42.244   04 Jun 2027 03:58:45.155             2.911          1455.500
        87   04 Jun 2027 03:59:57.327   04 Jun 2027 04:00:00.247             2.920          1460.000
        88   04 Jun 2027 04:00:24.515   04 Jun 2027 04:00:35.278            10.763          5381.500
        89   04 Jun 2027 05:33:01.679   04 Jun 2027 05:33:16.123            14.444          7222.000
        90   04 Jun 2027 05:34:16.351   04 Jun 2027 05:34:19.418             3.067          1533.500
        91   04 Jun 2027 05:34:36.829   04 Jun 2027 05:34:42.898             6.069          3034.500
        92   04 Jun 2027 05:35:54.969   04 Jun 2027 05:35:56.693             1.724           862.000
        93   04 Jun 2027 05:36:36.157   04 Jun 2027 05:36:52.344            16.187          8093.500
        94   04 Jun 2027 07:08:21.178   04 Jun 2027 07:08:34.609            13.431          6715.500
        95   04 Jun 2027 07:09:37.890   04 Jun 2027 07:09:41.288             3.398          1699.000
        96   04 Jun 2027 07:10:03.885   04 Jun 2027 07:10:07.605             3.720          1860.000
        97   04 Jun 2027 07:10:30.789   04 Jun 2027 07:10:37.123             6.334          3167.000
        98   04 Jun 2027 07:11:25.647   04 Jun 2027 07:11:28.125             2.478          1239.000
        99   04 Jun 2027 07:12:08.089   04 Jun 2027 07:12:10.031             1.942           971.000
       100   04 Jun 2027 07:13:00.492   04 Jun 2027 07:13:21.354            20.862         10431.000
       101   05 Jun 2027 04:07:03.447   05 Jun 2027 04:07:05.325             1.878           939.000
       102   05 Jun 2027 04:07:28.019   05 Jun 2027 04:07:35.341             7.322          3661.000
       103   05 Jun 2027 04:07:44.193   05 Jun 2027 04:07:54.628            10.435          5217.500
       104   05 Jun 2027 04:08:46.098   05 Jun 2027 04:08:53.798             7.700          3850.000
       105   05 Jun 2027 04:10:23.173   05 Jun 2027 04:10:28.915             5.742          2871.000
       106   05 Jun 2027 04:12:48.842   05 Jun 2027 04:12:49.712             0.870           435.000
       107   05 Jun 2027 04:13:12.222   05 Jun 2027 04:13:24.708            12.486          6243.000
       108   05 Jun 2027 05:45:02.972   05 Jun 2027 05:45:04.333             1.361           680.500
       109   05 Jun 2027 05:45:18.724   05 Jun 2027 05:45:32.045            13.321          6660.500
       110   05 Jun 2027 05:46:52.756   05 Jun 2027 05:46:54.290             1.534           767.000
       111   05 Jun 2027 05:47:21.695   05 Jun 2027 05:47:27.270             5.575          2787.500
       112   05 Jun 2027 05:47:59.783   05 Jun 2027 05:48:20.140            20.357         10178.500
       113   05 Jun 2027 07:18:13.733   05 Jun 2027 07:18:15.299             1.566           783.000
       114   05 Jun 2027 07:18:17.729   05 Jun 2027 07:18:40.405            22.676         11338.000
       115   05 Jun 2027 07:20:26.866   05 Jun 2027 07:20:30.393             3.527          1763.500
       116   05 Jun 2027 07:21:22.213   05 Jun 2027 07:21:22.938             0.725           362.500
       117   05 Jun 2027 07:21:38.815   05 Jun 2027 07:22:00.212            21.397         10698.500
       118   05 Jun 2027 07:22:48.712   05 Jun 2027 07:22:51.646             2.934          1467.000
       119   05 Jun 2027 07:23:42.827   05 Jun 2027 07:23:48.677             5.850          2925.000
       120   05 Jun 2027 07:24:34.502   05 Jun 2027 07:24:52.698            18.196          9098.000
       121   05 Jun 2027 07:25:55.155   05 Jun 2027 07:25:55.155             0.000             0.000
       122   06 Jun 2027 04:19:06.373   06 Jun 2027 04:19:09.472             3.099          1549.500
       123   06 Jun 2027 04:19:39.678   06 Jun 2027 04:19:58.748            19.070          9535.000
       124   06 Jun 2027 04:21:19.872   06 Jun 2027 04:21:22.938             3.066          1533.000
       125   06 Jun 2027 04:21:44.614   06 Jun 2027 04:21:47.650             3.036          1518.000
       126   06 Jun 2027 04:22:09.641   06 Jun 2027 04:22:10.336             0.695           347.500
       127   06 Jun 2027 04:22:15.730   06 Jun 2027 04:22:22.034             6.304          3152.000
       128   06 Jun 2027 04:22:53.042   06 Jun 2027 04:23:00.971             7.929          3964.500
       129   06 Jun 2027 04:23:40.008   06 Jun 2027 04:23:44.158             4.150          2075.000
       130   06 Jun 2027 04:24:09.443   06 Jun 2027 04:24:14.508             5.065          2532.500
       131   06 Jun 2027 04:24:38.121   06 Jun 2027 04:24:40.241             2.120          1060.000
       132   06 Jun 2027 04:25:10.111   06 Jun 2027 04:25:16.486             6.375          3187.500
       133   06 Jun 2027 05:57:02.654   06 Jun 2027 05:57:04.398             1.744           872.000
       134   06 Jun 2027 05:58:00.806   06 Jun 2027 05:58:02.566             1.760           880.000
       135   06 Jun 2027 05:58:13.857   06 Jun 2027 05:58:17.202             3.345          1672.500
       136   06 Jun 2027 05:58:29.055   06 Jun 2027 05:58:39.586            10.531          5265.500
       137   06 Jun 2027 05:59:44.559   06 Jun 2027 05:59:52.583             8.024          4012.000
       138   06 Jun 2027 06:00:48.823   06 Jun 2027 06:00:50.543             1.720           860.000
       139   06 Jun 2027 07:30:38.047   06 Jun 2027 07:30:46.201             8.154          4077.000
       140   06 Jun 2027 07:32:04.312   06 Jun 2027 07:32:08.980             4.668          2334.000
       141   06 Jun 2027 07:33:01.535   06 Jun 2027 07:33:19.449            17.914          8957.000
       142   06 Jun 2027 07:34:33.419   06 Jun 2027 07:34:36.186             2.767          1383.500
       143   06 Jun 2027 07:35:04.517   06 Jun 2027 07:35:09.494             4.977          2488.500
       144   06 Jun 2027 07:35:57.566   06 Jun 2027 07:36:00.050             2.484          1242.000
       145   06 Jun 2027 07:36:45.653   06 Jun 2027 07:37:05.317            19.664          9832.000
       146   07 Jun 2027 03:00:00.000   07 Jun 2027 03:00:05.108             5.108          2554.000
       147   07 Jun 2027 03:00:26.793   07 Jun 2027 03:00:36.743             9.950          4975.000
       148   07 Jun 2027 03:01:35.238   07 Jun 2027 03:01:35.684             0.446           223.000
       149   07 Jun 2027 04:30:57.809   07 Jun 2027 04:31:21.541            23.732         11866.000
       150   07 Jun 2027 04:32:57.871   07 Jun 2027 04:32:59.491             1.620           810.000
       151   07 Jun 2027 04:33:10.451   07 Jun 2027 04:33:14.454             4.003          2001.500
       152   07 Jun 2027 04:33:24.196   07 Jun 2027 04:33:24.442             0.246           123.000
       153   07 Jun 2027 04:33:32.623   07 Jun 2027 04:33:47.630            15.007          7503.500
       154   07 Jun 2027 04:35:19.931   07 Jun 2027 04:35:24.218             4.287          2143.500
       155   07 Jun 2027 04:36:38.072   07 Jun 2027 04:36:52.862            14.790          7395.000
       156   07 Jun 2027 06:09:03.541   07 Jun 2027 06:09:09.892             6.351          3175.500
       157   07 Jun 2027 06:09:48.431   07 Jun 2027 06:09:51.490             3.059          1529.500
       158   07 Jun 2027 06:10:15.996   07 Jun 2027 06:10:16.653             0.657           328.500
       159   07 Jun 2027 06:10:22.035   07 Jun 2027 06:10:23.779             1.744           872.000
       160   07 Jun 2027 06:10:45.696   07 Jun 2027 06:11:01.864            16.168          8084.000
       161   07 Jun 2027 06:11:34.830   07 Jun 2027 06:11:34.830             0.000             0.000
       162   07 Jun 2027 06:12:09.660   07 Jun 2027 06:12:29.205            19.545          9772.500
       163   07 Jun 2027 07:42:54.770   07 Jun 2027 07:43:05.956            11.186          5593.000
       164   07 Jun 2027 07:43:53.167   07 Jun 2027 07:43:56.433             3.266          1633.000
       165   07 Jun 2027 07:44:53.032   07 Jun 2027 07:45:15.308            22.276         11138.000
       166   07 Jun 2027 07:46:51.839   07 Jun 2027 07:47:06.052            14.213          7106.500
       167   07 Jun 2027 07:48:16.907   07 Jun 2027 07:48:20.491             3.584          1792.000
       168   07 Jun 2027 07:49:22.687   07 Jun 2027 07:49:34.428            11.741          5870.500
       169   08 Jun 2027 03:06:17.644   08 Jun 2027 03:06:23.661             6.017          3008.500
       170   08 Jun 2027 03:07:18.066   08 Jun 2027 03:07:18.098             0.032            16.000
       171   08 Jun 2027 03:07:49.465   08 Jun 2027 03:08:06.775            17.310          8655.000
       172   08 Jun 2027 03:09:50.706   08 Jun 2027 03:09:51.370             0.664           332.000
       173   08 Jun 2027 03:10:15.561   08 Jun 2027 03:10:15.823             0.262           131.000
       174   08 Jun 2027 03:10:39.697   08 Jun 2027 03:10:40.186             0.489           244.500
       175   08 Jun 2027 03:10:51.437   08 Jun 2027 03:10:53.924             2.487          1243.500
       176   08 Jun 2027 03:11:27.544   08 Jun 2027 03:11:28.154             0.610           305.000
       177   08 Jun 2027 03:12:01.242   08 Jun 2027 03:12:06.226             4.984          2492.000
       178   08 Jun 2027 03:12:41.725   08 Jun 2027 03:12:48.646             6.921          3460.500
       179   08 Jun 2027 03:13:25.097   08 Jun 2027 03:13:25.956             0.859           429.500
       180   08 Jun 2027 04:43:16.322   08 Jun 2027 04:43:17.716             1.394           697.000
       181   08 Jun 2027 04:44:18.573   08 Jun 2027 04:44:38.019            19.446          9723.000
       182   08 Jun 2027 04:45:29.897   08 Jun 2027 04:45:33.437             3.540          1770.000
       183   08 Jun 2027 04:46:18.936   08 Jun 2027 04:46:18.993             0.057            28.500
       184   08 Jun 2027 04:46:26.615   08 Jun 2027 04:46:38.696            12.081          6040.500
       185   08 Jun 2027 04:47:30.137   08 Jun 2027 04:47:32.350             2.213          1106.500
       186   08 Jun 2027 04:48:33.112   08 Jun 2027 04:48:35.238             2.126          1063.000
       187   08 Jun 2027 04:49:17.345   08 Jun 2027 04:49:20.332             2.987          1493.500
       188   08 Jun 2027 06:20:17.529   08 Jun 2027 06:20:19.915             2.386          1193.000
       189   08 Jun 2027 06:20:55.918   08 Jun 2027 06:21:03.694             7.776          3888.000
       190   08 Jun 2027 06:21:36.768   08 Jun 2027 06:21:38.740             1.972           986.000
       191   08 Jun 2027 06:21:51.277   08 Jun 2027 06:22:01.448            10.171          5085.500
       192   08 Jun 2027 06:23:11.656   08 Jun 2027 06:23:14.417             2.761          1380.500
       193   08 Jun 2027 06:23:31.027   08 Jun 2027 06:23:31.856             0.829           414.500
       194   08 Jun 2027 06:23:50.381   08 Jun 2027 06:23:51.983             1.602           801.000
       195   08 Jun 2027 06:23:57.451   08 Jun 2027 06:23:59.678             2.227          1113.500
       196   08 Jun 2027 06:24:26.841   08 Jun 2027 06:24:30.279             3.438          1719.000
       197   08 Jun 2027 06:24:52.767   08 Jun 2027 06:24:53.030             0.263           131.500
       198   08 Jun 2027 06:24:56.384   08 Jun 2027 06:24:57.284             0.900           450.000
       199   08 Jun 2027 07:55:21.458   08 Jun 2027 07:55:26.925             5.467          2733.500
       200   08 Jun 2027 07:56:01.306   08 Jun 2027 07:56:02.623             1.317           658.500
       201   08 Jun 2027 07:56:59.521   08 Jun 2027 07:57:10.485            10.964          5482.000
       202   08 Jun 2027 07:58:11.495   08 Jun 2027 07:58:23.985            12.490          6245.000
       203   09 Jun 2027 03:18:44.137   09 Jun 2027 03:18:45.592             1.455           727.500
       204   09 Jun 2027 03:19:20.300   09 Jun 2027 03:19:28.851             8.551          4275.500
       205   09 Jun 2027 03:20:19.631   09 Jun 2027 03:20:22.218             2.587          1293.500
       206   09 Jun 2027 03:20:58.919   09 Jun 2027 03:21:05.391             6.472          3236.000
       207   09 Jun 2027 03:21:50.731   09 Jun 2027 03:21:55.875             5.144          2572.000
       208   09 Jun 2027 03:22:28.635   09 Jun 2027 03:22:45.707            17.072          8536.000
       209   09 Jun 2027 03:24:00.989   09 Jun 2027 03:24:01.024             0.035            17.500
       210   09 Jun 2027 03:24:04.044   09 Jun 2027 03:24:06.257             2.213          1106.500
       211   09 Jun 2027 03:24:24.276   09 Jun 2027 03:24:41.801            17.525          8762.500
       212   09 Jun 2027 04:55:37.868   09 Jun 2027 04:55:51.726            13.858          6929.000
       213   09 Jun 2027 04:56:10.820   09 Jun 2027 04:56:13.076             2.256          1128.000
       214   09 Jun 2027 04:57:12.265   09 Jun 2027 04:57:13.271             1.006           503.000
       215   09 Jun 2027 04:58:22.015   09 Jun 2027 04:58:28.507             6.492          3246.000
       216   09 Jun 2027 04:59:06.661   09 Jun 2027 04:59:28.056            21.395         10697.500
       217   09 Jun 2027 05:01:14.282   09 Jun 2027 05:01:15.851             1.569           784.500
       218   09 Jun 2027 06:32:29.316   09 Jun 2027 06:32:34.639             5.323          2661.500
       219   09 Jun 2027 06:33:02.412   09 Jun 2027 06:33:03.784             1.372           686.000
       220   09 Jun 2027 06:33:27.717   09 Jun 2027 06:33:32.209             4.492          2246.000
       221   09 Jun 2027 06:33:59.193   09 Jun 2027 06:34:04.741             5.548          2774.000
       222   09 Jun 2027 06:34:28.411   09 Jun 2027 06:34:43.236            14.825          7412.500
       223   09 Jun 2027 06:35:55.714   09 Jun 2027 06:36:00.291             4.577          2288.500
       224   09 Jun 2027 06:36:45.399   09 Jun 2027 06:36:46.014             0.615           307.500
       225   09 Jun 2027 08:09:41.078   09 Jun 2027 08:09:55.243            14.165          7082.500
       226   09 Jun 2027 08:10:55.425   09 Jun 2027 08:11:12.203            16.778          8389.000
       227   10 Jun 2027 03:30:50.299   10 Jun 2027 03:30:55.953             5.654          2827.000
       228   10 Jun 2027 03:31:31.633   10 Jun 2027 03:31:32.889             1.256           628.000
       229   10 Jun 2027 03:31:55.066   10 Jun 2027 03:32:09.233            14.167          7083.500
       230   10 Jun 2027 03:33:20.910   10 Jun 2027 03:33:45.492            24.582         12291.000
       231   10 Jun 2027 03:35:07.159   10 Jun 2027 03:35:20.873            13.714          6857.000
       232   10 Jun 2027 03:36:52.493   10 Jun 2027 03:37:01.641             9.148          4574.000
       233   10 Jun 2027 05:08:33.129   10 Jun 2027 05:08:40.495             7.366          3683.000
       234   10 Jun 2027 05:09:16.324   10 Jun 2027 05:09:30.460            14.136          7068.000
       235   10 Jun 2027 05:09:57.923   10 Jun 2027 05:10:01.876             3.953          1976.500
       236   10 Jun 2027 05:10:54.269   10 Jun 2027 05:11:03.250             8.981          4490.500
       237   10 Jun 2027 05:11:41.475   10 Jun 2027 05:11:42.731             1.256           628.000
       238   10 Jun 2027 05:12:15.016   10 Jun 2027 05:12:18.404             3.388          1694.000
       239   10 Jun 2027 06:44:37.253   10 Jun 2027 06:44:48.132            10.879          5439.500
       240   10 Jun 2027 06:45:45.793   10 Jun 2027 06:45:49.514             3.721          1860.500
       241   10 Jun 2027 06:46:21.907   10 Jun 2027 06:46:22.172             0.265           132.500
       242   10 Jun 2027 06:47:03.772   10 Jun 2027 06:47:08.603             4.831          2415.500
       243   10 Jun 2027 06:47:49.843   10 Jun 2027 06:47:49.864             0.021            10.500
       244   10 Jun 2027 06:48:08.449   10 Jun 2027 06:48:09.664             1.215           607.500
       245   10 Jun 2027 06:48:33.123   10 Jun 2027 06:48:37.460             4.337          2168.500
       246   11 Jun 2027 03:43:26.206   11 Jun 2027 03:43:28.707             2.501          1250.500
       247   11 Jun 2027 03:43:41.159   11 Jun 2027 03:43:42.146             0.987           493.500
       248   11 Jun 2027 03:43:54.655   11 Jun 2027 03:44:04.673            10.018          5009.000
       249   11 Jun 2027 03:44:51.828   11 Jun 2027 03:45:03.259            11.431          5715.500
       250   11 Jun 2027 03:45:49.310   11 Jun 2027 03:45:56.309             6.999          3499.500
       251   11 Jun 2027 03:46:06.054   11 Jun 2027 03:46:10.259             4.205          2102.500
       252   11 Jun 2027 03:47:01.103   11 Jun 2027 03:47:02.760             1.657           828.500
       253   11 Jun 2027 03:47:25.143   11 Jun 2027 03:47:31.084             5.941          2970.500
       254   11 Jun 2027 03:48:10.991   11 Jun 2027 03:48:25.528            14.537          7268.500
       255   11 Jun 2027 03:49:25.866   11 Jun 2027 03:49:30.403             4.537          2268.500
       256   11 Jun 2027 05:20:39.256   11 Jun 2027 05:20:39.833             0.577           288.500
       257   11 Jun 2027 05:20:52.300   11 Jun 2027 05:20:56.523             4.223          2111.500
       258   11 Jun 2027 05:21:02.599   11 Jun 2027 05:21:02.615             0.016             8.000
       259   11 Jun 2027 05:21:30.450   11 Jun 2027 05:21:33.833             3.383          1691.500
       260   11 Jun 2027 05:21:50.105   11 Jun 2027 05:21:50.322             0.217           108.500
       261   11 Jun 2027 05:22:38.210   11 Jun 2027 05:22:43.672             5.462          2731.000
       262   11 Jun 2027 05:23:09.384   11 Jun 2027 05:23:10.008             0.624           312.000
       263   11 Jun 2027 05:23:37.937   11 Jun 2027 05:23:39.492             1.555           777.500
       264   11 Jun 2027 05:23:48.090   11 Jun 2027 05:23:54.809             6.719          3359.500
       265   11 Jun 2027 05:24:19.239   11 Jun 2027 05:24:36.334            17.095          8547.500
       266   11 Jun 2027 06:56:57.048   11 Jun 2027 06:57:02.505             5.457          2728.500
       267   11 Jun 2027 06:57:43.989   11 Jun 2027 06:57:45.965             1.976           988.000
       268   11 Jun 2027 06:58:23.624   11 Jun 2027 06:58:29.816             6.192          3096.000
       269   11 Jun 2027 06:59:16.434   11 Jun 2027 06:59:19.400             2.966          1483.000
       270   11 Jun 2027 06:59:43.622   11 Jun 2027 06:59:44.691             1.069           534.500
       271   11 Jun 2027 06:59:56.031   11 Jun 2027 06:59:58.661             2.630          1315.000
       272   11 Jun 2027 07:00:36.338   11 Jun 2027 07:00:36.906             0.568           284.000
       273   11 Jun 2027 07:01:05.583   11 Jun 2027 07:01:23.636            18.053          9026.500
       274   12 Jun 2027 03:54:58.390   12 Jun 2027 03:55:18.416            20.026         10013.000
       275   12 Jun 2027 03:56:46.412   12 Jun 2027 03:56:50.243             3.831          1915.500
       276   12 Jun 2027 03:57:47.971   12 Jun 2027 03:57:53.273             5.302          2651.000
       277   12 Jun 2027 03:58:35.148   12 Jun 2027 03:58:38.040             2.892          1446.000
       278   12 Jun 2027 03:58:50.546   12 Jun 2027 03:58:57.716             7.170          3585.000
       279   12 Jun 2027 03:59:27.966   12 Jun 2027 03:59:30.887             2.921          1460.500
       280   12 Jun 2027 04:00:02.775   12 Jun 2027 04:00:12.878            10.103          5051.500
       281   12 Jun 2027 04:01:09.942   12 Jun 2027 04:01:11.743             1.801           900.500
       282   12 Jun 2027 04:01:22.600   12 Jun 2027 04:01:23.282             0.682           341.000
       283   12 Jun 2027 04:01:23.850   12 Jun 2027 04:01:24.313             0.463           231.500
       284   12 Jun 2027 05:33:16.380   12 Jun 2027 05:33:30.745            14.365          7182.500
       285   12 Jun 2027 05:33:58.154   12 Jun 2027 05:34:03.425             5.271          2635.500
       286   12 Jun 2027 05:34:57.446   12 Jun 2027 05:34:59.769             2.323          1161.500
       287   12 Jun 2027 05:35:26.680   12 Jun 2027 05:35:29.416             2.736          1368.000
       288   12 Jun 2027 05:35:47.061   12 Jun 2027 05:35:47.617             0.556           278.000
       289   12 Jun 2027 05:36:14.734   12 Jun 2027 05:36:14.794             0.060            30.000
       290   12 Jun 2027 05:36:50.659   12 Jun 2027 05:37:07.423            16.764          8382.000
       291   12 Jun 2027 07:08:36.036   12 Jun 2027 07:08:49.647            13.611          6805.500
       292   12 Jun 2027 07:09:55.717   12 Jun 2027 07:09:56.866             1.149           574.500
       293   12 Jun 2027 07:10:18.618   12 Jun 2027 07:10:25.157             6.539          3269.500
       294   12 Jun 2027 07:10:51.817   12 Jun 2027 07:10:57.158             5.341          2670.500
       295   12 Jun 2027 07:11:57.905   12 Jun 2027 07:12:00.150             2.245          1122.500
       296   12 Jun 2027 07:12:14.073   12 Jun 2027 07:12:18.268             4.195          2097.500
       297   12 Jun 2027 07:12:40.149   12 Jun 2027 07:12:45.706             5.557          2778.500
       298   12 Jun 2027 07:13:44.371   12 Jun 2027 07:13:49.741             5.370          2685.000
       299   13 Jun 2027 04:07:18.622   13 Jun 2027 04:07:21.084             2.462          1231.000
       300   13 Jun 2027 04:07:45.525   13 Jun 2027 04:07:57.739            12.214          6107.000
       301   13 Jun 2027 04:08:09.180   13 Jun 2027 04:08:18.504             9.324          4662.000
       302   13 Jun 2027 04:09:44.788   13 Jun 2027 04:09:46.094             1.306           653.000
       303   13 Jun 2027 04:10:10.065   13 Jun 2027 04:10:10.201             0.136            68.000
       304   13 Jun 2027 04:10:32.086   13 Jun 2027 04:10:34.055             1.969           984.500
       305   13 Jun 2027 04:11:12.807   13 Jun 2027 04:11:22.774             9.967          4983.500
       306   13 Jun 2027 04:12:02.700   13 Jun 2027 04:12:12.360             9.660          4830.000
       307   13 Jun 2027 04:12:20.339   13 Jun 2027 04:12:25.873             5.534          2767.000
       308   13 Jun 2027 04:13:23.325   13 Jun 2027 04:13:28.432             5.107          2553.500
       309   13 Jun 2027 05:45:17.974   13 Jun 2027 05:45:23.198             5.224          2612.000
       310   13 Jun 2027 05:46:28.073   13 Jun 2027 05:46:29.300             1.227           613.500
       311   13 Jun 2027 05:46:58.716   13 Jun 2027 05:47:02.405             3.689          1844.500
       312   13 Jun 2027 05:47:28.428   13 Jun 2027 05:47:41.370            12.942          6471.000
       313   13 Jun 2027 05:48:37.275   13 Jun 2027 05:48:44.812             7.537          3768.500
       314   13 Jun 2027 07:18:28.089   13 Jun 2027 07:18:55.197            27.108         13554.000
       315   13 Jun 2027 07:20:58.702   13 Jun 2027 07:21:02.900             4.198          2099.000
       316   13 Jun 2027 07:21:27.907   13 Jun 2027 07:21:36.851             8.944          4472.000
       317   13 Jun 2027 07:22:30.561   13 Jun 2027 07:22:30.983             0.422           211.000
       318   13 Jun 2027 07:22:46.087   13 Jun 2027 07:22:47.042             0.955           477.500
       319   13 Jun 2027 07:22:51.174   13 Jun 2027 07:22:56.621             5.447          2723.500
       320   13 Jun 2027 07:23:26.659   13 Jun 2027 07:23:32.372             5.713          2856.500
       321   13 Jun 2027 07:23:55.246   13 Jun 2027 07:23:59.320             4.074          2037.000
       322   13 Jun 2027 07:24:16.161   13 Jun 2027 07:24:18.979             2.818          1409.000
       323   13 Jun 2027 07:24:48.451   13 Jun 2027 07:25:07.320            18.869          9434.500
       324   13 Jun 2027 07:26:12.349   13 Jun 2027 07:26:12.349             0.000             0.000
