uniorb/output/strategy_2/Camera/Camera_KinoSat_110905.txt

KinoSat_110905
-------------------------
    Access    *     Start Time (UTCG)     *     Stop Time (UTCG)  *   Duration (s) *   Data (Mbytes)
         1   01 Jun 2027 03:30:50.628   01 Jun 2027 03:31:20.347            29.719         14859.500
         2   01 Jun 2027 03:32:13.255   01 Jun 2027 03:32:17.979             4.724          2362.000
         3   01 Jun 2027 03:32:22.011   01 Jun 2027 03:32:33.684            11.673          5836.500
         4   01 Jun 2027 03:32:37.358   01 Jun 2027 03:32:38.405             1.047           523.500
         5   01 Jun 2027 03:33:07.107   01 Jun 2027 03:33:07.107             0.000             0.000
         6   01 Jun 2027 03:33:15.128   01 Jun 2027 03:33:37.192            22.064         11032.000
         7   01 Jun 2027 05:07:28.336   01 Jun 2027 05:08:03.676            35.340         17670.000
         8   01 Jun 2027 05:08:37.321   01 Jun 2027 05:10:57.613           140.292         70146.000
         9   01 Jun 2027 06:42:23.469   01 Jun 2027 06:45:33.189           189.720         94860.000
        10   01 Jun 2027 06:45:48.032   01 Jun 2027 06:46:12.364            24.332         12166.000
        11   01 Jun 2027 06:48:14.768   01 Jun 2027 06:48:19.593             4.825          2412.500
        12   01 Jun 2027 06:48:23.345   01 Jun 2027 06:48:26.148             2.803          1401.500
        13   01 Jun 2027 06:49:18.221   01 Jun 2027 06:49:21.618             3.397          1698.500
        14   01 Jun 2027 08:18:35.549   01 Jun 2027 08:21:29.123           173.574         86787.000
        15   01 Jun 2027 08:21:53.769   01 Jun 2027 08:22:21.517            27.748         13874.000
        16   01 Jun 2027 09:56:18.702   01 Jun 2027 09:58:36.535           137.833         68916.500
        17   01 Jun 2027 09:58:58.690   01 Jun 2027 09:59:11.580            12.890          6445.000
        18   01 Jun 2027 09:59:37.868   01 Jun 2027 09:59:48.048            10.180          5090.000
        19   01 Jun 2027 11:32:22.952   01 Jun 2027 11:33:54.022            91.070         45535.000
        20   01 Jun 2027 11:35:50.145   01 Jun 2027 11:36:06.011            15.866          7933.000
        21   01 Jun 2027 11:36:15.149   01 Jun 2027 11:36:17.587             2.438          1219.000
        22   01 Jun 2027 11:36:25.971   01 Jun 2027 11:36:25.971             0.000             0.000
        23   01 Jun 2027 11:36:37.116   01 Jun 2027 11:36:40.669             3.553          1776.500
        24   02 Jun 2027 03:43:04.433   02 Jun 2027 03:43:17.625            13.192          6596.000
        25   02 Jun 2027 03:44:06.969   02 Jun 2027 03:44:38.199            31.230         15615.000
        26   02 Jun 2027 03:44:51.586   02 Jun 2027 03:45:13.638            22.052         11026.000
        27   02 Jun 2027 03:45:45.963   02 Jun 2027 03:46:11.512            25.549         12774.500
        28   02 Jun 2027 05:19:36.339   02 Jun 2027 05:22:28.651           172.312         86156.000
        29   02 Jun 2027 06:54:46.214   02 Jun 2027 06:57:30.329           164.115         82057.500
        30   02 Jun 2027 06:57:33.133   02 Jun 2027 06:57:52.166            19.033          9516.500
        31   02 Jun 2027 06:58:00.265   02 Jun 2027 06:58:18.724            18.459          9229.500
        32   02 Jun 2027 07:01:11.508   02 Jun 2027 07:01:22.917            11.409          5704.500
        33   02 Jun 2027 08:31:11.434   02 Jun 2027 08:32:34.640            83.206         41603.000
        34   02 Jun 2027 08:33:14.720   02 Jun 2027 08:33:43.483            28.763         13548.780
        35   02 Jun 2027 08:36:52.856   02 Jun 2027 08:37:05.125            12.269          5917.906
        36   02 Jun 2027 10:08:25.196   02 Jun 2027 10:08:42.291            17.095          8547.500
        37   02 Jun 2027 10:08:51.463   02 Jun 2027 10:08:56.385             4.922          1478.844
        38   02 Jun 2027 10:09:15.744   02 Jun 2027 10:09:16.701             0.957           133.594
        39   02 Jun 2027 10:09:34.622   02 Jun 2027 10:09:38.460             3.838           560.031
        40   02 Jun 2027 10:10:40.376   02 Jun 2027 10:10:43.729             3.353          1676.500
        41   02 Jun 2027 10:10:59.813   02 Jun 2027 10:11:03.063             3.250           761.000
        42   02 Jun 2027 10:11:20.381   02 Jun 2027 10:11:22.822             2.441           216.844
        43   02 Jun 2027 10:12:30.298   02 Jun 2027 10:12:39.208             8.910          2108.625
        44   02 Jun 2027 11:44:40.755   02 Jun 2027 11:44:58.454            17.699          8562.313
        45   02 Jun 2027 11:45:52.988   02 Jun 2027 11:45:58.432             5.444          1553.625
        46   02 Jun 2027 11:47:02.407   02 Jun 2027 11:47:10.744             8.337          1512.219
        47   02 Jun 2027 11:47:59.121   02 Jun 2027 11:48:04.850             5.729          1413.219
        48   02 Jun 2027 11:48:26.436   02 Jun 2027 11:48:26.711             0.275           137.500
        49   02 Jun 2027 11:48:45.166   02 Jun 2027 11:48:48.543             3.377          1096.469
        50   03 Jun 2027 03:55:39.546   03 Jun 2027 03:56:15.860            36.314         18157.000
        51   03 Jun 2027 03:56:44.995   03 Jun 2027 03:58:12.762            87.767         43883.500
        52   03 Jun 2027 05:31:29.256   03 Jun 2027 05:32:00.764            31.508         15754.000
        53   03 Jun 2027 05:32:08.332   03 Jun 2027 05:33:34.716            86.384         43192.000
        54   03 Jun 2027 05:34:42.581   03 Jun 2027 05:35:31.199            48.618         24309.000
        55   03 Jun 2027 07:06:25.838   03 Jun 2027 07:07:00.067            34.229         16490.594
        56   03 Jun 2027 07:08:10.295   03 Jun 2027 07:08:11.826             1.531           206.344
        57   03 Jun 2027 07:08:27.309   03 Jun 2027 07:08:27.774             0.465           162.969
        58   03 Jun 2027 07:08:30.445   03 Jun 2027 07:08:33.106             2.661            83.469
        59   03 Jun 2027 07:09:02.700   03 Jun 2027 07:09:05.794             3.094           879.125
        60   03 Jun 2027 07:09:34.813   03 Jun 2027 07:09:38.411             3.598           265.812
        61   03 Jun 2027 07:09:55.839   03 Jun 2027 07:09:57.465             1.626           544.625
        62   03 Jun 2027 07:10:25.110   03 Jun 2027 07:10:26.990             1.880           718.187
        63   03 Jun 2027 07:11:06.357   03 Jun 2027 07:11:08.285             1.928           275.156
        64   03 Jun 2027 07:11:55.454   03 Jun 2027 07:11:57.639             2.185           698.094
        65   03 Jun 2027 07:12:51.082   03 Jun 2027 07:12:51.082             0.000             0.000
        66   03 Jun 2027 07:12:56.490   03 Jun 2027 07:13:02.567             6.077          1839.094
        67   03 Jun 2027 07:13:11.706   03 Jun 2027 07:13:13.315             1.609           241.188
        68   03 Jun 2027 08:42:43.883   03 Jun 2027 08:43:10.110            26.227         12698.219
        69   03 Jun 2027 08:44:21.883   03 Jun 2027 08:44:29.850             7.967          2124.656
        70   03 Jun 2027 08:44:57.869   03 Jun 2027 08:45:01.526             3.657           859.906
        71   03 Jun 2027 08:45:46.309   03 Jun 2027 08:45:48.296             1.987           448.656
        72   03 Jun 2027 08:46:14.956   03 Jun 2027 08:46:23.288             8.332           833.125
        73   03 Jun 2027 08:47:07.087   03 Jun 2027 08:47:13.993             6.906          1269.594
        74   03 Jun 2027 08:47:26.428   03 Jun 2027 08:47:27.341             0.913           388.594
        75   03 Jun 2027 08:47:46.777   03 Jun 2027 08:47:47.712             0.935           414.844
        76   03 Jun 2027 08:49:01.587   03 Jun 2027 08:49:07.067             5.480          1942.625
        77   03 Jun 2027 10:20:59.774   03 Jun 2027 10:21:14.107            14.333          7052.281
        78   03 Jun 2027 10:21:34.493   03 Jun 2027 10:21:35.539             1.046           404.625
        79   03 Jun 2027 10:21:41.965   03 Jun 2027 10:21:45.895             3.930           139.156
        80   03 Jun 2027 10:22:43.904   03 Jun 2027 10:22:47.921             4.017          1812.781
        81   03 Jun 2027 10:23:00.545   03 Jun 2027 10:23:05.558             5.013           394.500
        82   03 Jun 2027 10:23:19.777   03 Jun 2027 10:23:21.286             1.509           335.719
        83   03 Jun 2027 10:23:21.585   03 Jun 2027 10:23:22.580             0.995             9.344
        84   03 Jun 2027 10:23:52.563   03 Jun 2027 10:23:53.751             1.188           594.000
        85   03 Jun 2027 10:23:58.308   03 Jun 2027 10:24:00.145             1.837           332.562
        86   03 Jun 2027 10:24:30.949   03 Jun 2027 10:24:31.287             0.338           169.000
        87   03 Jun 2027 11:56:19.755   03 Jun 2027 11:56:39.857            20.102          8271.750
        88   03 Jun 2027 11:57:10.990   03 Jun 2027 11:57:10.990             0.000             0.000
        89   03 Jun 2027 11:57:16.529   03 Jun 2027 11:57:20.152             3.623           759.594
        90   03 Jun 2027 11:57:51.026   03 Jun 2027 11:57:55.083             4.057           964.813
        91   03 Jun 2027 11:58:46.234   03 Jun 2027 11:58:49.664             3.430          1598.469
        92   04 Jun 2027 04:06:31.448   04 Jun 2027 04:08:17.343           105.895         52947.500
        93   04 Jun 2027 04:10:13.876   04 Jun 2027 04:10:13.876             0.000             0.000
        94   04 Jun 2027 04:10:44.551   04 Jun 2027 04:10:44.551             0.000             0.000
        95   04 Jun 2027 05:41:47.996   04 Jun 2027 05:42:21.279            33.283         16641.500
        96   04 Jun 2027 05:43:13.162   04 Jun 2027 05:44:13.878            60.716         30358.000
        97   04 Jun 2027 05:44:24.965   04 Jun 2027 05:45:37.020            72.055         36027.500
        98   04 Jun 2027 05:46:55.472   04 Jun 2027 05:46:55.472             0.000             0.000
        99   04 Jun 2027 05:47:41.568   04 Jun 2027 05:47:41.677             0.109            54.500
       100   04 Jun 2027 07:17:58.998   04 Jun 2027 07:19:02.232            63.234         30092.250
       101   04 Jun 2027 07:20:06.917   04 Jun 2027 07:20:09.079             2.162           547.281
       102   04 Jun 2027 07:20:25.121   04 Jun 2027 07:20:25.740             0.619           273.875
       103   04 Jun 2027 07:21:38.507   04 Jun 2027 07:21:44.081             5.574          2127.094
       104   04 Jun 2027 07:22:23.686   04 Jun 2027 07:22:28.733             5.047           849.969
       105   04 Jun 2027 07:22:44.881   04 Jun 2027 07:22:47.823             2.942           181.781
       106   04 Jun 2027 07:23:32.252   04 Jun 2027 07:23:38.478             6.226          1100.625
       107   04 Jun 2027 07:24:15.387   04 Jun 2027 07:24:17.413             2.026           821.937
       108   04 Jun 2027 07:24:50.576   04 Jun 2027 07:24:51.596             1.020           479.469
       109   04 Jun 2027 07:25:15.012   04 Jun 2027 07:25:15.012             0.000             0.000
       110   04 Jun 2027 08:55:03.213   04 Jun 2027 08:55:25.862            22.649         11031.406
       111   04 Jun 2027 08:55:42.856   04 Jun 2027 08:55:44.677             1.821           506.219
       112   04 Jun 2027 08:56:25.777   04 Jun 2027 08:56:28.551             2.774           189.469
       113   04 Jun 2027 08:57:33.348   04 Jun 2027 08:57:35.520             2.172           773.937
       114   04 Jun 2027 08:57:58.363   04 Jun 2027 08:58:01.660             3.297           713.844
       115   04 Jun 2027 08:59:04.402   04 Jun 2027 08:59:04.467             0.065            32.500
       116   04 Jun 2027 08:59:20.743   04 Jun 2027 08:59:24.767             4.024          1994.125
       117   04 Jun 2027 08:59:30.586   04 Jun 2027 08:59:31.507             0.921           175.281
       118   04 Jun 2027 09:00:38.554   04 Jun 2027 09:00:42.076             3.522          1291.094
       119   04 Jun 2027 09:00:57.284   04 Jun 2027 09:00:58.602             1.318           312.500
       120   04 Jun 2027 09:01:09.169   04 Jun 2027 09:01:09.169             0.000             0.000
       121   04 Jun 2027 09:01:15.038   04 Jun 2027 09:01:15.133             0.095            47.500
       122   04 Jun 2027 10:33:02.413   04 Jun 2027 10:33:20.566            18.153          7794.781
       123   04 Jun 2027 10:34:12.162   04 Jun 2027 10:34:18.100             5.938           533.625
       124   04 Jun 2027 10:34:34.727   04 Jun 2027 10:34:35.519             0.792           396.000
       125   04 Jun 2027 10:35:01.507   04 Jun 2027 10:35:07.720             6.213           869.156
       126   04 Jun 2027 10:36:03.156   04 Jun 2027 10:36:06.825             3.669          1616.625
       127   04 Jun 2027 10:36:34.711   04 Jun 2027 10:36:36.874             2.163           871.438
       128   04 Jun 2027 10:36:55.493   04 Jun 2027 10:36:57.770             2.277           518.250
       129   05 Jun 2027 04:17:50.384   05 Jun 2027 04:19:01.325            70.941         35470.500
       130   05 Jun 2027 04:19:51.147   05 Jun 2027 04:20:46.261            55.114         27557.000
       131   05 Jun 2027 04:21:23.900   05 Jun 2027 04:21:42.586            18.686          9343.000
       132   05 Jun 2027 04:22:28.504   05 Jun 2027 04:22:52.761            24.257         12128.500
       133   05 Jun 2027 05:52:54.860   05 Jun 2027 05:54:37.984           103.124         51562.000
       134   05 Jun 2027 05:54:57.794   05 Jun 2027 05:55:22.860            25.066         12533.000
       135   05 Jun 2027 05:57:08.035   05 Jun 2027 05:57:27.707            19.672          8636.719
       136   05 Jun 2027 05:59:03.419   05 Jun 2027 05:59:03.419             0.000             0.000
       137   05 Jun 2027 05:59:22.656   05 Jun 2027 05:59:28.840             6.184          2981.969
       138   05 Jun 2027 07:30:15.879   05 Jun 2027 07:30:32.202            16.323          7591.313
       139   05 Jun 2027 07:31:49.456   05 Jun 2027 07:32:00.869            11.413          2220.813
       140   05 Jun 2027 07:32:28.539   05 Jun 2027 07:32:33.081             4.542           640.719
       141   05 Jun 2027 07:33:13.549   05 Jun 2027 07:33:15.249             1.700           387.812
       142   05 Jun 2027 07:33:52.076   05 Jun 2027 07:33:52.076             0.000             0.000
       143   05 Jun 2027 07:33:58.245   05 Jun 2027 07:34:04.330             6.085          1343.625
       144   05 Jun 2027 07:34:52.695   05 Jun 2027 07:34:56.898             4.203          1504.750
       145   05 Jun 2027 07:35:45.979   05 Jun 2027 07:35:49.073             3.094           575.875
       146   05 Jun 2027 07:36:32.065   05 Jun 2027 07:36:38.719             6.654          1242.219
       147   05 Jun 2027 07:37:13.499   05 Jun 2027 07:37:13.499             0.000             0.000
       148   05 Jun 2027 09:07:04.991   05 Jun 2027 09:07:31.879            26.888         11022.437
       149   05 Jun 2027 09:08:14.499   05 Jun 2027 09:08:15.700             1.201            24.469
       150   05 Jun 2027 09:08:34.120   05 Jun 2027 09:08:36.397             2.277           553.437
       151   05 Jun 2027 09:09:36.736   05 Jun 2027 09:09:38.421             1.685           842.500
       152   05 Jun 2027 09:09:40.009   05 Jun 2027 09:09:41.016             1.007           482.281
       153   05 Jun 2027 09:10:05.851   05 Jun 2027 09:10:05.851             0.000             0.000
       154   05 Jun 2027 09:10:55.834   05 Jun 2027 09:11:01.094             5.260          2225.812
       155   05 Jun 2027 09:11:06.390   05 Jun 2027 09:11:09.342             2.952            76.125
       156   05 Jun 2027 09:11:14.501   05 Jun 2027 09:11:15.775             1.274            97.344
       157   05 Jun 2027 09:12:08.350   05 Jun 2027 09:12:14.546             6.196          1642.969
       158   05 Jun 2027 09:12:41.116   05 Jun 2027 09:12:44.144             3.028           830.313
       159   05 Jun 2027 09:12:48.989   05 Jun 2027 09:12:48.989             0.000             0.000
       160   05 Jun 2027 09:12:57.050   05 Jun 2027 09:12:57.866             0.816           378.750
       161   05 Jun 2027 09:13:14.067   05 Jun 2027 09:13:15.809             1.742           451.094
       162   05 Jun 2027 09:13:21.719   05 Jun 2027 09:13:24.218             2.499           184.687
       163   05 Jun 2027 10:45:01.911   05 Jun 2027 10:45:20.511            18.600          8623.000
       164   05 Jun 2027 10:46:06.543   05 Jun 2027 10:46:09.642             3.099           941.562
       165   05 Jun 2027 10:46:22.889   05 Jun 2027 10:46:27.532             4.643           299.063
       166   05 Jun 2027 10:46:53.856   05 Jun 2027 10:46:58.905             5.049           534.094
       167   05 Jun 2027 10:47:01.391   05 Jun 2027 10:47:01.936             0.545            77.687
       168   05 Jun 2027 10:47:16.790   05 Jun 2027 10:47:25.646             8.856           464.187
       169   05 Jun 2027 10:47:36.771   05 Jun 2027 10:47:38.987             2.216           347.656
       170   05 Jun 2027 10:48:32.401   05 Jun 2027 10:48:35.630             3.229          1479.594
       171   06 Jun 2027 03:07:33.963   06 Jun 2027 03:08:11.422            37.459         18729.500
       172   06 Jun 2027 04:29:34.648   06 Jun 2027 04:30:49.559            74.911         37455.500
       173   06 Jun 2027 04:31:37.211   06 Jun 2027 04:32:48.185            70.974         35487.000
       174   06 Jun 2027 04:34:26.114   06 Jun 2027 04:34:36.871            10.757          5378.500
       175   06 Jun 2027 06:04:23.074   06 Jun 2027 06:06:05.830           102.756         51212.250
       176   06 Jun 2027 06:06:51.709   06 Jun 2027 06:06:51.709             0.000             0.000
       177   06 Jun 2027 06:07:56.781   06 Jun 2027 06:08:04.448             7.667          3341.000
       178   06 Jun 2027 06:10:53.247   06 Jun 2027 06:11:00.179             6.932          3466.000
       179   06 Jun 2027 06:11:27.483   06 Jun 2027 06:11:27.483             0.000             0.000
       180   06 Jun 2027 06:11:45.378   06 Jun 2027 06:11:50.767             5.389          2694.500
       181   06 Jun 2027 06:12:11.422   06 Jun 2027 06:12:15.812             4.390          1172.406
       182   06 Jun 2027 06:13:02.604   06 Jun 2027 06:13:07.006             4.402          1462.250
       183   06 Jun 2027 07:42:11.646   06 Jun 2027 07:42:26.620            14.974          7351.906
       184   06 Jun 2027 07:43:50.287   06 Jun 2027 07:43:51.921             1.634           230.906
       185   06 Jun 2027 07:46:19.069   06 Jun 2027 07:46:27.570             8.501          4045.500
       186   06 Jun 2027 07:47:28.124   06 Jun 2027 07:47:31.688             3.564          1533.062
       187   06 Jun 2027 07:48:03.710   06 Jun 2027 07:48:06.402             2.692           825.938
       188   06 Jun 2027 07:48:16.446   06 Jun 2027 07:48:20.785             4.339            12.719
       189   06 Jun 2027 07:48:25.981   06 Jun 2027 07:48:29.520             3.539           162.375
       190   06 Jun 2027 07:49:30.568   06 Jun 2027 07:49:33.155             2.587          1163.594
       191   06 Jun 2027 09:18:56.126   06 Jun 2027 09:19:01.886             5.760          2880.000
       192   06 Jun 2027 09:19:25.458   06 Jun 2027 09:19:41.728            16.270          6965.656
       193   06 Jun 2027 09:20:47.003   06 Jun 2027 09:20:48.401             1.398           699.000
       194   06 Jun 2027 09:21:37.312   06 Jun 2027 09:21:45.242             7.930          2558.656
       195   06 Jun 2027 09:22:48.164   06 Jun 2027 09:22:53.382             5.218          1649.781
       196   06 Jun 2027 09:23:20.440   06 Jun 2027 09:23:23.047             2.607           300.938
       197   06 Jun 2027 09:23:50.735   06 Jun 2027 09:23:53.381             2.646           723.031
       198   06 Jun 2027 09:24:45.371   06 Jun 2027 09:24:50.683             5.312          1430.906
       199   06 Jun 2027 09:25:12.605   06 Jun 2027 09:25:14.295             1.690           685.063
       200   06 Jun 2027 10:57:03.504   06 Jun 2027 10:57:21.520            18.016          8515.375
       201   06 Jun 2027 10:58:07.299   06 Jun 2027 10:58:10.157             2.858          1429.000
       202   06 Jun 2027 10:58:16.810   06 Jun 2027 10:58:16.810             0.000             0.000
       203   06 Jun 2027 10:59:19.460   06 Jun 2027 10:59:25.252             5.792          2167.313
       204   06 Jun 2027 10:59:54.131   06 Jun 2027 10:59:57.191             3.060           902.469
       205   06 Jun 2027 10:59:59.039   06 Jun 2027 11:00:09.711            10.672            57.750
       206   06 Jun 2027 11:00:55.486   06 Jun 2027 11:00:58.621             3.135          1430.469
       207   06 Jun 2027 11:01:09.766   06 Jun 2027 11:01:09.901             0.135            67.500
       208   07 Jun 2027 03:07:23.645   07 Jun 2027 03:07:49.963            26.318         13159.000
       209   07 Jun 2027 03:07:56.580   07 Jun 2027 03:08:27.419            30.839         15419.500
       210   07 Jun 2027 03:08:50.614   07 Jun 2027 03:09:06.544            15.930          7965.000
       211   07 Jun 2027 03:09:19.621   07 Jun 2027 03:09:38.055            18.434          9217.000
       212   07 Jun 2027 04:43:20.496   07 Jun 2027 04:45:57.583           157.087         78543.500
       213   07 Jun 2027 04:46:53.657   07 Jun 2027 04:47:16.543            22.886         11443.000
       214   07 Jun 2027 06:17:11.481   07 Jun 2027 06:17:51.743            40.262         19956.375
       215   07 Jun 2027 06:18:13.027   07 Jun 2027 06:18:16.124             3.097           380.687
       216   07 Jun 2027 06:19:26.370   07 Jun 2027 06:19:35.759             9.389           545.469
       217   07 Jun 2027 06:20:13.742   07 Jun 2027 06:20:17.349             3.607           850.094
       218   07 Jun 2027 06:21:51.399   07 Jun 2027 06:22:00.971             9.572          2630.469
       219   07 Jun 2027 06:22:39.530   07 Jun 2027 06:22:43.449             3.919          1204.969
       220   07 Jun 2027 06:23:15.261   07 Jun 2027 06:23:18.186             2.925           960.156
       221   07 Jun 2027 06:23:55.087   07 Jun 2027 06:23:57.377             2.290          1142.781
       222   07 Jun 2027 06:24:27.782   07 Jun 2027 06:24:27.782             0.000             0.000
       223   07 Jun 2027 06:25:12.370   07 Jun 2027 06:25:14.355             1.985           992.500
       224   07 Jun 2027 06:25:18.923   07 Jun 2027 06:25:23.230             4.307          1403.156
       225   07 Jun 2027 06:25:35.526   07 Jun 2027 06:25:36.562             1.036           384.250
       226   07 Jun 2027 07:54:18.098   07 Jun 2027 07:54:41.688            23.590         10350.969
       227   07 Jun 2027 07:55:44.142   07 Jun 2027 07:55:45.659             1.517            12.125
       228   07 Jun 2027 07:57:58.887   07 Jun 2027 07:58:03.516             4.629          2123.250
       229   07 Jun 2027 07:58:25.202   07 Jun 2027 07:58:25.532             0.330             6.250
       230   07 Jun 2027 07:58:50.949   07 Jun 2027 07:58:54.374             3.425           215.719
       231   07 Jun 2027 07:59:26.265   07 Jun 2027 07:59:29.351             3.086           606.469
       232   07 Jun 2027 08:00:13.509   07 Jun 2027 08:00:20.459             6.950          1379.938
       233   07 Jun 2027 08:00:40.726   07 Jun 2027 08:00:45.663             4.937           214.594
       234   07 Jun 2027 08:01:31.707   07 Jun 2027 08:01:31.707             0.000             0.000
       235   07 Jun 2027 09:31:45.466   07 Jun 2027 09:32:07.361            21.895         10345.844
       236   07 Jun 2027 09:33:00.591   07 Jun 2027 09:33:05.645             5.054          1547.938
       237   07 Jun 2027 09:33:31.414   07 Jun 2027 09:33:32.827             1.413           236.469
       238   07 Jun 2027 09:33:59.527   07 Jun 2027 09:34:01.647             2.120           830.438
       239   07 Jun 2027 09:34:38.600   07 Jun 2027 09:34:40.801             2.201          1006.125
       240   07 Jun 2027 09:35:09.993   07 Jun 2027 09:35:12.345             2.352           912.250
       241   07 Jun 2027 09:35:38.994   07 Jun 2027 09:35:42.037             3.043           713.687
       242   07 Jun 2027 09:35:50.356   07 Jun 2027 09:35:51.589             1.233           123.750
       243   07 Jun 2027 09:36:51.524   07 Jun 2027 09:37:00.214             8.690          1868.906
       244   07 Jun 2027 09:37:17.113   07 Jun 2027 09:37:18.372             1.259           466.781
       245   07 Jun 2027 11:08:17.610   07 Jun 2027 11:08:35.367            17.757          6788.187
       246   07 Jun 2027 11:08:59.816   07 Jun 2027 11:09:00.853             1.037           301.125
       247   07 Jun 2027 11:09:03.091   07 Jun 2027 11:09:04.469             1.378            69.938
       248   07 Jun 2027 11:09:34.915   07 Jun 2027 11:09:41.096             6.181           764.438
       249   07 Jun 2027 11:10:09.076   07 Jun 2027 11:10:11.001             1.925           835.156
       250   07 Jun 2027 11:10:33.750   07 Jun 2027 11:10:37.344             3.594           422.344
       251   07 Jun 2027 11:11:14.014   07 Jun 2027 11:11:18.450             4.436           998.406
       252   07 Jun 2027 11:11:46.299   07 Jun 2027 11:11:50.458             4.159           870.281
       253   07 Jun 2027 11:12:57.093   07 Jun 2027 11:13:02.038             4.945          2082.344
       254   08 Jun 2027 03:19:17.906   08 Jun 2027 03:19:51.440            33.534         16767.000
       255   08 Jun 2027 03:20:04.983   08 Jun 2027 03:20:50.644            45.661         22830.500
       256   08 Jun 2027 04:55:42.199   08 Jun 2027 04:59:08.112           205.913        102956.500
       257   08 Jun 2027 06:29:10.041   08 Jun 2027 06:29:42.355            32.314         15689.313
       258   08 Jun 2027 06:30:15.315   08 Jun 2027 06:30:19.536             4.221           665.094
       259   08 Jun 2027 06:31:24.911   08 Jun 2027 06:31:31.434             6.523           167.531
       260   08 Jun 2027 06:31:52.507   08 Jun 2027 06:31:53.257             0.750           316.750
       261   08 Jun 2027 06:32:11.537   08 Jun 2027 06:32:11.537             0.000             0.000
       262   08 Jun 2027 06:32:30.885   08 Jun 2027 06:32:35.103             4.218           937.063
       263   08 Jun 2027 06:33:11.453   08 Jun 2027 06:33:11.453             0.000             0.000
       264   08 Jun 2027 06:34:24.641   08 Jun 2027 06:34:31.461             6.820          3186.000
       265   08 Jun 2027 06:35:47.615   08 Jun 2027 06:35:52.803             5.188          2379.813
       266   08 Jun 2027 06:36:27.031   08 Jun 2027 06:36:29.085             2.054          1027.000
       267   08 Jun 2027 06:36:45.645   08 Jun 2027 06:36:45.645             0.000             0.000
       268   08 Jun 2027 06:37:06.160   08 Jun 2027 06:37:08.601             2.441          1200.344
       269   08 Jun 2027 06:37:23.157   08 Jun 2027 06:37:26.481             3.324           448.188
       270   08 Jun 2027 06:37:38.132   08 Jun 2027 06:37:38.980             0.848           364.094
       271   08 Jun 2027 08:06:43.913   08 Jun 2027 08:07:03.818            19.905          9638.375
       272   08 Jun 2027 08:08:37.792   08 Jun 2027 08:08:43.820             6.028          1089.375
       273   08 Jun 2027 08:09:53.114   08 Jun 2027 08:09:54.836             1.722           404.688
       274   08 Jun 2027 08:10:24.844   08 Jun 2027 08:10:26.528             1.684           635.688
       275   08 Jun 2027 08:10:50.606   08 Jun 2027 08:10:55.374             4.768           651.000
       276   08 Jun 2027 08:11:39.883   08 Jun 2027 08:11:42.684             2.801          1380.000
       277   08 Jun 2027 08:12:53.840   08 Jun 2027 08:12:57.940             4.100          1596.188
       278   08 Jun 2027 08:13:09.233   08 Jun 2027 08:13:11.472             2.239           352.906
       279   08 Jun 2027 09:43:37.923   08 Jun 2027 09:43:45.830             7.907          3953.500
       280   08 Jun 2027 09:44:00.326   08 Jun 2027 09:44:12.175            11.849          5781.906
       281   08 Jun 2027 09:45:00.538   08 Jun 2027 09:45:01.073             0.535           267.500
       282   08 Jun 2027 09:45:30.746   08 Jun 2027 09:45:33.379             2.633           971.156
       283   08 Jun 2027 09:46:25.952   08 Jun 2027 09:46:29.324             3.372          1553.344
       284   08 Jun 2027 09:46:48.096   08 Jun 2027 09:46:50.147             2.051           586.625
       285   08 Jun 2027 09:47:39.528   08 Jun 2027 09:47:45.489             5.961          1085.656
       286   08 Jun 2027 09:48:10.860   08 Jun 2027 09:48:16.407             5.547           465.813
       287   08 Jun 2027 09:48:23.224   08 Jun 2027 09:48:23.673             0.449           134.625
       288   08 Jun 2027 09:48:53.913   08 Jun 2027 09:48:55.962             2.049           945.000
       289   08 Jun 2027 11:20:31.526   08 Jun 2027 11:20:48.121            16.595          6907.594
       290   08 Jun 2027 11:21:20.827   08 Jun 2027 11:21:21.059             0.232           116.000
       291   08 Jun 2027 11:21:44.878   08 Jun 2027 11:21:46.017             1.139           569.500
       292   08 Jun 2027 11:22:08.894   08 Jun 2027 11:22:18.169             9.275          1795.813
       293   08 Jun 2027 11:22:42.435   08 Jun 2027 11:22:42.752             0.317           158.500
       294   08 Jun 2027 11:22:57.707   08 Jun 2027 11:23:06.124             8.417           996.750
       295   08 Jun 2027 11:23:52.155   08 Jun 2027 11:24:05.174            13.019          1438.469
       296   08 Jun 2027 11:24:31.067   08 Jun 2027 11:24:31.313             0.246           123.000
       297   08 Jun 2027 11:24:42.805   08 Jun 2027 11:24:42.805             0.000             0.000
       298   09 Jun 2027 03:31:05.235   09 Jun 2027 03:31:34.954            29.719         14859.500
       299   09 Jun 2027 03:32:29.300   09 Jun 2027 03:33:13.448            44.148         22074.000
       300   09 Jun 2027 05:07:43.700   09 Jun 2027 05:10:22.242           158.542         79271.000
       301   09 Jun 2027 05:10:26.259   09 Jun 2027 05:11:12.316            46.057         23028.500
       302   09 Jun 2027 06:42:38.755   09 Jun 2027 06:43:10.722            31.967         15983.500
       303   09 Jun 2027 06:44:08.905   09 Jun 2027 06:44:14.840             5.935          2727.344
       304   09 Jun 2027 06:44:21.318   09 Jun 2027 06:44:23.151             1.833           202.437
       305   09 Jun 2027 06:44:46.693   09 Jun 2027 06:44:51.063             4.370           699.844
       306   09 Jun 2027 06:45:17.064   09 Jun 2027 06:45:17.468             0.404           141.219
       307   09 Jun 2027 06:45:40.517   09 Jun 2027 06:45:40.570             0.053            15.531
       308   09 Jun 2027 06:45:57.089   09 Jun 2027 06:46:01.061             3.972           274.156
       309   09 Jun 2027 06:46:01.641   09 Jun 2027 06:46:02.764             1.123             8.500
       310   09 Jun 2027 06:46:06.424   09 Jun 2027 06:46:08.066             1.642            75.562
       311   09 Jun 2027 06:46:18.181   09 Jun 2027 06:46:23.635             5.454           159.125
       312   09 Jun 2027 06:46:42.587   09 Jun 2027 06:46:42.587             0.000             0.000
       313   09 Jun 2027 06:46:58.340   09 Jun 2027 06:47:06.446             8.106           695.469
       314   09 Jun 2027 06:47:28.685   09 Jun 2027 06:47:32.506             3.821           694.969
       315   09 Jun 2027 06:48:27.475   09 Jun 2027 06:48:30.681             3.206          1274.406
       316   09 Jun 2027 06:48:38.211   09 Jun 2027 06:48:38.513             0.302           137.281
       317   09 Jun 2027 06:49:06.191   09 Jun 2027 06:49:09.129             2.938           864.938
       318   09 Jun 2027 06:49:18.467   09 Jun 2027 06:49:21.580             3.113           134.531
       319   09 Jun 2027 06:49:33.082   09 Jun 2027 06:49:34.197             1.115           167.844
       320   09 Jun 2027 08:18:51.362   09 Jun 2027 08:19:20.929            29.567          9532.156
       321   09 Jun 2027 08:21:12.684   09 Jun 2027 08:21:16.511             3.827          1079.812
       322   09 Jun 2027 08:21:18.846   09 Jun 2027 08:21:26.693             7.847             9.969
       323   09 Jun 2027 08:22:08.837   09 Jun 2027 08:22:11.145             2.308           763.719
       324   09 Jun 2027 08:22:35.634   09 Jun 2027 08:22:37.135             1.501           247.687
       325   09 Jun 2027 08:22:51.379   09 Jun 2027 08:22:57.061             5.682           220.937
       326   09 Jun 2027 08:23:22.415   09 Jun 2027 08:23:23.879             1.464           653.938
       327   09 Jun 2027 08:23:29.012   09 Jun 2027 08:23:34.125             5.113            74.344
       328   09 Jun 2027 08:24:06.450   09 Jun 2027 08:24:09.178             2.728           683.969
       329   09 Jun 2027 08:24:55.184   09 Jun 2027 08:24:57.269             2.085           864.313
       330   09 Jun 2027 09:56:34.644   09 Jun 2027 09:56:55.925            21.281          9772.656
       331   09 Jun 2027 09:57:30.441   09 Jun 2027 09:57:33.233             2.792          1052.687
       332   09 Jun 2027 09:58:08.368   09 Jun 2027 09:58:10.651             2.283          1016.219
       333   09 Jun 2027 09:58:42.654   09 Jun 2027 09:58:45.264             2.610           902.812
       334   09 Jun 2027 09:59:13.936   09 Jun 2027 09:59:17.303             3.367           635.563
       335   09 Jun 2027 09:59:32.698   09 Jun 2027 09:59:32.698             0.000             0.000
       336   09 Jun 2027 09:59:54.123   09 Jun 2027 09:59:56.795             2.672           802.438
       337   09 Jun 2027 10:00:41.907   09 Jun 2027 10:00:43.916             2.009          1004.500
       338   09 Jun 2027 10:00:47.258   09 Jun 2027 10:00:49.316             2.058           309.875
       339   09 Jun 2027 11:32:40.967   09 Jun 2027 11:32:57.837            16.870          6939.156
       340   09 Jun 2027 11:33:45.535   09 Jun 2027 11:33:49.982             4.447          1371.750
       341   09 Jun 2027 11:35:16.513   09 Jun 2027 11:35:22.301             5.788          2427.937
       342   09 Jun 2027 11:35:26.013   09 Jun 2027 11:35:26.105             0.092            46.000
       343   09 Jun 2027 11:36:40.642   09 Jun 2027 11:36:46.597             5.955          2361.875
       344   09 Jun 2027 11:37:02.793   09 Jun 2027 11:37:02.793             0.000             0.000
       345   10 Jun 2027 03:43:19.471   10 Jun 2027 03:43:55.704            36.233         18116.500
       346   10 Jun 2027 03:44:07.333   10 Jun 2027 03:44:35.128            27.795         13897.500
       347   10 Jun 2027 03:44:55.060   10 Jun 2027 03:44:55.060             0.000             0.000
       348   10 Jun 2027 03:45:59.993   10 Jun 2027 03:45:59.993             0.000             0.000
       349   10 Jun 2027 05:19:51.281   10 Jun 2027 05:20:40.964            49.683         24841.500
       350   10 Jun 2027 05:22:10.596   10 Jun 2027 05:23:07.222            56.626         28313.000
       351   10 Jun 2027 05:23:22.198   10 Jun 2027 05:23:23.226             1.028           514.000
       352   10 Jun 2027 06:55:01.331   10 Jun 2027 06:57:23.770           142.439         71049.250
       353   10 Jun 2027 06:57:53.900   10 Jun 2027 06:57:55.689             1.789           894.500
       354   10 Jun 2027 06:58:17.270   10 Jun 2027 06:58:19.551             2.281           692.250
       355   10 Jun 2027 06:59:49.036   10 Jun 2027 06:59:56.607             7.571          2796.406
       356   10 Jun 2027 07:00:56.482   10 Jun 2027 07:01:01.806             5.324          1728.156
       357   10 Jun 2027 07:01:19.450   10 Jun 2027 07:01:19.450             0.000             0.000
       358   10 Jun 2027 08:31:26.564   10 Jun 2027 08:31:45.436            18.872          9078.188
       359   10 Jun 2027 08:32:58.033   10 Jun 2027 08:33:02.289             4.256           298.219
       360   10 Jun 2027 08:33:36.556   10 Jun 2027 08:33:39.734             3.178          1058.500
       361   10 Jun 2027 08:34:11.775   10 Jun 2027 08:34:18.027             6.252           809.281
       362   10 Jun 2027 08:35:28.766   10 Jun 2027 08:35:32.459             3.693          1673.156
       363   10 Jun 2027 08:36:30.761   10 Jun 2027 08:36:36.543             5.782          1623.469
       364   10 Jun 2027 08:36:49.760   10 Jun 2027 08:36:50.798             1.038           401.938
       365   10 Jun 2027 08:37:33.355   10 Jun 2027 08:37:34.259             0.904           452.000
       366   10 Jun 2027 10:08:41.368   10 Jun 2027 10:08:53.792            12.424          6212.000
       367   10 Jun 2027 10:08:55.762   10 Jun 2027 10:09:02.323             6.561          1726.188
       368   10 Jun 2027 10:09:30.469   10 Jun 2027 10:09:30.858             0.389           109.531
       369   10 Jun 2027 10:10:12.072   10 Jun 2027 10:10:16.310             4.238          1115.687
       370   10 Jun 2027 10:11:00.747   10 Jun 2027 10:11:09.320             8.573          1388.656
       371   10 Jun 2027 10:11:16.117   10 Jun 2027 10:11:16.797             0.680           212.406
       372   10 Jun 2027 10:12:04.612   10 Jun 2027 10:12:11.418             6.806          1494.219
       373   10 Jun 2027 10:12:56.690   10 Jun 2027 10:12:59.483             2.793          1392.094
       374   10 Jun 2027 10:13:06.822   10 Jun 2027 10:13:07.643             0.821           169.844
       375   10 Jun 2027 11:44:55.811   10 Jun 2027 11:45:09.383            13.572          6292.656
       376   10 Jun 2027 11:46:07.610   10 Jun 2027 11:46:14.749             7.139          1574.937
       377   10 Jun 2027 11:47:18.935   10 Jun 2027 11:47:26.773             7.838          1567.125
       378   10 Jun 2027 11:48:00.262   10 Jun 2027 11:48:03.244             2.982           999.563
       379   10 Jun 2027 11:48:34.070   10 Jun 2027 11:48:37.556             3.486           629.906
       380   10 Jun 2027 11:49:03.760   10 Jun 2027 11:49:03.760             0.000             0.000
       381   10 Jun 2027 11:49:13.340   10 Jun 2027 11:49:18.206             4.866          1118.250
       382   11 Jun 2027 03:55:22.010   11 Jun 2027 03:56:25.358            63.348         31674.000
       383   11 Jun 2027 03:56:42.675   11 Jun 2027 03:56:52.630             9.955          4977.500
       384   11 Jun 2027 03:58:27.990   11 Jun 2027 03:58:32.108             4.118          2059.000
       385   11 Jun 2027 05:31:44.232   11 Jun 2027 05:34:34.264           170.032         85016.000
       386   11 Jun 2027 05:34:44.380   11 Jun 2027 05:35:14.603            30.223         15111.500
       387   11 Jun 2027 07:06:40.340   11 Jun 2027 07:07:14.529            34.189         17094.500
       388   11 Jun 2027 07:08:04.861   11 Jun 2027 07:08:05.612             0.751           375.500
       389   11 Jun 2027 07:08:36.499   11 Jun 2027 07:08:41.998             5.499          2218.969
       390   11 Jun 2027 07:08:45.236   11 Jun 2027 07:08:48.135             2.899            18.688
       391   11 Jun 2027 07:09:17.699   11 Jun 2027 07:09:19.863             2.164           859.875
       392   11 Jun 2027 07:11:08.432   11 Jun 2027 07:11:15.949             7.517          2357.000
       393   11 Jun 2027 07:12:12.857   11 Jun 2027 07:12:13.685             0.828           414.000
       394   11 Jun 2027 07:12:35.727   11 Jun 2027 07:12:39.713             3.986          1027.156
       395   11 Jun 2027 07:13:10.648   11 Jun 2027 07:13:12.669             2.021           966.719
       396   11 Jun 2027 08:42:59.203   11 Jun 2027 08:43:25.564            26.361         10247.469
       397   11 Jun 2027 08:44:36.502   11 Jun 2027 08:44:40.857             4.355          2107.938
       398   11 Jun 2027 08:44:54.783   11 Jun 2027 08:44:57.597             2.814           435.187
       399   11 Jun 2027 08:45:24.444   11 Jun 2027 08:45:25.315             0.871           289.531
       400   11 Jun 2027 08:46:32.011   11 Jun 2027 08:46:39.268             7.257          1412.812
       401   11 Jun 2027 08:47:07.204   11 Jun 2027 08:47:08.589             1.385           692.500
       402   11 Jun 2027 08:48:18.195   11 Jun 2027 08:48:24.331             6.136          2221.219
       403   11 Jun 2027 08:49:02.273   11 Jun 2027 08:49:04.822             2.549           687.875
       404   11 Jun 2027 10:21:14.521   11 Jun 2027 10:21:29.202            14.681          6941.406
       405   11 Jun 2027 10:22:00.639   11 Jun 2027 10:22:05.535             4.896           932.781
       406   11 Jun 2027 10:23:26.830   11 Jun 2027 10:23:33.698             6.868          2083.500
       407   11 Jun 2027 10:23:55.726   11 Jun 2027 10:23:56.181             0.455           227.500
       408   11 Jun 2027 10:24:04.205   11 Jun 2027 10:24:04.205             0.000             0.000
       409   11 Jun 2027 10:24:57.517   11 Jun 2027 10:25:02.180             4.663          2289.844
       410   11 Jun 2027 11:56:34.721   11 Jun 2027 11:56:47.664            12.943          5846.875
       411   11 Jun 2027 11:57:31.746   11 Jun 2027 11:57:35.395             3.649           707.531
       412   11 Jun 2027 11:58:05.635   11 Jun 2027 11:58:11.751             6.116           945.000
       413   11 Jun 2027 11:58:47.858   11 Jun 2027 11:58:53.309             5.451          1128.344
       414   11 Jun 2027 11:59:54.019   11 Jun 2027 11:59:57.970             3.951          1871.250
       415   12 Jun 2027 04:06:45.793   12 Jun 2027 04:07:55.305            69.512         34756.000
       416   12 Jun 2027 04:08:12.313   12 Jun 2027 04:08:33.398            21.085         10542.500
       417   12 Jun 2027 04:08:52.225   12 Jun 2027 04:08:52.225             0.000             0.000
       418   12 Jun 2027 04:11:00.581   12 Jun 2027 04:11:00.581             0.000             0.000
       419   12 Jun 2027 05:42:02.919   12 Jun 2027 05:42:36.739            33.820         16910.000
       420   12 Jun 2027 05:43:28.175   12 Jun 2027 05:44:28.456            60.281         30140.500
       421   12 Jun 2027 05:46:34.981   12 Jun 2027 05:47:05.575            30.594         15297.000
       422   12 Jun 2027 05:47:42.937   12 Jun 2027 05:48:01.728            18.791          9395.500
       423   12 Jun 2027 07:18:13.705   12 Jun 2027 07:19:49.385            95.680         46439.093
       424   12 Jun 2027 07:20:13.255   12 Jun 2027 07:20:14.821             1.566           600.781
       425   12 Jun 2027 07:20:56.413   12 Jun 2027 07:20:59.392             2.979           993.187
       426   12 Jun 2027 07:21:26.078   12 Jun 2027 07:21:26.803             0.725           362.500
       427   12 Jun 2027 07:21:35.859   12 Jun 2027 07:21:37.025             1.166           340.906
       428   12 Jun 2027 07:22:55.287   12 Jun 2027 07:23:06.966            11.679          2443.562
       429   12 Jun 2027 07:24:25.469   12 Jun 2027 07:24:30.033             4.564          2252.969
       430   12 Jun 2027 07:25:47.032   12 Jun 2027 07:25:48.613             1.581           790.500
       431   12 Jun 2027 08:55:18.576   12 Jun 2027 08:55:41.606            23.030         10113.156
       432   12 Jun 2027 08:55:57.573   12 Jun 2027 08:55:58.571             0.998           458.312
       433   12 Jun 2027 08:56:36.279   12 Jun 2027 08:56:37.495             1.216            14.906
       434   12 Jun 2027 08:57:18.169   12 Jun 2027 08:57:23.741             5.572           767.500
       435   12 Jun 2027 08:57:48.543   12 Jun 2027 08:57:50.384             1.841           711.156
       436   12 Jun 2027 08:58:03.753   12 Jun 2027 08:58:06.008             2.255           211.844
       437   12 Jun 2027 08:58:13.161   12 Jun 2027 08:58:14.482             1.321           223.531
       438   12 Jun 2027 08:58:51.494   12 Jun 2027 08:58:55.839             4.345          1106.969
       439   12 Jun 2027 08:59:35.356   12 Jun 2027 08:59:37.168             1.812           906.000
       440   12 Jun 2027 08:59:56.070   12 Jun 2027 08:59:58.483             2.413           885.250
       441   12 Jun 2027 09:00:17.765   12 Jun 2027 09:00:18.985             1.220           205.344
       442   12 Jun 2027 09:01:14.707   12 Jun 2027 09:01:21.382             6.675          1699.063
       443   12 Jun 2027 09:01:25.858   12 Jun 2027 09:01:27.909             2.051            37.906
       444   12 Jun 2027 10:33:17.592   12 Jun 2027 10:33:31.386            13.794          6548.750
       445   12 Jun 2027 10:34:09.851   12 Jun 2027 10:34:12.880             3.029          1202.031
       446   12 Jun 2027 10:34:39.040   12 Jun 2027 10:34:40.692             1.652           659.562
       447   12 Jun 2027 10:35:09.995   12 Jun 2027 10:35:12.013             2.018           618.000
       448   12 Jun 2027 10:35:13.669   12 Jun 2027 10:35:15.181             1.512            51.750
       449   12 Jun 2027 10:36:34.347   12 Jun 2027 10:36:41.132             6.785          2473.937
       450   12 Jun 2027 10:36:57.446   12 Jun 2027 10:36:58.643             1.197           385.906
       451   13 Jun 2027 04:18:05.402   13 Jun 2027 04:19:16.005            70.603         35301.500
       452   13 Jun 2027 04:20:06.102   13 Jun 2027 04:20:51.288            45.186         22593.000
       453   13 Jun 2027 04:21:01.594   13 Jun 2027 04:21:06.002             4.408          2204.000
       454   13 Jun 2027 04:22:30.003   13 Jun 2027 04:22:50.712            20.709         10354.500
       455   13 Jun 2027 04:23:10.375   13 Jun 2027 04:23:17.721             7.346          3673.000
       456   13 Jun 2027 05:53:09.399   13 Jun 2027 05:54:52.765           103.366         51683.000
       457   13 Jun 2027 05:55:12.591   13 Jun 2027 05:55:15.526             2.935          1467.500
       458   13 Jun 2027 05:55:56.532   13 Jun 2027 05:56:19.701            23.169         11584.500
       459   13 Jun 2027 05:56:22.968   13 Jun 2027 05:56:24.934             1.966           983.000
       460   13 Jun 2027 05:56:54.879   13 Jun 2027 05:57:00.911             6.032          3016.000
       461   13 Jun 2027 05:58:40.377   13 Jun 2027 05:59:14.728            34.351         13900.656
       462   13 Jun 2027 05:59:59.371   13 Jun 2027 05:59:59.371             0.000             0.000
       463   13 Jun 2027 06:00:11.236   13 Jun 2027 06:00:12.937             1.701           850.500
       464   13 Jun 2027 07:30:31.688   13 Jun 2027 07:30:51.983            20.295          9956.969
       465   13 Jun 2027 07:32:05.414   13 Jun 2027 07:32:15.822            10.408          2198.187
       466   13 Jun 2027 07:32:42.640   13 Jun 2027 07:32:46.033             3.393           616.656
       467   13 Jun 2027 07:33:17.752   13 Jun 2027 07:33:19.860             2.108           398.594
       468   13 Jun 2027 07:34:07.981   13 Jun 2027 07:34:09.536             1.555           773.844
       469   13 Jun 2027 07:35:46.241   13 Jun 2027 07:35:52.418             6.177          2997.281
       470   13 Jun 2027 07:36:18.504   13 Jun 2027 07:36:22.190             3.686           310.094
       471   13 Jun 2027 07:37:20.304   13 Jun 2027 07:37:23.846             3.542          1742.500
       472   13 Jun 2027 09:07:20.103   13 Jun 2027 09:07:45.870            25.767         12710.937
       473   13 Jun 2027 09:08:28.806   13 Jun 2027 09:08:31.228             2.422          1201.719
       474   13 Jun 2027 09:08:57.666   13 Jun 2027 09:09:00.275             2.609           276.969
       475   13 Jun 2027 09:10:17.349   13 Jun 2027 09:10:18.166             0.817           408.500
       476   13 Jun 2027 09:10:18.516   13 Jun 2027 09:10:21.202             2.686           515.594
       477   13 Jun 2027 09:11:10.370   13 Jun 2027 09:11:13.520             3.150          1536.500
       478   13 Jun 2027 09:11:18.364   13 Jun 2027 09:11:19.288             0.924           127.781
       479   13 Jun 2027 09:11:30.497   13 Jun 2027 09:11:30.691             0.194            97.000
       480   13 Jun 2027 09:12:09.180   13 Jun 2027 09:12:11.173             1.993           996.500
       481   13 Jun 2027 09:12:29.032   13 Jun 2027 09:12:31.483             2.451           787.313
       482   13 Jun 2027 09:12:54.645   13 Jun 2027 09:12:57.057             2.412           723.812
       483   13 Jun 2027 09:13:11.958   13 Jun 2027 09:13:12.720             0.762           381.000
       484   13 Jun 2027 09:13:14.286   13 Jun 2027 09:13:14.286             0.000             0.000
       485   13 Jun 2027 09:13:31.629   13 Jun 2027 09:13:33.593             1.964           675.563
       486   13 Jun 2027 10:45:17.224   13 Jun 2027 10:45:38.574            21.350          9232.000
       487   13 Jun 2027 10:45:57.356   13 Jun 2027 10:45:59.544             2.188           210.594
       488   13 Jun 2027 10:46:20.264   13 Jun 2027 10:46:20.869             0.605           302.500
       489   13 Jun 2027 10:46:27.986   13 Jun 2027 10:46:30.220             2.234           567.406
       490   13 Jun 2027 10:46:30.531   13 Jun 2027 10:46:32.275             1.744             9.719
       491   13 Jun 2027 10:46:57.244   13 Jun 2027 10:46:57.244             0.000             0.000
       492   13 Jun 2027 10:47:06.662   13 Jun 2027 10:47:10.799             4.137           844.781
       493   13 Jun 2027 10:47:34.225   13 Jun 2027 10:47:41.601             7.376           732.063
       494   13 Jun 2027 10:47:51.512   13 Jun 2027 10:47:55.265             3.753           309.719
       495   13 Jun 2027 10:48:51.605   13 Jun 2027 10:48:55.248             3.643          1518.563
