uniorb/output/strategy_2/Camera/Camera_KinoSat_110806.txt

KinoSat_110806
-------------------------
    Access    *     Start Time (UTCG)     *     Stop Time (UTCG)  *   Duration (s) *   Data (Mbytes)
         1   01 Jun 2027 03:26:00.902   01 Jun 2027 03:26:29.602            28.700         14350.000
         2   01 Jun 2027 03:26:58.066   01 Jun 2027 03:27:10.338            12.272          6136.000
         3   01 Jun 2027 03:28:29.002   01 Jun 2027 03:28:43.689            14.687          7343.500
         4   01 Jun 2027 05:01:55.788   01 Jun 2027 05:05:14.206           198.418         99209.000
         5   01 Jun 2027 05:05:56.761   01 Jun 2027 05:05:58.204             1.443           721.500
         6   01 Jun 2027 06:36:51.888   01 Jun 2027 06:38:06.601            74.713         37356.500
         7   01 Jun 2027 06:38:28.852   01 Jun 2027 06:39:35.042            66.190         33095.000
         8   01 Jun 2027 06:40:06.680   01 Jun 2027 06:41:21.261            74.581         37290.500
         9   01 Jun 2027 06:42:02.990   01 Jun 2027 06:42:21.336            18.346          9173.000
        10   01 Jun 2027 06:43:53.970   01 Jun 2027 06:43:58.009             4.039          2019.500
        11   01 Jun 2027 08:13:10.823   01 Jun 2027 08:15:53.806           162.983         81491.500
        12   01 Jun 2027 08:19:05.629   01 Jun 2027 08:19:35.466            29.837         14918.500
        13   01 Jun 2027 09:51:26.092   01 Jun 2027 09:53:51.756           145.664         72832.000
        14   01 Jun 2027 11:26:46.320   01 Jun 2027 11:28:08.630            82.310         41155.000
        15   01 Jun 2027 11:28:35.465   01 Jun 2027 11:28:41.615             6.150          3075.000
        16   01 Jun 2027 11:28:51.278   01 Jun 2027 11:28:51.780             0.502           251.000
        17   01 Jun 2027 11:30:09.102   01 Jun 2027 11:30:09.102             0.000             0.000
        18   01 Jun 2027 11:30:31.229   01 Jun 2027 11:30:32.678             1.449           724.500
        19   01 Jun 2027 11:31:36.717   01 Jun 2027 11:31:49.339            12.622          6311.000
        20   02 Jun 2027 03:36:38.683   02 Jun 2027 03:37:45.226            66.543         33271.500
        21   02 Jun 2027 03:37:53.566   02 Jun 2027 03:37:59.913             6.347          3173.500
        22   02 Jun 2027 03:39:06.556   02 Jun 2027 03:39:06.556             0.000             0.000
        23   02 Jun 2027 03:39:52.294   02 Jun 2027 03:40:29.782            37.488         18744.000
        24   02 Jun 2027 03:40:59.013   02 Jun 2027 03:41:11.127            12.114          6057.000
        25   02 Jun 2027 05:12:14.467   02 Jun 2027 05:12:52.899            38.432         19216.000
        26   02 Jun 2027 05:13:39.754   02 Jun 2027 05:15:41.489           121.735         60867.500
        27   02 Jun 2027 05:18:09.867   02 Jun 2027 05:18:09.867             0.000             0.000
        28   02 Jun 2027 06:49:56.460   02 Jun 2027 06:52:45.363           168.903         84451.500
        29   02 Jun 2027 06:53:09.241   02 Jun 2027 06:53:43.532            34.291         17145.500
        30   02 Jun 2027 06:54:56.508   02 Jun 2027 06:55:08.961            12.453          6226.500
        31   02 Jun 2027 08:25:30.181   02 Jun 2027 08:27:28.820           118.639         59252.251
        32   02 Jun 2027 08:28:21.394   02 Jun 2027 08:28:23.103             1.709           842.625
        33   02 Jun 2027 08:28:27.940   02 Jun 2027 08:28:31.151             3.211           151.156
        34   02 Jun 2027 08:28:39.488   02 Jun 2027 08:28:39.488             0.000             0.000
        35   02 Jun 2027 08:29:45.949   02 Jun 2027 08:29:47.304             1.355           677.500
        36   02 Jun 2027 08:30:34.628   02 Jun 2027 08:30:43.800             9.172          3116.875
        37   02 Jun 2027 08:30:48.203   02 Jun 2027 08:30:50.538             2.335           137.594
        38   02 Jun 2027 10:03:29.164   02 Jun 2027 10:03:51.302            22.138          8540.250
        39   02 Jun 2027 10:05:00.148   02 Jun 2027 10:05:05.982             5.834          2151.438
        40   02 Jun 2027 10:05:14.663   02 Jun 2027 10:05:16.304             1.641           162.063
        41   02 Jun 2027 10:06:32.530   02 Jun 2027 10:06:38.226             5.696          2230.437
        42   02 Jun 2027 10:07:11.298   02 Jun 2027 10:07:14.397             3.099           998.469
        43   02 Jun 2027 11:36:37.943   02 Jun 2027 11:36:53.205            15.262          7133.125
        44   02 Jun 2027 11:37:27.636   02 Jun 2027 11:37:30.493             2.857          1075.969
        45   02 Jun 2027 11:37:43.858   02 Jun 2027 11:37:44.972             1.114           224.062
        46   02 Jun 2027 11:38:15.295   02 Jun 2027 11:38:17.503             2.208           338.312
        47   02 Jun 2027 11:38:47.570   02 Jun 2027 11:38:48.828             1.258           238.156
        48   02 Jun 2027 11:39:13.817   02 Jun 2027 11:39:19.849             6.032           715.656
        49   02 Jun 2027 11:39:44.877   02 Jun 2027 11:39:50.432             5.555           525.719
        50   02 Jun 2027 11:40:49.237   02 Jun 2027 11:40:53.955             4.718          1781.094
        51   02 Jun 2027 11:41:45.047   02 Jun 2027 11:41:51.319             6.272          1474.688
        52   02 Jun 2027 11:42:31.430   02 Jun 2027 11:42:39.461             8.031          1253.469
        53   02 Jun 2027 11:42:57.421   02 Jun 2027 11:42:58.021             0.600           300.000
        54   02 Jun 2027 11:43:08.900   02 Jun 2027 11:43:10.561             1.661           344.188
        55   02 Jun 2027 11:43:49.293   02 Jun 2027 11:43:49.894             0.601           300.500
        56   02 Jun 2027 11:44:21.325   02 Jun 2027 11:44:26.951             5.626          1892.094
        57   03 Jun 2027 03:48:16.964   03 Jun 2027 03:48:42.146            25.182         12591.000
        58   03 Jun 2027 03:48:55.888   03 Jun 2027 03:49:27.516            31.628         15814.000
        59   03 Jun 2027 03:50:17.635   03 Jun 2027 03:50:57.621            39.986         19993.000
        60   03 Jun 2027 03:52:30.813   03 Jun 2027 03:52:30.813             0.000             0.000
        61   03 Jun 2027 03:52:35.745   03 Jun 2027 03:52:55.102            19.357          9678.500
        62   03 Jun 2027 03:53:09.658   03 Jun 2027 03:53:29.350            19.692          9846.000
        63   03 Jun 2027 05:23:20.924   03 Jun 2027 05:25:04.289           103.365         51682.500
        64   03 Jun 2027 05:25:24.131   03 Jun 2027 05:25:51.254            27.123         13561.500
        65   03 Jun 2027 05:26:22.457   03 Jun 2027 05:26:40.187            17.730          8865.000
        66   03 Jun 2027 05:27:00.055   03 Jun 2027 05:27:16.696            16.641          8320.500
        67   03 Jun 2027 05:28:26.599   03 Jun 2027 05:28:26.599             0.000             0.000
        68   03 Jun 2027 05:29:48.056   03 Jun 2027 05:30:00.370            12.314          6157.000
        69   03 Jun 2027 05:31:15.796   03 Jun 2027 05:31:37.334            21.538         10769.000
        70   03 Jun 2027 07:00:43.285   03 Jun 2027 07:01:14.167            30.882         13181.406
        71   03 Jun 2027 07:02:27.963   03 Jun 2027 07:02:33.745             5.782          2282.687
        72   03 Jun 2027 07:02:54.280   03 Jun 2027 07:02:55.950             1.670           416.781
        73   03 Jun 2027 07:03:20.500   03 Jun 2027 07:03:22.626             2.126           254.312
        74   03 Jun 2027 07:03:31.530   03 Jun 2027 07:03:32.268             0.738            73.375
        75   03 Jun 2027 07:03:35.401   03 Jun 2027 07:03:37.619             2.218            97.594
        76   03 Jun 2027 07:04:11.045   03 Jun 2027 07:04:12.874             1.829           884.469
        77   03 Jun 2027 07:05:43.594   03 Jun 2027 07:05:48.315             4.721          2163.094
        78   03 Jun 2027 07:06:56.000   03 Jun 2027 07:06:57.308             1.308           654.000
        79   03 Jun 2027 07:07:11.735   03 Jun 2027 07:07:11.735             0.000             0.000
        80   03 Jun 2027 07:07:41.557   03 Jun 2027 07:07:48.850             7.293          2843.938
        81   03 Jun 2027 08:37:31.663   03 Jun 2027 08:37:56.986            25.323         11984.531
        82   03 Jun 2027 08:38:32.095   03 Jun 2027 08:38:34.766             2.671           107.250
        83   03 Jun 2027 08:39:08.500   03 Jun 2027 08:39:09.778             1.278           112.844
        84   03 Jun 2027 08:39:23.479   03 Jun 2027 08:39:25.969             2.490           225.188
        85   03 Jun 2027 08:40:16.387   03 Jun 2027 08:40:21.637             5.250           919.500
        86   03 Jun 2027 08:40:37.443   03 Jun 2027 08:40:38.834             1.391            84.625
        87   03 Jun 2027 08:41:11.635   03 Jun 2027 08:41:21.726            10.091           902.219
        88   03 Jun 2027 08:41:25.817   03 Jun 2027 08:41:27.328             1.511           127.844
        89   03 Jun 2027 08:41:37.653   03 Jun 2027 08:41:37.772             0.119            59.500
        90   03 Jun 2027 08:41:42.323   03 Jun 2027 08:41:42.323             0.000             0.000
        91   03 Jun 2027 08:42:27.032   03 Jun 2027 08:42:29.516             2.484          1242.000
        92   03 Jun 2027 08:42:50.608   03 Jun 2027 08:42:54.111             3.503          1132.375
        93   03 Jun 2027 08:43:14.519   03 Jun 2027 08:43:16.620             2.101           637.750
        94   03 Jun 2027 08:43:48.119   03 Jun 2027 08:43:49.584             1.465           732.500
        95   03 Jun 2027 10:15:28.794   03 Jun 2027 10:15:46.300            17.506          7509.406
        96   03 Jun 2027 10:16:42.665   03 Jun 2027 10:16:47.062             4.397          1432.219
        97   03 Jun 2027 10:17:00.127   03 Jun 2027 10:17:03.183             3.056           235.531
        98   03 Jun 2027 10:17:20.116   03 Jun 2027 10:17:22.595             2.479           452.219
        99   03 Jun 2027 10:18:08.492   03 Jun 2027 10:18:14.433             5.941          1004.437
       100   03 Jun 2027 10:18:46.539   03 Jun 2027 10:18:52.725             6.186          1003.312
       101   03 Jun 2027 10:18:56.092   03 Jun 2027 10:18:56.529             0.437           105.219
       102   03 Jun 2027 10:19:06.887   03 Jun 2027 10:19:10.602             3.715           323.687
       103   03 Jun 2027 10:19:23.245   03 Jun 2027 10:19:24.354             1.109           395.094
       104   03 Jun 2027 11:49:05.357   03 Jun 2027 11:49:11.367             6.010          2940.156
       105   03 Jun 2027 11:49:33.600   03 Jun 2027 11:49:37.718             4.118            35.062
       106   03 Jun 2027 11:49:45.678   03 Jun 2027 11:49:45.678             0.000             0.000
       107   03 Jun 2027 11:50:29.567   03 Jun 2027 11:50:40.304            10.737          1620.281
       108   03 Jun 2027 11:50:44.117   03 Jun 2027 11:50:44.117             0.000             0.000
       109   03 Jun 2027 11:50:47.439   03 Jun 2027 11:50:48.852             1.413           222.969
       110   03 Jun 2027 11:50:52.275   03 Jun 2027 11:50:52.742             0.467            78.563
       111   03 Jun 2027 11:51:53.907   03 Jun 2027 11:51:57.719             3.812          1224.156
       112   03 Jun 2027 11:53:40.636   03 Jun 2027 11:53:47.460             6.824          3042.469
       113   03 Jun 2027 11:54:52.276   03 Jun 2027 11:54:57.863             5.587          1969.125
       114   03 Jun 2027 11:55:12.410   03 Jun 2027 11:55:14.507             2.097           446.625
       115   04 Jun 2027 04:00:00.840   04 Jun 2027 04:01:20.758            79.918         39959.000
       116   04 Jun 2027 04:02:29.312   04 Jun 2027 04:02:35.848             6.536          3268.000
       117   04 Jun 2027 04:02:59.907   04 Jun 2027 04:03:07.059             7.152          3576.000
       118   04 Jun 2027 04:04:32.037   04 Jun 2027 04:04:36.417             4.380          2190.000
       119   04 Jun 2027 04:05:04.883   04 Jun 2027 04:05:29.599            24.716         12358.000
       120   04 Jun 2027 05:34:49.132   04 Jun 2027 05:38:05.363           196.231         98115.500
       121   04 Jun 2027 05:40:03.283   04 Jun 2027 05:40:07.555             4.272          2136.000
       122   04 Jun 2027 05:40:45.176   04 Jun 2027 05:40:45.176             0.000             0.000
       123   04 Jun 2027 05:41:39.784   04 Jun 2027 05:41:54.425            14.641          7320.500
       124   04 Jun 2027 07:12:38.162   04 Jun 2027 07:13:19.953            41.791         20408.094
       125   04 Jun 2027 07:13:30.692   04 Jun 2027 07:13:31.889             1.197           326.500
       126   04 Jun 2027 07:14:44.151   04 Jun 2027 07:14:44.301             0.150            23.156
       127   04 Jun 2027 07:15:05.082   04 Jun 2027 07:15:07.607             2.525           469.906
       128   04 Jun 2027 07:15:54.743   04 Jun 2027 07:15:54.943             0.200            31.531
       129   04 Jun 2027 07:16:55.115   04 Jun 2027 07:17:00.405             5.290           464.875
       130   04 Jun 2027 07:17:43.284   04 Jun 2027 07:17:46.060             2.776          1270.812
       131   04 Jun 2027 07:19:12.979   04 Jun 2027 07:19:20.268             7.289          2716.219
       132   04 Jun 2027 07:19:47.848   04 Jun 2027 07:19:49.404             1.556           547.719
       133   04 Jun 2027 07:19:59.210   04 Jun 2027 07:19:59.939             0.729           268.062
       134   04 Jun 2027 08:49:22.556   04 Jun 2027 08:49:34.645            12.089          6044.500
       135   04 Jun 2027 08:49:52.511   04 Jun 2027 08:50:07.662            15.151          7575.500
       136   04 Jun 2027 08:50:24.339   04 Jun 2027 08:50:27.018             2.679          1019.687
       137   04 Jun 2027 08:51:41.510   04 Jun 2027 08:51:44.443             2.933           506.938
       138   04 Jun 2027 08:52:11.164   04 Jun 2027 08:52:14.951             3.787           602.156
       139   04 Jun 2027 08:52:52.989   04 Jun 2027 08:52:55.498             2.509          1188.688
       140   04 Jun 2027 08:53:17.646   04 Jun 2027 08:53:20.123             2.477           692.125
       141   04 Jun 2027 08:53:25.338   04 Jun 2027 08:53:25.812             0.474           162.969
       142   04 Jun 2027 08:53:35.446   04 Jun 2027 08:53:37.688             2.242           301.062
       143   04 Jun 2027 08:54:18.459   04 Jun 2027 08:54:19.096             0.637           318.500
       144   04 Jun 2027 08:54:56.600   04 Jun 2027 08:55:03.213             6.613          2117.313
       145   04 Jun 2027 08:55:41.930   04 Jun 2027 08:55:44.677             2.747           588.250
       146   04 Jun 2027 10:27:30.510   04 Jun 2027 10:27:45.521            15.011          7500.625
       147   04 Jun 2027 10:28:53.672   04 Jun 2027 10:29:01.000             7.328          2129.719
       148   04 Jun 2027 10:29:24.004   04 Jun 2027 10:29:29.786             5.782           718.875
       149   04 Jun 2027 10:30:04.048   04 Jun 2027 10:30:08.506             4.458          1070.687
       150   04 Jun 2027 10:30:24.974   04 Jun 2027 10:30:26.109             1.135           214.031
       151   04 Jun 2027 10:30:28.657   04 Jun 2027 10:30:30.802             2.145            45.500
       152   04 Jun 2027 10:31:37.108   04 Jun 2027 10:31:37.244             0.136            68.000
       153   05 Jun 2027 04:13:46.821   05 Jun 2027 04:15:53.103           126.282         63141.000
       154   05 Jun 2027 04:15:54.718   05 Jun 2027 04:16:17.702            22.984         11492.000
       155   05 Jun 2027 05:47:37.709   05 Jun 2027 05:50:05.382           147.673         73836.500
       156   05 Jun 2027 05:52:00.671   05 Jun 2027 05:52:06.185             5.514          2757.000
       157   05 Jun 2027 05:52:12.492   05 Jun 2027 05:52:12.492             0.000             0.000
       158   05 Jun 2027 05:53:58.807   05 Jun 2027 05:54:04.084             5.277          2638.500
       159   05 Jun 2027 05:54:07.282   05 Jun 2027 05:54:12.930             5.648          2824.000
       160   05 Jun 2027 05:54:15.427   05 Jun 2027 05:54:23.547             8.120          4060.000
       161   05 Jun 2027 05:55:41.521   05 Jun 2027 05:55:54.403            12.882          6441.000
       162   05 Jun 2027 07:24:46.729   05 Jun 2027 07:25:22.051            35.322         17158.125
       163   05 Jun 2027 07:25:38.634   05 Jun 2027 07:25:40.104             1.470           459.562
       164   05 Jun 2027 07:25:57.558   05 Jun 2027 07:26:01.942             4.384           545.438
       165   05 Jun 2027 07:26:31.419   05 Jun 2027 07:26:32.003             0.584           210.937
       166   05 Jun 2027 07:27:30.230   05 Jun 2027 07:27:33.885             3.655          1576.375
       167   05 Jun 2027 07:27:47.597   05 Jun 2027 07:27:53.738             6.141           428.500
       168   05 Jun 2027 07:28:14.028   05 Jun 2027 07:28:14.912             0.884           442.000
       169   05 Jun 2027 07:28:52.714   05 Jun 2027 07:28:56.791             4.077          1231.188
       170   05 Jun 2027 07:29:09.774   05 Jun 2027 07:29:16.796             7.022           405.719
       171   05 Jun 2027 07:30:34.390   05 Jun 2027 07:30:40.403             6.013          2351.719
       172   05 Jun 2027 07:30:51.685   05 Jun 2027 07:30:53.386             1.701           352.562
       173   05 Jun 2027 07:31:40.573   05 Jun 2027 07:31:44.122             3.549           943.625
       174   05 Jun 2027 09:01:47.343   05 Jun 2027 09:02:12.358            25.015         11082.312
       175   05 Jun 2027 09:02:48.412   05 Jun 2027 09:02:50.419             2.007           792.688
       176   05 Jun 2027 09:03:50.219   05 Jun 2027 09:03:51.854             1.635           436.406
       177   05 Jun 2027 09:04:10.206   05 Jun 2027 09:04:15.855             5.649           215.844
       178   05 Jun 2027 09:05:12.793   05 Jun 2027 09:05:18.383             5.590           676.969
       179   05 Jun 2027 09:05:34.358   05 Jun 2027 09:05:34.358             0.000             0.000
       180   05 Jun 2027 09:06:08.997   05 Jun 2027 09:06:13.984             4.987          1389.906
       181   05 Jun 2027 09:07:31.879   05 Jun 2027 09:07:35.028             3.149          1574.500
       182   05 Jun 2027 10:38:44.832   05 Jun 2027 10:39:01.119            16.287          7839.656
       183   05 Jun 2027 10:39:21.291   05 Jun 2027 10:39:23.485             2.194           544.562
       184   05 Jun 2027 10:39:52.969   05 Jun 2027 10:39:58.363             5.394           893.125
       185   05 Jun 2027 10:40:17.195   05 Jun 2027 10:40:17.195             0.000             0.000
       186   05 Jun 2027 10:40:24.734   05 Jun 2027 10:40:29.335             4.601           799.438
       187   05 Jun 2027 10:41:08.612   05 Jun 2027 10:41:12.051             3.439           833.094
       188   05 Jun 2027 10:41:37.676   05 Jun 2027 10:41:43.360             5.684           706.281
       189   05 Jun 2027 10:42:49.198   05 Jun 2027 10:42:58.810             9.612          1962.594
       190   05 Jun 2027 10:43:10.389   05 Jun 2027 10:43:11.440             1.051           219.625
       191   05 Jun 2027 10:43:33.704   05 Jun 2027 10:43:35.214             1.510           695.750
       192   06 Jun 2027 04:26:08.559   06 Jun 2027 04:29:34.473           205.914        102957.000
       193   06 Jun 2027 05:59:49.706   06 Jun 2027 06:01:38.695           108.989         54494.500
       194   06 Jun 2027 06:02:20.187   06 Jun 2027 06:02:23.638             3.451          1725.500
       195   06 Jun 2027 06:04:10.399   06 Jun 2027 06:04:11.379             0.980           490.000
       196   06 Jun 2027 06:04:36.498   06 Jun 2027 06:04:47.813            11.315          5657.500
       197   06 Jun 2027 06:06:37.816   06 Jun 2027 06:06:48.683            10.867          4095.625
       198   06 Jun 2027 06:08:04.448   06 Jun 2027 06:08:06.925             2.477          1238.500
       199   06 Jun 2027 07:37:10.699   06 Jun 2027 07:37:34.889            24.190         11122.719
       200   06 Jun 2027 07:39:30.380   06 Jun 2027 07:39:35.207             4.827          1813.781
       201   06 Jun 2027 07:40:36.328   06 Jun 2027 07:40:39.619             3.291          1070.156
       202   06 Jun 2027 07:40:51.357   06 Jun 2027 07:40:55.596             4.239           366.813
       203   06 Jun 2027 07:42:28.139   06 Jun 2027 07:42:34.811             6.672          2248.406
       204   06 Jun 2027 07:42:49.646   06 Jun 2027 07:42:50.613             0.967            66.406
       205   06 Jun 2027 07:43:19.167   06 Jun 2027 07:43:20.951             1.784           670.938
       206   06 Jun 2027 07:43:47.364   06 Jun 2027 07:43:50.287             2.923           811.750
       207   06 Jun 2027 09:14:07.670   06 Jun 2027 09:14:37.855            30.185         12435.688
       208   06 Jun 2027 09:14:54.225   06 Jun 2027 09:15:00.540             6.315           262.656
       209   06 Jun 2027 09:15:29.077   06 Jun 2027 09:15:31.142             2.065           774.156
       210   06 Jun 2027 09:16:40.461   06 Jun 2027 09:16:45.742             5.281          1692.500
       211   06 Jun 2027 09:17:19.602   06 Jun 2027 09:17:19.602             0.000             0.000
       212   06 Jun 2027 09:17:31.298   06 Jun 2027 09:17:34.822             3.524          1423.625
       213   06 Jun 2027 09:18:21.750   06 Jun 2027 09:18:25.516             3.766          1466.500
       214   06 Jun 2027 09:19:07.026   06 Jun 2027 09:19:10.867             3.841          1275.094
       215   06 Jun 2027 09:19:35.838   06 Jun 2027 09:19:39.025             3.187           555.063
       216   06 Jun 2027 10:50:58.121   06 Jun 2027 10:51:13.125            15.004          6685.062
       217   06 Jun 2027 10:51:45.519   06 Jun 2027 10:51:48.641             3.122           705.938
       218   06 Jun 2027 10:51:58.845   06 Jun 2027 10:51:59.447             0.602           276.844
       219   06 Jun 2027 10:52:04.570   06 Jun 2027 10:52:05.579             1.009           126.156
       220   06 Jun 2027 10:52:58.476   06 Jun 2027 10:53:02.289             3.813          1653.031
       221   06 Jun 2027 10:53:26.749   06 Jun 2027 10:53:28.382             1.633           726.781
       222   06 Jun 2027 10:54:48.588   06 Jun 2027 10:54:55.273             6.685          2470.969
       223   06 Jun 2027 10:55:24.114   06 Jun 2027 10:55:25.548             1.434           415.625
       224   07 Jun 2027 03:01:31.489   07 Jun 2027 03:02:02.298            30.809         15404.500
       225   07 Jun 2027 03:02:30.049   07 Jun 2027 03:02:38.291             8.242          4121.000
       226   07 Jun 2027 03:03:06.619   07 Jun 2027 03:03:06.619             0.000             0.000
       227   07 Jun 2027 04:38:10.990   07 Jun 2027 04:39:57.580           106.590         53295.000
       228   07 Jun 2027 06:13:05.835   07 Jun 2027 06:15:45.734           159.899         79949.500
       229   07 Jun 2027 06:15:53.172   07 Jun 2027 06:15:54.610             1.438           719.000
       230   07 Jun 2027 06:18:12.758   07 Jun 2027 06:18:22.721             9.963          4921.469
       231   07 Jun 2027 06:18:53.686   07 Jun 2027 06:18:57.137             3.451           202.625
       232   07 Jun 2027 06:19:08.915   07 Jun 2027 06:19:09.271             0.356           149.812
       233   07 Jun 2027 06:19:48.093   07 Jun 2027 06:19:48.093             0.000             0.000
       234   07 Jun 2027 06:19:58.961   07 Jun 2027 06:20:00.412             1.451           725.500
       235   07 Jun 2027 07:49:18.134   07 Jun 2027 07:49:40.605            22.471          9681.031
       236   07 Jun 2027 07:50:26.277   07 Jun 2027 07:50:26.660             0.383           119.688
       237   07 Jun 2027 07:51:31.512   07 Jun 2027 07:51:32.519             1.007           369.625
       238   07 Jun 2027 07:52:16.513   07 Jun 2027 07:52:21.450             4.937           692.875
       239   07 Jun 2027 07:52:55.737   07 Jun 2027 07:52:58.575             2.838            46.156
       240   07 Jun 2027 07:53:06.900   07 Jun 2027 07:53:07.928             1.028            90.437
       241   07 Jun 2027 07:53:21.114   07 Jun 2027 07:53:21.114             0.000             0.000
       242   07 Jun 2027 07:53:35.873   07 Jun 2027 07:53:40.738             4.865           793.938
       243   07 Jun 2027 07:54:12.567   07 Jun 2027 07:54:15.410             2.843           597.250
       244   07 Jun 2027 07:54:29.176   07 Jun 2027 07:54:30.181             1.005           354.938
       245   07 Jun 2027 07:54:45.997   07 Jun 2027 07:54:46.869             0.872           134.656
       246   07 Jun 2027 07:55:16.373   07 Jun 2027 07:55:20.083             3.710           442.219
       247   07 Jun 2027 07:55:43.754   07 Jun 2027 07:55:44.142             0.388            53.656
       248   07 Jun 2027 09:27:02.035   07 Jun 2027 09:27:20.809            18.774          9024.469
       249   07 Jun 2027 09:27:56.297   07 Jun 2027 09:28:02.795             6.498           762.000
       250   07 Jun 2027 09:28:16.241   07 Jun 2027 09:28:17.387             1.146           420.187
       251   07 Jun 2027 09:28:56.590   07 Jun 2027 09:29:00.192             3.602           839.469
       252   07 Jun 2027 09:29:16.299   07 Jun 2027 09:29:18.772             2.473           503.344
       253   07 Jun 2027 09:30:04.622   07 Jun 2027 09:30:07.589             2.967          1171.219
       254   07 Jun 2027 09:30:52.004   07 Jun 2027 09:30:53.373             1.369           684.500
       255   07 Jun 2027 09:31:11.078   07 Jun 2027 09:31:18.576             7.498          1256.750
       256   07 Jun 2027 11:03:08.162   07 Jun 2027 11:03:22.615            14.453          7226.500
       257   07 Jun 2027 11:03:48.001   07 Jun 2027 11:03:50.523             2.522          1071.969
       258   07 Jun 2027 11:04:23.449   07 Jun 2027 11:04:27.014             3.565           977.531
       259   07 Jun 2027 11:05:04.614   07 Jun 2027 11:05:05.775             1.161           454.313
       260   07 Jun 2027 11:05:49.485   07 Jun 2027 11:05:52.809             3.324          1258.344
       261   07 Jun 2027 11:06:36.306   07 Jun 2027 11:06:43.736             7.430          1359.281
       262   07 Jun 2027 11:07:10.402   07 Jun 2027 11:07:10.402             0.000             0.000
       263   08 Jun 2027 03:13:45.924   08 Jun 2027 03:14:03.591            17.667          8833.500
       264   08 Jun 2027 03:14:13.938   08 Jun 2027 03:14:15.125             1.187           593.500
       265   08 Jun 2027 03:14:28.078   08 Jun 2027 03:14:35.239             7.161          3580.500
       266   08 Jun 2027 03:14:39.408   08 Jun 2027 03:15:03.121            23.713         11856.500
       267   08 Jun 2027 03:15:16.336   08 Jun 2027 03:16:06.686            50.350         25175.000
       268   08 Jun 2027 03:16:07.390   08 Jun 2027 03:16:07.390             0.000             0.000
       269   08 Jun 2027 03:16:26.500   08 Jun 2027 03:16:44.307            17.807          8903.500
       270   08 Jun 2027 04:50:17.724   08 Jun 2027 04:52:20.137           122.413         61206.500
       271   08 Jun 2027 04:53:01.138   08 Jun 2027 04:53:01.138             0.000             0.000
       272   08 Jun 2027 06:25:27.888   08 Jun 2027 06:25:46.309            18.421          9210.500
       273   08 Jun 2027 06:26:34.241   08 Jun 2027 06:27:22.798            48.557         23098.125
       274   08 Jun 2027 06:27:30.130   08 Jun 2027 06:27:32.246             2.116           131.125
       275   08 Jun 2027 06:29:53.784   08 Jun 2027 06:30:03.227             9.443          4117.313
       276   08 Jun 2027 06:31:09.426   08 Jun 2027 06:31:12.815             3.389          1690.969
       277   08 Jun 2027 06:31:19.550   08 Jun 2027 06:31:21.724             2.174           125.750
       278   08 Jun 2027 06:31:42.371   08 Jun 2027 06:31:45.161             2.790           545.625
       279   08 Jun 2027 08:01:52.196   08 Jun 2027 08:02:14.145            21.949         10458.094
       280   08 Jun 2027 08:02:38.545   08 Jun 2027 08:02:40.191             1.646           495.469
       281   08 Jun 2027 08:03:02.600   08 Jun 2027 08:03:05.267             2.667           647.344
       282   08 Jun 2027 08:03:15.003   08 Jun 2027 08:03:20.236             5.233           177.187
       283   08 Jun 2027 08:03:34.591   08 Jun 2027 08:03:35.489             0.898           362.469
       284   08 Jun 2027 08:04:21.433   08 Jun 2027 08:04:24.386             2.953           439.375
       285   08 Jun 2027 08:05:07.144   08 Jun 2027 08:05:09.214             2.070           368.531
       286   08 Jun 2027 08:06:14.145   08 Jun 2027 08:06:18.439             4.294          2029.094
       287   08 Jun 2027 08:07:03.818   08 Jun 2027 08:07:08.637             4.819          1384.844
       288   08 Jun 2027 09:39:08.149   08 Jun 2027 09:39:24.489            16.340          8170.000
       289   08 Jun 2027 09:39:45.141   08 Jun 2027 09:39:51.452             6.311          1410.969
       290   08 Jun 2027 09:40:15.505   08 Jun 2027 09:40:17.034             1.529           566.688
       291   08 Jun 2027 09:41:31.002   08 Jun 2027 09:41:34.274             3.272          1636.000
       292   08 Jun 2027 09:42:18.182   08 Jun 2027 09:42:22.315             4.133          2047.625
       293   08 Jun 2027 09:42:43.262   08 Jun 2027 09:42:43.262             0.000             0.000
       294   08 Jun 2027 09:43:18.720   08 Jun 2027 09:43:21.943             3.223          1532.438
       295   08 Jun 2027 11:15:22.370   08 Jun 2027 11:15:37.614            15.244          7572.656
       296   08 Jun 2027 11:16:15.089   08 Jun 2027 11:16:19.741             4.652           971.125
       297   08 Jun 2027 11:16:56.566   08 Jun 2027 11:17:00.603             4.037          1150.781
       298   08 Jun 2027 11:17:25.530   08 Jun 2027 11:17:29.602             4.072           778.969
       299   08 Jun 2027 11:18:35.363   08 Jun 2027 11:18:40.439             5.076          1921.219
       300   08 Jun 2027 11:18:48.563   08 Jun 2027 11:18:50.706             2.143            62.687
       301   08 Jun 2027 11:19:01.702   08 Jun 2027 11:19:04.252             2.550           219.156
       302   08 Jun 2027 11:19:31.899   08 Jun 2027 11:19:34.847             2.948           604.500
       303   08 Jun 2027 11:19:40.376   08 Jun 2027 11:19:43.845             3.469           172.781
       304   09 Jun 2027 03:26:15.654   09 Jun 2027 03:27:13.441            57.787         28893.500
       305   09 Jun 2027 03:28:45.327   09 Jun 2027 03:28:48.773             3.446          1723.000
       306   09 Jun 2027 05:02:10.434   09 Jun 2027 05:05:25.837           195.403         97701.500
       307   09 Jun 2027 05:05:49.109   09 Jun 2027 05:05:57.726             8.617          4308.500
       308   09 Jun 2027 05:06:06.661   09 Jun 2027 05:06:11.496             4.835          2417.500
       309   09 Jun 2027 06:37:06.493   09 Jun 2027 06:37:55.224            48.731         23800.250
       310   09 Jun 2027 06:38:48.051   09 Jun 2027 06:38:50.510             2.459           801.875
       311   09 Jun 2027 06:39:20.129   09 Jun 2027 06:39:29.306             9.177           925.594
       312   09 Jun 2027 06:39:36.444   09 Jun 2027 06:39:41.041             4.597           136.281
       313   09 Jun 2027 06:39:54.949   09 Jun 2027 06:40:02.727             7.778           337.063
       314   09 Jun 2027 06:42:01.120   09 Jun 2027 06:42:09.598             8.478          3699.781
       315   09 Jun 2027 06:43:03.534   09 Jun 2027 06:43:04.883             1.349           674.500
       316   09 Jun 2027 06:43:36.013   09 Jun 2027 06:43:40.404             4.391          1685.750
       317   09 Jun 2027 08:13:25.859   09 Jun 2027 08:13:53.482            27.623         13007.062
       318   09 Jun 2027 08:15:23.197   09 Jun 2027 08:15:30.426             7.229          1649.750
       319   09 Jun 2027 08:15:46.267   09 Jun 2027 08:15:49.685             3.418           351.344
       320   09 Jun 2027 08:16:10.188   09 Jun 2027 08:16:12.842             2.654            42.313
       321   09 Jun 2027 08:16:40.459   09 Jun 2027 08:16:42.437             1.978           173.469
       322   09 Jun 2027 08:18:07.738   09 Jun 2027 08:18:09.560             1.822           911.000
       323   09 Jun 2027 08:18:58.328   09 Jun 2027 08:19:06.065             7.737          3197.281
       324   09 Jun 2027 09:51:40.964   09 Jun 2027 09:51:58.871            17.907          8438.563
       325   09 Jun 2027 09:52:11.614   09 Jun 2027 09:52:17.828             6.214            55.406
       326   09 Jun 2027 09:53:33.993   09 Jun 2027 09:53:39.887             5.894          2094.000
       327   09 Jun 2027 09:54:07.381   09 Jun 2027 09:54:12.569             5.188           771.156
       328   09 Jun 2027 09:54:15.284   09 Jun 2027 09:54:17.299             2.015            84.844
       329   09 Jun 2027 09:54:29.285   09 Jun 2027 09:54:32.697             3.412           369.438
       330   09 Jun 2027 09:55:14.660   09 Jun 2027 09:55:17.744             3.084          1224.313
       331   09 Jun 2027 11:27:01.421   09 Jun 2027 11:27:17.006            15.585          6353.656
       332   09 Jun 2027 11:28:24.718   09 Jun 2027 11:28:36.559            11.841          2060.906
       333   09 Jun 2027 11:28:50.045   09 Jun 2027 11:28:52.566             2.521           421.437
       334   09 Jun 2027 11:28:57.513   09 Jun 2027 11:29:03.552             6.039           154.594
       335   09 Jun 2027 11:29:11.484   09 Jun 2027 11:29:13.594             2.110           119.687
       336   09 Jun 2027 11:29:17.275   09 Jun 2027 11:29:22.961             5.686             3.719
       337   09 Jun 2027 11:29:56.471   09 Jun 2027 11:30:01.650             5.179           889.656
       338   09 Jun 2027 11:30:46.442   09 Jun 2027 11:30:47.914             1.472           689.469
       339   09 Jun 2027 11:31:33.604   09 Jun 2027 11:31:35.567             1.963           768.031
       340   09 Jun 2027 11:32:04.059   09 Jun 2027 11:32:09.484             5.425           857.813
       341   09 Jun 2027 11:32:14.693   09 Jun 2027 11:32:27.418            12.725           162.781
       342   10 Jun 2027 03:36:52.939   10 Jun 2027 03:37:19.666            26.727         13363.500
       343   10 Jun 2027 03:37:59.940   10 Jun 2027 03:38:16.691            16.751          8375.500
       344   10 Jun 2027 03:38:18.672   10 Jun 2027 03:38:27.808             9.136          4568.000
       345   10 Jun 2027 03:39:17.546   10 Jun 2027 03:39:24.540             6.994          3497.000
       346   10 Jun 2027 03:40:46.123   10 Jun 2027 03:41:03.913            17.790          8895.000
       347   10 Jun 2027 03:41:06.384   10 Jun 2027 03:41:26.767            20.383         10191.500
       348   10 Jun 2027 05:12:28.931   10 Jun 2027 05:13:08.304            39.373         19686.500
       349   10 Jun 2027 05:13:54.630   10 Jun 2027 05:15:19.623            84.993         42496.500
       350   10 Jun 2027 05:16:05.774   10 Jun 2027 05:16:41.395            35.621         17810.500
       351   10 Jun 2027 05:18:14.415   10 Jun 2027 05:18:25.296            10.881          5440.500
       352   10 Jun 2027 06:48:39.871   10 Jun 2027 06:49:40.075            60.204         30024.344
       353   10 Jun 2027 06:49:53.619   10 Jun 2027 06:49:55.882             2.263           348.437
       354   10 Jun 2027 06:50:33.081   10 Jun 2027 06:50:37.118             4.037           583.219
       355   10 Jun 2027 06:50:55.360   10 Jun 2027 06:50:58.580             3.220           397.531
       356   10 Jun 2027 06:51:04.735   10 Jun 2027 06:51:05.572             0.837            31.875
       357   10 Jun 2027 06:52:47.333   10 Jun 2027 06:52:54.854             7.521          3180.031
       358   10 Jun 2027 06:54:01.394   10 Jun 2027 06:54:06.633             5.239          1899.344
       359   10 Jun 2027 06:54:30.104   10 Jun 2027 06:54:36.519             6.415           575.844
       360   10 Jun 2027 06:54:36.698   10 Jun 2027 06:54:37.291             0.593             5.594
       361   10 Jun 2027 06:55:26.955   10 Jun 2027 06:55:30.594             3.639          1481.219
       362   10 Jun 2027 06:55:52.062   10 Jun 2027 06:55:57.534             5.472           505.000
       363   10 Jun 2027 08:25:45.443   10 Jun 2027 08:26:09.135            23.692         11722.281
       364   10 Jun 2027 08:26:32.292   10 Jun 2027 08:26:36.089             3.797           717.750
       365   10 Jun 2027 08:27:14.679   10 Jun 2027 08:27:18.608             3.929           733.406
       366   10 Jun 2027 08:27:39.843   10 Jun 2027 08:27:46.967             7.124           663.594
       367   10 Jun 2027 08:28:14.197   10 Jun 2027 08:28:23.105             8.908           487.656
       368   10 Jun 2027 08:29:33.453   10 Jun 2027 08:29:41.583             8.130          2198.375
       369   10 Jun 2027 08:29:56.727   10 Jun 2027 08:30:00.462             3.735           252.344
       370   10 Jun 2027 08:30:27.536   10 Jun 2027 08:30:29.284             1.748           846.063
       371   10 Jun 2027 08:30:38.998   10 Jun 2027 08:30:39.705             0.707           303.563
       372   10 Jun 2027 08:31:38.383   10 Jun 2027 08:31:45.436             7.053          1671.719
       373   10 Jun 2027 08:32:06.577   10 Jun 2027 08:32:07.629             1.052           427.844
       374   10 Jun 2027 10:03:57.528   10 Jun 2027 10:04:17.631            20.103          8591.687
       375   10 Jun 2027 10:05:16.140   10 Jun 2027 10:05:16.804             0.664           321.688
       376   10 Jun 2027 10:05:24.308   10 Jun 2027 10:05:29.610             5.302           200.531
       377   10 Jun 2027 10:05:59.328   10 Jun 2027 10:06:01.280             1.952           892.281
       378   10 Jun 2027 10:06:35.401   10 Jun 2027 10:06:38.733             3.332           220.375
       379   10 Jun 2027 10:06:55.111   10 Jun 2027 10:06:56.891             1.780           265.125
       380   10 Jun 2027 10:07:11.847   10 Jun 2027 10:07:12.811             0.964           314.062
       381   10 Jun 2027 11:36:52.589   10 Jun 2027 11:37:08.739            16.150          7831.781
       382   10 Jun 2027 11:37:42.526   10 Jun 2027 11:37:47.318             4.792           769.594
       383   10 Jun 2027 11:37:59.942   10 Jun 2027 11:38:01.209             1.267           262.844
       384   10 Jun 2027 11:38:36.289   10 Jun 2027 11:38:37.229             0.940           437.031
       385   10 Jun 2027 11:39:02.919   10 Jun 2027 11:39:05.713             2.794           690.531
       386   10 Jun 2027 11:39:17.372   10 Jun 2027 11:39:21.258             3.886           364.344
       387   10 Jun 2027 11:39:40.118   10 Jun 2027 11:39:43.099             2.981           578.344
       388   10 Jun 2027 11:40:01.359   10 Jun 2027 11:40:06.905             5.546           570.625
       389   10 Jun 2027 11:41:05.134   10 Jun 2027 11:41:10.652             5.518          1819.656
       390   10 Jun 2027 11:41:59.845   10 Jun 2027 11:42:02.793             2.948          1472.719
       391   10 Jun 2027 11:42:39.823   10 Jun 2027 11:42:45.468             5.645          1053.594
       392   10 Jun 2027 11:43:25.305   10 Jun 2027 11:43:27.321             2.016          1008.000
       393   10 Jun 2027 11:43:29.824   10 Jun 2027 11:43:30.872             1.048           278.219
       394   10 Jun 2027 11:44:04.006   10 Jun 2027 11:44:04.668             0.662           331.000
       395   10 Jun 2027 11:44:36.978   10 Jun 2027 11:44:42.161             5.183          1372.625
       396   11 Jun 2027 03:48:31.947   11 Jun 2027 03:49:42.098            70.151         35075.500
       397   11 Jun 2027 03:51:13.387   11 Jun 2027 03:51:22.112             8.725          4362.500
       398   11 Jun 2027 03:52:10.615   11 Jun 2027 03:52:20.170             9.555          4777.500
       399   11 Jun 2027 03:53:04.016   11 Jun 2027 03:53:09.102             5.086          2543.000
       400   11 Jun 2027 05:23:35.265   11 Jun 2027 05:24:32.310            57.045         28522.500
       401   11 Jun 2027 05:25:38.931   11 Jun 2027 05:26:30.515            51.584         25792.000
       402   11 Jun 2027 05:26:46.130   11 Jun 2027 05:27:20.034            33.904         16952.000
       403   11 Jun 2027 05:28:31.349   11 Jun 2027 05:29:31.510            60.161         30080.500
       404   11 Jun 2027 05:29:51.927   11 Jun 2027 05:29:59.779             7.852          3926.000
       405   11 Jun 2027 05:30:09.065   11 Jun 2027 05:30:10.955             1.890           945.000
       406   11 Jun 2027 07:01:27.871   11 Jun 2027 07:02:09.318            41.447         18139.813
       407   11 Jun 2027 07:02:36.182   11 Jun 2027 07:02:37.595             1.413           674.500
       408   11 Jun 2027 07:03:36.536   11 Jun 2027 07:03:39.430             2.894           245.813
       409   11 Jun 2027 07:03:50.203   11 Jun 2027 07:03:53.607             3.404            66.125
       410   11 Jun 2027 07:07:10.628   11 Jun 2027 07:07:23.318            12.690          5847.031
       411   11 Jun 2027 08:37:46.761   11 Jun 2027 08:38:15.849            29.088         12812.187
       412   11 Jun 2027 08:38:43.910   11 Jun 2027 08:38:46.986             3.076           704.469
       413   11 Jun 2027 08:39:37.166   11 Jun 2027 08:39:40.311             3.145          1568.125
       414   11 Jun 2027 08:40:33.332   11 Jun 2027 08:40:36.778             3.446           965.813
       415   11 Jun 2027 08:41:24.039   11 Jun 2027 08:41:26.859             2.820           721.781
       416   11 Jun 2027 08:41:40.997   11 Jun 2027 08:41:41.262             0.265           129.187
       417   11 Jun 2027 08:41:52.118   11 Jun 2027 08:41:52.296             0.178            45.625
       418   11 Jun 2027 08:41:57.093   11 Jun 2027 08:42:00.529             3.436           149.906
       419   11 Jun 2027 08:43:08.107   11 Jun 2027 08:43:14.256             6.149          1192.187
       420   11 Jun 2027 08:43:44.531   11 Jun 2027 08:43:49.316             4.785           940.406
       421   11 Jun 2027 10:15:43.881   11 Jun 2027 10:16:02.687            18.806          8811.750
       422   11 Jun 2027 10:16:44.666   11 Jun 2027 10:16:48.072             3.406          1258.250
       423   11 Jun 2027 10:17:19.329   11 Jun 2027 10:17:22.216             2.887           627.219
       424   11 Jun 2027 10:17:35.073   11 Jun 2027 10:17:37.924             2.851           401.781
       425   11 Jun 2027 10:17:53.374   11 Jun 2027 10:17:55.057             1.683           390.500
       426   11 Jun 2027 10:18:29.184   11 Jun 2027 10:18:30.467             1.283           252.781
       427   11 Jun 2027 10:19:10.175   11 Jun 2027 10:19:12.580             2.405          1111.375
       428   11 Jun 2027 10:19:33.329   11 Jun 2027 10:19:37.437             4.108           342.094
       429   11 Jun 2027 11:49:19.725   11 Jun 2027 11:49:25.060             5.335          2600.250
       430   11 Jun 2027 11:49:51.803   11 Jun 2027 11:49:52.586             0.783           153.688
       431   11 Jun 2027 11:50:32.325   11 Jun 2027 11:50:36.344             4.019           991.375
       432   11 Jun 2027 11:51:04.692   11 Jun 2027 11:51:06.629             1.937           756.969
       433   11 Jun 2027 11:51:29.384   11 Jun 2027 11:51:29.384             0.000             0.000
       434   11 Jun 2027 11:51:37.902   11 Jun 2027 11:51:44.869             6.967           969.531
       435   11 Jun 2027 11:52:08.568   11 Jun 2027 11:52:12.194             3.626           407.687
       436   11 Jun 2027 11:53:55.354   11 Jun 2027 11:54:04.603             9.249          3152.063
       437   11 Jun 2027 11:55:06.823   11 Jun 2027 11:55:11.379             4.556          1944.375
       438   11 Jun 2027 11:56:02.620   11 Jun 2027 11:56:03.373             0.753           376.500
       439   11 Jun 2027 11:56:12.393   11 Jun 2027 11:56:26.855            14.462          1450.031
       440   11 Jun 2027 11:56:42.666   11 Jun 2027 11:56:43.983             1.317           274.875
       441   12 Jun 2027 04:00:15.371   12 Jun 2027 04:01:29.267            73.896         36948.000
       442   12 Jun 2027 04:02:18.075   12 Jun 2027 04:02:36.689            18.614          9307.000
       443   12 Jun 2027 04:02:37.895   12 Jun 2027 04:02:45.072             7.177          3588.500
       444   12 Jun 2027 05:35:03.596   12 Jun 2027 05:37:17.735           134.139         67069.500
       445   12 Jun 2027 05:37:33.949   12 Jun 2027 05:38:32.538            58.589         29294.500
       446   12 Jun 2027 05:40:44.398   12 Jun 2027 05:40:44.398             0.000             0.000
       447   12 Jun 2027 05:41:34.742   12 Jun 2027 05:41:56.609            21.867         10933.500
       448   12 Jun 2027 05:43:55.922   12 Jun 2027 05:44:06.182            10.260          5130.000
       449   12 Jun 2027 07:12:52.991   12 Jun 2027 07:13:40.506            47.515         23524.438
       450   12 Jun 2027 07:15:36.441   12 Jun 2027 07:15:38.833             2.392          1175.906
       451   12 Jun 2027 07:15:53.461   12 Jun 2027 07:15:56.637             3.176           282.437
       452   12 Jun 2027 07:16:11.046   12 Jun 2027 07:16:12.197             1.151            68.656
       453   12 Jun 2027 07:16:20.260   12 Jun 2027 07:16:21.877             1.617           251.969
       454   12 Jun 2027 07:16:28.197   12 Jun 2027 07:16:28.822             0.625           197.500
       455   12 Jun 2027 07:16:33.190   12 Jun 2027 07:16:35.037             1.847           136.500
       456   12 Jun 2027 07:17:09.864   12 Jun 2027 07:17:17.124             7.260           471.875
       457   12 Jun 2027 07:17:23.401   12 Jun 2027 07:17:24.022             0.621           133.313
       458   12 Jun 2027 07:18:03.637   12 Jun 2027 07:18:10.271             6.634           804.188
       459   12 Jun 2027 07:18:50.381   12 Jun 2027 07:18:53.234             2.853          1232.313
       460   12 Jun 2027 07:19:13.800   12 Jun 2027 07:19:17.541             3.741           371.344
       461   12 Jun 2027 07:19:54.030   12 Jun 2027 07:19:58.561             4.531           790.875
       462   12 Jun 2027 07:20:11.079   12 Jun 2027 07:20:13.255             2.176           351.313
       463   12 Jun 2027 08:49:37.390   12 Jun 2027 08:49:49.300            11.910          5955.000
       464   12 Jun 2027 08:50:07.758   12 Jun 2027 08:50:22.262            14.504          6600.375
       465   12 Jun 2027 08:51:45.580   12 Jun 2027 08:51:51.308             5.728          2589.156
       466   12 Jun 2027 08:52:24.610   12 Jun 2027 08:52:25.797             1.187           593.500
       467   12 Jun 2027 08:52:27.270   12 Jun 2027 08:52:35.514             8.244           481.937
       468   12 Jun 2027 08:53:36.597   12 Jun 2027 08:53:40.234             3.637           808.219
       469   12 Jun 2027 08:53:41.544   12 Jun 2027 08:53:43.073             1.529            40.937
       470   12 Jun 2027 08:54:35.361   12 Jun 2027 08:54:39.835             4.474          1569.625
       471   12 Jun 2027 08:55:01.347   12 Jun 2027 08:55:01.894             0.547           245.812
       472   12 Jun 2027 08:55:37.651   12 Jun 2027 08:55:37.651             0.000             0.000
       473   12 Jun 2027 08:55:56.959   12 Jun 2027 08:56:07.081            10.122          1720.781
       474   12 Jun 2027 10:27:45.888   12 Jun 2027 10:28:04.319            18.431          7468.313
       475   12 Jun 2027 10:28:21.628   12 Jun 2027 10:28:23.364             1.736           518.906
       476   12 Jun 2027 10:29:08.302   12 Jun 2027 10:29:11.153             2.851          1312.438
       477   12 Jun 2027 10:29:44.881   12 Jun 2027 10:29:49.890             5.009           671.500
       478   12 Jun 2027 10:30:32.531   12 Jun 2027 10:30:37.362             4.831          1192.719
       479   12 Jun 2027 10:30:43.759   12 Jun 2027 10:30:49.692             5.933            74.969
       480   13 Jun 2027 04:14:01.682   13 Jun 2027 04:16:07.952           126.270         63135.000
       481   13 Jun 2027 04:16:09.627   13 Jun 2027 04:16:33.760            24.133         12066.500
       482   13 Jun 2027 05:47:52.313   13 Jun 2027 05:49:54.238           121.925         60962.500
       483   13 Jun 2027 05:50:01.875   13 Jun 2027 05:50:21.190            19.315          9657.500
       484   13 Jun 2027 05:50:57.814   13 Jun 2027 05:51:07.218             9.404          4702.000
       485   13 Jun 2027 05:54:23.211   13 Jun 2027 05:54:27.358             4.147          2073.500
       486   13 Jun 2027 05:56:09.974   13 Jun 2027 05:56:22.779            12.805          6402.500
       487   13 Jun 2027 07:24:59.498   13 Jun 2027 07:25:38.446            38.948         19474.000
       488   13 Jun 2027 07:25:53.020   13 Jun 2027 07:25:55.357             2.337           734.281
       489   13 Jun 2027 07:26:13.187   13 Jun 2027 07:26:14.992             1.805           518.375
       490   13 Jun 2027 07:26:47.544   13 Jun 2027 07:26:51.294             3.750           171.500
       491   13 Jun 2027 07:27:37.738   13 Jun 2027 07:27:45.082             7.344          1350.375
       492   13 Jun 2027 07:29:04.877   13 Jun 2027 07:29:06.474             1.597           798.500
       493   13 Jun 2027 07:29:19.516   13 Jun 2027 07:29:22.597             3.081          1540.500
       494   13 Jun 2027 07:29:39.712   13 Jun 2027 07:29:42.021             2.309           557.969
       495   13 Jun 2027 07:30:53.530   13 Jun 2027 07:30:53.812             0.282            72.969
       496   13 Jun 2027 07:31:06.279   13 Jun 2027 07:31:07.854             1.575           389.594
       497   13 Jun 2027 07:31:55.309   13 Jun 2027 07:31:57.941             2.632           916.062
       498   13 Jun 2027 07:32:15.822   13 Jun 2027 07:32:18.962             3.140           443.281
       499   13 Jun 2027 09:02:02.544   13 Jun 2027 09:02:27.500            24.956         10425.500
       500   13 Jun 2027 09:03:01.967   13 Jun 2027 09:03:04.407             2.440           823.656
       501   13 Jun 2027 09:04:24.844   13 Jun 2027 09:04:31.618             6.774           963.438
       502   13 Jun 2027 09:04:48.389   13 Jun 2027 09:04:50.206             1.817           453.469
       503   13 Jun 2027 09:05:30.536   13 Jun 2027 09:05:34.885             4.349           749.500
       504   13 Jun 2027 09:06:29.272   13 Jun 2027 09:06:33.168             3.896          1658.844
       505   13 Jun 2027 09:06:39.841   13 Jun 2027 09:06:40.265             0.424           208.531
       506   13 Jun 2027 09:07:04.625   13 Jun 2027 09:07:06.259             1.634           698.375
       507   13 Jun 2027 10:39:00.517   13 Jun 2027 10:39:19.226            18.709          8636.875
       508   13 Jun 2027 10:39:24.258   13 Jun 2027 10:39:25.422             1.164           157.250
       509   13 Jun 2027 10:39:48.579   13 Jun 2027 10:39:51.165             2.586           688.594
       510   13 Jun 2027 10:40:31.052   13 Jun 2027 10:40:33.788             2.736           702.719
       511   13 Jun 2027 10:40:39.648   13 Jun 2027 10:40:41.552             1.904           183.125
       512   13 Jun 2027 10:41:29.950   13 Jun 2027 10:41:39.478             9.528          1512.437
       513   13 Jun 2027 10:42:01.349   13 Jun 2027 10:42:03.969             2.620           675.625
       514   13 Jun 2027 10:42:53.741   13 Jun 2027 10:42:58.094             4.353          1462.625
       515   13 Jun 2027 10:43:18.794   13 Jun 2027 10:43:22.292             3.498           565.281
       516   13 Jun 2027 10:43:24.739   13 Jun 2027 10:43:26.636             1.897            11.156
       517   13 Jun 2027 10:43:49.911   13 Jun 2027 10:43:51.993             2.082           697.781
