uniorb/output/strategy_2/Camera/Camera_KinoSat_111204.txt

KinoSat_111204
-------------------------
    Access    *     Start Time (UTCG)     *     Stop Time (UTCG)  *   Duration (s) *   Data (Mbytes)
         1   01 Jun 2027 03:41:27.673   01 Jun 2027 03:41:58.024            30.351         15175.500
         2   01 Jun 2027 03:42:16.597   01 Jun 2027 03:45:19.787           183.190         91595.000
         3   01 Jun 2027 05:04:50.078   01 Jun 2027 05:05:51.139            61.061         30530.500
         4   01 Jun 2027 05:07:43.445   01 Jun 2027 05:07:57.637            14.192          7096.000
         5   01 Jun 2027 06:41:21.954   01 Jun 2027 06:43:53.970           152.016         76008.000
         6   01 Jun 2027 06:44:43.313   01 Jun 2027 06:44:54.415            11.102          5551.000
         7   01 Jun 2027 08:16:31.941   01 Jun 2027 08:19:05.629           153.688         76844.000
         8   01 Jun 2027 08:19:54.138   01 Jun 2027 08:20:03.534             9.396          4698.000
         9   01 Jun 2027 08:22:47.912   01 Jun 2027 08:23:07.982            20.070         10035.000
        10   01 Jun 2027 09:52:57.453   01 Jun 2027 09:55:27.985           150.532         75266.000
        11   01 Jun 2027 09:56:49.520   01 Jun 2027 09:56:57.180             7.660          3830.000
        12   01 Jun 2027 11:30:11.903   01 Jun 2027 11:30:51.051            39.148         19574.000
        13   01 Jun 2027 11:31:22.737   01 Jun 2027 11:31:36.717            13.980          6990.000
        14   01 Jun 2027 11:31:55.397   01 Jun 2027 11:32:17.024            21.627         10813.500
        15   01 Jun 2027 11:34:01.472   01 Jun 2027 11:34:28.054            26.582         13291.000
        16   02 Jun 2027 03:53:24.388   02 Jun 2027 03:54:03.187            38.799         19399.500
        17   02 Jun 2027 03:54:28.325   02 Jun 2027 03:57:00.707           152.382         76191.000
        18   02 Jun 2027 05:16:52.861   02 Jun 2027 05:18:09.867            77.006         38503.000
        19   02 Jun 2027 06:53:15.031   02 Jun 2027 06:56:00.411           165.380         82690.000
        20   02 Jun 2027 06:56:29.984   02 Jun 2027 06:56:39.265             9.281          4640.500
        21   02 Jun 2027 06:57:06.473   02 Jun 2027 06:57:16.870            10.397          5198.500
        22   02 Jun 2027 08:28:11.122   02 Jun 2027 08:30:00.344           109.222         54485.564
        23   02 Jun 2027 08:31:02.496   02 Jun 2027 08:31:10.594             8.098          1841.344
        24   02 Jun 2027 08:32:13.986   02 Jun 2027 08:32:19.302             5.316          1979.781
        25   02 Jun 2027 08:32:56.859   02 Jun 2027 08:33:00.551             3.692          1054.875
        26   02 Jun 2027 08:33:43.483   02 Jun 2027 08:33:44.398             0.915           457.500
        27   02 Jun 2027 08:34:48.619   02 Jun 2027 08:34:53.827             5.208          2448.250
        28   02 Jun 2027 10:04:29.907   02 Jun 2027 10:04:50.264            20.357          9075.250
        29   02 Jun 2027 10:06:13.043   02 Jun 2027 10:06:15.111             2.068          1033.375
        30   02 Jun 2027 10:06:32.041   02 Jun 2027 10:06:32.530             0.489           244.500
        31   02 Jun 2027 10:06:44.271   02 Jun 2027 10:06:48.536             4.265           488.437
        32   02 Jun 2027 10:07:14.397   02 Jun 2027 10:07:16.064             1.667           440.906
        33   02 Jun 2027 10:07:41.972   02 Jun 2027 10:07:44.845             2.873           486.438
        34   02 Jun 2027 10:08:56.385   02 Jun 2027 10:09:01.172             4.787          2235.625
        35   02 Jun 2027 10:09:21.621   02 Jun 2027 10:09:23.997             2.376           488.906
        36   02 Jun 2027 10:09:44.260   02 Jun 2027 10:09:45.376             1.116           389.469
        37   02 Jun 2027 10:10:01.260   02 Jun 2027 10:10:03.875             2.615           387.062
        38   02 Jun 2027 10:10:22.143   02 Jun 2027 10:10:25.986             3.843           570.875
        39   02 Jun 2027 10:10:52.433   02 Jun 2027 10:10:54.404             1.971           676.969
        40   02 Jun 2027 11:42:45.309   02 Jun 2027 11:43:03.074            17.765          7106.063
        41   02 Jun 2027 11:43:49.293   02 Jun 2027 11:44:01.367            12.074          1210.375
        42   02 Jun 2027 11:44:29.304   02 Jun 2027 11:44:31.535             2.231           358.687
        43   02 Jun 2027 11:44:36.260   02 Jun 2027 11:44:37.517             1.257           100.219
        44   02 Jun 2027 11:44:46.467   02 Jun 2027 11:44:46.968             0.501           209.094
        45   02 Jun 2027 11:44:53.695   02 Jun 2027 11:44:56.225             2.530           210.219
        46   02 Jun 2027 11:45:29.915   02 Jun 2027 11:45:34.226             4.311          1052.813
        47   02 Jun 2027 11:46:30.851   02 Jun 2027 11:46:35.172             4.321          1552.875
        48   03 Jun 2027 03:54:09.195   03 Jun 2027 03:54:18.455             9.260          4630.000
        49   03 Jun 2027 03:54:18.597   03 Jun 2027 03:54:40.312            21.715         10857.500
        50   03 Jun 2027 03:54:59.295   03 Jun 2027 03:54:59.573             0.278           139.000
        51   03 Jun 2027 04:05:20.721   03 Jun 2027 04:07:01.938           101.217         50608.500
        52   03 Jun 2027 04:07:26.107   03 Jun 2027 04:08:18.816            52.709         26354.500
        53   03 Jun 2027 05:28:16.986   03 Jun 2027 05:29:48.056            91.070         45535.000
        54   03 Jun 2027 05:30:09.735   03 Jun 2027 05:30:31.088            21.353         10676.500
        55   03 Jun 2027 05:31:49.151   03 Jun 2027 05:31:49.151             0.000             0.000
        56   03 Jun 2027 05:31:56.422   03 Jun 2027 05:32:08.332            11.910          5004.531
        57   03 Jun 2027 07:03:33.750   03 Jun 2027 07:04:00.825            27.075         11153.406
        58   03 Jun 2027 07:04:58.989   03 Jun 2027 07:04:59.866             0.877           438.500
        59   03 Jun 2027 07:05:09.984   03 Jun 2027 07:05:12.531             2.547           744.000
        60   03 Jun 2027 07:05:18.487   03 Jun 2027 07:05:18.487             0.000             0.000
        61   03 Jun 2027 07:06:27.683   03 Jun 2027 07:06:37.392             9.709          2348.500
        62   03 Jun 2027 07:07:00.067   03 Jun 2027 07:07:04.253             4.186           630.906
        63   03 Jun 2027 07:07:30.433   03 Jun 2027 07:07:36.371             5.938           818.125
        64   03 Jun 2027 07:08:03.692   03 Jun 2027 07:08:05.058             1.366           463.812
        65   03 Jun 2027 07:08:41.651   03 Jun 2027 07:08:44.724             3.073           979.875
        66   03 Jun 2027 08:39:44.524   03 Jun 2027 08:39:54.111             9.587          4532.594
        67   03 Jun 2027 08:42:03.935   03 Jun 2027 08:42:11.161             7.226          2368.344
        68   03 Jun 2027 08:42:51.852   03 Jun 2027 08:42:54.111             2.259          1043.313
        69   03 Jun 2027 08:44:04.235   03 Jun 2027 08:44:12.119             7.884          1957.156
        70   03 Jun 2027 08:44:39.997   03 Jun 2027 08:44:41.346             1.349           566.062
        71   03 Jun 2027 08:45:43.222   03 Jun 2027 08:45:46.309             3.087          1543.500
        72   03 Jun 2027 08:45:48.296   03 Jun 2027 08:45:50.082             1.786           438.437
        73   03 Jun 2027 08:46:10.140   03 Jun 2027 08:46:10.140             0.000             0.000
        74   03 Jun 2027 08:46:26.460   03 Jun 2027 08:46:28.893             2.433          1092.781
        75   03 Jun 2027 08:46:53.661   03 Jun 2027 08:46:55.428             1.767           756.531
        76   03 Jun 2027 08:47:08.774   03 Jun 2027 08:47:13.993             5.219           417.062
        77   03 Jun 2027 10:16:49.387   03 Jun 2027 10:17:05.645            16.258          7864.406
        78   03 Jun 2027 10:18:41.101   03 Jun 2027 10:18:42.793             1.692           412.625
        79   03 Jun 2027 10:19:10.602   03 Jun 2027 10:19:14.551             3.949           789.531
        80   03 Jun 2027 10:19:30.670   03 Jun 2027 10:19:31.566             0.896           197.375
        81   03 Jun 2027 10:19:51.056   03 Jun 2027 10:19:54.278             3.222           524.781
        82   03 Jun 2027 10:19:57.698   03 Jun 2027 10:19:58.530             0.832            49.156
        83   03 Jun 2027 10:20:13.228   03 Jun 2027 10:20:17.465             4.237           459.312
        84   03 Jun 2027 10:20:58.469   03 Jun 2027 10:21:05.910             7.441          1281.375
        85   03 Jun 2027 10:21:16.063   03 Jun 2027 10:21:18.975             2.912           317.281
        86   03 Jun 2027 10:22:28.495   03 Jun 2027 10:22:32.721             4.226          2113.000
        87   03 Jun 2027 11:54:48.391   03 Jun 2027 11:54:59.687            11.296          5648.000
        88   03 Jun 2027 11:55:01.054   03 Jun 2027 11:55:06.867             5.813           588.969
        89   03 Jun 2027 11:55:48.669   03 Jun 2027 11:55:48.669             0.000             0.000
        90   03 Jun 2027 11:56:19.260   03 Jun 2027 11:56:23.947             4.687          2188.156
        91   03 Jun 2027 11:57:03.859   03 Jun 2027 11:57:07.155             3.296          1209.000
        92   03 Jun 2027 11:57:28.237   03 Jun 2027 11:57:32.863             4.626           621.063
        93   03 Jun 2027 11:58:30.002   03 Jun 2027 11:58:30.002             0.000             0.000
        94   03 Jun 2027 11:58:42.884   03 Jun 2027 11:58:43.974             1.090           545.000
        95   04 Jun 2027 04:05:40.358   04 Jun 2027 04:07:13.068            92.710         46355.000
        96   04 Jun 2027 04:17:23.561   04 Jun 2027 04:18:36.900            73.339         36669.500
        97   04 Jun 2027 05:39:36.302   04 Jun 2027 05:40:46.994            70.692         35346.000
        98   04 Jun 2027 05:41:37.043   04 Jun 2027 05:42:26.256            49.213         24606.500
        99   04 Jun 2027 05:43:19.702   04 Jun 2027 05:43:41.387            21.685         10842.500
       100   04 Jun 2027 07:14:40.242   04 Jun 2027 07:15:10.029            29.787         14467.219
       101   04 Jun 2027 07:15:57.088   04 Jun 2027 07:15:59.718             2.630          1208.500
       102   04 Jun 2027 07:16:11.562   04 Jun 2027 07:16:12.057             0.495           188.438
       103   04 Jun 2027 07:16:43.521   04 Jun 2027 07:16:45.443             1.922           934.813
       104   04 Jun 2027 07:17:23.460   04 Jun 2027 07:17:24.575             1.115           413.625
       105   04 Jun 2027 07:18:01.275   04 Jun 2027 07:18:04.928             3.653           872.000
       106   04 Jun 2027 07:18:36.103   04 Jun 2027 07:18:37.928             1.825           805.031
       107   04 Jun 2027 07:19:49.404   04 Jun 2027 07:19:57.485             8.081          2233.625
       108   04 Jun 2027 07:20:23.409   04 Jun 2027 07:20:25.121             1.712           589.063
       109   04 Jun 2027 07:21:26.723   04 Jun 2027 07:21:31.839             5.116          1703.219
       110   04 Jun 2027 08:52:02.661   04 Jun 2027 08:52:11.461             8.800          4369.313
       111   04 Jun 2027 08:52:50.337   04 Jun 2027 08:52:52.989             2.652          1022.562
       112   04 Jun 2027 08:52:59.294   04 Jun 2027 08:53:02.988             3.694           197.031
       113   04 Jun 2027 08:54:12.564   04 Jun 2027 08:54:16.231             3.667          1159.937
       114   04 Jun 2027 08:54:36.337   04 Jun 2027 08:54:38.324             1.987           595.500
       115   04 Jun 2027 08:54:45.288   04 Jun 2027 08:54:45.853             0.565            65.188
       116   04 Jun 2027 08:55:08.804   04 Jun 2027 08:55:15.285             6.481           469.094
       117   04 Jun 2027 08:55:39.570   04 Jun 2027 08:55:41.930             2.360           473.031
       118   04 Jun 2027 08:56:20.169   04 Jun 2027 08:56:25.777             5.608          1166.031
       119   04 Jun 2027 08:57:08.582   04 Jun 2027 08:57:11.116             2.534           894.344
       120   04 Jun 2027 08:57:57.329   04 Jun 2027 08:58:01.660             4.331          1273.812
       121   04 Jun 2027 08:59:04.402   04 Jun 2027 08:59:04.402             0.000             0.000
       122   04 Jun 2027 08:59:04.467   04 Jun 2027 08:59:08.905             4.438          1520.031
       123   04 Jun 2027 08:59:16.225   04 Jun 2027 08:59:16.990             0.765           213.844
       124   04 Jun 2027 10:28:51.040   04 Jun 2027 10:29:08.847            17.807          8825.188
       125   04 Jun 2027 10:29:49.363   04 Jun 2027 10:29:52.734             3.371          1219.688
       126   04 Jun 2027 10:30:23.661   04 Jun 2027 10:30:24.974             1.313           465.000
       127   04 Jun 2027 10:30:42.978   04 Jun 2027 10:30:44.643             1.665           562.375
       128   04 Jun 2027 10:31:03.472   04 Jun 2027 10:31:08.401             4.929           588.406
       129   04 Jun 2027 10:31:43.846   04 Jun 2027 10:31:45.855             2.009          1004.500
       130   04 Jun 2027 10:32:44.818   04 Jun 2027 10:32:47.773             2.955          1477.500
       131   04 Jun 2027 10:32:54.638   04 Jun 2027 10:32:57.426             2.788           682.781
       132   04 Jun 2027 10:33:08.620   04 Jun 2027 10:33:09.641             1.021           274.281
       133   04 Jun 2027 10:33:16.888   04 Jun 2027 10:33:20.566             3.678           226.469
       134   04 Jun 2027 10:34:43.058   04 Jun 2027 10:34:49.233             6.175          2039.625
       135   05 Jun 2027 04:17:10.983   05 Jun 2027 04:19:10.840           119.857         59928.500
       136   05 Jun 2027 04:19:14.259   05 Jun 2027 04:19:23.954             9.695          4847.500
       137   05 Jun 2027 04:29:24.318   05 Jun 2027 04:29:56.144            31.826         15913.000
       138   05 Jun 2027 05:51:20.296   05 Jun 2027 05:52:34.440            74.144         37072.000
       139   05 Jun 2027 05:53:23.066   05 Jun 2027 05:53:58.807            35.741         17870.500
       140   05 Jun 2027 05:54:12.930   05 Jun 2027 05:54:15.427             2.497          1248.500
       141   05 Jun 2027 05:55:54.403   05 Jun 2027 05:56:13.322            18.919          9459.500
       142   05 Jun 2027 07:26:08.466   05 Jun 2027 07:26:30.727            22.261         10852.094
       143   05 Jun 2027 07:27:00.074   05 Jun 2027 07:27:04.862             4.788           895.469
       144   05 Jun 2027 07:28:04.182   05 Jun 2027 07:28:05.965             1.783           891.500
       145   05 Jun 2027 07:28:11.166   05 Jun 2027 07:28:14.028             2.862           865.219
       146   05 Jun 2027 07:28:51.672   05 Jun 2027 07:28:52.714             1.042           521.000
       147   05 Jun 2027 07:28:59.379   05 Jun 2027 07:29:05.146             5.767           863.656
       148   05 Jun 2027 07:30:28.653   05 Jun 2027 07:30:34.390             5.737          1921.500
       149   05 Jun 2027 07:31:49.456   05 Jun 2027 07:32:00.869            11.413          2220.813
       150   05 Jun 2027 07:32:49.067   05 Jun 2027 07:32:53.732             4.665          1219.375
       151   05 Jun 2027 07:33:02.592   05 Jun 2027 07:33:03.261             0.669           129.781
       152   05 Jun 2027 07:33:41.502   05 Jun 2027 07:33:46.497             4.995          1049.438
       153   05 Jun 2027 07:34:04.543   05 Jun 2027 07:34:05.463             0.920           460.000
       154   05 Jun 2027 07:34:28.354   05 Jun 2027 07:34:30.026             1.672           540.844
       155   05 Jun 2027 09:03:57.630   05 Jun 2027 09:04:15.855            18.225          6418.719
       156   05 Jun 2027 09:04:55.077   05 Jun 2027 09:04:56.913             1.836           918.000
       157   05 Jun 2027 09:05:01.654   05 Jun 2027 09:05:03.407             1.753           331.844
       158   05 Jun 2027 09:05:18.383   05 Jun 2027 09:05:20.333             1.950           344.219
       159   05 Jun 2027 09:05:46.610   05 Jun 2027 09:05:48.015             1.405           494.781
       160   05 Jun 2027 09:06:13.984   05 Jun 2027 09:06:15.946             1.962           465.906
       161   05 Jun 2027 09:06:25.496   05 Jun 2027 09:06:26.340             0.844           225.437
       162   05 Jun 2027 09:06:47.842   05 Jun 2027 09:06:48.254             0.412           206.000
       163   05 Jun 2027 09:06:58.304   05 Jun 2027 09:07:02.489             4.185           722.906
       164   05 Jun 2027 09:07:35.675   05 Jun 2027 09:07:36.118             0.443           118.625
       165   05 Jun 2027 09:07:39.880   05 Jun 2027 09:07:40.746             0.866            25.844
       166   05 Jun 2027 09:09:56.498   05 Jun 2027 09:10:05.851             9.353          3534.781
       167   05 Jun 2027 09:10:55.834   05 Jun 2027 09:10:58.856             3.022          1511.000
       168   05 Jun 2027 09:11:03.954   05 Jun 2027 09:11:05.047             1.093           210.281
       169   05 Jun 2027 10:40:42.034   05 Jun 2027 10:40:56.553            14.519          6986.625
       170   05 Jun 2027 10:41:24.674   05 Jun 2027 10:41:27.093             2.419           704.469
       171   05 Jun 2027 10:42:00.527   05 Jun 2027 10:42:04.012             3.485           714.094
       172   05 Jun 2027 10:43:07.042   05 Jun 2027 10:43:11.440             4.398          1969.687
       173   05 Jun 2027 10:43:33.704   05 Jun 2027 10:43:35.214             1.510           695.750
       174   05 Jun 2027 10:44:13.922   05 Jun 2027 10:44:23.186             9.264          1043.063
       175   05 Jun 2027 10:44:55.577   05 Jun 2027 10:44:56.894             1.317           658.500
       176   05 Jun 2027 10:45:17.476   05 Jun 2027 10:45:20.511             3.035           996.906
       177   05 Jun 2027 10:45:36.413   05 Jun 2027 10:45:39.260             2.847           496.938
       178   05 Jun 2027 10:45:50.534   05 Jun 2027 10:45:52.320             1.786           308.063
       179   05 Jun 2027 10:46:06.080   05 Jun 2027 10:46:09.642             3.562           430.000
       180   05 Jun 2027 10:46:36.765   05 Jun 2027 10:46:37.961             1.196           598.000
       181   05 Jun 2027 10:46:50.287   05 Jun 2027 10:46:53.856             3.569           418.531
       182   05 Jun 2027 10:47:17.689   05 Jun 2027 10:47:25.646             7.957           744.781
       183   06 Jun 2027 03:05:08.033   06 Jun 2027 03:06:58.968           110.935         55467.500
       184   06 Jun 2027 03:07:07.866   06 Jun 2027 03:07:14.407             6.541          3270.500
       185   06 Jun 2027 03:07:44.664   06 Jun 2027 03:07:44.664             0.000             0.000
       186   06 Jun 2027 03:08:18.928   06 Jun 2027 03:08:36.106            17.178          8589.000
       187   06 Jun 2027 04:29:09.712   06 Jun 2027 04:30:22.496            72.784         36392.000
       188   06 Jun 2027 06:05:06.404   06 Jun 2027 06:06:59.172           112.768         55747.907
       189   06 Jun 2027 06:07:56.645   06 Jun 2027 06:07:56.645             0.000             0.000
       190   06 Jun 2027 06:08:39.026   06 Jun 2027 06:08:46.055             7.029          2747.188
       191   06 Jun 2027 07:38:57.190   06 Jun 2027 07:39:11.820            14.630          6072.469
       192   06 Jun 2027 07:41:06.184   06 Jun 2027 07:41:09.914             3.730          1074.656
       193   06 Jun 2027 07:41:33.509   06 Jun 2027 07:41:33.784             0.275           123.594
       194   06 Jun 2027 07:43:03.815   06 Jun 2027 07:43:11.091             7.276          2688.125
       195   06 Jun 2027 07:43:42.019   06 Jun 2027 07:43:42.898             0.879           231.406
       196   06 Jun 2027 07:44:13.070   06 Jun 2027 07:44:18.853             5.783           754.937
       197   06 Jun 2027 07:44:24.583   06 Jun 2027 07:44:25.213             0.630           179.063
       198   06 Jun 2027 07:44:54.889   06 Jun 2027 07:45:03.009             8.120           810.375
       199   06 Jun 2027 07:45:15.244   06 Jun 2027 07:45:16.844             1.600           382.344
       200   06 Jun 2027 07:45:45.971   06 Jun 2027 07:45:47.496             1.525           546.688
       201   06 Jun 2027 07:46:42.217   06 Jun 2027 07:46:45.438             3.221          1610.500
       202   06 Jun 2027 07:47:11.463   06 Jun 2027 07:47:16.986             5.523           912.813
       203   06 Jun 2027 07:47:24.622   06 Jun 2027 07:47:25.635             1.013           238.625
       204   06 Jun 2027 09:16:04.169   06 Jun 2027 09:16:20.071            15.902          5778.219
       205   06 Jun 2027 09:16:48.234   06 Jun 2027 09:16:48.656             0.422           170.031
       206   06 Jun 2027 09:17:02.478   06 Jun 2027 09:17:06.402             3.924            76.531
       207   06 Jun 2027 09:17:56.933   06 Jun 2027 09:17:58.742             1.809           746.625
       208   06 Jun 2027 09:18:43.991   06 Jun 2027 09:18:45.044             1.053           526.500
       209   06 Jun 2027 09:20:11.861   06 Jun 2027 09:20:19.665             7.804          3524.375
       210   06 Jun 2027 09:20:58.389   06 Jun 2027 09:21:05.045             6.656           850.125
       211   06 Jun 2027 09:21:32.083   06 Jun 2027 09:21:33.838             1.755           444.812
       212   06 Jun 2027 09:22:26.155   06 Jun 2027 09:22:38.764            12.609          1526.344
       213   06 Jun 2027 09:22:50.944   06 Jun 2027 09:22:53.382             2.438           321.344
       214   06 Jun 2027 09:23:10.810   06 Jun 2027 09:23:11.479             0.669           334.500
       215   06 Jun 2027 10:53:07.054   06 Jun 2027 10:53:21.303            14.249          7124.500
       216   06 Jun 2027 10:53:32.029   06 Jun 2027 10:53:40.909             8.880          1478.094
       217   06 Jun 2027 10:53:55.283   06 Jun 2027 10:53:56.455             1.172           411.625
       218   06 Jun 2027 10:54:37.201   06 Jun 2027 10:54:42.378             5.177           916.188
       219   06 Jun 2027 10:55:10.814   06 Jun 2027 10:55:12.571             1.757           745.188
       220   06 Jun 2027 10:55:14.520   06 Jun 2027 10:55:18.639             4.119            41.969
       221   06 Jun 2027 10:55:34.906   06 Jun 2027 10:55:37.878             2.972           337.250
       222   06 Jun 2027 10:55:54.833   06 Jun 2027 10:55:56.553             1.720           500.500
       223   06 Jun 2027 10:56:25.987   06 Jun 2027 10:56:25.987             0.000             0.000
       224   06 Jun 2027 10:56:53.378   06 Jun 2027 10:56:58.465             5.087          1608.969
       225   06 Jun 2027 10:57:14.220   06 Jun 2027 10:57:15.691             1.471           492.344
       226   06 Jun 2027 10:57:21.520   06 Jun 2027 10:57:22.278             0.758           182.156
       227   06 Jun 2027 10:58:56.850   06 Jun 2027 10:59:06.183             9.333          2610.969
       228   07 Jun 2027 03:17:42.697   07 Jun 2027 03:19:53.420           130.723         65361.500
       229   07 Jun 2027 03:20:24.354   07 Jun 2027 03:21:05.756            41.402         20701.000
       230   07 Jun 2027 03:21:23.557   07 Jun 2027 03:21:39.101            15.544          7772.000
       231   07 Jun 2027 04:41:04.027   07 Jun 2027 04:42:01.664            57.637         28818.500
       232   07 Jun 2027 04:42:06.254   07 Jun 2027 04:42:06.254             0.000             0.000
       233   07 Jun 2027 04:42:52.178   07 Jun 2027 04:43:10.941            18.763          9381.500
       234   07 Jun 2027 06:17:28.261   07 Jun 2027 06:18:16.124            47.863         23503.938
       235   07 Jun 2027 06:19:46.539   07 Jun 2027 06:19:51.000             4.461          2095.656
       236   07 Jun 2027 06:20:27.224   07 Jun 2027 06:20:29.720             2.496           883.219
       237   07 Jun 2027 07:51:09.912   07 Jun 2027 07:51:19.037             9.125          4219.250
       238   07 Jun 2027 07:52:21.450   07 Jun 2027 07:52:22.992             1.542           427.687
       239   07 Jun 2027 07:53:01.412   07 Jun 2027 07:53:02.694             1.282           177.344
       240   07 Jun 2027 07:53:20.209   07 Jun 2027 07:53:21.970             1.761           510.344
       241   07 Jun 2027 07:53:27.364   07 Jun 2027 07:53:27.364             0.000             0.000
       242   07 Jun 2027 07:54:16.842   07 Jun 2027 07:54:21.296             4.454          1690.594
       243   07 Jun 2027 07:55:07.560   07 Jun 2027 07:55:11.529             3.969          1244.313
       244   07 Jun 2027 07:55:47.668   07 Jun 2027 07:55:50.395             2.727          1129.344
       245   07 Jun 2027 07:56:15.955   07 Jun 2027 07:56:17.119             1.164           161.719
       246   07 Jun 2027 07:56:57.371   07 Jun 2027 07:57:02.132             4.761           901.719
       247   07 Jun 2027 07:57:30.097   07 Jun 2027 07:57:31.407             1.310           331.094
       248   07 Jun 2027 07:57:53.951   07 Jun 2027 07:57:56.006             2.055           508.938
       249   07 Jun 2027 07:58:44.046   07 Jun 2027 07:58:49.077             5.031          1411.219
       250   07 Jun 2027 07:59:24.337   07 Jun 2027 07:59:26.814             2.477          1043.375
       251   07 Jun 2027 09:28:30.508   07 Jun 2027 09:28:45.658            15.150          7112.875
       252   07 Jun 2027 09:30:27.834   07 Jun 2027 09:30:29.880             2.046          1023.000
       253   07 Jun 2027 09:30:53.373   07 Jun 2027 09:30:59.929             6.556          2160.062
       254   07 Jun 2027 09:31:20.178   07 Jun 2027 09:31:21.140             0.962           213.844
       255   07 Jun 2027 09:31:31.250   07 Jun 2027 09:31:32.942             1.692           194.687
       256   07 Jun 2027 09:31:43.502   07 Jun 2027 09:31:43.512             0.010             5.000
       257   07 Jun 2027 09:31:59.128   07 Jun 2027 09:32:05.457             6.329           804.906
       258   07 Jun 2027 09:32:54.774   07 Jun 2027 09:33:00.591             5.817          1541.156
       259   07 Jun 2027 09:33:28.874   07 Jun 2027 09:33:31.414             2.540           883.844
       260   07 Jun 2027 09:34:06.404   07 Jun 2027 09:34:15.905             9.501          1049.281
       261   07 Jun 2027 09:34:40.976   07 Jun 2027 09:34:41.554             0.578           289.000
       262   07 Jun 2027 09:35:07.832   07 Jun 2027 09:35:09.993             2.161           974.906
       263   07 Jun 2027 11:05:27.371   07 Jun 2027 11:05:46.877            19.506          8704.094
       264   07 Jun 2027 11:06:50.165   07 Jun 2027 11:06:56.180             6.015           667.906
       265   07 Jun 2027 11:07:07.869   07 Jun 2027 11:07:08.559             0.690           342.844
       266   07 Jun 2027 11:07:21.146   07 Jun 2027 11:07:23.879             2.733           393.344
       267   07 Jun 2027 11:07:37.116   07 Jun 2027 11:07:39.905             2.789           101.125
       268   07 Jun 2027 11:07:49.044   07 Jun 2027 11:07:52.856             3.812            71.156
       269   07 Jun 2027 11:08:35.367   07 Jun 2027 11:08:38.631             3.264          1328.469
       270   07 Jun 2027 11:09:18.009   07 Jun 2027 11:09:19.712             1.703           851.500
       271   07 Jun 2027 11:09:45.342   07 Jun 2027 11:09:48.168             2.826          1180.000
       272   07 Jun 2027 11:09:57.447   07 Jun 2027 11:09:59.067             1.620           254.656
       273   07 Jun 2027 11:10:40.803   07 Jun 2027 11:10:44.102             3.299          1304.250
       274   08 Jun 2027 03:29:20.467   08 Jun 2027 03:33:00.875           220.408        110204.000
       275   08 Jun 2027 04:52:51.281   08 Jun 2027 04:53:17.090            25.809         12904.500
       276   08 Jun 2027 04:53:23.267   08 Jun 2027 04:54:04.232            40.965         20482.500
       277   08 Jun 2027 04:54:08.744   08 Jun 2027 04:54:15.903             7.159          3579.500
       278   08 Jun 2027 06:29:30.856   08 Jun 2027 06:30:01.238            30.382         15122.438
       279   08 Jun 2027 06:30:16.125   08 Jun 2027 06:30:19.536             3.411           465.219
       280   08 Jun 2027 06:30:26.447   08 Jun 2027 06:30:26.447             0.000             0.000
       281   08 Jun 2027 06:30:41.027   08 Jun 2027 06:30:47.431             6.404           627.031
       282   08 Jun 2027 06:31:19.550   08 Jun 2027 06:31:21.724             2.174           125.750
       283   08 Jun 2027 06:31:42.371   08 Jun 2027 06:31:45.161             2.790           545.625
       284   08 Jun 2027 06:32:00.899   08 Jun 2027 06:32:02.578             1.679           262.250
       285   08 Jun 2027 06:32:25.977   08 Jun 2027 06:32:29.753             3.776           703.563
       286   08 Jun 2027 08:04:30.425   08 Jun 2027 08:04:47.517            17.092          6151.969
       287   08 Jun 2027 08:05:19.156   08 Jun 2027 08:05:20.075             0.919           189.531
       288   08 Jun 2027 08:05:39.416   08 Jun 2027 08:05:41.173             1.757           488.031
       289   08 Jun 2027 08:06:18.439   08 Jun 2027 08:06:24.592             6.153          1119.750
       290   08 Jun 2027 08:07:45.589   08 Jun 2027 08:07:49.789             4.200          1578.813
       291   08 Jun 2027 08:08:18.665   08 Jun 2027 08:08:21.409             2.744           751.781
       292   08 Jun 2027 08:08:49.356   08 Jun 2027 08:09:04.616            15.260           529.656
       293   08 Jun 2027 08:09:07.087   08 Jun 2027 08:09:09.653             2.566            77.219
       294   08 Jun 2027 08:09:39.292   08 Jun 2027 08:09:40.602             1.310           556.500
       295   08 Jun 2027 08:10:09.037   08 Jun 2027 08:10:13.943             4.906           497.594
       296   08 Jun 2027 08:11:16.672   08 Jun 2027 08:11:22.954             6.282          1619.625
       297   08 Jun 2027 09:40:38.083   08 Jun 2027 09:40:56.217            18.134          7544.562
       298   08 Jun 2027 09:41:41.779   08 Jun 2027 09:41:45.509             3.730           336.781
       299   08 Jun 2027 09:41:51.858   08 Jun 2027 09:41:52.716             0.858            54.062
       300   08 Jun 2027 09:42:07.704   08 Jun 2027 09:42:12.390             4.686           115.844
       301   08 Jun 2027 09:43:14.656   08 Jun 2027 09:43:16.061             1.405           345.469
       302   08 Jun 2027 09:44:21.114   08 Jun 2027 09:44:28.786             7.672           217.563
       303   08 Jun 2027 09:44:57.057   08 Jun 2027 09:44:59.485             2.428           883.469
       304   08 Jun 2027 09:45:36.245   08 Jun 2027 09:45:38.889             2.644          1115.844
       305   08 Jun 2027 09:46:29.324   08 Jun 2027 09:46:32.610             3.286          1575.250
       306   08 Jun 2027 09:47:04.787   08 Jun 2027 09:47:04.787             0.000             0.000
       307   08 Jun 2027 11:18:22.192   08 Jun 2027 11:18:34.989            12.797          6074.594
       308   08 Jun 2027 11:18:46.557   08 Jun 2027 11:18:48.563             2.006           349.812
       309   08 Jun 2027 11:19:34.847   08 Jun 2027 11:19:37.215             2.368          1103.000
       310   08 Jun 2027 11:19:44.052   08 Jun 2027 11:19:44.052             0.000             0.000
       311   08 Jun 2027 11:20:03.669   08 Jun 2027 11:20:10.536             6.867           727.906
       312   08 Jun 2027 11:21:27.062   08 Jun 2027 11:21:32.541             5.479          2391.438
       313   08 Jun 2027 11:22:42.752   08 Jun 2027 11:22:45.751             2.999          1499.500
       314   09 Jun 2027 03:41:43.314   09 Jun 2027 03:42:14.221            30.907         15453.500
       315   09 Jun 2027 03:42:32.773   09 Jun 2027 03:45:02.683           149.910         74955.000
       316   09 Jun 2027 05:05:05.817   09 Jun 2027 05:06:25.032            79.215         39607.500
       317   09 Jun 2027 05:06:46.258   09 Jun 2027 05:07:03.770            17.512          8756.000
       318   09 Jun 2027 05:08:09.948   09 Jun 2027 05:08:13.672             3.724          1862.000
       319   09 Jun 2027 06:41:37.632   09 Jun 2027 06:42:17.435            39.803         17134.188
       320   09 Jun 2027 06:42:50.366   09 Jun 2027 06:42:51.030             0.664           247.844
       321   09 Jun 2027 06:43:45.081   09 Jun 2027 06:43:51.432             6.351          1410.563
       322   09 Jun 2027 06:44:14.840   09 Jun 2027 06:44:17.300             2.460           383.750
       323   09 Jun 2027 06:44:37.139   09 Jun 2027 06:44:37.139             0.000             0.000
       324   09 Jun 2027 08:16:47.891   09 Jun 2027 08:17:04.161            16.270          4995.281
       325   09 Jun 2027 08:18:06.052   09 Jun 2027 08:18:09.706             3.654          1809.594
       326   09 Jun 2027 08:18:42.586   09 Jun 2027 08:18:44.466             1.880           736.844
       327   09 Jun 2027 08:18:54.483   09 Jun 2027 08:18:55.903             1.420           313.031
       328   09 Jun 2027 08:19:40.501   09 Jun 2027 08:19:40.501             0.000             0.000
       329   09 Jun 2027 08:20:05.382   09 Jun 2027 08:20:10.326             4.944          1853.656
       330   09 Jun 2027 08:20:50.195   09 Jun 2027 08:20:50.195             0.000             0.000
       331   09 Jun 2027 08:22:01.428   09 Jun 2027 08:22:08.837             7.409          3132.875
       332   09 Jun 2027 08:22:27.708   09 Jun 2027 08:22:29.380             1.672           589.719
       333   09 Jun 2027 08:23:23.156   09 Jun 2027 08:23:24.343             1.187           593.500
       334   09 Jun 2027 09:53:11.656   09 Jun 2027 09:53:28.230            16.574          7631.406
       335   09 Jun 2027 09:53:39.887   09 Jun 2027 09:53:41.853             1.966           184.187
       336   09 Jun 2027 09:55:01.492   09 Jun 2027 09:55:03.729             2.237           899.844
       337   09 Jun 2027 09:55:17.744   09 Jun 2027 09:55:20.634             2.890           437.969
       338   09 Jun 2027 09:55:44.675   09 Jun 2027 09:55:45.974             1.299           473.469
       339   09 Jun 2027 09:56:57.705   09 Jun 2027 09:57:02.618             4.913          2219.969
       340   09 Jun 2027 09:57:34.397   09 Jun 2027 09:57:41.423             7.026           895.437
       341   09 Jun 2027 09:58:44.390   09 Jun 2027 09:58:48.362             3.972          1941.844
       342   09 Jun 2027 09:58:53.598   09 Jun 2027 09:58:54.036             0.438            92.281
       343   09 Jun 2027 09:59:04.081   09 Jun 2027 09:59:05.018             0.937           197.906
       344   09 Jun 2027 11:30:28.237   09 Jun 2027 11:30:46.442            18.205          6477.312
       345   09 Jun 2027 11:30:49.339   09 Jun 2027 11:30:49.556             0.217            90.531
       346   09 Jun 2027 11:31:28.271   09 Jun 2027 11:31:30.450             2.179           727.219
       347   09 Jun 2027 11:31:34.738   09 Jun 2027 11:31:34.738             0.000             0.000
       348   09 Jun 2027 11:31:36.609   09 Jun 2027 11:31:37.356             0.747           192.469
       349   09 Jun 2027 11:32:11.271   09 Jun 2027 11:32:14.693             3.422           634.406
       350   09 Jun 2027 11:32:46.307   09 Jun 2027 11:32:49.119             2.812           480.781
       351   09 Jun 2027 11:33:01.639   09 Jun 2027 11:33:05.909             4.270           238.031
       352   09 Jun 2027 11:33:30.313   09 Jun 2027 11:33:32.557             2.244           536.000
       353   09 Jun 2027 11:33:47.084   09 Jun 2027 11:33:49.982             2.898           453.969
       354   09 Jun 2027 11:34:44.605   09 Jun 2027 11:34:50.911             6.306          1706.969
       355   10 Jun 2027 03:53:40.060   10 Jun 2027 03:54:19.065            39.005         19502.500
       356   10 Jun 2027 03:54:42.344   10 Jun 2027 03:57:04.423           142.079         71039.500
       357   10 Jun 2027 05:17:35.668   10 Jun 2027 05:18:47.886            72.218         36109.000
       358   10 Jun 2027 06:53:30.358   10 Jun 2027 06:54:36.519            66.161         32521.219
       359   10 Jun 2027 06:56:10.318   10 Jun 2027 06:56:13.549             3.231          1615.500
       360   10 Jun 2027 06:56:30.137   10 Jun 2027 06:56:33.908             3.771          1611.594
       361   10 Jun 2027 06:56:36.118   10 Jun 2027 06:56:37.228             1.110            69.062
       362   10 Jun 2027 08:28:26.454   10 Jun 2027 08:28:39.991            13.537          4322.250
       363   10 Jun 2027 08:30:20.483   10 Jun 2027 08:30:27.536             7.053          2729.563
       364   10 Jun 2027 08:30:30.988   10 Jun 2027 08:30:32.682             1.694            30.500
       365   10 Jun 2027 08:31:16.949   10 Jun 2027 08:31:19.966             3.017          1359.500
       366   10 Jun 2027 08:31:28.509   10 Jun 2027 08:31:29.975             1.466           265.656
       367   10 Jun 2027 08:31:52.886   10 Jun 2027 08:31:58.177             5.291           715.969
       368   10 Jun 2027 08:32:48.490   10 Jun 2027 08:32:53.549             5.059          1309.781
       369   10 Jun 2027 08:34:08.626   10 Jun 2027 08:34:08.626             0.000             0.000
       370   10 Jun 2027 08:34:58.569   10 Jun 2027 08:35:06.690             8.121          3906.875
       371   10 Jun 2027 08:35:30.007   10 Jun 2027 08:35:32.459             2.452           166.813
       372   10 Jun 2027 10:04:45.622   10 Jun 2027 10:05:04.914            19.292          7689.000
       373   10 Jun 2027 10:05:57.903   10 Jun 2027 10:05:59.328             1.425           662.406
       374   10 Jun 2027 10:06:46.627   10 Jun 2027 10:06:47.838             1.211           350.812
       375   10 Jun 2027 10:07:01.797   10 Jun 2027 10:07:05.505             3.708           436.219
       376   10 Jun 2027 10:07:20.327   10 Jun 2027 10:07:23.578             3.251           265.000
       377   10 Jun 2027 10:07:47.959   10 Jun 2027 10:07:55.326             7.367           507.750
       378   10 Jun 2027 10:08:19.210   10 Jun 2027 10:08:27.202             7.992           573.094
       379   10 Jun 2027 10:08:34.459   10 Jun 2027 10:08:38.369             3.910           212.188
       380   10 Jun 2027 10:09:21.975   10 Jun 2027 10:09:23.092             1.117           483.750
       381   10 Jun 2027 10:09:30.469   10 Jun 2027 10:09:30.858             0.389           109.531
       382   10 Jun 2027 10:09:48.015   10 Jun 2027 10:09:51.405             3.390           517.063
       383   10 Jun 2027 10:10:28.767   10 Jun 2027 10:10:31.958             3.191          1112.063
       384   10 Jun 2027 11:43:01.118   10 Jun 2027 11:43:13.061            11.943          5971.500
       385   10 Jun 2027 11:43:28.028   10 Jun 2027 11:43:30.872             2.844          1422.000
       386   10 Jun 2027 11:44:05.253   10 Jun 2027 11:44:19.349            14.096          1349.719
       387   10 Jun 2027 11:44:44.974   10 Jun 2027 11:44:45.956             0.982           391.094
       388   10 Jun 2027 11:44:51.400   10 Jun 2027 11:44:53.040             1.640           120.406
       389   10 Jun 2027 11:45:47.166   10 Jun 2027 11:45:49.443             2.277          1037.125
       390   10 Jun 2027 11:46:46.322   10 Jun 2027 11:46:49.428             3.106          1518.219
       391   11 Jun 2027 03:54:23.096   11 Jun 2027 03:55:16.654            53.558         26779.000
       392   11 Jun 2027 04:05:36.418   11 Jun 2027 04:07:17.331           100.913         50456.500
       393   11 Jun 2027 04:07:44.582   11 Jun 2027 04:08:35.054            50.472         25236.000
       394   11 Jun 2027 05:28:12.862   11 Jun 2027 05:29:23.714            70.852         35426.000
       395   11 Jun 2027 05:30:04.753   11 Jun 2027 05:30:04.753             0.000             0.000
       396   11 Jun 2027 05:30:49.590   11 Jun 2027 05:30:50.680             1.090           545.000
       397   11 Jun 2027 05:31:21.776   11 Jun 2027 05:31:46.494            24.718         12359.000
       398   11 Jun 2027 05:31:55.419   11 Jun 2027 05:32:05.271             9.852          4822.157
       399   11 Jun 2027 05:32:45.785   11 Jun 2027 05:32:45.785             0.000             0.000
       400   11 Jun 2027 07:03:48.457   11 Jun 2027 07:04:15.622            27.165         10654.500
       401   11 Jun 2027 07:04:26.201   11 Jun 2027 07:04:27.584             1.383           182.375
       402   11 Jun 2027 07:06:24.802   11 Jun 2027 07:06:31.152             6.350          2942.094
       403   11 Jun 2027 07:07:21.894   11 Jun 2027 07:07:24.278             2.384          1165.469
       404   11 Jun 2027 07:08:21.420   11 Jun 2027 07:08:24.756             3.336           517.469
       405   11 Jun 2027 07:08:57.865   11 Jun 2027 07:09:06.597             8.732           988.125
       406   11 Jun 2027 08:39:59.746   11 Jun 2027 08:40:09.089             9.343          4241.625
       407   11 Jun 2027 08:41:05.670   11 Jun 2027 08:41:09.065             3.395          1057.312
       408   11 Jun 2027 08:41:36.863   11 Jun 2027 08:41:38.819             1.956           400.750
       409   11 Jun 2027 08:42:33.251   11 Jun 2027 08:42:38.017             4.766          1669.562
       410   11 Jun 2027 08:43:02.231   11 Jun 2027 08:43:03.821             1.590            70.219
       411   11 Jun 2027 08:43:37.655   11 Jun 2027 08:43:40.624             2.969          1057.313
       412   11 Jun 2027 08:44:59.494   11 Jun 2027 08:45:08.576             9.082          1167.844
       413   11 Jun 2027 08:45:15.136   11 Jun 2027 08:45:16.229             1.093           205.000
       414   11 Jun 2027 08:45:48.015   11 Jun 2027 08:45:49.837             1.822           736.594
       415   11 Jun 2027 08:45:59.500   11 Jun 2027 08:45:59.500             0.000             0.000
       416   11 Jun 2027 08:46:25.966   11 Jun 2027 08:46:32.011             6.045          1022.656
       417   11 Jun 2027 08:46:51.629   11 Jun 2027 08:46:52.913             1.284           613.063
       418   11 Jun 2027 08:47:23.974   11 Jun 2027 08:47:28.507             4.533           920.937
       419   11 Jun 2027 10:17:05.556   11 Jun 2027 10:17:22.216            16.660          7767.219
       420   11 Jun 2027 10:18:01.776   11 Jun 2027 10:18:05.599             3.823           930.000
       421   11 Jun 2027 10:19:10.852   11 Jun 2027 10:19:10.998             0.146            21.156
       422   11 Jun 2027 10:19:22.382   11 Jun 2027 10:19:23.462             1.080           355.750
       423   11 Jun 2027 10:20:02.484   11 Jun 2027 10:20:07.141             4.657           911.094
       424   11 Jun 2027 10:20:35.871   11 Jun 2027 10:20:35.871             0.000             0.000
       425   11 Jun 2027 10:21:21.430   11 Jun 2027 10:21:27.257             5.827          2197.094
       426   11 Jun 2027 10:21:47.938   11 Jun 2027 10:21:51.441             3.503           646.281
       427   11 Jun 2027 10:22:20.158   11 Jun 2027 10:22:26.376             6.218           869.844
       428   11 Jun 2027 10:22:58.887   11 Jun 2027 10:23:04.447             5.560          1015.969
       429   11 Jun 2027 10:23:07.309   11 Jun 2027 10:23:07.309             0.000             0.000
       430   11 Jun 2027 11:55:03.845   11 Jun 2027 11:55:21.194            17.349          8404.438
       431   11 Jun 2027 11:56:03.373   11 Jun 2027 11:56:04.297             0.924           462.000
       432   11 Jun 2027 11:56:33.870   11 Jun 2027 11:56:37.563             3.693          1644.938
       433   11 Jun 2027 11:57:35.395   11 Jun 2027 11:57:40.073             4.678          1647.781
       434   11 Jun 2027 11:58:11.751   11 Jun 2027 11:58:14.089             2.338           817.438
       435   11 Jun 2027 11:58:18.680   11 Jun 2027 11:58:23.686             5.006           143.469
       436   11 Jun 2027 11:58:32.552   11 Jun 2027 11:58:33.242             0.690           277.062
       437   11 Jun 2027 11:58:41.300   11 Jun 2027 11:58:42.379             1.079            49.000
       438   11 Jun 2027 11:58:54.139   11 Jun 2027 11:58:54.139             0.000             0.000
       439   12 Jun 2027 04:05:55.754   12 Jun 2027 04:07:07.504            71.750         35875.000
       440   12 Jun 2027 04:17:39.367   12 Jun 2027 04:18:49.179            69.812         34906.000
       441   12 Jun 2027 05:39:52.410   12 Jun 2027 05:41:02.119            69.709         34854.500
       442   12 Jun 2027 05:41:52.503   12 Jun 2027 05:42:40.741            48.238         24119.000
       443   12 Jun 2027 05:42:49.974   12 Jun 2027 05:43:16.292            26.318         13159.000
       444   12 Jun 2027 07:14:54.888   12 Jun 2027 07:15:40.657            45.769         22395.719
       445   12 Jun 2027 07:15:56.689   12 Jun 2027 07:16:01.394             4.705           501.000
       446   12 Jun 2027 07:16:59.077   12 Jun 2027 07:17:06.215             7.138          1361.219
       447   12 Jun 2027 07:18:45.246   12 Jun 2027 07:18:50.381             5.135          2138.500
       448   12 Jun 2027 07:18:54.462   12 Jun 2027 07:18:55.663             1.201           127.531
       449   12 Jun 2027 07:19:28.722   12 Jun 2027 07:19:30.706             1.984           831.875
       450   12 Jun 2027 07:19:59.837   12 Jun 2027 07:20:03.527             3.690           463.594
       451   12 Jun 2027 07:20:22.221   12 Jun 2027 07:20:24.053             1.832           584.188
       452   12 Jun 2027 07:20:56.413   12 Jun 2027 07:20:59.392             2.979           993.187
       453   12 Jun 2027 07:21:26.078   12 Jun 2027 07:21:26.078             0.000             0.000
       454   12 Jun 2027 07:21:26.803   12 Jun 2027 07:21:28.133             1.330           443.062
       455   12 Jun 2027 07:22:51.107   12 Jun 2027 07:22:55.287             4.180          1816.156
       456   12 Jun 2027 08:52:19.276   12 Jun 2027 08:52:28.233             8.957          4076.656
       457   12 Jun 2027 08:53:08.067   12 Jun 2027 08:53:10.734             2.667          1017.281
       458   12 Jun 2027 08:54:02.729   12 Jun 2027 08:54:08.081             5.352           247.187
       459   12 Jun 2027 08:54:33.886   12 Jun 2027 08:54:34.452             0.566           158.625
       460   12 Jun 2027 08:55:13.066   12 Jun 2027 08:55:16.336             3.270           417.187
       461   12 Jun 2027 08:55:42.246   12 Jun 2027 08:55:44.714             2.468           559.719
       462   12 Jun 2027 08:55:59.755   12 Jun 2027 08:56:07.081             7.326           219.656
       463   12 Jun 2027 08:57:57.604   12 Jun 2027 08:58:03.325             5.721          2827.125
       464   12 Jun 2027 08:58:08.896   12 Jun 2027 08:58:13.161             4.265           160.719
       465   12 Jun 2027 08:58:31.152   12 Jun 2027 08:58:33.454             2.302           562.219
       466   12 Jun 2027 08:58:56.938   12 Jun 2027 08:59:00.408             3.470           457.625
       467   12 Jun 2027 08:59:37.168   12 Jun 2027 08:59:38.022             0.854           427.000
       468   12 Jun 2027 10:29:07.105   12 Jun 2027 10:29:23.393            16.288          6472.563
       469   12 Jun 2027 10:29:25.509   12 Jun 2027 10:29:26.505             0.996             1.500
       470   12 Jun 2027 10:30:41.360   12 Jun 2027 10:30:43.759             2.399           540.656
       471   12 Jun 2027 10:31:59.182   12 Jun 2027 10:32:02.412             3.230          1297.750
       472   12 Jun 2027 10:32:10.628   12 Jun 2027 10:32:13.964             3.336           256.187
       473   12 Jun 2027 10:32:15.437   12 Jun 2027 10:32:18.421             2.984            46.031
       474   12 Jun 2027 10:32:26.586   12 Jun 2027 10:32:32.585             5.999           255.156
       475   12 Jun 2027 10:33:16.608   12 Jun 2027 10:33:21.493             4.885          1225.656
       476   12 Jun 2027 10:33:31.856   12 Jun 2027 10:33:34.433             2.577           323.844
       477   12 Jun 2027 10:34:19.102   12 Jun 2027 10:34:21.975             2.873          1395.906
       478   12 Jun 2027 10:35:23.233   12 Jun 2027 10:35:28.091             4.858          1866.406
       479   13 Jun 2027 03:00:00.000   13 Jun 2027 03:00:10.902            10.902          5451.000
       480   13 Jun 2027 04:17:27.213   13 Jun 2027 04:19:25.750           118.537         59268.500
       481   13 Jun 2027 04:29:40.132   13 Jun 2027 04:30:11.847            31.715         15857.500
       482   13 Jun 2027 05:51:35.213   13 Jun 2027 05:52:49.114            73.901         36950.500
       483   13 Jun 2027 05:53:38.201   13 Jun 2027 05:54:23.211            45.010         22505.000
       484   13 Jun 2027 05:54:53.086   13 Jun 2027 05:54:57.575             4.489          2244.500
       485   13 Jun 2027 05:56:09.974   13 Jun 2027 05:56:19.701             9.727          4863.500
       486   13 Jun 2027 05:56:22.968   13 Jun 2027 05:56:22.968             0.000             0.000
       487   13 Jun 2027 05:56:42.930   13 Jun 2027 05:56:47.444             4.514          2257.000
       488   13 Jun 2027 05:56:54.674   13 Jun 2027 05:56:54.674             0.000             0.000
       489   13 Jun 2027 07:26:23.490   13 Jun 2027 07:26:56.162            32.672         16252.781
       490   13 Jun 2027 07:28:28.664   13 Jun 2027 07:28:32.913             4.249          2124.500
       491   13 Jun 2027 07:29:09.247   13 Jun 2027 07:29:15.019             5.772          1855.406
       492   13 Jun 2027 07:29:53.350   13 Jun 2027 07:29:57.384             4.034          1182.469
       493   13 Jun 2027 07:30:10.746   13 Jun 2027 07:30:14.733             3.987           414.625
       494   13 Jun 2027 07:30:55.072   13 Jun 2027 07:31:00.851             5.779           790.125
       495   13 Jun 2027 07:31:57.941   13 Jun 2027 07:32:01.637             3.696          1183.969
       496   13 Jun 2027 07:32:27.751   13 Jun 2027 07:32:30.915             3.164           698.031
       497   13 Jun 2027 07:33:00.937   13 Jun 2027 07:33:04.997             4.060           301.656
       498   13 Jun 2027 07:33:17.752   13 Jun 2027 07:33:19.860             2.108           398.594
       499   13 Jun 2027 07:33:30.555   13 Jun 2027 07:33:31.462             0.907            64.281
       500   13 Jun 2027 07:34:10.328   13 Jun 2027 07:34:10.328             0.000             0.000
       501   13 Jun 2027 07:34:14.918   13 Jun 2027 07:34:19.362             4.444          1358.000
       502   13 Jun 2027 07:35:08.100   13 Jun 2027 07:35:10.422             2.322          1161.000
       503   13 Jun 2027 09:04:13.314   13 Jun 2027 09:04:31.618            18.304          6676.219
       504   13 Jun 2027 09:06:19.629   13 Jun 2027 09:06:26.061             6.432          3185.531
       505   13 Jun 2027 09:07:48.085   13 Jun 2027 09:07:54.072             5.987          2461.031
       506   13 Jun 2027 09:08:28.451   13 Jun 2027 09:08:28.806             0.355           177.500
       507   13 Jun 2027 09:09:34.930   13 Jun 2027 09:09:40.566             5.636          2105.156
       508   13 Jun 2027 09:10:21.202   13 Jun 2027 09:10:25.716             4.514          1204.125
       509   13 Jun 2027 09:11:00.963   13 Jun 2027 09:11:01.924             0.961           310.969
       510   13 Jun 2027 09:11:19.288   13 Jun 2027 09:11:21.763             2.475           542.625
       511   13 Jun 2027 10:40:57.792   13 Jun 2027 10:41:11.792            14.000          6650.562
       512   13 Jun 2027 10:41:28.649   13 Jun 2027 10:41:29.950             1.301           324.625
       513   13 Jun 2027 10:41:31.582   13 Jun 2027 10:41:39.478             7.896            51.000
       514   13 Jun 2027 10:42:19.303   13 Jun 2027 10:42:32.820            13.517            96.844
       515   13 Jun 2027 10:43:44.327   13 Jun 2027 10:43:49.911             5.584          1389.938
       516   13 Jun 2027 10:44:09.435   13 Jun 2027 10:44:12.398             2.963           601.687
       517   13 Jun 2027 10:44:17.950   13 Jun 2027 10:44:18.349             0.399            80.375
       518   13 Jun 2027 10:44:42.871   13 Jun 2027 10:44:48.654             5.783           766.313
       519   13 Jun 2027 10:45:12.464   13 Jun 2027 10:45:13.674             1.210           605.000
       520   13 Jun 2027 10:45:21.598   13 Jun 2027 10:45:23.929             2.331           386.687
       521   13 Jun 2027 10:45:50.617   13 Jun 2027 10:45:52.113             1.496           748.000
       522   13 Jun 2027 10:46:21.116   13 Jun 2027 10:46:24.667             3.551           992.344
       523   13 Jun 2027 10:46:39.629   13 Jun 2027 10:46:42.806             3.177           363.844
       524   13 Jun 2027 10:47:10.799   13 Jun 2027 10:47:13.979             3.180           579.500
       525   13 Jun 2027 10:47:18.290   13 Jun 2027 10:47:19.299             1.009           132.344
