uniorb/output/strategy_2/Camera/Camera_KinoSat_111604.txt

KinoSat_111604
-------------------------
    Access    *     Start Time (UTCG)     *     Stop Time (UTCG)  *   Duration (s) *   Data (Mbytes)
         1   01 Jun 2027 03:23:58.839   01 Jun 2027 03:24:27.239            28.400         14200.000
         2   01 Jun 2027 03:24:33.606   01 Jun 2027 03:26:23.608           110.002         55001.000
         3   01 Jun 2027 03:26:32.143   01 Jun 2027 03:26:57.135            24.992         12496.000
         4   01 Jun 2027 03:27:05.393   01 Jun 2027 03:27:07.224             1.831           915.500
         5   01 Jun 2027 03:27:35.970   01 Jun 2027 03:28:45.893            69.923         34961.500
         6   01 Jun 2027 03:29:41.953   01 Jun 2027 03:29:44.216             2.263          1131.500
         7   01 Jun 2027 03:29:56.053   01 Jun 2027 03:30:09.461            13.408          6704.000
         8   01 Jun 2027 05:01:59.335   01 Jun 2027 05:02:32.928            33.593         16796.500
         9   01 Jun 2027 05:02:36.806   01 Jun 2027 05:02:49.374            12.568          6284.000
        10   01 Jun 2027 05:02:56.670   01 Jun 2027 05:02:59.051             2.381          1190.500
        11   01 Jun 2027 05:03:51.511   01 Jun 2027 05:04:01.753            10.242          5121.000
        12   01 Jun 2027 05:04:22.344   01 Jun 2027 05:06:13.351           111.007         55503.500
        13   01 Jun 2027 05:06:18.025   01 Jun 2027 05:06:51.453            33.428         16714.000
        14   01 Jun 2027 06:25:39.854   01 Jun 2027 06:26:11.475            31.621         15810.500
        15   01 Jun 2027 08:02:06.389   01 Jun 2027 08:04:48.673           162.284         81142.000
        16   01 Jun 2027 08:05:14.135   01 Jun 2027 08:05:34.339            20.204         10102.000
        17   01 Jun 2027 09:34:16.081   01 Jun 2027 09:34:25.357             9.276          4638.000
        18   01 Jun 2027 09:36:11.116   01 Jun 2027 09:36:46.386            35.270         17635.000
        19   01 Jun 2027 09:37:50.736   01 Jun 2027 09:38:00.161             9.425          4712.500
        20   01 Jun 2027 09:39:20.672   01 Jun 2027 09:39:35.020            14.348          7174.000
        21   01 Jun 2027 09:42:32.443   01 Jun 2027 09:43:01.876            29.433         14716.500
        22   01 Jun 2027 09:43:03.976   01 Jun 2027 09:43:35.876            31.900         15950.000
        23   01 Jun 2027 09:44:02.923   01 Jun 2027 09:44:05.634             2.711          1355.500
        24   01 Jun 2027 11:13:10.060   01 Jun 2027 11:14:55.497           105.437         52718.500
        25   01 Jun 2027 11:15:57.395   01 Jun 2027 11:16:09.633            12.238          6119.000
        26   01 Jun 2027 11:17:12.389   01 Jun 2027 11:17:17.112             4.723          2361.500
        27   01 Jun 2027 11:19:19.824   01 Jun 2027 11:19:19.824             0.000             0.000
        28   02 Jun 2027 03:36:05.241   02 Jun 2027 03:37:08.463            63.222         31611.000
        29   02 Jun 2027 03:37:15.287   02 Jun 2027 03:38:42.152            86.865         43432.500
        30   02 Jun 2027 03:39:07.362   02 Jun 2027 03:39:37.826            30.464         15232.000
        31   02 Jun 2027 03:40:02.626   02 Jun 2027 03:40:06.097             3.471          1735.500
        32   02 Jun 2027 03:40:47.927   02 Jun 2027 03:40:52.777             4.850          2425.000
        33   02 Jun 2027 03:41:28.189   02 Jun 2027 03:42:21.857            53.668         26834.000
        34   02 Jun 2027 05:15:12.950   02 Jun 2027 05:16:57.507           104.557         52278.500
        35   02 Jun 2027 05:17:19.055   02 Jun 2027 05:18:40.770            81.715         40857.500
        36   02 Jun 2027 06:37:45.328   02 Jun 2027 06:38:25.471            40.143         20071.500
        37   02 Jun 2027 06:39:13.002   02 Jun 2027 06:39:13.002             0.000             0.000
        38   02 Jun 2027 06:39:35.269   02 Jun 2027 06:39:46.857            11.588          5794.000
        39   02 Jun 2027 08:14:14.334   02 Jun 2027 08:16:07.087           112.753         56376.500
        40   02 Jun 2027 09:49:21.923   02 Jun 2027 09:49:37.690            15.767          7230.688
        41   02 Jun 2027 09:50:11.781   02 Jun 2027 09:50:15.578             3.797          1065.344
        42   02 Jun 2027 09:54:33.374   02 Jun 2027 09:55:03.639            30.265          7595.344
        43   02 Jun 2027 09:55:19.842   02 Jun 2027 09:55:20.999             1.157           260.187
        44   02 Jun 2027 09:55:46.894   02 Jun 2027 09:55:49.554             2.660           809.219
        45   02 Jun 2027 09:55:59.502   02 Jun 2027 09:56:02.405             2.903           310.875
        46   02 Jun 2027 11:25:43.628   02 Jun 2027 11:25:57.240            13.612          6673.344
        47   02 Jun 2027 11:27:37.535   02 Jun 2027 11:27:47.145             9.610          2941.531
        48   02 Jun 2027 11:27:53.463   02 Jun 2027 11:27:56.377             2.914           100.469
        49   02 Jun 2027 11:27:59.648   02 Jun 2027 11:28:02.312             2.664            54.844
        50   02 Jun 2027 11:29:35.608   02 Jun 2027 11:29:38.378             2.770          1385.000
        51   02 Jun 2027 11:30:07.440   02 Jun 2027 11:30:11.982             4.542           962.031
        52   02 Jun 2027 11:31:04.516   02 Jun 2027 11:31:14.136             9.620          1641.688
        53   02 Jun 2027 11:31:18.015   02 Jun 2027 11:31:18.845             0.830           121.219
        54   02 Jun 2027 11:31:34.399   02 Jun 2027 11:31:36.800             2.401           486.062
        55   03 Jun 2027 03:48:08.232   03 Jun 2027 03:48:49.041            40.809         20404.500
        56   03 Jun 2027 03:49:12.824   03 Jun 2027 03:52:01.006           168.182         84091.000
        57   03 Jun 2027 03:52:47.445   03 Jun 2027 03:52:52.181             4.736          2368.000
        58   03 Jun 2027 03:53:34.476   03 Jun 2027 03:53:50.595            16.119          8059.500
        59   03 Jun 2027 03:54:05.474   03 Jun 2027 03:54:06.320             0.846           423.000
        60   03 Jun 2027 05:26:20.437   03 Jun 2027 05:26:58.311            37.874         18937.000
        61   03 Jun 2027 05:27:11.960   03 Jun 2027 05:27:37.642            25.682         12841.000
        62   03 Jun 2027 05:27:42.816   03 Jun 2027 05:27:42.816             0.000             0.000
        63   03 Jun 2027 05:28:31.170   03 Jun 2027 05:28:45.697            14.527          6855.782
        64   03 Jun 2027 05:29:23.317   03 Jun 2027 05:29:23.317             0.000             0.000
        65   03 Jun 2027 05:29:43.628   03 Jun 2027 05:29:46.454             2.826          1155.062
        66   03 Jun 2027 06:49:48.735   03 Jun 2027 06:50:01.739            13.004          6040.750
        67   03 Jun 2027 06:50:31.740   03 Jun 2027 06:50:32.443             0.703           267.188
        68   03 Jun 2027 06:50:42.047   03 Jun 2027 06:50:42.047             0.000             0.000
        69   03 Jun 2027 06:51:22.109   03 Jun 2027 06:51:26.367             4.258          1533.656
        70   03 Jun 2027 06:52:23.466   03 Jun 2027 06:52:28.675             5.209          1209.063
        71   03 Jun 2027 06:52:49.765   03 Jun 2027 06:52:52.390             2.625           525.281
        72   03 Jun 2027 08:26:17.597   03 Jun 2027 08:26:26.296             8.699          3599.375
        73   03 Jun 2027 08:27:45.752   03 Jun 2027 08:27:52.183             6.431          2483.000
        74   03 Jun 2027 08:28:44.850   03 Jun 2027 08:28:51.751             6.901          1645.844
        75   03 Jun 2027 10:01:29.205   03 Jun 2027 10:01:39.335            10.130          3885.188
        76   03 Jun 2027 10:02:41.124   03 Jun 2027 10:02:45.384             4.260          1930.906
        77   03 Jun 2027 10:02:56.661   03 Jun 2027 10:02:58.315             1.654           253.281
        78   03 Jun 2027 10:03:16.857   03 Jun 2027 10:03:18.624             1.767           475.437
        79   03 Jun 2027 10:03:37.615   03 Jun 2027 10:03:40.730             3.115           527.531
        80   03 Jun 2027 10:03:43.886   03 Jun 2027 10:03:45.449             1.563            98.625
        81   03 Jun 2027 10:05:17.385   03 Jun 2027 10:05:23.219             5.834          2251.906
        82   03 Jun 2027 10:05:47.556   03 Jun 2027 10:05:49.987             2.431           107.312
        83   03 Jun 2027 10:06:02.217   03 Jun 2027 10:06:04.784             2.567           259.688
        84   03 Jun 2027 10:06:39.027   03 Jun 2027 10:06:43.386             4.359           906.594
        85   03 Jun 2027 10:07:46.138   03 Jun 2027 10:07:49.921             3.783          1584.688
        86   03 Jun 2027 10:08:04.841   03 Jun 2027 10:08:05.393             0.552           276.000
        87   03 Jun 2027 11:37:24.810   03 Jun 2027 11:37:39.398            14.588          6551.281
        88   03 Jun 2027 11:38:17.765   03 Jun 2027 11:38:19.571             1.806           818.438
        89   03 Jun 2027 11:38:24.979   03 Jun 2027 11:38:28.497             3.518            63.187
        90   03 Jun 2027 11:39:29.755   03 Jun 2027 11:39:33.536             3.781          1427.375
        91   03 Jun 2027 11:39:42.982   03 Jun 2027 11:39:43.585             0.603           264.344
        92   03 Jun 2027 11:40:20.553   03 Jun 2027 11:40:26.098             5.545           848.781
        93   03 Jun 2027 11:40:29.908   03 Jun 2027 11:40:33.097             3.189            81.500
        94   03 Jun 2027 11:41:31.243   03 Jun 2027 11:41:36.597             5.354          1323.094
        95   03 Jun 2027 11:42:03.402   03 Jun 2027 11:42:08.111             4.709           837.656
        96   03 Jun 2027 11:42:18.043   03 Jun 2027 11:42:21.151             3.108           273.625
        97   03 Jun 2027 11:42:48.905   03 Jun 2027 11:42:51.193             2.288           306.000
        98   04 Jun 2027 04:01:12.955   04 Jun 2027 04:03:26.785           133.830         66915.000
        99   04 Jun 2027 04:03:43.226   04 Jun 2027 04:05:32.758           109.532         54766.000
       100   04 Jun 2027 05:27:26.416   04 Jun 2027 05:27:47.514            21.098         10549.000
       101   04 Jun 2027 05:38:17.711   04 Jun 2027 05:39:15.815            58.104         29052.000
       102   04 Jun 2027 05:39:39.637   04 Jun 2027 05:39:39.637             0.000             0.000
       103   04 Jun 2027 05:40:24.116   04 Jun 2027 05:40:29.244             5.128          2236.688
       104   04 Jun 2027 05:41:14.073   04 Jun 2027 05:41:17.074             3.001          1271.500
       105   04 Jun 2027 05:41:45.532   04 Jun 2027 05:41:46.785             1.253           129.750
       106   04 Jun 2027 07:02:15.608   04 Jun 2027 07:02:28.341            12.733          5376.625
       107   04 Jun 2027 07:02:34.961   04 Jun 2027 07:02:34.961             0.000             0.000
       108   04 Jun 2027 07:04:24.456   04 Jun 2027 07:04:37.099            12.643          3543.375
       109   04 Jun 2027 08:38:01.737   04 Jun 2027 08:38:09.378             7.641          3722.187
       110   04 Jun 2027 08:40:14.813   04 Jun 2027 08:40:23.682             8.869          3664.625
       111   04 Jun 2027 08:40:33.772   04 Jun 2027 08:40:36.198             2.426           152.125
       112   04 Jun 2027 08:40:51.516   04 Jun 2027 08:40:51.516             0.000             0.000
       113   04 Jun 2027 08:41:18.740   04 Jun 2027 08:41:24.611             5.871          1248.531
       114   04 Jun 2027 10:12:44.502   04 Jun 2027 10:12:54.840            10.338          4703.656
       115   04 Jun 2027 10:13:43.605   04 Jun 2027 10:13:47.228             3.623          1032.094
       116   04 Jun 2027 10:14:54.713   04 Jun 2027 10:15:01.867             7.154           858.375
       117   04 Jun 2027 10:18:32.994   04 Jun 2027 10:18:44.640            11.646          5669.562
       118   04 Jun 2027 10:19:41.163   04 Jun 2027 10:19:45.292             4.129          1764.563
       119   04 Jun 2027 11:49:31.043   04 Jun 2027 11:49:48.053            17.010          8497.344
       120   04 Jun 2027 11:50:20.550   04 Jun 2027 11:50:22.697             2.147          1015.531
       121   04 Jun 2027 11:51:07.034   04 Jun 2027 11:51:20.339            13.305           912.500
       122   04 Jun 2027 11:53:36.278   04 Jun 2027 11:53:46.130             9.852          4239.594
       123   04 Jun 2027 11:54:03.558   04 Jun 2027 11:54:04.093             0.535           267.500
       124   04 Jun 2027 11:54:40.096   04 Jun 2027 11:54:50.979            10.883          1361.531
       125   05 Jun 2027 04:13:34.032   05 Jun 2027 04:15:25.740           111.708         55854.000
       126   05 Jun 2027 04:15:32.134   05 Jun 2027 04:16:00.914            28.780         14390.000
       127   05 Jun 2027 04:16:30.273   05 Jun 2027 04:17:00.255            29.982         14991.000
       128   05 Jun 2027 04:17:35.129   05 Jun 2027 04:17:41.361             6.232          3116.000
       129   05 Jun 2027 04:18:19.416   05 Jun 2027 04:18:32.796            13.380          6690.000
       130   05 Jun 2027 04:19:28.443   05 Jun 2027 04:19:29.970             1.527           763.500
       131   05 Jun 2027 04:19:49.708   05 Jun 2027 04:19:59.140             9.432          4716.000
       132   05 Jun 2027 04:20:24.308   05 Jun 2027 04:20:54.571            30.263         15131.500
       133   05 Jun 2027 05:38:41.479   05 Jun 2027 05:39:31.763            50.284         25142.000
       134   05 Jun 2027 05:50:18.401   05 Jun 2027 05:51:08.094            49.693         24652.188
       135   05 Jun 2027 07:12:52.754   05 Jun 2027 07:13:12.292            19.538          6260.531
       136   05 Jun 2027 07:13:38.390   05 Jun 2027 07:13:47.680             9.290           794.125
       137   05 Jun 2027 07:14:31.443   05 Jun 2027 07:14:32.516             1.073           286.687
       138   05 Jun 2027 07:14:46.640   05 Jun 2027 07:14:53.768             7.128           261.031
       139   05 Jun 2027 07:16:10.999   05 Jun 2027 07:16:17.303             6.304          2198.250
       140   05 Jun 2027 07:16:48.117   05 Jun 2027 07:16:52.432             4.315           754.313
       141   05 Jun 2027 08:47:56.884   05 Jun 2027 08:48:04.888             8.004          4002.000
       142   05 Jun 2027 08:48:18.596   05 Jun 2027 08:48:20.957             2.361           693.375
       143   05 Jun 2027 08:49:45.268   05 Jun 2027 08:49:52.094             6.826          2191.344
       144   05 Jun 2027 08:51:06.540   05 Jun 2027 08:51:10.784             4.244          1919.156
       145   05 Jun 2027 08:52:47.184   05 Jun 2027 08:52:47.509             0.325           162.500
       146   05 Jun 2027 10:24:51.135   05 Jun 2027 10:24:58.517             7.382          3691.000
       147   05 Jun 2027 10:26:42.597   05 Jun 2027 10:26:42.597             0.000             0.000
       148   05 Jun 2027 10:28:06.296   05 Jun 2027 10:28:28.304            22.008          8780.875
       149   05 Jun 2027 10:29:21.000   05 Jun 2027 10:29:25.382             4.382          1546.781
       150   05 Jun 2027 10:30:31.732   05 Jun 2027 10:30:31.732             0.000             0.000
       151   05 Jun 2027 10:31:25.985   05 Jun 2027 10:31:34.027             8.042          3768.844
       152   05 Jun 2027 10:31:58.572   05 Jun 2027 10:32:04.469             5.897           767.031
       153   06 Jun 2027 04:25:50.293   06 Jun 2027 04:28:20.482           150.189         75094.500
       154   06 Jun 2027 04:29:04.170   06 Jun 2027 04:29:33.199            29.029         14514.500
       155   06 Jun 2027 04:29:50.413   06 Jun 2027 04:30:30.639            40.226         20113.000
       156   06 Jun 2027 04:31:46.301   06 Jun 2027 04:31:46.301             0.000             0.000
       157   06 Jun 2027 04:32:38.268   06 Jun 2027 04:32:51.774            13.506          6753.000
       158   06 Jun 2027 05:50:02.342   06 Jun 2027 05:50:44.555            42.213         21106.500
       159   06 Jun 2027 05:51:18.696   06 Jun 2027 05:51:49.623            30.927         15463.500
       160   06 Jun 2027 06:02:15.905   06 Jun 2027 06:02:52.662            36.757         18047.469
       161   06 Jun 2027 07:24:28.025   06 Jun 2027 07:24:42.443            14.418          7173.250
       162   06 Jun 2027 07:27:00.020   06 Jun 2027 07:27:11.768            11.748          2549.250
       163   06 Jun 2027 07:29:11.345   06 Jun 2027 07:29:21.996            10.651          3696.719
       164   06 Jun 2027 07:29:35.566   06 Jun 2027 07:29:37.336             1.770           329.750
       165   06 Jun 2027 08:59:21.571   06 Jun 2027 08:59:31.988            10.417          4475.031
       166   06 Jun 2027 09:00:32.367   06 Jun 2027 09:00:37.894             5.527          1134.094
       167   06 Jun 2027 09:00:42.585   06 Jun 2027 09:00:44.655             2.070           104.188
       168   06 Jun 2027 09:01:45.981   06 Jun 2027 09:01:46.645             0.664           332.000
       169   06 Jun 2027 09:03:07.366   06 Jun 2027 09:03:07.366             0.000             0.000
       170   06 Jun 2027 09:03:31.304   06 Jun 2027 09:03:40.805             9.501          4323.156
       171   06 Jun 2027 09:04:08.216   06 Jun 2027 09:04:09.657             1.441            81.812
       172   06 Jun 2027 09:04:39.391   06 Jun 2027 09:04:41.187             1.796           782.719
       173   06 Jun 2027 09:05:21.150   06 Jun 2027 09:05:21.150             0.000             0.000
       174   06 Jun 2027 09:06:38.488   06 Jun 2027 09:06:46.019             7.531          3582.313
       175   06 Jun 2027 09:07:48.896   06 Jun 2027 09:07:55.073             6.177          1818.187
       176   06 Jun 2027 10:36:57.390   06 Jun 2027 10:37:14.308            16.918          4700.875
       177   06 Jun 2027 10:37:44.921   06 Jun 2027 10:37:46.902             1.981           883.969
       178   06 Jun 2027 10:37:54.917   06 Jun 2027 10:37:55.026             0.109             3.406
       179   06 Jun 2027 10:38:48.086   06 Jun 2027 10:38:49.181             1.095           539.750
       180   06 Jun 2027 10:39:50.043   06 Jun 2027 10:39:54.448             4.405          1548.469
       181   06 Jun 2027 10:40:27.396   06 Jun 2027 10:40:31.069             3.673           950.750
       182   06 Jun 2027 10:43:06.445   06 Jun 2027 10:43:20.031            13.586          4665.000
       183   06 Jun 2027 10:44:09.932   06 Jun 2027 10:44:13.112             3.180          1401.187
       184   07 Jun 2027 03:00:00.000   07 Jun 2027 03:00:26.280            26.280         13140.000
       185   07 Jun 2027 03:01:09.563   07 Jun 2027 03:01:47.209            37.646         18823.000
       186   07 Jun 2027 03:01:50.492   07 Jun 2027 03:01:53.403             2.911          1455.500
       187   07 Jun 2027 03:02:03.944   07 Jun 2027 03:02:15.789            11.845          5922.500
       188   07 Jun 2027 03:03:57.431   07 Jun 2027 03:04:09.830            12.399          6199.500
       189   07 Jun 2027 03:04:26.681   07 Jun 2027 03:04:34.147             7.466          3733.000
       190   07 Jun 2027 04:37:56.894   07 Jun 2027 04:40:37.170           160.276         80138.000
       191   07 Jun 2027 04:41:03.279   07 Jun 2027 04:41:19.167            15.888          7944.000
       192   07 Jun 2027 04:41:52.462   07 Jun 2027 04:42:21.631            29.169         14584.500
       193   07 Jun 2027 06:02:07.892   07 Jun 2027 06:02:40.311            32.419         16209.500
       194   07 Jun 2027 06:02:57.150   07 Jun 2027 06:03:01.933             4.783          2391.500
       195   07 Jun 2027 06:03:12.743   07 Jun 2027 06:03:19.582             6.839          3419.500
       196   07 Jun 2027 06:14:40.337   07 Jun 2027 06:14:42.954             2.617          1308.500
       197   07 Jun 2027 07:35:58.047   07 Jun 2027 07:36:12.734            14.687          5720.969
       198   07 Jun 2027 07:37:25.804   07 Jun 2027 07:37:29.754             3.950          1723.000
       199   07 Jun 2027 07:38:00.973   07 Jun 2027 07:38:06.904             5.931           352.187
       200   07 Jun 2027 07:38:45.096   07 Jun 2027 07:38:50.195             5.099           988.719
       201   07 Jun 2027 07:40:20.868   07 Jun 2027 07:40:30.060             9.192          2833.531
       202   07 Jun 2027 07:40:53.662   07 Jun 2027 07:40:55.071             1.409           510.750
       203   07 Jun 2027 09:10:52.446   07 Jun 2027 09:11:03.123            10.677          4214.500
       204   07 Jun 2027 09:11:44.189   07 Jun 2027 09:11:46.410             2.221           187.031
       205   07 Jun 2027 09:13:18.299   07 Jun 2027 09:13:21.010             2.711           482.562
       206   07 Jun 2027 09:16:37.476   07 Jun 2027 09:16:47.610            10.134          5067.000
       207   07 Jun 2027 09:17:54.118   07 Jun 2027 09:18:02.503             8.385          2837.937
       208   07 Jun 2027 09:18:21.813   07 Jun 2027 09:18:25.184             3.371           603.438
       209   07 Jun 2027 09:19:30.106   07 Jun 2027 09:19:33.927             3.821          1319.813
       210   07 Jun 2027 09:20:00.507   07 Jun 2027 09:20:08.016             7.509           508.937
       211   07 Jun 2027 10:48:54.138   07 Jun 2027 10:49:14.738            20.600          7113.406
       212   07 Jun 2027 10:51:49.653   07 Jun 2027 10:51:49.653             0.000             0.000
       213   07 Jun 2027 10:53:02.686   07 Jun 2027 10:53:16.123            13.437          6718.500
       214   07 Jun 2027 10:53:42.768   07 Jun 2027 10:53:46.030             3.262          1126.531
       215   07 Jun 2027 10:53:51.863   07 Jun 2027 10:53:52.935             1.072           159.188
       216   07 Jun 2027 10:54:08.210   07 Jun 2027 10:54:09.424             1.214           477.344
       217   07 Jun 2027 10:54:14.113   07 Jun 2027 10:54:18.637             4.524           146.531
       218   07 Jun 2027 10:54:36.587   07 Jun 2027 10:54:37.246             0.659           322.594
       219   07 Jun 2027 10:55:34.553   07 Jun 2027 10:55:41.476             6.923          1762.188
       220   08 Jun 2027 03:11:48.329   08 Jun 2027 03:11:56.711             8.382          4191.000
       221   08 Jun 2027 03:12:20.068   08 Jun 2027 03:13:11.367            51.299         25649.500
       222   08 Jun 2027 03:13:16.246   08 Jun 2027 03:15:14.557           118.311         59155.500
       223   08 Jun 2027 03:15:19.287   08 Jun 2027 03:15:20.874             1.587           793.500
       224   08 Jun 2027 04:50:34.651   08 Jun 2027 04:51:25.191            50.540         25270.000
       225   08 Jun 2027 04:51:55.109   08 Jun 2027 04:52:12.984            17.875          8937.500
       226   08 Jun 2027 04:52:21.173   08 Jun 2027 04:52:51.841            30.668         15334.000
       227   08 Jun 2027 04:53:23.351   08 Jun 2027 04:53:42.651            19.300          9471.843
       228   08 Jun 2027 04:53:54.539   08 Jun 2027 04:53:57.552             3.013           371.500
       229   08 Jun 2027 04:55:10.521   08 Jun 2027 04:55:15.265             4.744          1836.094
       230   08 Jun 2027 06:14:05.023   08 Jun 2027 06:14:24.652            19.629          7646.750
       231   08 Jun 2027 06:14:41.583   08 Jun 2027 06:14:42.825             1.242           497.562
       232   08 Jun 2027 06:15:40.957   08 Jun 2027 06:15:42.811             1.854           927.000
       233   08 Jun 2027 07:50:16.628   08 Jun 2027 07:50:26.121             9.493          4688.469
       234   08 Jun 2027 07:50:51.469   08 Jun 2027 07:50:55.940             4.471            92.656
       235   08 Jun 2027 07:51:16.906   08 Jun 2027 07:51:16.906             0.000             0.000
       236   08 Jun 2027 07:53:12.530   08 Jun 2027 07:53:23.035            10.505          4268.438
       237   08 Jun 2027 09:23:50.031   08 Jun 2027 09:23:59.272             9.241          3472.656
       238   08 Jun 2027 09:25:42.038   08 Jun 2027 09:25:47.906             5.868          1201.313
       239   08 Jun 2027 09:26:53.960   08 Jun 2027 09:26:53.960             0.000             0.000
       240   08 Jun 2027 09:27:32.327   08 Jun 2027 09:27:36.755             4.428          2214.000
       241   08 Jun 2027 09:27:54.560   08 Jun 2027 09:27:58.290             3.730           802.344
       242   08 Jun 2027 09:28:07.699   08 Jun 2027 09:28:08.809             1.110            83.937
       243   08 Jun 2027 09:28:21.513   08 Jun 2027 09:28:24.231             2.718            61.687
       244   08 Jun 2027 09:30:55.274   08 Jun 2027 09:31:09.106            13.832          4720.094
       245   08 Jun 2027 09:31:40.791   08 Jun 2027 09:31:40.860             0.069            34.500
       246   08 Jun 2027 09:32:23.546   08 Jun 2027 09:32:24.515             0.969           484.500
       247   08 Jun 2027 11:01:16.456   08 Jun 2027 11:01:33.716            17.260          7554.594
       248   08 Jun 2027 11:01:42.993   08 Jun 2027 11:01:45.936             2.943           289.906
       249   08 Jun 2027 11:01:58.787   08 Jun 2027 11:02:00.400             1.613           353.562
       250   08 Jun 2027 11:02:30.492   08 Jun 2027 11:02:33.621             3.129           940.375
       251   08 Jun 2027 11:03:20.011   08 Jun 2027 11:03:23.794             3.783          1449.687
       252   08 Jun 2027 11:05:38.145   08 Jun 2027 11:05:45.149             7.004          3502.000
       253   08 Jun 2027 11:05:50.272   08 Jun 2027 11:05:50.272             0.000             0.000
       254   08 Jun 2027 11:05:55.783   08 Jun 2027 11:06:01.659             5.876           756.719
       255   08 Jun 2027 11:06:17.302   08 Jun 2027 11:06:18.288             0.986           144.281
       256   08 Jun 2027 11:06:26.042   08 Jun 2027 11:06:27.801             1.759           242.313
       257   08 Jun 2027 11:07:35.220   08 Jun 2027 11:07:39.275             4.055          2027.500
       258   08 Jun 2027 11:07:51.067   08 Jun 2027 11:07:51.067             0.000             0.000
       259   09 Jun 2027 03:24:15.251   09 Jun 2027 03:24:24.216             8.965          4482.500
       260   09 Jun 2027 03:24:47.386   09 Jun 2027 03:26:22.495            95.109         47554.500
       261   09 Jun 2027 03:26:42.931   09 Jun 2027 03:27:52.359            69.428         34714.000
       262   09 Jun 2027 03:28:22.914   09 Jun 2027 03:29:01.883            38.969         19484.500
       263   09 Jun 2027 03:29:21.816   09 Jun 2027 03:29:21.816             0.000             0.000
       264   09 Jun 2027 03:29:34.637   09 Jun 2027 03:29:42.066             7.429          3714.500
       265   09 Jun 2027 03:29:58.937   09 Jun 2027 03:29:59.115             0.178            89.000
       266   09 Jun 2027 03:30:07.017   09 Jun 2027 03:30:23.136            16.119          8059.500
       267   09 Jun 2027 05:02:15.970   09 Jun 2027 05:03:02.414            46.444         23222.000
       268   09 Jun 2027 05:03:04.139   09 Jun 2027 05:03:11.662             7.523          3761.500
       269   09 Jun 2027 05:03:57.777   09 Jun 2027 05:04:16.531            18.754          9377.000
       270   09 Jun 2027 05:05:17.300   09 Jun 2027 05:05:38.211            20.911          9780.000
       271   09 Jun 2027 05:06:29.647   09 Jun 2027 05:06:32.446             2.799          1207.562
       272   09 Jun 2027 06:25:55.808   09 Jun 2027 06:26:11.774            15.966          7701.156
       273   09 Jun 2027 06:27:15.348   09 Jun 2027 06:27:15.348             0.000             0.000
       274   09 Jun 2027 06:27:22.143   09 Jun 2027 06:27:22.944             0.801           400.500
       275   09 Jun 2027 06:28:19.611   09 Jun 2027 06:28:28.611             9.000          3112.531
       276   09 Jun 2027 08:02:23.525   09 Jun 2027 08:02:37.603            14.078          6863.219
       277   09 Jun 2027 08:04:13.578   09 Jun 2027 08:04:17.810             4.232          2116.000
       278   09 Jun 2027 08:04:23.298   09 Jun 2027 08:04:25.338             2.040           844.094
       279   09 Jun 2027 08:05:17.713   09 Jun 2027 08:05:22.756             5.043           729.906
       280   09 Jun 2027 09:34:33.367   09 Jun 2027 09:34:41.553             8.186          4093.000
       281   09 Jun 2027 09:36:29.043   09 Jun 2027 09:36:34.019             4.976          2419.000
       282   09 Jun 2027 09:38:09.553   09 Jun 2027 09:38:09.553             0.000             0.000
       283   09 Jun 2027 09:38:56.027   09 Jun 2027 09:39:03.845             7.818          3506.625
       284   09 Jun 2027 09:40:45.389   09 Jun 2027 09:40:45.389             0.000             0.000
       285   09 Jun 2027 09:41:30.531   09 Jun 2027 09:41:30.531             0.000             0.000
       286   09 Jun 2027 09:42:50.463   09 Jun 2027 09:43:08.859            18.396          6435.563
       287   09 Jun 2027 09:43:25.458   09 Jun 2027 09:43:27.897             2.439           518.719
       288   09 Jun 2027 09:43:51.058   09 Jun 2027 09:43:51.985             0.927           463.500
       289   09 Jun 2027 09:44:18.129   09 Jun 2027 09:44:21.224             3.095           977.469
       290   09 Jun 2027 11:13:26.867   09 Jun 2027 11:13:40.123            13.256          6428.906
       291   09 Jun 2027 11:13:55.633   09 Jun 2027 11:13:58.031             2.398           484.687
       292   09 Jun 2027 11:14:33.647   09 Jun 2027 11:14:36.174             2.527           628.281
       293   09 Jun 2027 11:14:46.124   09 Jun 2027 11:14:48.303             2.179           310.938
       294   09 Jun 2027 11:16:03.427   09 Jun 2027 11:16:10.249             6.822          1756.500
       295   09 Jun 2027 11:16:24.156   09 Jun 2027 11:16:28.815             4.659           400.875
       296   09 Jun 2027 11:17:48.329   09 Jun 2027 11:17:53.716             5.387          2484.812
       297   09 Jun 2027 11:18:22.969   09 Jun 2027 11:18:24.186             1.217           608.500
       298   09 Jun 2027 11:19:28.903   09 Jun 2027 11:19:35.677             6.774          2328.062
       299   09 Jun 2027 11:20:01.615   09 Jun 2027 11:20:04.139             2.524           810.562
       300   10 Jun 2027 03:36:21.258   10 Jun 2027 03:37:24.583            63.325         31662.500
       301   10 Jun 2027 03:37:32.058   10 Jun 2027 03:39:54.216           142.158         71079.000
       302   10 Jun 2027 03:41:08.701   10 Jun 2027 03:41:08.701             0.000             0.000
       303   10 Jun 2027 03:41:28.634   10 Jun 2027 03:41:43.674            15.040          7520.000
       304   10 Jun 2027 05:15:29.565   10 Jun 2027 05:16:52.618            83.053         41526.500
       305   10 Jun 2027 05:17:58.656   10 Jun 2027 05:18:02.998             4.342          2148.719
       306   10 Jun 2027 05:18:22.836   10 Jun 2027 05:18:23.393             0.557           197.250
       307   10 Jun 2027 06:38:03.284   10 Jun 2027 06:38:15.155            11.871          5564.281
       308   10 Jun 2027 06:40:04.284   10 Jun 2027 06:40:11.545             7.261          3410.281
       309   10 Jun 2027 06:40:46.562   10 Jun 2027 06:40:46.562             0.000             0.000
       310   10 Jun 2027 06:40:58.128   10 Jun 2027 06:41:04.792             6.664          1298.812
       311   10 Jun 2027 08:14:31.408   10 Jun 2027 08:14:39.751             8.343          3866.906
       312   10 Jun 2027 08:16:25.972   10 Jun 2027 08:16:33.481             7.509          3037.313
       313   10 Jun 2027 08:17:02.036   10 Jun 2027 08:17:11.890             9.854            50.187
       314   10 Jun 2027 08:18:10.082   10 Jun 2027 08:18:10.082             0.000             0.000
       315   10 Jun 2027 09:49:41.762   10 Jun 2027 09:49:53.932            12.170          5078.812
       316   10 Jun 2027 09:50:49.513   10 Jun 2027 09:50:54.890             5.377          1321.250
       317   10 Jun 2027 09:50:57.773   10 Jun 2027 09:50:57.773             0.000             0.000
       318   10 Jun 2027 09:52:42.953   10 Jun 2027 09:52:51.506             8.553          3376.969
       319   10 Jun 2027 09:54:42.736   10 Jun 2027 09:54:51.089             8.353          2853.000
       320   10 Jun 2027 09:55:44.410   10 Jun 2027 09:55:48.519             4.109          1666.281
       321   10 Jun 2027 09:56:16.854   10 Jun 2027 09:56:20.431             3.577           373.781
       322   10 Jun 2027 11:26:01.283   10 Jun 2027 11:26:14.279            12.996          5765.063
       323   10 Jun 2027 11:27:34.599   10 Jun 2027 11:27:37.875             3.276          1638.000
       324   10 Jun 2027 11:27:45.055   10 Jun 2027 11:27:48.138             3.083           594.156
       325   10 Jun 2027 11:29:30.570   10 Jun 2027 11:29:37.928             7.358          3150.438
       326   10 Jun 2027 11:31:07.962   10 Jun 2027 11:31:14.869             6.907          2498.094
       327   10 Jun 2027 11:31:31.510   10 Jun 2027 11:31:32.693             1.183           493.281
       328   10 Jun 2027 11:32:14.018   10 Jun 2027 11:32:18.079             4.061          1291.406
       329   11 Jun 2027 03:48:25.495   11 Jun 2027 03:49:06.963            41.468         20734.000
       330   11 Jun 2027 03:49:29.331   11 Jun 2027 03:51:05.357            96.026         48013.000
       331   11 Jun 2027 03:51:20.591   11 Jun 2027 03:51:40.295            19.704          9852.000
       332   11 Jun 2027 03:51:56.142   11 Jun 2027 03:53:00.210            64.068         32034.000
       333   11 Jun 2027 03:53:45.167   11 Jun 2027 03:54:01.816            16.649          8324.500
       334   11 Jun 2027 05:26:38.608   11 Jun 2027 05:27:15.034            36.426         18213.000
       335   11 Jun 2027 05:27:33.321   11 Jun 2027 05:27:55.142            21.821         10910.500
       336   11 Jun 2027 05:28:09.062   11 Jun 2027 05:28:19.440            10.378          4544.219
       337   11 Jun 2027 05:28:31.142   11 Jun 2027 05:28:40.432             9.290           245.750
       338   11 Jun 2027 05:29:26.886   11 Jun 2027 05:29:30.499             3.613          1338.406
       339   11 Jun 2027 05:30:00.640   11 Jun 2027 05:30:04.753             4.113           705.312
       340   11 Jun 2027 06:50:05.294   11 Jun 2027 06:50:26.281            20.987          8150.625
       341   11 Jun 2027 06:50:49.065   11 Jun 2027 06:50:49.986             0.921           336.281
       342   11 Jun 2027 06:51:22.717   11 Jun 2027 06:51:25.458             2.741          1022.844
       343   11 Jun 2027 06:52:38.960   11 Jun 2027 06:52:45.270             6.310          2296.937
       344   11 Jun 2027 06:53:07.216   11 Jun 2027 06:53:09.668             2.452           536.594
       345   11 Jun 2027 08:26:33.575   11 Jun 2027 08:26:42.377             8.802          2897.375
       346   11 Jun 2027 08:27:22.049   11 Jun 2027 08:27:26.298             4.249          1239.750
       347   11 Jun 2027 08:28:00.639   11 Jun 2027 08:28:04.529             3.890           222.031
       348   11 Jun 2027 08:28:08.704   11 Jun 2027 08:28:09.390             0.686           115.969
       349   11 Jun 2027 08:29:02.129   11 Jun 2027 08:29:07.401             5.272          1648.094
       350   11 Jun 2027 10:01:46.009   11 Jun 2027 10:01:55.014             9.005          3999.469
       351   11 Jun 2027 10:02:59.140   11 Jun 2027 10:02:59.140             0.000             0.000
       352   11 Jun 2027 10:03:20.914   11 Jun 2027 10:03:29.613             8.699          2684.375
       353   11 Jun 2027 10:03:52.160   11 Jun 2027 10:03:53.234             1.074           497.781
       354   11 Jun 2027 10:06:51.166   11 Jun 2027 10:07:09.700            18.534          5321.156
       355   11 Jun 2027 10:07:41.904   11 Jun 2027 10:07:43.548             1.644           316.813
       356   11 Jun 2027 10:07:49.630   11 Jun 2027 10:07:52.650             3.020           121.750
       357   11 Jun 2027 10:08:07.898   11 Jun 2027 10:08:11.842             3.944           476.500
       358   11 Jun 2027 11:37:40.894   11 Jun 2027 11:37:52.814            11.920          5638.156
       359   11 Jun 2027 11:38:05.190   11 Jun 2027 11:38:06.013             0.823           386.750
       360   11 Jun 2027 11:38:33.817   11 Jun 2027 11:38:36.920             3.103           758.188
       361   11 Jun 2027 11:39:19.887   11 Jun 2027 11:39:28.151             8.264          1241.812
       362   11 Jun 2027 11:39:31.823   11 Jun 2027 11:39:34.407             2.584            28.750
       363   11 Jun 2027 11:39:51.520   11 Jun 2027 11:39:52.791             1.271           472.375
       364   11 Jun 2027 11:40:19.624   11 Jun 2027 11:40:27.079             7.455           697.563
       365   11 Jun 2027 11:41:46.870   11 Jun 2027 11:41:52.074             5.204          2186.531
       366   11 Jun 2027 11:41:54.129   11 Jun 2027 11:41:54.142             0.013             6.500
       367   11 Jun 2027 11:42:07.469   11 Jun 2027 11:42:07.469             0.000             0.000
       368   11 Jun 2027 11:42:25.779   11 Jun 2027 11:42:29.724             3.945          1046.375
       369   11 Jun 2027 11:42:59.192   11 Jun 2027 11:43:00.220             1.028           514.000
       370   11 Jun 2027 11:43:30.286   11 Jun 2027 11:43:34.038             3.752          1346.438
       371   11 Jun 2027 11:43:48.294   11 Jun 2027 11:43:50.573             2.279           361.406
       372   12 Jun 2027 04:01:30.104   12 Jun 2027 04:05:10.998           220.894        110447.000
       373   12 Jun 2027 04:05:45.386   12 Jun 2027 04:05:52.627             7.241          3620.500
       374   12 Jun 2027 04:06:23.624   12 Jun 2027 04:06:35.120            11.496          5748.000
       375   12 Jun 2027 04:07:42.880   12 Jun 2027 04:07:44.228             1.348           674.000
       376   12 Jun 2027 04:08:26.359   12 Jun 2027 04:09:07.051            40.692         20346.000
       377   12 Jun 2027 05:27:40.538   12 Jun 2027 05:28:05.841            25.303         12651.500
       378   12 Jun 2027 05:38:34.315   12 Jun 2027 05:39:28.532            54.217         26611.125
       379   12 Jun 2027 05:39:54.406   12 Jun 2027 05:39:54.406             0.000             0.000
       380   12 Jun 2027 05:39:55.191   12 Jun 2027 05:39:59.127             3.936           654.719
       381   12 Jun 2027 05:40:14.084   12 Jun 2027 05:40:14.965             0.881           247.000
       382   12 Jun 2027 07:02:32.087   12 Jun 2027 07:02:44.570            12.483          5606.625
       383   12 Jun 2027 07:02:53.212   12 Jun 2027 07:02:53.212             0.000             0.000
       384   12 Jun 2027 07:02:56.485   12 Jun 2027 07:03:01.162             4.677           372.344
       385   12 Jun 2027 07:04:40.138   12 Jun 2027 07:04:51.813            11.675          3092.594
       386   12 Jun 2027 07:05:04.532   12 Jun 2027 07:05:05.324             0.792           126.688
       387   12 Jun 2027 08:38:16.842   12 Jun 2027 08:38:27.434            10.592          4403.469
       388   12 Jun 2027 08:39:23.418   12 Jun 2027 08:39:23.418             0.000             0.000
       389   12 Jun 2027 08:40:24.075   12 Jun 2027 08:40:33.015             8.940          3457.312
       390   12 Jun 2027 08:40:58.114   12 Jun 2027 08:40:58.114             0.000             0.000
       391   12 Jun 2027 08:41:08.457   12 Jun 2027 08:41:13.612             5.155          1067.063
       392   12 Jun 2027 10:13:00.628   12 Jun 2027 10:13:13.856            13.228          5828.937
       393   12 Jun 2027 10:15:00.079   12 Jun 2027 10:15:10.973            10.894          2563.312
       394   12 Jun 2027 10:16:19.448   12 Jun 2027 10:16:24.525             5.077          2139.844
       395   12 Jun 2027 10:16:32.600   12 Jun 2027 10:16:33.413             0.813           252.344
       396   12 Jun 2027 10:18:50.593   12 Jun 2027 10:18:59.486             8.893          4286.875
       397   12 Jun 2027 10:19:56.394   12 Jun 2027 10:19:58.650             2.256          1128.000
       398   12 Jun 2027 10:20:16.243   12 Jun 2027 10:20:21.791             5.548          1152.282
       399   12 Jun 2027 11:49:48.829   12 Jun 2027 11:50:04.647            15.818          7473.438
       400   12 Jun 2027 11:50:37.843   12 Jun 2027 11:50:45.652             7.809          1001.031
       401   12 Jun 2027 11:51:20.772   12 Jun 2027 11:51:26.923             6.151           822.531
       402   12 Jun 2027 11:53:35.157   12 Jun 2027 11:53:44.735             9.578          3672.406
       403   12 Jun 2027 11:54:11.513   12 Jun 2027 11:54:13.787             2.274           836.813
       404   12 Jun 2027 11:54:34.364   12 Jun 2027 11:54:38.073             3.709           445.812
       405   12 Jun 2027 11:55:15.981   12 Jun 2027 11:55:21.924             5.943          1132.656
       406   12 Jun 2027 11:55:41.400   12 Jun 2027 11:55:42.897             1.497           405.625
       407   13 Jun 2027 04:13:52.035   13 Jun 2027 04:16:18.559           146.524         73262.000
       408   13 Jun 2027 04:16:43.288   13 Jun 2027 04:17:17.678            34.390         17195.000
       409   13 Jun 2027 04:17:53.154   13 Jun 2027 04:18:05.452            12.298          6149.000
       410   13 Jun 2027 04:18:53.561   13 Jun 2027 04:19:11.562            18.001          9000.500
       411   13 Jun 2027 04:20:42.177   13 Jun 2027 04:21:10.876            28.699         14349.500
       412   13 Jun 2027 05:38:55.719   13 Jun 2027 05:39:26.263            30.544         15272.000
       413   13 Jun 2027 05:50:35.445   13 Jun 2027 05:51:29.044            53.599         26799.500
       414   13 Jun 2027 05:51:48.677   13 Jun 2027 05:51:51.811             3.134          1567.000
       415   13 Jun 2027 05:51:56.177   13 Jun 2027 05:51:56.177             0.000             0.000
       416   13 Jun 2027 07:13:07.627   13 Jun 2027 07:13:28.088            20.461          6985.562
       417   13 Jun 2027 07:13:50.384   13 Jun 2027 07:13:54.306             3.922           314.531
       418   13 Jun 2027 07:15:17.187   13 Jun 2027 07:15:23.988             6.801          2399.063
       419   13 Jun 2027 07:17:05.512   13 Jun 2027 07:17:12.700             7.188          3019.125
       420   13 Jun 2027 08:48:10.709   13 Jun 2027 08:48:20.487             9.778          3974.719
       421   13 Jun 2027 08:50:01.385   13 Jun 2027 08:50:07.250             5.865          2676.062
       422   13 Jun 2027 08:52:52.156   13 Jun 2027 08:52:52.156             0.000             0.000
       423   13 Jun 2027 08:53:05.220   13 Jun 2027 08:53:17.276            12.056          5140.469
       424   13 Jun 2027 08:53:51.112   13 Jun 2027 08:53:53.791             2.679          1030.969
       425   13 Jun 2027 10:25:09.060   13 Jun 2027 10:25:13.184             4.124          2062.000
       426   13 Jun 2027 10:28:26.296   13 Jun 2027 10:28:34.874             8.578          4289.000
       427   13 Jun 2027 10:29:47.281   13 Jun 2027 10:30:00.085            12.804          5835.219
       428   13 Jun 2027 10:30:08.683   13 Jun 2027 10:30:08.955             0.272           136.000
       429   13 Jun 2027 10:30:10.362   13 Jun 2027 10:30:12.550             2.188           123.719
       430   13 Jun 2027 10:30:31.047   13 Jun 2027 10:30:34.266             3.219           355.531
       431   13 Jun 2027 10:31:09.633   13 Jun 2027 10:31:12.921             3.288          1105.219
       432   13 Jun 2027 10:31:44.605   13 Jun 2027 10:31:48.868             4.263           964.125
       433   13 Jun 2027 10:32:09.869   13 Jun 2027 10:32:11.522             1.653           656.281
