uniorb/output/strategy_2/Camera/Camera_KinoSat_110301.txt

KinoSat_110301
-------------------------
    Access    *     Start Time (UTCG)     *     Stop Time (UTCG)  *   Duration (s) *   Data (Mbytes)
         1   01 Jun 2027 03:00:00.000   01 Jun 2027 03:00:12.057            12.057          6028.500
         2   01 Jun 2027 03:01:40.056   01 Jun 2027 03:01:41.989             1.933           966.500
         3   01 Jun 2027 03:02:26.641   01 Jun 2027 03:02:31.407             4.766          2383.000
         4   01 Jun 2027 03:02:46.871   01 Jun 2027 03:02:50.277             3.406          1703.000
         5   01 Jun 2027 03:03:11.353   01 Jun 2027 03:03:12.647             1.294           647.000
         6   01 Jun 2027 03:03:28.455   01 Jun 2027 03:03:31.576             3.121          1560.500
         7   01 Jun 2027 03:03:51.308   01 Jun 2027 03:03:51.803             0.495           247.500
         8   01 Jun 2027 03:04:13.851   01 Jun 2027 03:04:17.469             3.618          1809.000
         9   01 Jun 2027 03:04:37.025   01 Jun 2027 03:04:39.513             2.488          1244.000
        10   01 Jun 2027 03:04:52.381   01 Jun 2027 03:05:02.934            10.553          5276.500
        11   01 Jun 2027 03:05:38.131   01 Jun 2027 03:05:38.131             0.000             0.000
        12   01 Jun 2027 03:05:50.583   01 Jun 2027 03:06:03.095            12.512          6256.000
        13   01 Jun 2027 04:35:02.477   01 Jun 2027 04:35:10.012             7.535          3767.500
        14   01 Jun 2027 04:35:46.740   01 Jun 2027 04:35:53.877             7.137          3568.500
        15   01 Jun 2027 04:36:35.679   01 Jun 2027 04:36:48.528            12.849          6424.500
        16   01 Jun 2027 04:38:32.043   01 Jun 2027 04:38:38.851             6.808          3404.000
        17   01 Jun 2027 04:39:15.880   01 Jun 2027 04:39:23.027             7.147          3573.500
        18   01 Jun 2027 04:40:00.016   01 Jun 2027 04:40:05.360             5.344          2672.000
        19   01 Jun 2027 04:40:32.174   01 Jun 2027 04:40:37.606             5.432          2716.000
        20   01 Jun 2027 04:40:59.321   01 Jun 2027 04:40:59.321             0.000             0.000
        21   01 Jun 2027 04:41:00.719   01 Jun 2027 04:41:03.636             2.917          1458.500
        22   01 Jun 2027 04:41:16.947   01 Jun 2027 04:41:21.434             4.487          2243.500
        23   01 Jun 2027 04:41:42.412   01 Jun 2027 04:41:43.666             1.254           627.000
        24   01 Jun 2027 06:12:06.028   01 Jun 2027 06:12:28.728            22.700         11350.000
        25   01 Jun 2027 06:13:39.604   01 Jun 2027 06:13:42.775             3.171          1585.500
        26   01 Jun 2027 06:14:22.832   01 Jun 2027 06:14:23.537             0.705           352.500
        27   01 Jun 2027 06:14:50.738   01 Jun 2027 06:14:52.758             2.020          1010.000
        28   01 Jun 2027 06:14:55.040   01 Jun 2027 06:14:55.886             0.846           423.000
        29   01 Jun 2027 06:15:17.918   01 Jun 2027 06:15:18.831             0.913           456.500
        30   01 Jun 2027 06:15:36.845   01 Jun 2027 06:15:43.588             6.743          3371.500
        31   01 Jun 2027 06:16:30.910   01 Jun 2027 06:16:32.459             1.549           774.500
        32   01 Jun 2027 06:16:42.442   01 Jun 2027 06:16:43.010             0.568           284.000
        33   01 Jun 2027 06:17:07.646   01 Jun 2027 06:17:07.730             0.084            42.000
        34   01 Jun 2027 06:17:33.614   01 Jun 2027 06:17:36.295             2.681          1340.500
        35   01 Jun 2027 07:48:51.352   01 Jun 2027 07:48:56.062             4.710          2355.000
        36   01 Jun 2027 07:49:16.142   01 Jun 2027 07:49:17.523             1.381           690.500
        37   01 Jun 2027 07:49:35.263   01 Jun 2027 07:49:48.866            13.603          6801.500
        38   01 Jun 2027 07:50:45.215   01 Jun 2027 07:50:47.157             1.942           971.000
        39   01 Jun 2027 07:51:03.723   01 Jun 2027 07:51:05.146             1.423           711.500
        40   01 Jun 2027 07:51:11.554   01 Jun 2027 07:51:12.571             1.017           508.500
        41   01 Jun 2027 07:51:22.385   01 Jun 2027 07:51:31.920             9.535          4767.500
        42   01 Jun 2027 07:52:26.856   01 Jun 2027 07:52:27.858             1.002           501.000
        43   01 Jun 2027 07:52:47.539   01 Jun 2027 07:52:54.269             6.730          3365.000
        44   01 Jun 2027 07:53:30.456   01 Jun 2027 07:53:38.991             8.535          4267.500
        45   01 Jun 2027 09:24:07.532   01 Jun 2027 09:24:14.537             7.005          3502.500
        46   01 Jun 2027 09:25:49.098   01 Jun 2027 09:25:57.547             8.449          4224.500
        47   01 Jun 2027 09:27:06.826   01 Jun 2027 09:27:09.585             2.759          1379.500
        48   01 Jun 2027 09:27:32.565   01 Jun 2027 09:28:11.046            38.481         19240.500
        49   02 Jun 2027 03:10:12.076   02 Jun 2027 03:10:19.939             7.863          3931.500
        50   02 Jun 2027 03:11:04.252   02 Jun 2027 03:11:07.239             2.987          1493.500
        51   02 Jun 2027 03:11:22.358   02 Jun 2027 03:11:40.426            18.068          9034.000
        52   02 Jun 2027 03:13:04.376   02 Jun 2027 03:13:05.228             0.852           426.000
        53   02 Jun 2027 03:13:31.562   02 Jun 2027 03:13:36.726             5.164          2582.000
        54   02 Jun 2027 03:14:35.440   02 Jun 2027 03:14:39.024             3.584          1792.000
        55   02 Jun 2027 03:15:13.663   02 Jun 2027 03:15:25.241            11.578          5789.000
        56   02 Jun 2027 03:16:21.448   02 Jun 2027 03:16:28.630             7.182          3591.000
        57   02 Jun 2027 03:17:10.133   02 Jun 2027 03:17:14.438             4.305          2152.500
        58   02 Jun 2027 03:17:57.006   02 Jun 2027 03:18:01.136             4.130          2065.000
        59   02 Jun 2027 04:47:15.148   02 Jun 2027 04:47:19.611             4.463          2231.500
        60   02 Jun 2027 04:47:50.843   02 Jun 2027 04:48:33.241            42.398         21199.000
        61   02 Jun 2027 04:48:53.173   02 Jun 2027 04:48:54.374             1.201           600.500
        62   02 Jun 2027 04:52:29.625   02 Jun 2027 04:52:33.521             3.896          1948.000
        63   02 Jun 2027 04:52:36.428   02 Jun 2027 04:52:39.605             3.177          1588.500
        64   02 Jun 2027 04:53:09.618   02 Jun 2027 04:53:16.768             7.150          3575.000
        65   02 Jun 2027 06:24:12.048   02 Jun 2027 06:24:19.500             7.452          3726.000
        66   02 Jun 2027 06:24:35.924   02 Jun 2027 06:24:56.533            20.609         10304.500
        67   02 Jun 2027 06:27:02.233   02 Jun 2027 06:27:02.578             0.345           172.500
        68   02 Jun 2027 06:27:24.695   02 Jun 2027 06:27:29.487             4.792          2396.000
        69   02 Jun 2027 06:28:07.203   02 Jun 2027 06:28:07.256             0.053            26.500
        70   02 Jun 2027 06:28:34.670   02 Jun 2027 06:28:35.953             1.283           641.500
        71   02 Jun 2027 06:28:58.688   02 Jun 2027 06:29:05.756             7.068          3534.000
        72   02 Jun 2027 08:00:57.781   02 Jun 2027 08:00:58.892             1.111           555.500
        73   02 Jun 2027 08:01:16.694   02 Jun 2027 08:01:18.607             1.913           956.500
        74   02 Jun 2027 08:02:05.556   02 Jun 2027 08:02:06.656             1.100           550.000
        75   02 Jun 2027 08:02:17.691   02 Jun 2027 08:02:26.106             8.415          4207.500
        76   02 Jun 2027 08:03:39.211   02 Jun 2027 08:03:49.442            10.231          5115.500
        77   02 Jun 2027 08:05:08.021   02 Jun 2027 08:05:09.419             1.398           699.000
        78   02 Jun 2027 08:06:04.261   02 Jun 2027 08:06:05.130             0.869           434.500
        79   02 Jun 2027 09:39:11.639   02 Jun 2027 09:39:33.416            21.777         10888.500
        80   03 Jun 2027 03:23:23.597   03 Jun 2027 03:23:25.097             1.500           750.000
        81   03 Jun 2027 03:23:41.419   03 Jun 2027 03:24:00.506            19.087          9543.500
        82   03 Jun 2027 03:25:03.778   03 Jun 2027 03:25:12.801             9.023          4511.500
        83   03 Jun 2027 03:26:12.221   03 Jun 2027 03:26:29.581            17.360          8680.000
        84   03 Jun 2027 03:27:48.660   03 Jun 2027 03:27:50.375             1.715           857.500
        85   03 Jun 2027 03:28:21.309   03 Jun 2027 03:28:32.780            11.471          5735.500
        86   03 Jun 2027 03:28:58.629   03 Jun 2027 03:29:00.252             1.623           811.500
        87   03 Jun 2027 03:30:00.360   03 Jun 2027 03:30:03.969             3.609          1804.500
        88   03 Jun 2027 04:59:45.749   03 Jun 2027 05:00:17.596            31.847         15923.500
        89   03 Jun 2027 05:02:50.446   03 Jun 2027 05:03:00.313             9.867          4933.500
        90   03 Jun 2027 05:03:43.594   03 Jun 2027 05:03:48.082             4.488          2244.000
        91   03 Jun 2027 05:03:58.853   03 Jun 2027 05:04:05.534             6.681          3340.500
        92   03 Jun 2027 05:04:41.548   03 Jun 2027 05:04:44.301             2.753          1376.500
        93   03 Jun 2027 05:05:26.459   03 Jun 2027 05:05:33.032             6.573          3286.500
        94   03 Jun 2027 06:37:13.540   03 Jun 2027 06:37:14.574             1.034           517.000
        95   03 Jun 2027 06:37:28.529   03 Jun 2027 06:37:35.587             7.058          3529.000
        96   03 Jun 2027 06:37:58.055   03 Jun 2027 06:37:58.718             0.663           331.500
        97   03 Jun 2027 06:38:19.845   03 Jun 2027 06:38:20.581             0.736           368.000
        98   03 Jun 2027 06:38:39.412   03 Jun 2027 06:38:40.397             0.985           492.500
        99   03 Jun 2027 06:38:54.736   03 Jun 2027 06:39:05.359            10.623          5311.500
       100   03 Jun 2027 06:40:14.294   03 Jun 2027 06:40:15.020             0.726           363.000
       101   03 Jun 2027 06:40:22.535   03 Jun 2027 06:40:29.642             7.107          3553.500
       102   03 Jun 2027 06:40:48.874   03 Jun 2027 06:40:48.874             0.000             0.000
       103   03 Jun 2027 06:41:16.953   03 Jun 2027 06:41:16.968             0.015             7.500
       104   03 Jun 2027 06:41:22.448   03 Jun 2027 06:41:28.971             6.523          3261.500
       105   03 Jun 2027 08:13:20.355   03 Jun 2027 08:13:22.957             2.602          1301.000
       106   03 Jun 2027 08:13:57.789   03 Jun 2027 08:14:00.619             2.830          1415.000
       107   03 Jun 2027 08:14:26.963   03 Jun 2027 08:14:33.647             6.684          3342.000
       108   03 Jun 2027 08:15:17.762   03 Jun 2027 08:15:17.770             0.008             4.000
       109   03 Jun 2027 08:16:06.756   03 Jun 2027 08:16:08.269             1.513           756.500
       110   03 Jun 2027 08:17:03.410   03 Jun 2027 08:17:04.687             1.277           638.500
       111   03 Jun 2027 08:17:13.768   03 Jun 2027 08:17:19.784             6.016          3008.000
       112   04 Jun 2027 03:35:32.205   04 Jun 2027 03:35:41.657             9.452          4726.000
       113   04 Jun 2027 03:36:35.536   04 Jun 2027 03:36:37.077             1.541           770.500
       114   04 Jun 2027 03:37:03.187   04 Jun 2027 03:37:08.506             5.319          2659.500
       115   04 Jun 2027 03:37:36.732   04 Jun 2027 03:37:38.723             1.991           995.500
       116   04 Jun 2027 03:38:30.571   04 Jun 2027 03:38:36.028             5.457          2728.500
       117   04 Jun 2027 03:39:57.635   04 Jun 2027 03:40:01.977             4.342          2171.000
       118   04 Jun 2027 03:40:30.361   04 Jun 2027 03:40:30.446             0.085            42.500
       119   04 Jun 2027 03:40:41.673   04 Jun 2027 03:40:44.557             2.884          1442.000
       120   04 Jun 2027 03:41:11.078   04 Jun 2027 03:41:15.349             4.271          2135.500
       121   04 Jun 2027 03:41:45.331   04 Jun 2027 03:41:52.366             7.035          3517.500
       122   04 Jun 2027 03:41:52.621   04 Jun 2027 03:41:53.933             1.312           656.000
       123   04 Jun 2027 05:11:30.694   04 Jun 2027 05:11:35.007             4.313          2156.500
       124   04 Jun 2027 05:12:11.285   04 Jun 2027 05:12:17.546             6.261          3130.500
       125   04 Jun 2027 05:13:10.432   04 Jun 2027 05:13:12.318             1.886           943.000
       126   04 Jun 2027 05:13:41.821   04 Jun 2027 05:13:42.046             0.225           112.500
       127   04 Jun 2027 05:14:06.724   04 Jun 2027 05:14:16.974            10.250          5125.000
       128   04 Jun 2027 05:15:08.006   04 Jun 2027 05:15:13.428             5.422          2711.000
       129   04 Jun 2027 05:15:50.740   04 Jun 2027 05:16:01.199            10.459          5229.500
       130   04 Jun 2027 05:16:41.912   04 Jun 2027 05:16:43.404             1.492           746.000
       131   04 Jun 2027 05:17:46.957   04 Jun 2027 05:17:52.017             5.060          2530.000
       132   04 Jun 2027 06:49:20.009   04 Jun 2027 06:49:22.738             2.729          1364.500
       133   04 Jun 2027 06:49:39.539   04 Jun 2027 06:49:39.990             0.451           225.500
       134   04 Jun 2027 06:50:18.907   04 Jun 2027 06:50:20.424             1.517           758.500
       135   04 Jun 2027 06:50:28.884   04 Jun 2027 06:50:32.892             4.008          2004.000
       136   04 Jun 2027 06:50:46.694   04 Jun 2027 06:50:53.468             6.774          3387.000
       137   04 Jun 2027 06:51:31.531   04 Jun 2027 06:51:33.647             2.116          1058.000
       138   04 Jun 2027 06:51:45.322   04 Jun 2027 06:51:48.621             3.299          1649.500
       139   04 Jun 2027 06:52:06.424   04 Jun 2027 06:52:14.973             8.549          4274.500
       140   04 Jun 2027 06:52:49.726   04 Jun 2027 06:52:54.363             4.637          2318.500
       141   04 Jun 2027 06:53:09.627   04 Jun 2027 06:53:10.805             1.178           589.000
       142   04 Jun 2027 08:25:21.889   04 Jun 2027 08:25:28.242             6.353          3176.500
       143   04 Jun 2027 08:25:59.704   04 Jun 2027 08:26:05.047             5.343          2671.500
       144   04 Jun 2027 08:26:15.560   04 Jun 2027 08:26:22.103             6.543          3271.500
       145   04 Jun 2027 08:28:11.578   04 Jun 2027 08:28:18.197             6.619          3309.500
       146   04 Jun 2027 08:28:27.873   04 Jun 2027 08:28:30.811             2.938          1469.000
       147   04 Jun 2027 08:29:20.478   04 Jun 2027 08:29:22.075             1.597           798.500
       148   04 Jun 2027 08:29:44.739   04 Jun 2027 08:29:45.137             0.398           199.000
       149   04 Jun 2027 08:29:53.401   04 Jun 2027 08:29:58.906             5.505          2752.500
       150   05 Jun 2027 03:46:55.217   05 Jun 2027 03:47:03.690             8.473          4236.500
       151   05 Jun 2027 03:47:44.717   05 Jun 2027 03:47:47.178             2.461          1230.500
       152   05 Jun 2027 03:48:05.661   05 Jun 2027 03:48:09.625             3.964          1982.000
       153   05 Jun 2027 03:48:49.102   05 Jun 2027 03:49:04.324            15.222          7611.000
       154   05 Jun 2027 03:50:31.178   05 Jun 2027 03:50:37.730             6.552          3276.000
       155   05 Jun 2027 03:50:40.539   05 Jun 2027 03:50:48.509             7.970          3985.000
       156   05 Jun 2027 03:51:31.227   05 Jun 2027 03:51:36.428             5.201          2600.500
       157   05 Jun 2027 03:51:58.760   05 Jun 2027 03:52:17.393            18.633          9316.500
       158   05 Jun 2027 03:53:42.315   05 Jun 2027 03:53:49.365             7.050          3525.000
       159   05 Jun 2027 05:23:32.886   05 Jun 2027 05:23:41.375             8.489          4244.500
       160   05 Jun 2027 05:24:54.269   05 Jun 2027 05:25:04.442            10.173          5086.500
       161   05 Jun 2027 05:25:31.575   05 Jun 2027 05:25:39.446             7.871          3935.500
       162   05 Jun 2027 05:26:31.926   05 Jun 2027 05:26:43.227            11.301          5650.500
       163   05 Jun 2027 05:27:18.939   05 Jun 2027 05:27:18.939             0.000             0.000
       164   05 Jun 2027 05:27:36.657   05 Jun 2027 05:27:37.759             1.102           551.000
       165   05 Jun 2027 05:29:00.432   05 Jun 2027 05:29:23.884            23.452         11726.000
       166   05 Jun 2027 07:01:50.772   05 Jun 2027 07:01:59.379             8.607          4303.500
       167   05 Jun 2027 07:02:34.600   05 Jun 2027 07:02:37.255             2.655          1327.500
       168   05 Jun 2027 07:03:07.292   05 Jun 2027 07:03:17.027             9.735          4867.500
       169   05 Jun 2027 07:04:07.041   05 Jun 2027 07:04:19.170            12.129          6064.500
       170   05 Jun 2027 08:35:09.937   05 Jun 2027 08:35:17.358             7.421          3710.500
       171   05 Jun 2027 08:35:51.270   05 Jun 2027 08:35:55.339             4.069          2034.500
       172   05 Jun 2027 08:36:20.303   05 Jun 2027 08:36:37.725            17.422          8711.000
       173   05 Jun 2027 08:38:06.148   05 Jun 2027 08:38:12.597             6.449          3224.500
       174   05 Jun 2027 08:38:52.411   05 Jun 2027 08:38:57.119             4.708          2354.000
       175   05 Jun 2027 08:39:37.377   05 Jun 2027 08:39:38.865             1.488           744.000
       176   05 Jun 2027 08:40:02.856   05 Jun 2027 08:40:09.440             6.584          3292.000
       177   05 Jun 2027 08:40:16.379   05 Jun 2027 08:40:31.901            15.522          7761.000
       178   05 Jun 2027 08:42:10.839   05 Jun 2027 08:42:25.095            14.256          7128.000
       179   06 Jun 2027 03:58:51.050   06 Jun 2027 03:58:54.668             3.618          1809.000
       180   06 Jun 2027 03:59:12.433   06 Jun 2027 03:59:27.221            14.788          7394.000
       181   06 Jun 2027 04:00:33.670   06 Jun 2027 04:00:34.510             0.840           420.000
       182   06 Jun 2027 04:01:08.894   06 Jun 2027 04:01:18.492             9.598          4799.000
       183   06 Jun 2027 04:02:21.999   06 Jun 2027 04:02:22.102             0.103            51.500
       184   06 Jun 2027 04:02:27.039   06 Jun 2027 04:02:28.406             1.367           683.500
       185   06 Jun 2027 04:02:53.570   06 Jun 2027 04:03:00.599             7.029          3514.500
       186   06 Jun 2027 04:03:37.445   06 Jun 2027 04:03:39.945             2.500          1250.000
       187   06 Jun 2027 04:04:32.714   06 Jun 2027 04:04:35.585             2.871          1435.500
       188   06 Jun 2027 04:04:47.641   06 Jun 2027 04:04:48.293             0.652           326.000
       189   06 Jun 2027 04:05:03.280   06 Jun 2027 04:05:06.917             3.637          1818.500
       190   06 Jun 2027 04:05:28.403   06 Jun 2027 04:05:44.481            16.078          8039.000
       191   06 Jun 2027 05:35:53.766   06 Jun 2027 05:36:10.561            16.795          8397.500
       192   06 Jun 2027 05:37:06.375   06 Jun 2027 05:37:10.784             4.409          2204.500
       193   06 Jun 2027 05:39:01.284   06 Jun 2027 05:39:01.896             0.612           306.000
       194   06 Jun 2027 05:39:09.846   06 Jun 2027 05:39:16.064             6.218          3109.000
       195   06 Jun 2027 05:40:05.484   06 Jun 2027 05:40:18.857            13.373          6686.500
       196   06 Jun 2027 05:41:07.132   06 Jun 2027 05:41:16.438             9.306          4653.000
       197   06 Jun 2027 05:41:29.943   06 Jun 2027 05:41:37.472             7.529          3764.500
       198   06 Jun 2027 07:13:47.855   06 Jun 2027 07:13:52.775             4.920          2460.000
       199   06 Jun 2027 07:14:13.213   06 Jun 2027 07:14:15.898             2.685          1342.500
       200   06 Jun 2027 07:14:29.995   06 Jun 2027 07:14:31.060             1.065           532.500
       201   06 Jun 2027 07:14:55.260   06 Jun 2027 07:14:59.682             4.422          2211.000
       202   06 Jun 2027 07:15:22.267   06 Jun 2027 07:15:24.372             2.105          1052.500
       203   06 Jun 2027 07:15:45.652   06 Jun 2027 07:15:47.455             1.803           901.500
       204   06 Jun 2027 07:16:14.950   06 Jun 2027 07:16:15.309             0.359           179.500
       205   06 Jun 2027 07:16:34.659   06 Jun 2027 07:16:36.299             1.640           820.000
       206   06 Jun 2027 07:16:54.512   06 Jun 2027 07:16:56.972             2.460          1230.000
       207   06 Jun 2027 07:17:43.260   06 Jun 2027 07:17:47.386             4.126          2063.000
       208   06 Jun 2027 08:47:02.047   06 Jun 2027 08:47:15.365            13.318          6659.000
       209   06 Jun 2027 08:48:15.279   06 Jun 2027 08:48:31.877            16.598          8299.000
       210   06 Jun 2027 08:49:39.086   06 Jun 2027 08:49:49.337            10.251          5125.500
       211   06 Jun 2027 08:51:01.892   06 Jun 2027 08:51:17.028            15.136          7568.000
       212   06 Jun 2027 08:52:41.871   06 Jun 2027 08:52:43.949             2.078          1039.000
       213   06 Jun 2027 08:52:55.879   06 Jun 2027 08:52:58.334             2.455          1227.500
       214   06 Jun 2027 08:53:39.548   06 Jun 2027 08:53:45.887             6.339          3169.500
       215   07 Jun 2027 04:11:01.314   07 Jun 2027 04:11:14.888            13.574          6787.000
       216   07 Jun 2027 04:12:23.231   07 Jun 2027 04:12:52.751            29.520         14760.000
       217   07 Jun 2027 04:15:10.122   07 Jun 2027 04:15:16.915             6.793          3396.500
       218   07 Jun 2027 04:17:32.442   07 Jun 2027 04:17:35.084             2.642          1321.000
       219   07 Jun 2027 04:18:05.361   07 Jun 2027 04:18:16.091            10.730          5365.000
       220   07 Jun 2027 04:18:22.602   07 Jun 2027 04:18:23.114             0.512           256.000
       221   07 Jun 2027 05:47:44.083   07 Jun 2027 05:47:49.373             5.290          2645.000
       222   07 Jun 2027 05:48:11.510   07 Jun 2027 05:48:23.338            11.828          5914.000
       223   07 Jun 2027 05:49:42.825   07 Jun 2027 05:49:47.659             4.834          2417.000
       224   07 Jun 2027 05:50:07.909   07 Jun 2027 05:50:15.581             7.672          3836.000
       225   07 Jun 2027 05:50:54.319   07 Jun 2027 05:50:59.908             5.589          2794.500
       226   07 Jun 2027 05:51:34.443   07 Jun 2027 05:51:42.785             8.342          4171.000
       227   07 Jun 2027 05:52:17.386   07 Jun 2027 05:52:20.208             2.822          1411.000
       228   07 Jun 2027 05:52:55.791   07 Jun 2027 05:53:08.162            12.371          6185.500
       229   07 Jun 2027 05:53:46.970   07 Jun 2027 05:53:52.459             5.489          2744.500
       230   07 Jun 2027 07:25:47.877   07 Jun 2027 07:25:57.929            10.052          5026.000
       231   07 Jun 2027 07:27:23.569   07 Jun 2027 07:27:26.569             3.000          1500.000
       232   07 Jun 2027 07:28:05.243   07 Jun 2027 07:28:08.697             3.454          1727.000
       233   07 Jun 2027 07:28:19.012   07 Jun 2027 07:28:26.469             7.457          3728.500
       234   07 Jun 2027 07:29:40.715   07 Jun 2027 07:29:47.364             6.649          3324.500
       235   07 Jun 2027 08:59:29.928   07 Jun 2027 08:59:37.113             7.185          3592.500
       236   07 Jun 2027 09:00:20.296   07 Jun 2027 09:00:25.246             4.950          2475.000
       237   07 Jun 2027 09:01:13.699   07 Jun 2027 09:01:26.697            12.998          6499.000
       238   07 Jun 2027 09:02:44.207   07 Jun 2027 09:02:54.212            10.005          5002.500
       239   07 Jun 2027 09:03:46.205   07 Jun 2027 09:04:12.716            26.511         13255.500
       240   08 Jun 2027 04:22:55.818   08 Jun 2027 04:22:58.776             2.958          1479.000
       241   08 Jun 2027 04:23:22.415   08 Jun 2027 04:23:37.324            14.909          7454.500
       242   08 Jun 2027 04:25:14.541   08 Jun 2027 04:25:15.038             0.497           248.500
       243   08 Jun 2027 04:25:17.350   08 Jun 2027 04:25:20.525             3.175          1587.500
       244   08 Jun 2027 04:25:44.104   08 Jun 2027 04:26:01.345            17.241          8620.500
       245   08 Jun 2027 04:27:05.445   08 Jun 2027 04:27:06.336             0.891           445.500
       246   08 Jun 2027 04:27:27.497   08 Jun 2027 04:27:42.005            14.508          7254.000
       247   08 Jun 2027 04:28:48.090   08 Jun 2027 04:28:48.764             0.674           337.000
       248   08 Jun 2027 04:28:52.298   08 Jun 2027 04:29:00.815             8.517          4258.500
       249   08 Jun 2027 04:30:08.967   08 Jun 2027 04:30:15.525             6.558          3279.000
       250   08 Jun 2027 04:30:19.852   08 Jun 2027 04:30:20.980             1.128           564.000
       251   08 Jun 2027 05:59:52.242   08 Jun 2027 05:59:57.911             5.669          2834.500
       252   08 Jun 2027 06:01:35.034   08 Jun 2027 06:01:35.706             0.672           336.000
       253   08 Jun 2027 06:01:44.900   08 Jun 2027 06:01:49.326             4.426          2213.000
       254   08 Jun 2027 06:02:08.819   08 Jun 2027 06:02:13.273             4.454          2227.000
       255   08 Jun 2027 06:02:39.723   08 Jun 2027 06:02:41.106             1.383           691.500
       256   08 Jun 2027 06:03:07.884   08 Jun 2027 06:03:12.938             5.054          2527.000
       257   08 Jun 2027 06:03:33.050   08 Jun 2027 06:03:33.410             0.360           180.000
       258   08 Jun 2027 06:03:37.430   08 Jun 2027 06:03:41.683             4.253          2126.500
       259   08 Jun 2027 06:04:17.193   08 Jun 2027 06:04:24.347             7.154          3577.000
       260   08 Jun 2027 06:05:09.939   08 Jun 2027 06:05:10.572             0.633           316.500
       261   08 Jun 2027 06:05:29.378   08 Jun 2027 06:05:31.313             1.935           967.500
       262   08 Jun 2027 06:06:01.171   08 Jun 2027 06:06:09.920             8.749          4374.500
       263   08 Jun 2027 07:37:25.669   08 Jun 2027 07:37:34.812             9.143          4571.500
       264   08 Jun 2027 07:38:25.674   08 Jun 2027 07:38:29.176             3.502          1751.000
       265   08 Jun 2027 07:39:01.957   08 Jun 2027 07:39:04.715             2.758          1379.000
       266   08 Jun 2027 07:39:19.446   08 Jun 2027 07:39:25.018             5.572          2786.000
       267   08 Jun 2027 07:39:50.555   08 Jun 2027 07:39:50.828             0.273           136.500
       268   08 Jun 2027 07:40:46.754   08 Jun 2027 07:40:46.988             0.234           117.000
       269   08 Jun 2027 07:41:02.710   08 Jun 2027 07:41:33.972            31.262         15631.000
       270   08 Jun 2027 09:11:49.551   08 Jun 2027 09:11:50.923             1.372           686.000
       271   08 Jun 2027 09:12:06.712   08 Jun 2027 09:12:16.124             9.412          4706.000
       272   08 Jun 2027 09:13:33.811   08 Jun 2027 09:13:42.266             8.455          4227.500
       273   08 Jun 2027 09:14:22.065   08 Jun 2027 09:14:24.377             2.312          1156.000
       274   08 Jun 2027 09:15:25.921   08 Jun 2027 09:15:46.567            20.646         10323.000
       275   09 Jun 2027 03:00:00.000   09 Jun 2027 03:00:16.737            16.737          8368.500
       276   09 Jun 2027 03:01:55.048   09 Jun 2027 03:01:57.790             2.742          1371.000
       277   09 Jun 2027 03:02:36.925   09 Jun 2027 03:02:41.309             4.384          2192.000
       278   09 Jun 2027 03:03:06.362   09 Jun 2027 03:03:11.438             5.076          2538.000
       279   09 Jun 2027 03:03:17.083   09 Jun 2027 03:03:25.853             8.770          4385.000
       280   09 Jun 2027 03:04:32.045   09 Jun 2027 03:04:35.851             3.806          1903.000
       281   09 Jun 2027 03:05:00.825   09 Jun 2027 03:05:08.343             7.518          3759.000
       282   09 Jun 2027 03:05:51.718   09 Jun 2027 03:05:58.598             6.880          3440.000
       283   09 Jun 2027 03:06:22.285   09 Jun 2027 03:06:22.300             0.015             7.500
       284   09 Jun 2027 04:35:17.289   09 Jun 2027 04:35:25.049             7.760          3880.000
       285   09 Jun 2027 04:36:00.902   09 Jun 2027 04:36:11.146            10.244          5122.000
       286   09 Jun 2027 04:36:53.092   09 Jun 2027 04:36:59.830             6.738          3369.000
       287   09 Jun 2027 04:37:20.061   09 Jun 2027 04:37:22.476             2.415          1207.500
       288   09 Jun 2027 04:38:00.916   09 Jun 2027 04:38:12.818            11.902          5951.000
       289   09 Jun 2027 04:39:09.299   09 Jun 2027 04:39:09.671             0.372           186.000
       290   09 Jun 2027 04:40:20.873   09 Jun 2027 04:40:35.228            14.355          7177.500
       291   09 Jun 2027 04:41:18.148   09 Jun 2027 04:41:21.435             3.287          1643.500
       292   09 Jun 2027 04:42:11.023   09 Jun 2027 04:42:11.700             0.677           338.500
       293   09 Jun 2027 06:12:20.855   09 Jun 2027 06:12:41.452            20.597         10298.500
       294   09 Jun 2027 06:14:18.512   09 Jun 2027 06:14:22.677             4.165          2082.500
       295   09 Jun 2027 06:15:10.862   09 Jun 2027 06:15:15.808             4.946          2473.000
       296   09 Jun 2027 06:15:38.914   09 Jun 2027 06:15:45.258             6.344          3172.000
       297   09 Jun 2027 06:16:46.063   09 Jun 2027 06:16:49.731             3.668          1834.000
       298   09 Jun 2027 06:16:57.539   09 Jun 2027 06:16:57.539             0.000             0.000
       299   09 Jun 2027 06:17:23.252   09 Jun 2027 06:17:28.641             5.389          2694.500
       300   09 Jun 2027 07:49:06.550   09 Jun 2027 07:49:07.286             0.736           368.000
       301   09 Jun 2027 07:49:37.865   09 Jun 2027 07:49:40.783             2.918          1459.000
       302   09 Jun 2027 07:49:50.985   09 Jun 2027 07:49:51.065             0.080            40.000
       303   09 Jun 2027 07:50:28.471   09 Jun 2027 07:50:41.827            13.356          6678.000
       304   09 Jun 2027 07:51:46.615   09 Jun 2027 07:51:48.537             1.922           961.000
       305   09 Jun 2027 07:52:10.374   09 Jun 2027 07:52:18.379             8.005          4002.500
       306   09 Jun 2027 07:52:51.208   09 Jun 2027 07:52:54.205             2.997          1498.500
       307   09 Jun 2027 07:53:27.962   09 Jun 2027 07:53:41.628            13.666          6833.000
       308   09 Jun 2027 09:24:22.409   09 Jun 2027 09:24:28.879             6.470          3235.000
       309   09 Jun 2027 09:26:04.047   09 Jun 2027 09:26:12.123             8.076          4038.000
       310   09 Jun 2027 09:27:21.560   09 Jun 2027 09:27:24.607             3.047          1523.500
       311   09 Jun 2027 09:27:47.197   09 Jun 2027 09:28:03.971            16.774          8387.000
       312   10 Jun 2027 03:08:35.084   10 Jun 2027 03:08:46.884            11.800          5900.000
       313   10 Jun 2027 03:10:28.117   10 Jun 2027 03:10:35.850             7.733          3866.500
       314   10 Jun 2027 03:11:19.089   10 Jun 2027 03:11:23.582             4.493          2246.500
       315   10 Jun 2027 03:11:56.052   10 Jun 2027 03:12:02.570             6.518          3259.000
       316   10 Jun 2027 03:12:51.521   10 Jun 2027 03:12:56.772             5.251          2625.500
       317   10 Jun 2027 03:13:55.813   10 Jun 2027 03:13:57.542             1.729           864.500
       318   10 Jun 2027 03:14:24.461   10 Jun 2027 03:14:42.158            17.697          8848.500
       319   10 Jun 2027 03:16:04.033   10 Jun 2027 03:16:07.641             3.608          1804.000
       320   10 Jun 2027 03:16:32.088   10 Jun 2027 03:16:32.792             0.704           352.000
       321   10 Jun 2027 03:16:36.118   10 Jun 2027 03:16:43.029             6.911          3455.500
       322   10 Jun 2027 03:17:25.053   10 Jun 2027 03:17:32.752             7.699          3849.500
       323   10 Jun 2027 03:18:11.813   10 Jun 2027 03:18:15.715             3.902          1951.000
       324   10 Jun 2027 04:47:29.391   10 Jun 2027 04:47:32.368             2.977          1488.500
       325   10 Jun 2027 04:47:39.635   10 Jun 2027 04:48:05.546            25.911         12955.500
       326   10 Jun 2027 04:49:12.566   10 Jun 2027 04:49:19.645             7.079          3539.500
       327   10 Jun 2027 04:49:32.367   10 Jun 2027 04:49:46.757            14.390          7195.000
       328   10 Jun 2027 04:51:47.612   10 Jun 2027 04:51:51.178             3.566          1783.000
       329   10 Jun 2027 04:52:04.684   10 Jun 2027 04:52:13.900             9.216          4608.000
       330   10 Jun 2027 04:52:56.308   10 Jun 2027 04:53:01.349             5.041          2520.500
       331   10 Jun 2027 04:53:28.499   10 Jun 2027 04:53:32.016             3.517          1758.500
       332   10 Jun 2027 06:24:27.382   10 Jun 2027 06:24:34.188             6.806          3403.000
       333   10 Jun 2027 06:24:50.784   10 Jun 2027 06:25:10.719            19.935          9967.500
       334   10 Jun 2027 06:26:31.185   10 Jun 2027 06:26:31.528             0.343           171.500
       335   10 Jun 2027 06:27:07.034   10 Jun 2027 06:27:07.416             0.382           191.000
       336   10 Jun 2027 06:27:30.026   10 Jun 2027 06:27:33.990             3.964          1982.000
       337   10 Jun 2027 06:28:23.968   10 Jun 2027 06:28:29.160             5.192          2596.000
       338   10 Jun 2027 06:28:37.801   10 Jun 2027 06:28:41.792             3.991          1995.500
       339   10 Jun 2027 08:01:12.233   10 Jun 2027 08:01:16.763             4.530          2265.000
       340   10 Jun 2027 08:02:11.339   10 Jun 2027 08:02:14.976             3.637          1818.500
       341   10 Jun 2027 08:02:53.170   10 Jun 2027 08:02:57.957             4.787          2393.500
       342   10 Jun 2027 08:03:53.866   10 Jun 2027 08:04:04.042            10.176          5088.000
       343   10 Jun 2027 08:04:50.369   10 Jun 2027 08:04:55.180             4.811          2405.500
       344   10 Jun 2027 08:05:19.067   10 Jun 2027 08:05:20.091             1.024           512.000
       345   10 Jun 2027 08:06:09.869   10 Jun 2027 08:06:18.086             8.217          4108.500
       346   10 Jun 2027 09:39:27.153   10 Jun 2027 09:39:48.046            20.893         10446.500
       347   11 Jun 2027 03:23:39.090   11 Jun 2027 03:23:40.168             1.078           539.000
       348   11 Jun 2027 03:23:55.976   11 Jun 2027 03:24:18.972            22.996         11498.000
       349   11 Jun 2027 03:25:31.258   11 Jun 2027 03:25:39.426             8.168          4084.000
       350   11 Jun 2027 03:26:27.721   11 Jun 2027 03:26:41.881            14.160          7080.000
       351   11 Jun 2027 03:27:15.031   11 Jun 2027 03:27:17.301             2.270          1135.000
       352   11 Jun 2027 03:28:22.547   11 Jun 2027 03:28:25.535             2.988          1494.000
       353   11 Jun 2027 03:28:52.829   11 Jun 2027 03:29:01.733             8.904          4452.000
       354   11 Jun 2027 03:29:44.944   11 Jun 2027 03:29:46.002             1.058           529.000
       355   11 Jun 2027 03:30:18.604   11 Jun 2027 03:30:20.151             1.547           773.500
       356   11 Jun 2027 05:00:00.865   11 Jun 2027 05:00:14.766            13.901          6950.500
       357   11 Jun 2027 05:00:51.872   11 Jun 2027 05:01:16.342            24.470         12235.000
       358   11 Jun 2027 05:03:21.713   11 Jun 2027 05:03:23.357             1.644           822.000
       359   11 Jun 2027 05:03:49.500   11 Jun 2027 05:03:53.253             3.753          1876.500
       360   11 Jun 2027 05:04:15.924   11 Jun 2027 05:04:22.962             7.038          3519.000
       361   11 Jun 2027 05:04:58.244   11 Jun 2027 05:05:02.347             4.103          2051.500
       362   11 Jun 2027 05:05:45.171   11 Jun 2027 05:05:47.781             2.610          1305.000
       363   11 Jun 2027 06:37:28.169   11 Jun 2027 06:37:29.129             0.960           480.000
       364   11 Jun 2027 06:37:44.385   11 Jun 2027 06:37:44.452             0.067            33.500
       365   11 Jun 2027 06:37:50.326   11 Jun 2027 06:37:53.066             2.740          1370.000
       366   11 Jun 2027 06:38:11.434   11 Jun 2027 06:38:13.770             2.336          1168.000
       367   11 Jun 2027 06:38:37.819   11 Jun 2027 06:38:38.034             0.215           107.500
       368   11 Jun 2027 06:38:55.044   11 Jun 2027 06:38:59.044             4.000          2000.000
       369   11 Jun 2027 06:39:37.342   11 Jun 2027 06:39:45.608             8.266          4133.000
       370   11 Jun 2027 06:40:27.350   11 Jun 2027 06:40:28.240             0.890           445.000
       371   11 Jun 2027 06:40:52.644   11 Jun 2027 06:40:57.871             5.227          2613.500
       372   11 Jun 2027 06:41:24.816   11 Jun 2027 06:41:31.834             7.018          3509.000
       373   11 Jun 2027 08:13:35.790   11 Jun 2027 08:13:46.580            10.790          5395.000
       374   11 Jun 2027 08:14:12.424   11 Jun 2027 08:14:17.824             5.400          2700.000
       375   11 Jun 2027 08:14:59.925   11 Jun 2027 08:15:01.546             1.621           810.500
       376   11 Jun 2027 08:15:33.251   11 Jun 2027 08:15:42.454             9.203          4601.500
       377   11 Jun 2027 08:16:24.620   11 Jun 2027 08:16:30.178             5.558          2779.000
       378   11 Jun 2027 08:17:05.838   11 Jun 2027 08:17:18.075            12.237          6118.500
       379   11 Jun 2027 08:17:47.526   11 Jun 2027 08:17:47.526             0.000             0.000
       380   12 Jun 2027 03:35:46.956   12 Jun 2027 03:35:56.573             9.617          4808.500
       381   12 Jun 2027 03:36:30.211   12 Jun 2027 03:36:31.620             1.409           704.500
       382   12 Jun 2027 03:36:51.319   12 Jun 2027 03:36:51.771             0.452           226.000
       383   12 Jun 2027 03:37:18.740   12 Jun 2027 03:37:24.908             6.168          3084.000
       384   12 Jun 2027 03:38:00.757   12 Jun 2027 03:38:18.139            17.382          8691.000
       385   12 Jun 2027 03:40:14.954   12 Jun 2027 03:40:17.169             2.215          1107.500
       386   12 Jun 2027 03:40:45.059   12 Jun 2027 03:40:53.604             8.545          4272.500
       387   12 Jun 2027 03:41:49.302   12 Jun 2027 03:41:59.042             9.740          4870.000
       388   12 Jun 2027 05:11:44.859   12 Jun 2027 05:11:44.977             0.118            59.000
       389   12 Jun 2027 05:11:56.544   12 Jun 2027 05:12:03.610             7.066          3533.000
       390   12 Jun 2027 05:12:46.604   12 Jun 2027 05:12:51.675             5.071          2535.500
       391   12 Jun 2027 05:13:25.839   12 Jun 2027 05:13:26.715             0.876           438.000
       392   12 Jun 2027 05:13:57.258   12 Jun 2027 05:14:01.332             4.074          2037.000
       393   12 Jun 2027 05:14:21.341   12 Jun 2027 05:14:32.134            10.793          5396.500
       394   12 Jun 2027 05:14:42.893   12 Jun 2027 05:14:49.671             6.778          3389.000
       395   12 Jun 2027 05:16:06.091   12 Jun 2027 05:16:19.510            13.419          6709.500
       396   12 Jun 2027 05:16:56.086   12 Jun 2027 05:17:00.090             4.004          2002.000
       397   12 Jun 2027 06:49:34.684   12 Jun 2027 06:49:35.713             1.029           514.500
       398   12 Jun 2027 06:50:01.173   12 Jun 2027 06:50:14.281            13.108          6554.000
       399   12 Jun 2027 06:50:54.291   12 Jun 2027 06:51:03.454             9.163          4581.500
       400   12 Jun 2027 06:52:00.122   12 Jun 2027 06:52:03.273             3.151          1575.500
       401   12 Jun 2027 06:52:17.513   12 Jun 2027 06:52:30.980            13.467          6733.500
       402   12 Jun 2027 06:53:05.203   12 Jun 2027 06:53:09.561             4.358          2179.000
       403   12 Jun 2027 06:54:00.247   12 Jun 2027 06:54:05.424             5.177          2588.500
       404   12 Jun 2027 08:25:36.726   12 Jun 2027 08:25:40.924             4.198          2099.000
       405   12 Jun 2027 08:26:35.023   12 Jun 2027 08:26:42.983             7.960          3980.000
       406   12 Jun 2027 08:27:46.641   12 Jun 2027 08:27:54.376             7.735          3867.500
       407   12 Jun 2027 08:28:35.436   12 Jun 2027 08:28:42.688             7.252          3626.000
       408   12 Jun 2027 08:29:31.819   12 Jun 2027 08:29:35.051             3.232          1616.000
       409   12 Jun 2027 08:29:59.345   12 Jun 2027 08:30:00.168             0.823           411.500
       410   12 Jun 2027 08:30:07.452   12 Jun 2027 08:30:12.472             5.020          2510.000
       411   12 Jun 2027 08:30:31.815   12 Jun 2027 08:30:38.029             6.214          3107.000
       412   13 Jun 2027 03:47:04.732   13 Jun 2027 03:47:21.235            16.503          8251.500
       413   13 Jun 2027 03:48:27.555   13 Jun 2027 03:48:30.257             2.702          1351.000
       414   13 Jun 2027 03:48:44.926   13 Jun 2027 03:48:57.550            12.624          6312.000
       415   13 Jun 2027 03:49:52.457   13 Jun 2027 03:50:07.790            15.333          7666.500
       416   13 Jun 2027 03:51:16.861   13 Jun 2027 03:51:26.044             9.183          4591.500
       417   13 Jun 2027 03:52:04.070   13 Jun 2027 03:52:13.393             9.323          4661.500
       418   13 Jun 2027 03:52:21.538   13 Jun 2027 03:52:32.211            10.673          5336.500
       419   13 Jun 2027 03:53:56.862   13 Jun 2027 03:54:03.919             7.057          3528.500
       420   13 Jun 2027 05:23:48.038   13 Jun 2027 05:23:52.214             4.176          2088.000
       421   13 Jun 2027 05:24:16.046   13 Jun 2027 05:24:36.130            20.084         10042.000
       422   13 Jun 2027 05:24:48.830   13 Jun 2027 05:24:55.883             7.053          3526.500
       423   13 Jun 2027 05:26:49.818   13 Jun 2027 05:26:57.756             7.938          3969.000
       424   13 Jun 2027 05:27:34.105   13 Jun 2027 05:27:34.152             0.047            23.500
       425   13 Jun 2027 05:27:45.248   13 Jun 2027 05:27:51.601             6.353          3176.500
       426   13 Jun 2027 05:28:23.650   13 Jun 2027 05:28:25.311             1.661           830.500
       427   13 Jun 2027 05:28:35.901   13 Jun 2027 05:28:38.473             2.572          1286.000
       428   13 Jun 2027 05:29:01.834   13 Jun 2027 05:29:05.328             3.494          1747.000
       429   13 Jun 2027 05:29:47.621   13 Jun 2027 05:29:54.803             7.182          3591.000
       430   13 Jun 2027 07:02:05.961   13 Jun 2027 07:02:15.976            10.015          5007.500
       431   13 Jun 2027 07:02:50.168   13 Jun 2027 07:03:01.429            11.261          5630.500
       432   13 Jun 2027 07:04:06.351   13 Jun 2027 07:04:10.635             4.284          2142.000
       433   13 Jun 2027 07:04:33.736   13 Jun 2027 07:04:34.382             0.646           323.000
       434   13 Jun 2027 07:04:40.775   13 Jun 2027 07:04:42.554             1.779           889.500
       435   13 Jun 2027 07:04:51.752   13 Jun 2027 07:04:52.981             1.229           614.500
       436   13 Jun 2027 07:05:16.930   13 Jun 2027 07:05:18.925             1.995           997.500
       437   13 Jun 2027 07:05:32.930   13 Jun 2027 07:05:33.277             0.347           173.500
       438   13 Jun 2027 08:35:24.382   13 Jun 2027 08:35:29.270             4.888          2444.000
       439   13 Jun 2027 08:35:56.066   13 Jun 2027 08:35:57.450             1.384           692.000
       440   13 Jun 2027 08:35:59.490   13 Jun 2027 08:36:05.964             6.474          3237.000
       441   13 Jun 2027 08:36:18.356   13 Jun 2027 08:36:35.507            17.151          8575.500
       442   13 Jun 2027 08:38:04.312   13 Jun 2027 08:38:21.803            17.491          8745.500
       443   13 Jun 2027 08:39:53.487   13 Jun 2027 08:39:53.867             0.380           190.000
       444   13 Jun 2027 08:40:17.608   13 Jun 2027 08:40:24.470             6.862          3431.000
       445   13 Jun 2027 08:40:57.005   13 Jun 2027 08:40:57.584             0.579           289.500
       446   13 Jun 2027 08:41:03.176   13 Jun 2027 08:41:04.208             1.032           516.000
       447   13 Jun 2027 08:41:20.537   13 Jun 2027 08:41:23.651             3.114          1557.000
       448   13 Jun 2027 08:41:58.342   13 Jun 2027 08:42:02.765             4.423          2211.500
       449   13 Jun 2027 08:42:48.892   13 Jun 2027 08:42:52.387             3.495          1747.500
