uniorb/output/strategy_2/Camera/Camera_KinoSat_111904.txt

KinoSat_111904
-------------------------
    Access    *     Start Time (UTCG)     *     Stop Time (UTCG)  *   Duration (s) *   Data (Mbytes)
         1   01 Jun 2027 03:10:25.965   01 Jun 2027 03:11:07.687            41.722         20861.000
         2   01 Jun 2027 03:11:50.304   01 Jun 2027 03:13:55.010           124.706         62353.000
         3   01 Jun 2027 03:14:10.127   01 Jun 2027 03:14:15.472             5.345          2672.500
         4   01 Jun 2027 03:14:21.643   01 Jun 2027 03:14:39.544            17.901          8950.500
         5   01 Jun 2027 03:14:59.598   01 Jun 2027 03:15:07.808             8.210          4105.000
         6   01 Jun 2027 03:15:51.278   01 Jun 2027 03:16:02.362            11.084          5542.000
         7   01 Jun 2027 03:17:24.954   01 Jun 2027 03:17:27.124             2.170          1085.000
         8   01 Jun 2027 04:48:39.313   01 Jun 2027 04:48:41.811             2.498          1249.000
         9   01 Jun 2027 04:49:51.921   01 Jun 2027 04:53:06.578           194.657         97328.500
        10   01 Jun 2027 04:53:11.514   01 Jun 2027 04:53:18.369             6.855          3427.500
        11   01 Jun 2027 04:53:59.723   01 Jun 2027 04:54:11.507            11.784          5892.000
        12   01 Jun 2027 04:54:20.563   01 Jun 2027 04:54:20.563             0.000             0.000
        13   01 Jun 2027 06:27:40.242   01 Jun 2027 06:29:42.744           122.502         61251.000
        14   01 Jun 2027 07:50:02.347   01 Jun 2027 07:51:35.482            93.135         46567.500
        15   01 Jun 2027 09:26:37.245   01 Jun 2027 09:27:09.830            32.585         16292.500
        16   01 Jun 2027 11:01:46.202   01 Jun 2027 11:02:29.235            43.033         21516.500
        17   01 Jun 2027 11:02:44.022   01 Jun 2027 11:04:47.770           123.748         61874.000
        18   01 Jun 2027 11:05:25.908   01 Jun 2027 11:05:38.326            12.418          6209.000
        19   01 Jun 2027 11:08:29.033   01 Jun 2027 11:08:32.487             3.454          1727.000
        20   02 Jun 2027 03:22:22.519   02 Jun 2027 03:23:16.193            53.674         26837.000
        21   02 Jun 2027 03:23:19.058   02 Jun 2027 03:25:42.505           143.447         71723.500
        22   02 Jun 2027 03:25:49.363   02 Jun 2027 03:26:11.589            22.226         11113.000
        23   02 Jun 2027 03:28:35.753   02 Jun 2027 03:28:39.118             3.365          1682.500
        24   02 Jun 2027 03:29:33.136   02 Jun 2027 03:29:33.541             0.405           202.500
        25   02 Jun 2027 05:00:35.339   02 Jun 2027 05:01:31.213            55.874         27937.000
        26   02 Jun 2027 05:01:42.133   02 Jun 2027 05:02:28.704            46.571         23285.500
        27   02 Jun 2027 05:03:02.109   02 Jun 2027 05:03:49.208            47.099         23549.500
        28   02 Jun 2027 05:04:48.946   02 Jun 2027 05:04:54.187             5.241          2620.500
        29   02 Jun 2027 05:05:49.305   02 Jun 2027 05:05:52.459             3.154          1577.000
        30   02 Jun 2027 06:38:51.212   02 Jun 2027 06:41:08.808           137.596         68798.000
        31   02 Jun 2027 08:02:13.350   02 Jun 2027 08:03:42.213            88.863         44431.500
        32   02 Jun 2027 08:03:49.761   02 Jun 2027 08:04:15.407            25.646         11536.530
        33   02 Jun 2027 09:39:04.079   02 Jun 2027 09:39:04.079             0.000             0.000
        34   02 Jun 2027 09:39:51.976   02 Jun 2027 09:40:24.061            32.085         16042.500
        35   02 Jun 2027 09:41:04.130   02 Jun 2027 09:41:10.115             5.985          2992.500
        36   02 Jun 2027 11:13:58.305   02 Jun 2027 11:14:09.262            10.957          5010.594
        37   02 Jun 2027 11:14:34.555   02 Jun 2027 11:14:36.915             2.360           703.406
        38   02 Jun 2027 11:20:22.375   02 Jun 2027 11:20:34.121            11.746          5873.000
        39   03 Jun 2027 03:34:23.424   03 Jun 2027 03:37:39.260           195.836         97918.000
        40   03 Jun 2027 03:38:05.266   03 Jun 2027 03:38:46.581            41.315         20657.500
        41   03 Jun 2027 03:39:17.018   03 Jun 2027 03:39:27.647            10.629          5314.500
        42   03 Jun 2027 03:40:54.109   03 Jun 2027 03:41:02.685             8.576          4288.000
        43   03 Jun 2027 05:13:41.187   03 Jun 2027 05:14:59.828            78.641         38102.313
        44   03 Jun 2027 05:15:20.503   03 Jun 2027 05:15:22.454             1.951           246.625
        45   03 Jun 2027 05:16:13.228   03 Jun 2027 05:16:15.521             2.293          1132.781
        46   03 Jun 2027 05:17:21.924   03 Jun 2027 05:17:26.609             4.685          2071.688
        47   03 Jun 2027 05:18:22.458   03 Jun 2027 05:18:23.863             1.405           702.500
        48   03 Jun 2027 05:20:02.261   03 Jun 2027 05:20:07.742             5.481          2740.500
        49   03 Jun 2027 05:20:25.067   03 Jun 2027 05:20:31.327             6.260          1379.750
        50   03 Jun 2027 05:21:22.109   03 Jun 2027 05:21:26.881             4.772          1586.937
        51   03 Jun 2027 06:50:47.620   03 Jun 2027 06:50:59.548            11.928          5964.000
        52   03 Jun 2027 06:51:02.454   03 Jun 2027 06:51:06.068             3.614          1017.844
        53   03 Jun 2027 06:51:51.643   03 Jun 2027 06:51:58.207             6.564          1041.156
        54   03 Jun 2027 06:53:49.687   03 Jun 2027 06:53:53.798             4.111          1491.969
        55   03 Jun 2027 08:14:45.032   03 Jun 2027 08:15:11.188            26.156         10005.344
        56   03 Jun 2027 08:15:49.492   03 Jun 2027 08:16:02.310            12.818           935.375
        57   03 Jun 2027 09:52:19.416   03 Jun 2027 09:52:46.295            26.879         12735.500
        58   03 Jun 2027 11:26:02.451   03 Jun 2027 11:26:02.451             0.000             0.000
        59   03 Jun 2027 11:27:35.688   03 Jun 2027 11:28:10.353            34.665         15247.031
        60   03 Jun 2027 11:28:41.617   03 Jun 2027 11:28:43.257             1.640           820.000
        61   03 Jun 2027 11:31:54.879   03 Jun 2027 11:31:54.879             0.000             0.000
        62   03 Jun 2027 11:32:13.322   03 Jun 2027 11:32:27.356            14.034          6639.187
        63   04 Jun 2027 03:47:04.470   04 Jun 2027 03:51:09.723           245.253        122626.500
        64   04 Jun 2027 03:51:24.880   04 Jun 2027 03:51:28.984             4.104          2052.000
        65   04 Jun 2027 05:25:49.589   04 Jun 2027 05:27:09.749            80.160         40080.000
        66   04 Jun 2027 05:27:24.282   04 Jun 2027 05:27:25.837             1.555           550.749
        67   04 Jun 2027 05:27:55.867   04 Jun 2027 05:27:57.569             1.702           302.438
        68   04 Jun 2027 05:28:12.653   04 Jun 2027 05:28:14.617             1.964           463.156
        69   04 Jun 2027 05:31:13.409   04 Jun 2027 05:31:25.094            11.685          5469.125
        70   04 Jun 2027 05:32:09.719   04 Jun 2027 05:32:11.949             2.230          1114.250
        71   04 Jun 2027 05:32:49.714   04 Jun 2027 05:32:54.111             4.397          1095.844
        72   04 Jun 2027 06:51:27.008   04 Jun 2027 06:51:38.529            11.521          5487.625
        73   04 Jun 2027 06:51:48.884   04 Jun 2027 06:51:48.884             0.000             0.000
        74   04 Jun 2027 07:02:45.692   04 Jun 2027 07:02:52.445             6.753          3152.750
        75   04 Jun 2027 07:03:53.597   04 Jun 2027 07:03:57.556             3.959          1911.000
        76   04 Jun 2027 08:25:21.048   04 Jun 2027 08:25:38.993            17.945          7798.781
        77   04 Jun 2027 08:26:56.224   04 Jun 2027 08:27:02.952             6.728           607.219
        78   04 Jun 2027 08:29:01.625   04 Jun 2027 08:29:06.628             5.003          2501.500
        79   04 Jun 2027 08:30:00.843   04 Jun 2027 08:30:02.498             1.655           827.500
        80   04 Jun 2027 10:00:52.432   04 Jun 2027 10:01:08.175            15.743          6022.344
        81   04 Jun 2027 10:04:50.309   04 Jun 2027 10:05:07.158            16.849          6831.438
        82   04 Jun 2027 10:05:53.174   04 Jun 2027 10:05:57.666             4.492          1438.000
        83   04 Jun 2027 10:06:41.267   04 Jun 2027 10:06:44.055             2.788           979.813
        84   04 Jun 2027 11:37:12.304   04 Jun 2027 11:37:29.694            17.390          5654.406
        85   04 Jun 2027 11:38:00.876   04 Jun 2027 11:38:04.231             3.355           974.437
        86   04 Jun 2027 11:38:58.931   04 Jun 2027 11:39:02.948             4.017           869.156
        87   04 Jun 2027 11:40:14.274   04 Jun 2027 11:40:18.628             4.354          2041.406
        88   04 Jun 2027 11:44:00.949   04 Jun 2027 11:44:16.046            15.097          6418.750
        89   04 Jun 2027 11:44:33.732   04 Jun 2027 11:44:43.843            10.111           528.125
        90   05 Jun 2027 03:59:11.609   05 Jun 2027 04:01:28.248           136.639         68319.500
        91   05 Jun 2027 04:01:35.768   05 Jun 2027 04:01:42.156             6.388          3194.000
        92   05 Jun 2027 04:01:51.896   05 Jun 2027 04:02:37.992            46.096         23048.000
        93   05 Jun 2027 04:02:58.538   05 Jun 2027 04:03:41.009            42.471         21235.500
        94   05 Jun 2027 05:38:15.700   05 Jun 2027 05:39:48.459            92.759         46379.500
        95   05 Jun 2027 05:40:12.491   05 Jun 2027 05:40:24.530            12.039          3107.687
        96   05 Jun 2027 05:41:51.410   05 Jun 2027 05:41:57.450             6.040          2688.563
        97   05 Jun 2027 05:42:20.994   05 Jun 2027 05:42:26.113             5.119           606.906
        98   05 Jun 2027 05:42:57.377   05 Jun 2027 05:42:59.636             2.259           289.125
        99   05 Jun 2027 05:44:11.602   05 Jun 2027 05:44:15.695             4.093          1173.531
       100   05 Jun 2027 07:03:05.225   05 Jun 2027 07:03:19.707            14.482          6489.812
       101   05 Jun 2027 07:03:47.138   05 Jun 2027 07:03:47.138             0.000             0.000
       102   05 Jun 2027 07:04:28.623   05 Jun 2027 07:04:35.212             6.589          1596.594
       103   05 Jun 2027 07:14:45.206   05 Jun 2027 07:14:53.768             8.562          3684.656
       104   05 Jun 2027 08:37:03.994   05 Jun 2027 08:37:24.117            20.123          9564.594
       105   05 Jun 2027 08:39:00.027   05 Jun 2027 08:39:03.521             3.494          1521.000
       106   05 Jun 2027 08:39:56.456   05 Jun 2027 08:40:00.170             3.714          1002.969
       107   05 Jun 2027 10:12:37.479   05 Jun 2027 10:12:51.655            14.176          6876.125
       108   05 Jun 2027 11:55:43.628   05 Jun 2027 11:56:43.655            60.027         27648.469
       109   06 Jun 2027 04:11:35.595   06 Jun 2027 04:11:57.469            21.874         10937.000
       110   06 Jun 2027 04:12:04.668   06 Jun 2027 04:12:34.553            29.885         14942.500
       111   06 Jun 2027 04:12:39.646   06 Jun 2027 04:13:33.738            54.092         27046.000
       112   06 Jun 2027 04:13:35.979   06 Jun 2027 04:14:47.956            71.977         35988.500
       113   06 Jun 2027 04:15:11.563   06 Jun 2027 04:15:12.329             0.766           383.000
       114   06 Jun 2027 04:15:21.798   06 Jun 2027 04:15:56.480            34.682         17341.000
       115   06 Jun 2027 04:16:23.119   06 Jun 2027 04:16:28.114             4.995          2497.500
       116   06 Jun 2027 05:50:20.053   06 Jun 2027 05:50:58.870            38.817         19408.500
       117   06 Jun 2027 05:51:23.298   06 Jun 2027 05:52:27.016            63.718         31859.000
       118   06 Jun 2027 05:52:49.780   06 Jun 2027 05:52:49.780             0.000             0.000
       119   06 Jun 2027 05:53:40.114   06 Jun 2027 05:53:40.114             0.000             0.000
       120   06 Jun 2027 05:53:40.858   06 Jun 2027 05:53:41.119             0.261           130.500
       121   06 Jun 2027 05:54:11.097   06 Jun 2027 05:54:21.323            10.226          4316.469
       122   06 Jun 2027 05:56:29.077   06 Jun 2027 05:56:29.077             0.000             0.000
       123   06 Jun 2027 05:57:14.926   06 Jun 2027 05:57:15.295             0.369           184.500
       124   06 Jun 2027 07:14:38.849   06 Jun 2027 07:14:54.048            15.199          7141.625
       125   06 Jun 2027 07:15:22.954   06 Jun 2027 07:15:24.372             1.418           528.594
       126   06 Jun 2027 07:15:48.841   06 Jun 2027 07:15:48.841             0.000             0.000
       127   06 Jun 2027 07:16:39.259   06 Jun 2027 07:16:44.995             5.736          2104.375
       128   06 Jun 2027 07:26:59.871   06 Jun 2027 07:27:11.768            11.897          2798.063
       129   06 Jun 2027 08:48:36.016   06 Jun 2027 08:48:54.826            18.810          9403.625
       130   06 Jun 2027 08:50:51.057   06 Jun 2027 08:50:57.244             6.187          3088.656
       131   06 Jun 2027 08:52:03.871   06 Jun 2027 08:52:03.871             0.000             0.000
       132   06 Jun 2027 08:52:59.051   06 Jun 2027 08:52:59.051             0.000             0.000
       133   06 Jun 2027 08:53:12.639   06 Jun 2027 08:53:20.728             8.089          3326.094
       134   06 Jun 2027 10:24:25.994   06 Jun 2027 10:24:40.169            14.175          6092.969
       135   06 Jun 2027 10:25:55.613   06 Jun 2027 10:25:58.943             3.330           547.344
       136   06 Jun 2027 10:31:00.942   06 Jun 2027 10:31:00.942             0.000             0.000
       137   06 Jun 2027 10:32:27.336   06 Jun 2027 10:32:50.845            23.509         11754.500
       138   07 Jun 2027 04:24:15.056   07 Jun 2027 04:24:28.032            12.976          6488.000
       139   07 Jun 2027 04:24:38.062   07 Jun 2027 04:25:38.793            60.731         30365.500
       140   07 Jun 2027 04:25:47.694   07 Jun 2027 04:26:12.699            25.005         12502.500
       141   07 Jun 2027 04:26:24.260   07 Jun 2027 04:28:22.998           118.738         59369.000
       142   07 Jun 2027 06:02:46.357   07 Jun 2027 06:04:27.734           101.377         50688.500
       143   07 Jun 2027 06:04:41.805   07 Jun 2027 06:04:59.361            17.556          7163.219
       144   07 Jun 2027 06:07:17.765   07 Jun 2027 06:07:26.607             8.842          4131.844
       145   07 Jun 2027 07:26:34.955   07 Jun 2027 07:26:55.238            20.283          9581.406
       146   07 Jun 2027 07:27:44.424   07 Jun 2027 07:27:48.491             4.067          1343.688
       147   07 Jun 2027 09:02:35.183   07 Jun 2027 09:03:06.744            31.561         12219.406
       148   07 Jun 2027 09:03:10.819   07 Jun 2027 09:03:10.819             0.000             0.000
       149   07 Jun 2027 09:03:27.699   07 Jun 2027 09:03:33.326             5.627           654.844
       150   07 Jun 2027 09:05:54.355   07 Jun 2027 09:06:06.330            11.975          4390.500
       151   07 Jun 2027 10:36:22.977   07 Jun 2027 10:36:41.139            18.162          6378.000
       152   07 Jun 2027 10:38:12.260   07 Jun 2027 10:38:14.501             2.241           160.719
       153   07 Jun 2027 10:41:08.190   07 Jun 2027 10:41:21.168            12.978          5060.125
       154   07 Jun 2027 10:41:52.598   07 Jun 2027 10:41:56.812             4.214           914.312
       155   07 Jun 2027 10:42:54.221   07 Jun 2027 10:42:57.983             3.762          1022.625
       156   07 Jun 2027 10:43:21.666   07 Jun 2027 10:43:21.666             0.000             0.000
       157   08 Jun 2027 03:00:10.498   08 Jun 2027 03:00:24.985            14.487          7243.500
       158   08 Jun 2027 03:00:51.765   08 Jun 2027 03:01:22.202            30.437         15218.500
       159   08 Jun 2027 03:01:41.842   08 Jun 2027 03:01:58.086            16.244          8122.000
       160   08 Jun 2027 03:02:21.265   08 Jun 2027 03:02:30.973             9.708          4854.000
       161   08 Jun 2027 03:02:45.697   08 Jun 2027 03:02:54.612             8.915          4457.500
       162   08 Jun 2027 03:03:36.801   08 Jun 2027 03:04:20.893            44.092         22046.000
       163   08 Jun 2027 04:36:48.811   08 Jun 2027 04:37:16.044            27.233         13616.500
       164   08 Jun 2027 04:37:26.718   08 Jun 2027 04:39:18.554           111.836         55918.000
       165   08 Jun 2027 04:39:41.972   08 Jun 2027 04:39:45.130             3.158          1579.000
       166   08 Jun 2027 04:40:10.414   08 Jun 2027 04:40:31.811            21.397         10698.500
       167   08 Jun 2027 04:41:12.190   08 Jun 2027 04:41:12.190             0.000             0.000
       168   08 Jun 2027 04:41:38.878   08 Jun 2027 04:41:38.878             0.000             0.000
       169   08 Jun 2027 04:42:22.617   08 Jun 2027 04:42:27.419             4.802          2401.000
       170   08 Jun 2027 04:42:38.430   08 Jun 2027 04:42:40.964             2.534          1267.000
       171   08 Jun 2027 06:15:05.268   08 Jun 2027 06:16:27.869            82.601         41300.500
       172   08 Jun 2027 06:17:19.325   08 Jun 2027 06:17:29.754            10.429          1916.281
       173   08 Jun 2027 06:18:55.692   08 Jun 2027 06:18:55.692             0.000             0.000
       174   08 Jun 2027 06:19:37.163   08 Jun 2027 06:19:39.718             2.555          1277.500
       175   08 Jun 2027 07:38:27.783   08 Jun 2027 07:38:54.702            26.919          8862.687
       176   08 Jun 2027 07:40:21.154   08 Jun 2027 07:40:29.051             7.897          2701.625
       177   08 Jun 2027 07:40:55.793   08 Jun 2027 07:41:01.137             5.344           388.656
       178   08 Jun 2027 09:14:48.659   08 Jun 2027 09:15:16.166            27.507         10603.938
       179   08 Jun 2027 09:16:08.565   08 Jun 2027 09:16:13.654             5.089          1432.813
       180   08 Jun 2027 10:48:54.034   08 Jun 2027 10:49:10.904            16.870          7287.750
       181   08 Jun 2027 10:49:40.498   08 Jun 2027 10:49:53.382            12.884           871.437
       182   08 Jun 2027 10:50:02.881   08 Jun 2027 10:50:04.917             2.036           158.594
       183   08 Jun 2027 10:52:00.228   08 Jun 2027 10:52:04.312             4.084          2042.000
       184   08 Jun 2027 10:52:14.370   08 Jun 2027 10:52:18.794             4.424           746.344
       185   08 Jun 2027 10:52:39.743   08 Jun 2027 10:52:42.293             2.550           597.250
       186   08 Jun 2027 10:55:33.884   08 Jun 2027 10:55:34.299             0.415           207.500
       187   08 Jun 2027 10:56:11.045   08 Jun 2027 10:56:24.409            13.364          6231.125
       188   08 Jun 2027 10:56:50.897   08 Jun 2027 10:56:52.055             1.158           579.000
       189   09 Jun 2027 03:10:41.808   09 Jun 2027 03:11:24.082            42.274         21137.000
       190   09 Jun 2027 03:11:32.326   09 Jun 2027 03:13:45.761           133.435         66717.500
       191   09 Jun 2027 03:14:09.530   09 Jun 2027 03:14:25.368            15.838          7919.000
       192   09 Jun 2027 03:15:50.847   09 Jun 2027 03:16:00.623             9.776          4888.000
       193   09 Jun 2027 03:16:13.008   09 Jun 2027 03:16:17.180             4.172          2086.000
       194   09 Jun 2027 03:16:28.394   09 Jun 2027 03:16:44.983            16.589          8294.500
       195   09 Jun 2027 04:48:55.777   09 Jun 2027 04:49:57.210            61.433         30716.500
       196   09 Jun 2027 04:50:02.855   09 Jun 2027 04:50:52.042            49.187         24469.406
       197   09 Jun 2027 04:51:43.791   09 Jun 2027 04:51:45.981             2.190          1095.000
       198   09 Jun 2027 04:51:58.151   09 Jun 2027 04:52:00.843             2.692           735.594
       199   09 Jun 2027 04:54:09.967   09 Jun 2027 04:54:13.950             3.983          1991.500
       200   09 Jun 2027 04:54:36.364   09 Jun 2027 04:54:36.975             0.611           305.500
       201   09 Jun 2027 06:27:57.864   09 Jun 2027 06:28:09.862            11.998          5835.437
       202   09 Jun 2027 06:28:14.395   09 Jun 2027 06:28:16.764             2.369           141.656
       203   09 Jun 2027 06:29:30.825   09 Jun 2027 06:29:37.756             6.931          2314.406
       204   09 Jun 2027 06:30:54.783   09 Jun 2027 06:31:00.098             5.315          2168.156
       205   09 Jun 2027 07:50:28.951   09 Jun 2027 07:50:44.512            15.561          7590.313
       206   09 Jun 2027 07:52:50.639   09 Jun 2027 07:53:02.383            11.744          3915.063
       207   09 Jun 2027 09:26:55.182   09 Jun 2027 09:27:09.225            14.043          6708.594
       208   09 Jun 2027 09:29:33.476   09 Jun 2027 09:29:42.878             9.402          3957.844
       209   09 Jun 2027 11:02:03.568   09 Jun 2027 11:02:17.401            13.833          5019.813
       210   09 Jun 2027 11:03:08.038   09 Jun 2027 11:03:11.443             3.405           783.312
       211   09 Jun 2027 11:05:40.995   09 Jun 2027 11:05:40.995             0.000             0.000
       212   09 Jun 2027 11:05:53.800   09 Jun 2027 11:05:53.800             0.000             0.000
       213   09 Jun 2027 11:08:39.700   09 Jun 2027 11:08:50.702            11.002          5501.000
       214   10 Jun 2027 03:22:40.213   10 Jun 2027 03:25:51.086           190.873         95436.500
       215   10 Jun 2027 03:25:59.248   10 Jun 2027 03:26:26.825            27.577         13788.500
       216   10 Jun 2027 03:26:33.593   10 Jun 2027 03:26:33.593             0.000             0.000
       217   10 Jun 2027 03:27:47.669   10 Jun 2027 03:27:57.356             9.687          4843.500
       218   10 Jun 2027 03:28:16.867   10 Jun 2027 03:28:16.867             0.000             0.000
       219   10 Jun 2027 03:28:57.087   10 Jun 2027 03:29:16.873            19.786          9893.000
       220   10 Jun 2027 05:00:53.654   10 Jun 2027 05:01:41.708            48.054         24027.000
       221   10 Jun 2027 05:02:00.135   10 Jun 2027 05:02:27.169            27.034         13517.000
       222   10 Jun 2027 05:02:49.131   10 Jun 2027 05:02:52.622             3.491           808.531
       223   10 Jun 2027 05:03:45.477   10 Jun 2027 05:03:46.316             0.839             2.875
       224   10 Jun 2027 05:04:35.928   10 Jun 2027 05:04:39.663             3.735          1550.375
       225   10 Jun 2027 05:05:12.719   10 Jun 2027 05:05:14.626             1.907           892.469
       226   10 Jun 2027 05:06:19.903   10 Jun 2027 05:06:28.299             8.396          1970.062
       227   10 Jun 2027 05:06:58.891   10 Jun 2027 05:07:00.950             2.059           919.187
       228   10 Jun 2027 06:39:07.568   10 Jun 2027 06:39:21.298            13.730          5864.406
       229   10 Jun 2027 06:40:06.274   10 Jun 2027 06:40:07.200             0.926           453.469
       230   10 Jun 2027 06:41:17.236   10 Jun 2027 06:41:23.115             5.879          2170.688
       231   10 Jun 2027 06:41:56.912   10 Jun 2027 06:41:56.912             0.000             0.000
       232   10 Jun 2027 06:41:58.530   10 Jun 2027 06:42:02.616             4.086          1047.437
       233   10 Jun 2027 06:42:30.130   10 Jun 2027 06:42:33.226             3.096           736.094
       234   10 Jun 2027 08:02:29.498   10 Jun 2027 08:02:40.499            11.001          5164.344
       235   10 Jun 2027 08:03:17.755   10 Jun 2027 08:03:22.748             4.993           452.000
       236   10 Jun 2027 08:03:36.179   10 Jun 2027 08:03:36.745             0.566            39.875
       237   10 Jun 2027 08:04:55.480   10 Jun 2027 08:05:00.042             4.562          1924.906
       238   10 Jun 2027 08:05:18.370   10 Jun 2027 08:05:19.067             0.697             7.625
       239   10 Jun 2027 09:40:12.329   10 Jun 2027 09:40:37.155            24.826         12322.750
       240   10 Jun 2027 11:14:15.966   10 Jun 2027 11:14:34.309            18.343          8649.656
       241   10 Jun 2027 11:15:28.212   10 Jun 2027 11:15:28.212             0.000             0.000
       242   10 Jun 2027 11:18:37.841   10 Jun 2027 11:18:37.841             0.000             0.000
       243   10 Jun 2027 11:20:39.339   10 Jun 2027 11:20:51.751            12.412          6206.000
       244   11 Jun 2027 03:34:41.637   11 Jun 2027 03:35:04.830            23.193         11596.500
       245   11 Jun 2027 03:35:04.993   11 Jun 2027 03:39:03.960           238.967        119483.500
       246   11 Jun 2027 03:39:43.875   11 Jun 2027 03:39:43.875             0.000             0.000
       247   11 Jun 2027 03:39:51.113   11 Jun 2027 03:39:51.113             0.000             0.000
       248   11 Jun 2027 03:41:37.010   11 Jun 2027 03:41:37.617             0.607           303.500
       249   11 Jun 2027 05:13:59.148   11 Jun 2027 05:15:02.379            63.231         30871.563
       250   11 Jun 2027 05:16:09.820   11 Jun 2027 05:16:13.215             3.395           825.625
       251   11 Jun 2027 05:16:30.519   11 Jun 2027 05:16:32.590             2.071            22.188
       252   11 Jun 2027 05:17:44.210   11 Jun 2027 05:17:48.916             4.706          2067.250
       253   11 Jun 2027 05:20:16.321   11 Jun 2027 05:20:24.704             8.383          2559.219
       254   11 Jun 2027 05:20:39.833   11 Jun 2027 05:20:41.081             1.248           471.062
       255   11 Jun 2027 06:40:22.786   11 Jun 2027 06:40:25.081             2.295          1147.500
       256   11 Jun 2027 06:51:05.087   11 Jun 2027 06:51:11.925             6.838          3362.188
       257   11 Jun 2027 06:51:21.394   11 Jun 2027 06:51:22.717             1.323           145.875
       258   11 Jun 2027 06:52:06.993   11 Jun 2027 06:52:09.045             2.052           982.562
       259   11 Jun 2027 06:53:18.083   11 Jun 2027 06:53:24.737             6.654          2157.437
       260   11 Jun 2027 08:15:04.952   11 Jun 2027 08:15:25.998            21.046         10417.813
       261   11 Jun 2027 08:16:06.735   11 Jun 2027 08:16:17.843            11.108          1023.875
       262   11 Jun 2027 09:52:40.080   11 Jun 2027 09:53:15.969            35.889         13835.312
       263   11 Jun 2027 09:53:24.221   11 Jun 2027 09:53:24.221             0.000             0.000
       264   11 Jun 2027 09:53:25.680   11 Jun 2027 09:53:25.863             0.183            56.156
       265   11 Jun 2027 11:25:44.585   11 Jun 2027 11:26:03.475            18.890          9445.000
       266   11 Jun 2027 11:26:24.919   11 Jun 2027 11:26:29.467             4.548          1505.312
       267   11 Jun 2027 11:27:31.135   11 Jun 2027 11:27:37.374             6.239           381.469
       268   11 Jun 2027 11:28:10.097   11 Jun 2027 11:28:11.400             1.303           561.563
       269   11 Jun 2027 11:28:35.627   11 Jun 2027 11:28:36.077             0.450           172.000
       270   11 Jun 2027 11:32:09.611   11 Jun 2027 11:32:09.611             0.000             0.000
       271   11 Jun 2027 11:32:30.033   11 Jun 2027 11:32:46.080            16.047          6655.219
       272   12 Jun 2027 03:47:22.233   12 Jun 2027 03:50:25.934           183.701         91850.500
       273   12 Jun 2027 03:51:06.265   12 Jun 2027 03:51:47.287            41.022         20511.000
       274   12 Jun 2027 03:51:47.810   12 Jun 2027 03:51:51.005             3.195          1597.500
       275   12 Jun 2027 03:51:53.534   12 Jun 2027 03:52:03.126             9.592          4796.000
       276   12 Jun 2027 03:52:49.351   12 Jun 2027 03:52:56.113             6.762          3381.000
       277   12 Jun 2027 05:26:19.842   12 Jun 2027 05:27:44.303            84.461         40585.844
       278   12 Jun 2027 05:29:15.096   12 Jun 2027 05:29:20.601             5.505          2389.031
       279   12 Jun 2027 05:29:34.813   12 Jun 2027 05:29:36.006             1.193           341.469
       280   12 Jun 2027 05:30:33.921   12 Jun 2027 05:30:34.905             0.984           492.000
       281   12 Jun 2027 05:31:19.527   12 Jun 2027 05:31:19.527             0.000             0.000
       282   12 Jun 2027 05:32:01.124   12 Jun 2027 05:32:08.259             7.135          3567.500
       283   12 Jun 2027 05:32:21.009   12 Jun 2027 05:32:22.397             1.388           571.531
       284   12 Jun 2027 05:33:08.755   12 Jun 2027 05:33:12.556             3.801          1313.344
       285   12 Jun 2027 06:51:40.398   12 Jun 2027 06:51:57.091            16.693          8258.156
       286   12 Jun 2027 07:03:03.666   12 Jun 2027 07:03:09.387             5.721          2860.500
       287   12 Jun 2027 07:04:11.418   12 Jun 2027 07:04:17.296             5.878          2448.313
       288   12 Jun 2027 08:25:40.726   12 Jun 2027 08:25:56.374            15.648          7720.375
       289   12 Jun 2027 08:26:55.894   12 Jun 2027 08:26:59.300             3.406          1173.125
       290   12 Jun 2027 08:30:17.984   12 Jun 2027 08:30:21.201             3.217          1608.500
       291   12 Jun 2027 10:01:04.775   12 Jun 2027 10:01:24.480            19.705          7444.875
       292   12 Jun 2027 11:37:55.001   12 Jun 2027 11:37:55.001             0.000             0.000
       293   12 Jun 2027 11:44:17.294   12 Jun 2027 11:45:02.279            44.985         22492.500
       294   13 Jun 2027 03:59:30.281   13 Jun 2027 04:01:04.388            94.107         47053.500
       295   13 Jun 2027 04:01:05.350   13 Jun 2027 04:01:43.594            38.244         19122.000
       296   13 Jun 2027 04:03:55.256   13 Jun 2027 04:04:39.033            43.777         21888.500
       297   13 Jun 2027 04:05:23.753   13 Jun 2027 04:05:24.261             0.508           254.000
       298   13 Jun 2027 05:38:35.326   13 Jun 2027 05:40:25.978           110.652         55326.000
       299   13 Jun 2027 05:40:43.942   13 Jun 2027 05:41:14.138            30.196         15098.000
       300   13 Jun 2027 05:42:06.316   13 Jun 2027 05:42:19.318            13.002          6501.000
       301   13 Jun 2027 05:42:37.027   13 Jun 2027 05:42:37.027             0.000             0.000
       302   13 Jun 2027 05:43:03.530   13 Jun 2027 05:43:10.756             7.226          3613.000
       303   13 Jun 2027 05:43:48.941   13 Jun 2027 05:43:54.047             5.106          2381.187
       304   13 Jun 2027 05:45:23.198   13 Jun 2027 05:45:31.311             8.113          2651.219
       305   13 Jun 2027 07:03:23.328   13 Jun 2027 07:03:43.333            20.005          7404.156
       306   13 Jun 2027 07:04:46.509   13 Jun 2027 07:04:51.141             4.632          1714.781
       307   13 Jun 2027 07:04:58.273   13 Jun 2027 07:04:58.902             0.629           222.875
       308   13 Jun 2027 07:15:03.068   13 Jun 2027 07:15:09.647             6.579          2888.469
       309   13 Jun 2027 08:37:20.336   13 Jun 2027 08:37:37.805            17.469          8734.500
       310   13 Jun 2027 08:38:09.205   13 Jun 2027 08:38:13.708             4.503          1621.156
       311   13 Jun 2027 08:39:54.086   13 Jun 2027 08:40:00.994             6.908          3052.312
       312   13 Jun 2027 08:41:17.218   13 Jun 2027 08:41:21.832             4.614          1972.969
       313   13 Jun 2027 08:42:13.061   13 Jun 2027 08:42:13.635             0.574           287.000
       314   13 Jun 2027 10:12:14.068   13 Jun 2027 10:12:26.828            12.760          5450.781
       315   13 Jun 2027 10:17:46.448   13 Jun 2027 10:18:04.073            17.625          8434.375
       316   13 Jun 2027 11:55:59.405   13 Jun 2027 11:56:38.099            38.694         18551.000
       317   13 Jun 2027 11:56:53.183   13 Jun 2027 11:56:58.342             5.159           470.438
