uniorb/output/strategy_2/Camera/Camera_KinoSat_111103.txt

KinoSat_111103
-------------------------
    Access    *     Start Time (UTCG)     *     Stop Time (UTCG)  *   Duration (s) *   Data (Mbytes)
         1   01 Jun 2027 03:43:01.034   01 Jun 2027 03:43:19.873            18.839          9419.500
         2   01 Jun 2027 03:44:04.111   01 Jun 2027 03:44:37.021            32.910         16455.000
         3   01 Jun 2027 03:54:45.136   01 Jun 2027 03:55:43.299            58.163         29081.500
         4   01 Jun 2027 05:16:58.684   01 Jun 2027 05:18:04.908            66.224         33112.000
         5   01 Jun 2027 05:18:52.441   01 Jun 2027 05:19:49.888            57.447         28723.500
         6   01 Jun 2027 05:20:00.697   01 Jun 2027 05:20:06.502             5.805          2902.500
         7   01 Jun 2027 05:21:10.792   01 Jun 2027 05:21:31.025            20.233         10116.500
         8   01 Jun 2027 06:51:54.219   01 Jun 2027 06:53:53.430           119.211         59605.500
         9   01 Jun 2027 06:54:00.627   01 Jun 2027 06:55:04.328            63.701         31850.500
        10   01 Jun 2027 06:56:46.242   01 Jun 2027 06:57:04.938            18.696          9348.000
        11   01 Jun 2027 08:29:24.952   01 Jun 2027 08:32:16.766           171.814         85907.000
        12   01 Jun 2027 08:35:35.722   01 Jun 2027 08:36:12.703            36.981         18490.500
        13   01 Jun 2027 10:06:10.268   01 Jun 2027 10:08:31.590           141.322         70661.000
        14   01 Jun 2027 10:09:01.094   01 Jun 2027 10:09:02.245             1.151           575.500
        15   01 Jun 2027 10:09:24.974   01 Jun 2027 10:09:24.974             0.000             0.000
        16   01 Jun 2027 10:10:26.367   01 Jun 2027 10:10:29.382             3.015          1507.500
        17   01 Jun 2027 10:11:54.084   01 Jun 2027 10:11:56.407             2.323          1161.500
        18   01 Jun 2027 10:12:16.484   01 Jun 2027 10:12:18.074             1.590           795.000
        19   01 Jun 2027 11:44:09.292   01 Jun 2027 11:45:58.049           108.757         54378.500
        20   01 Jun 2027 11:46:49.954   01 Jun 2027 11:46:49.954             0.000             0.000
        21   01 Jun 2027 11:47:02.310   01 Jun 2027 11:47:07.292             4.982          2491.000
        22   02 Jun 2027 03:54:34.232   02 Jun 2027 03:55:31.776            57.544         28772.000
        23   02 Jun 2027 04:06:49.921   02 Jun 2027 04:07:17.573            27.652         13826.000
        24   02 Jun 2027 05:28:30.789   02 Jun 2027 05:29:50.469            79.680         39840.000
        25   02 Jun 2027 05:30:38.694   02 Jun 2027 05:32:00.601            81.907         40953.500
        26   02 Jun 2027 05:32:20.235   02 Jun 2027 05:32:42.685            22.450         11225.000
        27   02 Jun 2027 07:03:24.129   02 Jun 2027 07:06:04.452           160.323         80161.500
        28   02 Jun 2027 07:06:47.402   02 Jun 2027 07:06:47.402             0.000             0.000
        29   02 Jun 2027 07:07:43.807   02 Jun 2027 07:08:27.645            43.838         21919.000
        30   02 Jun 2027 07:12:18.637   02 Jun 2027 07:12:30.714            12.077          6038.500
        31   02 Jun 2027 08:41:19.578   02 Jun 2027 08:43:06.255           106.677         52027.000
        32   02 Jun 2027 08:43:25.033   02 Jun 2027 08:43:27.026             1.993           562.187
        33   02 Jun 2027 08:44:12.023   02 Jun 2027 08:44:12.023             0.000             0.000
        34   02 Jun 2027 08:46:19.654   02 Jun 2027 08:46:32.178            12.524          5394.625
        35   02 Jun 2027 08:46:45.974   02 Jun 2027 08:46:49.848             3.874           431.125
        36   02 Jun 2027 08:47:21.291   02 Jun 2027 08:47:24.647             3.356           900.656
        37   02 Jun 2027 08:48:34.024   02 Jun 2027 08:48:42.432             8.408          1966.219
        38   02 Jun 2027 10:18:06.792   02 Jun 2027 10:18:24.846            18.054          9027.000
        39   02 Jun 2027 10:18:39.490   02 Jun 2027 10:18:41.155             1.665           559.563
        40   02 Jun 2027 10:20:23.270   02 Jun 2027 10:20:29.284             6.014          2052.719
        41   02 Jun 2027 10:20:50.014   02 Jun 2027 10:20:51.528             1.514           647.813
        42   02 Jun 2027 10:21:32.428   02 Jun 2027 10:21:36.150             3.722          1002.156
        43   02 Jun 2027 10:21:55.915   02 Jun 2027 10:22:00.291             4.376           481.437
        44   02 Jun 2027 10:22:32.945   02 Jun 2027 10:22:35.410             2.465           939.344
        45   02 Jun 2027 10:22:49.191   02 Jun 2027 10:22:55.356             6.165           430.656
        46   02 Jun 2027 10:23:31.014   02 Jun 2027 10:23:40.404             9.390          1090.031
        47   02 Jun 2027 10:23:59.071   02 Jun 2027 10:24:02.245             3.174           169.094
        48   02 Jun 2027 11:55:57.209   02 Jun 2027 11:56:11.496            14.287          6567.062
        49   02 Jun 2027 11:57:08.714   02 Jun 2027 11:57:12.935             4.221          1591.594
        50   02 Jun 2027 11:57:32.031   02 Jun 2027 11:57:32.031             0.000             0.000
        51   02 Jun 2027 11:57:49.214   02 Jun 2027 11:57:52.675             3.461           992.406
        52   02 Jun 2027 11:57:53.614   02 Jun 2027 11:57:54.549             0.935            29.344
        53   02 Jun 2027 11:58:15.261   02 Jun 2027 11:58:17.429             2.168           358.344
        54   02 Jun 2027 11:58:21.139   02 Jun 2027 11:58:24.210             3.071           115.937
        55   02 Jun 2027 11:58:29.244   02 Jun 2027 11:58:32.475             3.231           157.313
        56   02 Jun 2027 11:59:03.961   02 Jun 2027 11:59:04.130             0.169            84.500
        57   02 Jun 2027 11:59:31.969   02 Jun 2027 11:59:34.469             2.500          1250.000
        58   02 Jun 2027 11:59:50.703   02 Jun 2027 11:59:55.102             4.399           878.500
        59   03 Jun 2027 04:06:29.831   03 Jun 2027 04:07:43.254            73.423         36711.500
        60   03 Jun 2027 04:08:31.003   03 Jun 2027 04:08:31.003             0.000             0.000
        61   03 Jun 2027 05:42:29.540   03 Jun 2027 05:45:42.237           192.697         96348.500
        62   03 Jun 2027 05:45:47.450   03 Jun 2027 05:45:57.754            10.304          5152.000
        63   03 Jun 2027 07:16:17.507   03 Jun 2027 07:17:08.803            51.296         25381.875
        64   03 Jun 2027 07:17:40.506   03 Jun 2027 07:17:45.132             4.626           524.187
        65   03 Jun 2027 07:18:27.488   03 Jun 2027 07:18:30.019             2.531           597.656
        66   03 Jun 2027 07:18:52.602   03 Jun 2027 07:18:54.044             1.442           553.344
        67   03 Jun 2027 07:20:10.862   03 Jun 2027 07:20:15.403             4.541          2270.500
        68   03 Jun 2027 07:21:06.911   03 Jun 2027 07:21:06.911             0.000             0.000
        69   03 Jun 2027 07:21:32.054   03 Jun 2027 07:21:37.808             5.754          2464.562
        70   03 Jun 2027 07:22:10.491   03 Jun 2027 07:22:10.491             0.000             0.000
        71   03 Jun 2027 07:22:27.800   03 Jun 2027 07:22:31.729             3.929          1261.719
        72   03 Jun 2027 07:23:50.344   03 Jun 2027 07:23:56.855             6.511          2392.437
        73   03 Jun 2027 07:24:48.447   03 Jun 2027 07:24:48.835             0.388           194.000
        74   03 Jun 2027 08:53:30.801   03 Jun 2027 08:53:43.107            12.306          5721.000
        75   03 Jun 2027 08:54:20.151   03 Jun 2027 08:54:22.534             2.383           723.500
        76   03 Jun 2027 08:54:44.410   03 Jun 2027 08:54:48.739             4.329             5.094
        77   03 Jun 2027 08:55:29.931   03 Jun 2027 08:55:29.931             0.000             0.000
        78   03 Jun 2027 08:55:58.517   03 Jun 2027 08:56:06.416             7.899          1327.500
        79   03 Jun 2027 08:57:30.282   03 Jun 2027 08:57:35.647             5.365          2520.438
        80   03 Jun 2027 08:58:21.734   03 Jun 2027 08:58:28.113             6.379           990.969
        81   03 Jun 2027 08:58:47.648   03 Jun 2027 08:58:48.684             1.036           381.719
        82   03 Jun 2027 08:59:00.401   03 Jun 2027 08:59:01.676             1.275           175.156
        83   03 Jun 2027 09:00:05.260   03 Jun 2027 09:00:12.171             6.911          1550.063
        84   03 Jun 2027 10:30:43.612   03 Jun 2027 10:30:48.114             4.502          2251.000
        85   03 Jun 2027 10:30:57.879   03 Jun 2027 10:31:10.998            13.119          5893.219
        86   03 Jun 2027 10:32:05.804   03 Jun 2027 10:32:09.967             4.163          1654.969
        87   03 Jun 2027 10:32:17.545   03 Jun 2027 10:32:19.401             1.856            19.344
        88   03 Jun 2027 10:32:34.603   03 Jun 2027 10:32:36.175             1.572           167.031
        89   03 Jun 2027 10:33:08.482   03 Jun 2027 10:33:12.346             3.864           946.875
        90   03 Jun 2027 10:34:13.980   03 Jun 2027 10:34:18.167             4.187          1736.688
        91   03 Jun 2027 10:34:29.694   03 Jun 2027 10:34:31.404             1.710           360.219
        92   03 Jun 2027 10:34:34.305   03 Jun 2027 10:34:34.773             0.468            90.656
        93   03 Jun 2027 10:34:38.754   03 Jun 2027 10:34:41.641             2.887           124.406
        94   03 Jun 2027 10:35:00.125   03 Jun 2027 10:35:03.198             3.073           453.375
        95   03 Jun 2027 10:35:41.550   03 Jun 2027 10:35:47.534             5.984          1186.969
        96   04 Jun 2027 04:18:21.767   04 Jun 2027 04:20:20.736           118.969         59484.500
        97   04 Jun 2027 04:20:56.045   04 Jun 2027 04:20:57.133             1.088           544.000
        98   04 Jun 2027 05:54:43.222   04 Jun 2027 05:57:31.797           168.575         84287.500
        99   04 Jun 2027 05:57:59.526   04 Jun 2027 05:57:59.526             0.000             0.000
       100   04 Jun 2027 07:28:47.413   04 Jun 2027 07:29:13.426            26.013         10800.656
       101   04 Jun 2027 07:30:11.368   04 Jun 2027 07:30:14.759             3.391           913.406
       102   04 Jun 2027 07:30:37.003   04 Jun 2027 07:30:38.611             1.608           289.844
       103   04 Jun 2027 07:31:01.157   04 Jun 2027 07:31:03.255             2.098           651.688
       104   04 Jun 2027 07:31:21.979   04 Jun 2027 07:31:25.566             3.587           429.000
       105   04 Jun 2027 07:31:32.253   04 Jun 2027 07:31:34.636             2.383           208.969
       106   04 Jun 2027 07:33:54.528   04 Jun 2027 07:34:03.780             9.252          3639.250
       107   04 Jun 2027 07:34:12.417   04 Jun 2027 07:34:15.840             3.423           174.281
       108   04 Jun 2027 07:35:20.937   04 Jun 2027 07:35:25.305             4.368          1508.281
       109   04 Jun 2027 07:35:28.976   04 Jun 2027 07:35:31.107             2.131           114.719
       110   04 Jun 2027 07:35:59.554   04 Jun 2027 07:36:00.080             0.526           263.000
       111   04 Jun 2027 07:36:32.760   04 Jun 2027 07:36:36.657             3.897          1537.594
       112   04 Jun 2027 07:36:44.445   04 Jun 2027 07:36:44.928             0.483           109.719
       113   04 Jun 2027 09:05:52.868   04 Jun 2027 09:06:05.539            12.671          5846.156
       114   04 Jun 2027 09:06:18.005   04 Jun 2027 09:06:19.999             1.994           115.000
       115   04 Jun 2027 09:07:07.597   04 Jun 2027 09:07:08.910             1.313           538.906
       116   04 Jun 2027 09:08:13.208   04 Jun 2027 09:08:19.202             5.994          2002.844
       117   04 Jun 2027 09:08:37.748   04 Jun 2027 09:08:40.312             2.564           579.562
       118   04 Jun 2027 09:09:32.848   04 Jun 2027 09:09:37.154             4.306          1061.344
       119   04 Jun 2027 09:10:14.359   04 Jun 2027 09:10:21.800             7.441           726.156
       120   04 Jun 2027 09:11:07.330   04 Jun 2027 09:11:10.705             3.375          1422.812
       121   04 Jun 2027 09:12:06.794   04 Jun 2027 09:12:11.179             4.385          1752.781
       122   04 Jun 2027 09:12:29.356   04 Jun 2027 09:12:30.513             1.157            33.188
       123   04 Jun 2027 10:42:50.471   04 Jun 2027 10:43:07.568            17.097          6273.500
       124   04 Jun 2027 10:43:48.124   04 Jun 2027 10:43:51.063             2.939          1163.406
       125   04 Jun 2027 10:44:16.836   04 Jun 2027 10:44:18.160             1.324           370.875
       126   04 Jun 2027 10:45:01.379   04 Jun 2027 10:45:12.228            10.849          1078.969
       127   04 Jun 2027 10:45:17.073   04 Jun 2027 10:45:18.943             1.870           147.063
       128   04 Jun 2027 10:45:39.803   04 Jun 2027 10:45:40.164             0.361            63.938
       129   04 Jun 2027 10:46:03.476   04 Jun 2027 10:46:06.414             2.938           630.781
       130   04 Jun 2027 10:46:34.853   04 Jun 2027 10:46:39.796             4.943           888.719
       131   04 Jun 2027 10:47:16.319   04 Jun 2027 10:47:18.275             1.956           942.469
       132   04 Jun 2027 10:47:44.844   04 Jun 2027 10:47:48.916             4.072           830.281
       133   05 Jun 2027 03:07:19.775   05 Jun 2027 03:09:47.603           147.828         73914.000
       134   05 Jun 2027 03:10:15.203   05 Jun 2027 03:10:22.656             7.453          3726.500
       135   05 Jun 2027 03:10:26.383   05 Jun 2027 03:10:40.424            14.041          7020.500
       136   05 Jun 2027 04:30:24.582   05 Jun 2027 04:31:24.578            59.996         29998.000
       137   05 Jun 2027 04:31:30.413   05 Jun 2027 04:31:41.241            10.828          5414.000
       138   05 Jun 2027 04:31:46.155   05 Jun 2027 04:31:49.836             3.681          1840.500
       139   05 Jun 2027 06:06:49.887   05 Jun 2027 06:06:54.402             4.515          2257.500
       140   05 Jun 2027 06:07:23.437   05 Jun 2027 06:08:48.068            84.631         38667.124
       141   05 Jun 2027 06:09:31.150   05 Jun 2027 06:09:31.150             0.000             0.000
       142   05 Jun 2027 06:10:01.331   05 Jun 2027 06:10:05.933             4.602          2289.469
       143   05 Jun 2027 07:41:57.930   05 Jun 2027 07:42:09.063            11.133          5380.594
       144   05 Jun 2027 07:43:05.713   05 Jun 2027 07:43:09.561             3.848          1760.969
       145   05 Jun 2027 07:43:33.754   05 Jun 2027 07:43:37.723             3.969           378.063
       146   05 Jun 2027 07:45:03.151   05 Jun 2027 07:45:03.151             0.000             0.000
       147   05 Jun 2027 07:45:14.477   05 Jun 2027 07:45:19.116             4.639          1972.594
       148   05 Jun 2027 07:46:05.551   05 Jun 2027 07:46:16.642            11.091           877.438
       149   05 Jun 2027 07:46:40.810   05 Jun 2027 07:46:41.773             0.963           107.187
       150   05 Jun 2027 07:47:12.980   05 Jun 2027 07:47:14.338             1.358           523.250
       151   05 Jun 2027 07:47:46.054   05 Jun 2027 07:47:48.472             2.418           991.125
       152   05 Jun 2027 07:47:59.217   05 Jun 2027 07:47:59.217             0.000             0.000
       153   05 Jun 2027 07:48:24.513   05 Jun 2027 07:48:26.907             2.394          1126.281
       154   05 Jun 2027 07:48:39.875   05 Jun 2027 07:48:44.954             5.079           367.156
       155   05 Jun 2027 09:18:18.856   05 Jun 2027 09:18:36.067            17.211          7786.812
       156   05 Jun 2027 09:20:20.559   05 Jun 2027 09:20:27.072             6.513          2318.094
       157   05 Jun 2027 09:20:28.237   05 Jun 2027 09:20:29.025             0.788            36.406
       158   05 Jun 2027 09:20:48.492   05 Jun 2027 09:20:49.605             1.113            39.875
       159   05 Jun 2027 09:21:01.575   05 Jun 2027 09:21:14.137            12.562           355.344
       160   05 Jun 2027 09:21:42.951   05 Jun 2027 09:21:48.119             5.168           898.437
       161   05 Jun 2027 09:22:09.225   05 Jun 2027 09:22:09.225             0.000             0.000
       162   05 Jun 2027 09:22:24.861   05 Jun 2027 09:22:24.861             0.000             0.000
       163   05 Jun 2027 09:22:29.309   05 Jun 2027 09:22:33.758             4.449          1287.188
       164   05 Jun 2027 09:22:47.186   05 Jun 2027 09:22:48.328             1.142           377.219
       165   05 Jun 2027 09:22:54.812   05 Jun 2027 09:22:57.980             3.168            81.188
       166   05 Jun 2027 09:23:18.552   05 Jun 2027 09:23:30.472            11.920           588.469
       167   05 Jun 2027 09:24:02.019   05 Jun 2027 09:24:03.507             1.488           574.656
       168   05 Jun 2027 09:24:25.267   05 Jun 2027 09:24:26.322             1.055           525.750
       169   05 Jun 2027 09:24:38.776   05 Jun 2027 09:24:39.688             0.912           389.188
       170   05 Jun 2027 10:55:52.342   05 Jun 2027 10:56:06.302            13.960          6590.344
       171   05 Jun 2027 10:56:39.970   05 Jun 2027 10:56:44.824             4.854          1052.125
       172   05 Jun 2027 10:57:07.491   05 Jun 2027 10:57:14.473             6.982           389.156
       173   05 Jun 2027 10:57:27.682   05 Jun 2027 10:57:33.283             5.601           335.812
       174   05 Jun 2027 10:57:39.598   05 Jun 2027 10:57:42.170             2.572           197.344
       175   05 Jun 2027 10:58:08.945   05 Jun 2027 10:58:10.698             1.753           784.750
       176   05 Jun 2027 10:58:32.952   05 Jun 2027 10:58:34.679             1.727           438.094
       177   05 Jun 2027 10:58:55.212   05 Jun 2027 10:58:56.818             1.606           575.969
       178   05 Jun 2027 10:59:50.351   05 Jun 2027 10:59:55.282             4.931          1672.906
       179   05 Jun 2027 11:00:13.064   05 Jun 2027 11:00:14.202             1.138           141.437
       180   06 Jun 2027 03:19:03.591   06 Jun 2027 03:19:38.471            34.880         17440.000
       181   06 Jun 2027 03:19:52.155   06 Jun 2027 03:22:24.405           152.250         76125.000
       182   06 Jun 2027 03:22:41.199   06 Jun 2027 03:22:49.249             8.050          4025.000
       183   06 Jun 2027 04:42:22.880   06 Jun 2027 04:43:11.626            48.746         24373.000
       184   06 Jun 2027 04:43:27.278   06 Jun 2027 04:43:32.735             5.457          2728.500
       185   06 Jun 2027 04:43:59.241   06 Jun 2027 04:43:59.241             0.000             0.000
       186   06 Jun 2027 04:43:59.810   06 Jun 2027 04:44:01.637             1.827           913.500
       187   06 Jun 2027 04:44:21.992   06 Jun 2027 04:44:21.992             0.000             0.000
       188   06 Jun 2027 06:18:59.800   06 Jun 2027 06:19:50.834            51.034         25106.719
       189   06 Jun 2027 06:20:13.596   06 Jun 2027 06:20:13.596             0.000             0.000
       190   06 Jun 2027 06:20:40.806   06 Jun 2027 06:20:45.188             4.382          1348.500
       191   06 Jun 2027 06:21:01.948   06 Jun 2027 06:21:03.326             1.378           251.750
       192   06 Jun 2027 06:21:21.020   06 Jun 2027 06:21:21.184             0.164            82.000
       193   06 Jun 2027 06:21:33.884   06 Jun 2027 06:21:38.368             4.484           473.125
       194   06 Jun 2027 07:54:09.833   06 Jun 2027 07:54:19.135             9.302          4556.406
       195   06 Jun 2027 07:55:29.253   06 Jun 2027 07:55:33.230             3.977          1909.625
       196   06 Jun 2027 07:56:22.641   06 Jun 2027 07:56:25.476             2.835           455.531
       197   06 Jun 2027 07:57:48.802   06 Jun 2027 07:57:53.478             4.676          2229.875
       198   06 Jun 2027 07:58:04.975   06 Jun 2027 07:58:06.701             1.726           359.281
       199   06 Jun 2027 07:59:16.424   06 Jun 2027 07:59:25.180             8.756          2178.844
       200   06 Jun 2027 07:59:36.813   06 Jun 2027 07:59:41.460             4.647           285.125
       201   06 Jun 2027 07:59:44.719   06 Jun 2027 07:59:46.003             1.284            27.219
       202   06 Jun 2027 08:00:06.599   06 Jun 2027 08:00:10.306             3.707           643.625
       203   06 Jun 2027 08:00:22.902   06 Jun 2027 08:00:22.902             0.000             0.000
       204   06 Jun 2027 08:00:43.718   06 Jun 2027 08:00:45.895             2.177           990.938
       205   06 Jun 2027 09:30:27.060   06 Jun 2027 09:30:43.724            16.664          8332.000
       206   06 Jun 2027 09:31:03.996   06 Jun 2027 09:31:05.807             1.811           757.062
       207   06 Jun 2027 09:32:43.958   06 Jun 2027 09:32:45.650             1.692           792.906
       208   06 Jun 2027 09:33:19.246   06 Jun 2027 09:33:22.143             2.897           948.375
       209   06 Jun 2027 09:33:44.131   06 Jun 2027 09:33:46.699             2.568           621.625
       210   06 Jun 2027 09:34:10.834   06 Jun 2027 09:34:13.992             3.158           448.062
       211   06 Jun 2027 09:34:40.182   06 Jun 2027 09:34:45.306             5.124           818.438
       212   06 Jun 2027 09:34:59.907   06 Jun 2027 09:35:02.740             2.833           449.375
       213   06 Jun 2027 09:35:17.726   06 Jun 2027 09:35:18.322             0.596           122.406
       214   06 Jun 2027 09:36:04.320   06 Jun 2027 09:36:09.812             5.492          1430.687
       215   06 Jun 2027 11:07:57.923   06 Jun 2027 11:08:13.530            15.607          6572.719
       216   06 Jun 2027 11:08:49.442   06 Jun 2027 11:08:52.983             3.541          1028.688
       217   06 Jun 2027 11:09:25.213   06 Jun 2027 11:09:27.440             2.227           690.656
       218   06 Jun 2027 11:09:50.615   06 Jun 2027 11:09:51.727             1.112           200.562
       219   06 Jun 2027 11:10:50.918   06 Jun 2027 11:10:54.936             4.018          1641.312
       220   06 Jun 2027 11:11:02.668   06 Jun 2027 11:11:05.958             3.290           241.625
       221   06 Jun 2027 11:11:07.593   06 Jun 2027 11:11:09.125             1.532            51.094
       222   06 Jun 2027 11:11:12.031   06 Jun 2027 11:11:13.602             1.571            90.812
       223   06 Jun 2027 11:11:25.284   06 Jun 2027 11:11:27.207             1.923           313.844
       224   06 Jun 2027 11:12:19.092   06 Jun 2027 11:12:21.006             1.914           957.000
       225   07 Jun 2027 03:20:13.593   07 Jun 2027 03:20:22.509             8.916          4458.000
       226   07 Jun 2027 03:31:00.178   07 Jun 2027 03:31:41.051            40.873         20436.500
       227   07 Jun 2027 03:31:50.174   07 Jun 2027 03:34:34.997           164.823         82411.500
       228   07 Jun 2027 04:54:58.990   07 Jun 2027 04:55:34.871            35.881         17940.500
       229   07 Jun 2027 04:55:49.655   07 Jun 2027 04:55:50.350             0.695           347.500
       230   07 Jun 2027 04:56:03.218   07 Jun 2027 04:56:15.091            11.873          5936.500
       231   07 Jun 2027 04:56:44.806   07 Jun 2027 04:57:06.690            21.884         10942.000
       232   07 Jun 2027 06:30:51.827   07 Jun 2027 06:31:26.116            34.289         16605.469
       233   07 Jun 2027 06:32:51.263   07 Jun 2027 06:32:57.239             5.976          2610.531
       234   07 Jun 2027 06:33:22.236   07 Jun 2027 06:33:22.236             0.000             0.000
       235   07 Jun 2027 06:33:37.121   07 Jun 2027 06:33:40.932             3.811          1144.969
       236   07 Jun 2027 08:05:38.182   07 Jun 2027 08:05:50.951            12.769          6095.125
       237   07 Jun 2027 08:06:23.769   07 Jun 2027 08:06:30.153             6.384           981.156
       238   07 Jun 2027 08:07:15.197   07 Jun 2027 08:07:15.668             0.471           138.844
       239   07 Jun 2027 08:07:35.739   07 Jun 2027 08:07:35.739             0.000             0.000
       240   07 Jun 2027 08:07:53.385   07 Jun 2027 08:07:55.320             1.935           556.125
       241   07 Jun 2027 08:08:36.890   07 Jun 2027 08:08:40.585             3.695          1233.844
       242   07 Jun 2027 08:09:02.378   07 Jun 2027 08:09:03.417             1.039           397.313
       243   07 Jun 2027 08:09:42.064   07 Jun 2027 08:09:45.412             3.348          1184.656
       244   07 Jun 2027 08:10:15.575   07 Jun 2027 08:10:19.602             4.027           942.594
       245   07 Jun 2027 08:11:00.972   07 Jun 2027 08:11:06.642             5.670          1292.812
       246   07 Jun 2027 08:11:17.341   07 Jun 2027 08:11:28.291            10.950           266.500
       247   07 Jun 2027 08:11:41.248   07 Jun 2027 08:11:41.570             0.322           161.000
       248   07 Jun 2027 08:12:10.143   07 Jun 2027 08:12:10.143             0.000             0.000
       249   07 Jun 2027 08:12:41.983   07 Jun 2027 08:12:50.607             8.624          2131.813
       250   07 Jun 2027 09:42:10.297   07 Jun 2027 09:42:26.865            16.568          8120.312
       251   07 Jun 2027 09:42:36.701   07 Jun 2027 09:42:37.989             1.288           167.969
       252   07 Jun 2027 09:43:21.143   07 Jun 2027 09:43:23.485             2.342           707.937
       253   07 Jun 2027 09:44:28.178   07 Jun 2027 09:44:31.362             3.184           713.406
       254   07 Jun 2027 09:44:44.690   07 Jun 2027 09:44:44.797             0.107             4.156
       255   07 Jun 2027 09:44:46.366   07 Jun 2027 09:44:47.959             1.593            49.031
       256   07 Jun 2027 09:45:04.528   07 Jun 2027 09:45:09.387             4.859           357.781
       257   07 Jun 2027 09:45:29.354   07 Jun 2027 09:45:33.818             4.464           623.969
       258   07 Jun 2027 09:46:29.523   07 Jun 2027 09:46:36.549             7.026          1502.844
       259   07 Jun 2027 09:47:04.217   07 Jun 2027 09:47:07.385             3.168           864.625
       260   07 Jun 2027 09:47:23.332   07 Jun 2027 09:47:28.473             5.141           419.594
       261   07 Jun 2027 09:47:47.941   07 Jun 2027 09:47:51.723             3.782           608.375
       262   07 Jun 2027 09:48:24.500   07 Jun 2027 09:48:32.169             7.669           388.187
       263   07 Jun 2027 11:20:27.757   07 Jun 2027 11:20:44.567            16.810          8037.875
       264   07 Jun 2027 11:22:05.972   07 Jun 2027 11:22:11.420             5.448          2543.906
       265   07 Jun 2027 11:22:35.874   07 Jun 2027 11:22:37.539             1.665           764.188
       266   07 Jun 2027 11:23:40.337   07 Jun 2027 11:23:49.394             9.057          1852.125
       267   07 Jun 2027 11:24:06.586   07 Jun 2027 11:24:08.512             1.926           504.781
       268   08 Jun 2027 03:31:31.348   08 Jun 2027 03:32:06.325            34.977         17488.500
       269   08 Jun 2027 03:42:57.010   08 Jun 2027 03:44:36.774            99.764         49882.000
       270   08 Jun 2027 05:05:34.594   08 Jun 2027 05:06:35.441            60.847         30423.500
       271   08 Jun 2027 05:06:49.516   08 Jun 2027 05:07:46.631            57.115         28557.500
       272   08 Jun 2027 05:08:18.052   08 Jun 2027 05:08:19.149             1.097           548.500
       273   08 Jun 2027 05:09:40.773   08 Jun 2027 05:09:40.773             0.000             0.000
       274   08 Jun 2027 06:40:58.326   08 Jun 2027 06:41:53.974            55.648         27629.187
       275   08 Jun 2027 06:43:23.260   08 Jun 2027 06:43:30.389             7.129          2286.906
       276   08 Jun 2027 06:43:40.233   08 Jun 2027 06:43:41.124             0.891           299.406
       277   08 Jun 2027 06:44:22.621   08 Jun 2027 06:44:25.193             2.572          1281.750
       278   08 Jun 2027 06:45:23.065   08 Jun 2027 06:45:24.743             1.678           839.000
       279   08 Jun 2027 06:45:37.279   08 Jun 2027 06:45:40.328             3.049           945.719
       280   08 Jun 2027 06:46:10.159   08 Jun 2027 06:46:13.274             3.115           932.219
       281   08 Jun 2027 06:46:50.767   08 Jun 2027 06:46:50.767             0.000             0.000
       282   08 Jun 2027 08:17:24.495   08 Jun 2027 08:17:35.735            11.240          4799.000
       283   08 Jun 2027 08:18:24.101   08 Jun 2027 08:18:31.512             7.411          1178.813
       284   08 Jun 2027 08:20:01.366   08 Jun 2027 08:20:03.152             1.786           709.719
       285   08 Jun 2027 08:21:00.918   08 Jun 2027 08:21:03.309             2.391           814.781
       286   08 Jun 2027 08:21:40.607   08 Jun 2027 08:21:43.963             3.356           649.313
       287   08 Jun 2027 08:22:31.752   08 Jun 2027 08:22:34.038             2.286           868.250
       288   08 Jun 2027 08:23:18.299   08 Jun 2027 08:23:23.795             5.496          1326.531
       289   08 Jun 2027 08:24:00.213   08 Jun 2027 08:24:03.889             3.676          1116.062
       290   08 Jun 2027 08:24:39.706   08 Jun 2027 08:24:43.447             3.741          1119.281
       291   08 Jun 2027 09:54:30.882   08 Jun 2027 09:54:50.621            19.739          8293.094
       292   08 Jun 2027 09:55:17.493   08 Jun 2027 09:55:19.636             2.143           706.125
       293   08 Jun 2027 09:56:01.638   08 Jun 2027 09:56:04.316             2.678            97.062
       294   08 Jun 2027 09:56:48.116   08 Jun 2027 09:56:51.072             2.956           465.094
       295   08 Jun 2027 09:57:04.671   08 Jun 2027 09:57:05.023             0.352            65.281
       296   08 Jun 2027 09:57:31.015   08 Jun 2027 09:57:33.906             2.891           663.906
       297   08 Jun 2027 09:57:36.015   08 Jun 2027 09:57:37.634             1.619            59.156
       298   08 Jun 2027 09:58:33.574   08 Jun 2027 09:58:36.706             3.132          1126.594
       299   08 Jun 2027 09:58:41.387   08 Jun 2027 09:58:41.653             0.266            61.594
       300   08 Jun 2027 09:58:44.904   08 Jun 2027 09:58:46.143             1.239           101.594
       301   08 Jun 2027 09:59:07.760   08 Jun 2027 09:59:14.447             6.687           416.688
       302   08 Jun 2027 10:00:23.088   08 Jun 2027 10:00:27.844             4.756          2057.937
       303   08 Jun 2027 11:32:25.626   08 Jun 2027 11:32:40.053            14.427          6743.781
       304   08 Jun 2027 11:32:47.378   08 Jun 2027 11:32:50.479             3.101           228.906
       305   08 Jun 2027 11:33:41.489   08 Jun 2027 11:33:46.341             4.852          1594.062
       306   08 Jun 2027 11:34:14.608   08 Jun 2027 11:34:15.781             1.173           586.500
       307   08 Jun 2027 11:34:30.395   08 Jun 2027 11:34:30.977             0.582           291.000
       308   08 Jun 2027 11:34:46.560   08 Jun 2027 11:34:49.871             3.311           949.500
       309   08 Jun 2027 11:35:12.613   08 Jun 2027 11:35:14.899             2.286           565.937
       310   08 Jun 2027 11:35:20.746   08 Jun 2027 11:35:20.746             0.000             0.000
       311   08 Jun 2027 11:36:14.901   08 Jun 2027 11:36:19.809             4.908          1862.344
       312   09 Jun 2027 03:43:04.265   09 Jun 2027 03:43:35.165            30.900         15450.000
       313   09 Jun 2027 03:44:18.730   09 Jun 2027 03:44:50.921            32.191         16095.500
       314   09 Jun 2027 03:54:57.305   09 Jun 2027 03:55:58.246            60.941         30470.500
       315   09 Jun 2027 05:17:13.527   09 Jun 2027 05:18:19.928            66.401         33200.500
       316   09 Jun 2027 05:19:07.955   09 Jun 2027 05:20:06.567            58.612         29306.000
       317   09 Jun 2027 05:20:31.747   09 Jun 2027 05:20:31.747             0.000             0.000
       318   09 Jun 2027 05:21:23.820   09 Jun 2027 05:21:26.603             2.783          1391.500
       319   09 Jun 2027 05:21:35.770   09 Jun 2027 05:21:46.748            10.978          5489.000
       320   09 Jun 2027 06:52:07.667   09 Jun 2027 06:52:45.673            38.006         19003.000
       321   09 Jun 2027 06:53:47.195   09 Jun 2027 06:54:02.466            15.271          7500.781
       322   09 Jun 2027 06:54:31.743   09 Jun 2027 06:54:32.654             0.911           414.906
       323   09 Jun 2027 06:54:56.380   09 Jun 2027 06:54:57.825             1.445           702.844
       324   09 Jun 2027 06:57:00.816   09 Jun 2027 06:57:10.192             9.376          3191.000
       325   09 Jun 2027 06:57:47.452   09 Jun 2027 06:57:49.991             2.539           845.125
       326   09 Jun 2027 06:58:08.169   09 Jun 2027 06:58:11.751             3.582           285.719
       327   09 Jun 2027 06:58:40.895   09 Jun 2027 06:58:40.895             0.000             0.000
       328   09 Jun 2027 06:58:42.551   09 Jun 2027 06:58:43.910             1.359           135.406
       329   09 Jun 2027 08:29:39.910   09 Jun 2027 08:29:49.254             9.344          4554.563
       330   09 Jun 2027 08:30:26.928   09 Jun 2027 08:30:34.156             7.228           927.344
       331   09 Jun 2027 08:30:57.262   09 Jun 2027 08:30:59.403             2.141           684.094
       332   09 Jun 2027 08:31:39.640   09 Jun 2027 08:31:42.186             2.546           591.688
       333   09 Jun 2027 08:32:33.942   09 Jun 2027 08:32:38.099             4.157          1617.375
       334   09 Jun 2027 08:33:15.029   09 Jun 2027 08:33:23.597             8.568          1083.188
       335   09 Jun 2027 08:33:56.951   09 Jun 2027 08:34:00.436             3.485           452.000
       336   09 Jun 2027 08:34:09.693   09 Jun 2027 08:34:10.185             0.492           156.969
       337   09 Jun 2027 08:34:30.292   09 Jun 2027 08:34:31.467             1.175           150.063
       338   09 Jun 2027 08:35:18.346   09 Jun 2027 08:35:23.333             4.987          1133.031
       339   09 Jun 2027 08:35:36.936   09 Jun 2027 08:35:39.999             3.063           312.562
       340   09 Jun 2027 08:35:50.411   09 Jun 2027 08:35:52.043             1.632           311.250
       341   09 Jun 2027 08:36:18.017   09 Jun 2027 08:36:21.297             3.280           646.437
       342   09 Jun 2027 08:36:42.517   09 Jun 2027 08:36:45.129             2.612           562.187
       343   09 Jun 2027 08:36:55.322   09 Jun 2027 08:36:56.810             1.488           210.938
       344   09 Jun 2027 10:06:25.987   09 Jun 2027 10:06:43.923            17.936          8067.531
       345   09 Jun 2027 10:07:22.112   09 Jun 2027 10:07:24.920             2.808          1079.031
       346   09 Jun 2027 10:07:52.610   09 Jun 2027 10:07:54.815             2.205           440.406
       347   09 Jun 2027 10:09:03.812   09 Jun 2027 10:09:08.763             4.951          2156.156
       348   09 Jun 2027 10:10:08.672   09 Jun 2027 10:10:13.167             4.495          1807.188
       349   09 Jun 2027 10:10:44.504   09 Jun 2027 10:10:46.633             2.129           846.969
       350   09 Jun 2027 10:10:55.241   09 Jun 2027 10:10:57.299             2.058           269.000
       351   09 Jun 2027 10:11:13.879   09 Jun 2027 10:11:20.186             6.307           518.125
       352   09 Jun 2027 10:12:13.008   09 Jun 2027 10:12:15.986             2.978          1489.000
       353   09 Jun 2027 10:12:25.152   09 Jun 2027 10:12:28.781             3.629           448.125
       354   09 Jun 2027 10:12:44.610   09 Jun 2027 10:12:50.243             5.633           494.656
       355   09 Jun 2027 11:44:25.773   09 Jun 2027 11:44:39.284            13.511          6236.969
       356   09 Jun 2027 11:45:20.793   09 Jun 2027 11:45:23.105             2.312           830.188
       357   09 Jun 2027 11:46:14.725   09 Jun 2027 11:46:16.703             1.978           988.844
       358   09 Jun 2027 11:46:48.828   09 Jun 2027 11:46:51.521             2.693           912.188
       359   09 Jun 2027 11:47:29.855   09 Jun 2027 11:47:37.961             8.106          1197.937
       360   10 Jun 2027 03:54:49.721   10 Jun 2027 03:55:46.383            56.662         28331.000
       361   10 Jun 2027 03:56:12.588   10 Jun 2027 03:56:43.405            30.817         15408.500
       362   10 Jun 2027 04:07:05.242   10 Jun 2027 04:07:32.721            27.479         13739.500
       363   10 Jun 2027 05:28:45.003   10 Jun 2027 05:30:05.631            80.628         40314.000
       364   10 Jun 2027 05:30:53.935   10 Jun 2027 05:31:47.486            53.551         26775.500
       365   10 Jun 2027 05:32:36.836   10 Jun 2027 05:32:56.843            20.007         10003.500
       366   10 Jun 2027 07:03:38.682   10 Jun 2027 07:04:36.354            57.672         28350.968
       367   10 Jun 2027 07:05:54.997   10 Jun 2027 07:05:59.009             4.012           496.750
       368   10 Jun 2027 07:06:01.781   10 Jun 2027 07:06:06.257             4.476            86.625
       369   10 Jun 2027 07:07:05.320   10 Jun 2027 07:07:09.061             3.741          1352.812
       370   10 Jun 2027 07:07:16.778   10 Jun 2027 07:07:17.805             1.027           107.625
       371   10 Jun 2027 07:07:29.775   10 Jun 2027 07:07:32.268             2.493           156.750
       372   10 Jun 2027 07:07:43.149   10 Jun 2027 07:07:45.058             1.909           245.500
       373   10 Jun 2027 07:09:23.313   10 Jun 2027 07:09:35.290            11.977          3070.469
       374   10 Jun 2027 07:10:22.751   10 Jun 2027 07:10:27.057             4.306          1132.281
       375   10 Jun 2027 07:11:17.055   10 Jun 2027 07:11:20.217             3.162          1562.438
       376   10 Jun 2027 07:11:30.043   10 Jun 2027 07:11:34.984             4.941           307.062
       377   10 Jun 2027 07:12:04.670   10 Jun 2027 07:12:06.329             1.659           829.500
       378   10 Jun 2027 07:12:33.479   10 Jun 2027 07:12:37.370             3.891           868.406
       379   10 Jun 2027 08:41:34.863   10 Jun 2027 08:41:48.835            13.972          6976.688
       380   10 Jun 2027 08:42:32.452   10 Jun 2027 08:42:36.029             3.577           599.438
       381   10 Jun 2027 08:44:15.824   10 Jun 2027 08:44:21.936             6.112          1673.375
       382   10 Jun 2027 08:45:39.450   10 Jun 2027 08:45:44.325             4.875          2201.187
       383   10 Jun 2027 08:46:37.430   10 Jun 2027 08:46:39.032             1.602           801.000
       384   10 Jun 2027 08:46:46.828   10 Jun 2027 08:46:51.003             4.175           839.469
       385   10 Jun 2027 08:47:17.401   10 Jun 2027 08:47:20.273             2.872           824.937
       386   10 Jun 2027 08:48:07.874   10 Jun 2027 08:48:15.273             7.399           925.156
       387   10 Jun 2027 08:48:40.207   10 Jun 2027 08:48:42.363             2.156           657.406
       388   10 Jun 2027 10:18:22.788   10 Jun 2027 10:18:38.851            16.063          7510.000
       389   10 Jun 2027 10:18:55.624   10 Jun 2027 10:18:56.925             1.301           524.156
       390   10 Jun 2027 10:19:33.045   10 Jun 2027 10:19:33.535             0.490            41.844
       391   10 Jun 2027 10:20:49.921   10 Jun 2027 10:20:50.759             0.838           302.219
       392   10 Jun 2027 10:21:01.823   10 Jun 2027 10:21:05.519             3.696           345.750
       393   10 Jun 2027 10:21:32.220   10 Jun 2027 10:21:35.059             2.839           809.844
       394   10 Jun 2027 10:22:32.114   10 Jun 2027 10:22:38.806             6.692          1620.875
       395   10 Jun 2027 10:23:23.093   10 Jun 2027 10:23:30.543             7.450          1358.156
       396   10 Jun 2027 10:24:33.928   10 Jun 2027 10:24:38.161             4.233          1909.313
       397   10 Jun 2027 11:56:12.991   10 Jun 2027 11:56:26.289            13.298          6109.938
       398   10 Jun 2027 11:56:56.610   10 Jun 2027 11:57:02.970             6.360           912.812
       399   10 Jun 2027 11:57:47.523   10 Jun 2027 11:57:52.736             5.213          1392.281
       400   10 Jun 2027 11:58:30.228   10 Jun 2027 11:58:34.692             4.464          1148.969
       401   10 Jun 2027 11:59:04.877   10 Jun 2027 11:59:11.368             6.491           818.000
       402   11 Jun 2027 04:06:45.706   11 Jun 2027 04:08:03.368            77.662         38831.000
       403   11 Jun 2027 04:08:37.984   11 Jun 2027 04:08:44.995             7.011          3505.500
       404   11 Jun 2027 04:08:57.198   11 Jun 2027 04:09:01.394             4.196          2098.000
       405   11 Jun 2027 05:42:45.054   11 Jun 2027 05:45:47.617           182.563         91281.500
       406   11 Jun 2027 05:46:15.056   11 Jun 2027 05:46:37.726            22.670         11335.000
       407   11 Jun 2027 07:16:32.434   11 Jun 2027 07:17:02.280            29.846         13472.938
       408   11 Jun 2027 07:17:58.224   11 Jun 2027 07:18:00.117             1.893           578.094
       409   11 Jun 2027 07:18:43.795   11 Jun 2027 07:18:46.163             2.368           605.844
       410   11 Jun 2027 07:20:48.058   11 Jun 2027 07:20:59.289            11.231          3427.063
       411   11 Jun 2027 07:22:51.641   11 Jun 2027 07:22:51.641             0.000             0.000
       412   11 Jun 2027 07:23:33.905   11 Jun 2027 07:23:42.343             8.438          4219.000
       413   11 Jun 2027 07:24:05.448   11 Jun 2027 07:24:08.192             2.744          1122.969
       414   11 Jun 2027 07:24:12.419   11 Jun 2027 07:24:12.532             0.113            56.500
       415   11 Jun 2027 07:25:02.984   11 Jun 2027 07:25:04.353             1.369           684.500
       416   11 Jun 2027 08:53:47.252   11 Jun 2027 08:53:58.015            10.763          5308.469
       417   11 Jun 2027 08:54:22.454   11 Jun 2027 08:54:25.942             3.488           146.469
       418   11 Jun 2027 08:55:22.994   11 Jun 2027 08:55:24.587             1.593           778.938
       419   11 Jun 2027 08:56:27.218   11 Jun 2027 08:56:32.693             5.475          1711.344
       420   11 Jun 2027 08:57:05.551   11 Jun 2027 08:57:08.586             3.035           509.813
       421   11 Jun 2027 08:57:12.742   11 Jun 2027 08:57:17.309             4.567            22.094
       422   11 Jun 2027 08:57:47.569   11 Jun 2027 08:57:53.051             5.482           901.250
       423   11 Jun 2027 08:58:34.775   11 Jun 2027 08:58:36.316             1.541           770.500
       424   11 Jun 2027 08:58:47.609   11 Jun 2027 08:58:50.299             2.690           421.469
       425   11 Jun 2027 08:59:03.178   11 Jun 2027 08:59:04.222             1.044           402.469
       426   11 Jun 2027 08:59:30.875   11 Jun 2027 08:59:32.690             1.815           745.156
       427   11 Jun 2027 09:00:20.172   11 Jun 2027 09:00:28.415             8.243          1483.813
       428   11 Jun 2027 09:00:53.781   11 Jun 2027 09:00:55.540             1.759           761.375
       429   11 Jun 2027 10:30:59.415   11 Jun 2027 10:31:07.196             7.781          3890.500
       430   11 Jun 2027 10:31:13.833   11 Jun 2027 10:31:27.263            13.430          4475.969
       431   11 Jun 2027 10:32:32.535   11 Jun 2027 10:32:33.449             0.914            18.031
       432   11 Jun 2027 10:32:45.487   11 Jun 2027 10:32:49.785             4.298           376.187
       433   11 Jun 2027 10:34:11.515   11 Jun 2027 10:34:16.998             5.483          2554.063
       434   11 Jun 2027 10:34:33.550   11 Jun 2027 10:34:35.017             1.467           517.250
       435   11 Jun 2027 10:34:42.800   11 Jun 2027 10:34:44.354             1.554           243.219
       436   11 Jun 2027 10:35:22.368   11 Jun 2027 10:35:26.045             3.677          1187.937
       437   11 Jun 2027 10:36:38.564   11 Jun 2027 10:36:46.030             7.466          1752.844
       438   12 Jun 2027 04:18:37.378   12 Jun 2027 04:20:04.318            86.940         43470.000
       439   12 Jun 2027 04:20:45.321   12 Jun 2027 04:20:50.243             4.922          2461.000
       440   12 Jun 2027 05:54:59.461   12 Jun 2027 05:57:47.462           168.001         84000.500
       441   12 Jun 2027 07:27:17.653   12 Jun 2027 07:27:51.640            33.987         16993.500
       442   12 Jun 2027 07:29:04.050   12 Jun 2027 07:29:28.271            24.221          8810.719
       443   12 Jun 2027 07:30:01.365   12 Jun 2027 07:30:03.335             1.970           672.188
       444   12 Jun 2027 07:30:55.124   12 Jun 2027 07:30:57.009             1.885           928.250
       445   12 Jun 2027 07:31:01.062   12 Jun 2027 07:31:01.062             0.000             0.000
       446   12 Jun 2027 07:31:04.648   12 Jun 2027 07:31:05.854             1.206           195.125
       447   12 Jun 2027 07:31:29.865   12 Jun 2027 07:31:36.084             6.219           439.750
       448   12 Jun 2027 07:32:26.268   12 Jun 2027 07:32:33.176             6.908          1568.250
       449   12 Jun 2027 07:32:42.406   12 Jun 2027 07:32:42.829             0.423           104.000
       450   12 Jun 2027 07:32:50.260   12 Jun 2027 07:32:52.264             2.004           232.219
       451   12 Jun 2027 07:34:11.739   12 Jun 2027 07:34:18.650             6.911          2470.750
       452   12 Jun 2027 07:34:26.990   12 Jun 2027 07:34:30.314             3.324           107.469
       453   12 Jun 2027 07:35:35.712   12 Jun 2027 07:35:43.302             7.590          1513.031
       454   12 Jun 2027 07:35:45.326   12 Jun 2027 07:35:46.708             1.382            63.250
       455   12 Jun 2027 07:36:27.147   12 Jun 2027 07:36:31.264             4.117          1164.531
       456   12 Jun 2027 07:36:57.215   12 Jun 2027 07:36:59.113             1.898           734.250
       457   12 Jun 2027 07:36:59.708   12 Jun 2027 07:36:59.941             0.233            18.594
       458   12 Jun 2027 09:06:08.035   12 Jun 2027 09:06:19.029            10.994          5421.906
       459   12 Jun 2027 09:08:05.280   12 Jun 2027 09:08:08.151             2.871           456.281
       460   12 Jun 2027 09:08:56.748   12 Jun 2027 09:08:58.591             1.843           781.625
       461   12 Jun 2027 09:09:57.503   12 Jun 2027 09:10:01.432             3.929          1337.406
       462   12 Jun 2027 09:10:38.020   12 Jun 2027 09:10:38.049             0.029            14.500
       463   12 Jun 2027 09:10:48.599   12 Jun 2027 09:10:52.199             3.600          1018.469
       464   12 Jun 2027 09:10:59.524   12 Jun 2027 09:11:05.129             5.605           228.906
       465   12 Jun 2027 09:11:14.039   12 Jun 2027 09:11:15.185             1.146           266.188
       466   12 Jun 2027 09:12:45.071   12 Jun 2027 09:12:50.626             5.555          2579.344
       467   12 Jun 2027 10:43:05.971   12 Jun 2027 10:43:23.271            17.300          7865.594
       468   12 Jun 2027 10:44:02.638   12 Jun 2027 10:44:04.922             2.284          1127.031
       469   12 Jun 2027 10:44:26.299   12 Jun 2027 10:44:29.455             3.156           611.250
       470   12 Jun 2027 10:44:43.213   12 Jun 2027 10:44:44.919             1.706           355.625
       471   12 Jun 2027 10:45:04.693   12 Jun 2027 10:45:05.675             0.982           445.375
       472   12 Jun 2027 10:46:06.770   12 Jun 2027 10:46:10.724             3.954          1155.844
       473   12 Jun 2027 10:47:05.116   12 Jun 2027 10:47:08.592             3.476          1699.750
       474   12 Jun 2027 10:47:54.302   12 Jun 2027 10:47:59.169             4.867          1265.000
       475   13 Jun 2027 03:07:38.956   13 Jun 2027 03:09:53.208           134.252         67126.000
       476   13 Jun 2027 03:10:12.556   13 Jun 2027 03:10:29.822            17.266          8633.000
       477   13 Jun 2027 04:30:40.620   13 Jun 2027 04:31:04.447            23.827         11913.500
       478   13 Jun 2027 04:31:56.308   13 Jun 2027 04:32:01.113             4.805          2402.500
       479   13 Jun 2027 04:32:41.807   13 Jun 2027 04:33:12.752            30.945         15472.500
       480   13 Jun 2027 06:07:06.817   13 Jun 2027 06:08:45.299            98.482         49241.000
       481   13 Jun 2027 06:08:54.485   13 Jun 2027 06:08:57.709             3.224           451.969
       482   13 Jun 2027 06:09:17.406   13 Jun 2027 06:09:19.258             1.852           387.000
       483   13 Jun 2027 06:09:41.881   13 Jun 2027 06:09:41.881             0.000             0.000
       484   13 Jun 2027 06:09:48.068   13 Jun 2027 06:09:50.188             2.120           401.187
       485   13 Jun 2027 07:42:14.144   13 Jun 2027 07:42:26.591            12.447          5395.219
       486   13 Jun 2027 07:42:55.386   13 Jun 2027 07:42:57.147             1.761           261.063
       487   13 Jun 2027 07:43:35.283   13 Jun 2027 07:43:38.001             2.718           457.594
       488   13 Jun 2027 07:43:50.406   13 Jun 2027 07:43:53.725             3.319           387.656
       489   13 Jun 2027 07:44:19.149   13 Jun 2027 07:44:20.734             1.585           171.469
       490   13 Jun 2027 07:45:18.720   13 Jun 2027 07:45:18.720             0.000             0.000
       491   13 Jun 2027 07:45:30.895   13 Jun 2027 07:45:35.276             4.381          1960.562
       492   13 Jun 2027 07:46:04.918   13 Jun 2027 07:46:05.585             0.667           315.188
       493   13 Jun 2027 07:47:02.835   13 Jun 2027 07:47:07.190             4.355          1789.063
       494   13 Jun 2027 07:47:29.106   13 Jun 2027 07:47:32.283             3.177           452.187
       495   13 Jun 2027 07:47:46.557   13 Jun 2027 07:47:50.548             3.991           432.000
       496   13 Jun 2027 07:48:31.052   13 Jun 2027 07:48:33.008             1.956           927.531
       497   13 Jun 2027 07:48:50.042   13 Jun 2027 07:48:50.042             0.000             0.000
       498   13 Jun 2027 07:49:01.744   13 Jun 2027 07:49:02.901             1.157           578.500
       499   13 Jun 2027 09:18:35.745   13 Jun 2027 09:18:54.070            18.325          8329.813
       500   13 Jun 2027 09:20:34.877   13 Jun 2027 09:20:40.192             5.315          2292.250
       501   13 Jun 2027 09:20:51.571   13 Jun 2027 09:20:53.396             1.825           136.562
       502   13 Jun 2027 09:21:01.296   13 Jun 2027 09:21:01.721             0.425           153.500
       503   13 Jun 2027 09:21:17.363   13 Jun 2027 09:21:18.903             1.540           364.406
       504   13 Jun 2027 09:21:49.248   13 Jun 2027 09:21:52.415             3.167           579.781
       505   13 Jun 2027 09:22:54.592   13 Jun 2027 09:23:00.069             5.477          1943.031
       506   13 Jun 2027 09:23:11.390   13 Jun 2027 09:23:14.793             3.403           134.781
       507   13 Jun 2027 09:23:33.196   13 Jun 2027 09:23:48.988            15.792           570.219
       508   13 Jun 2027 09:24:18.766   13 Jun 2027 09:24:22.284             3.518           628.688
       509   13 Jun 2027 09:24:41.808   13 Jun 2027 09:24:44.478             2.670           566.312
       510   13 Jun 2027 10:56:07.563   13 Jun 2027 10:56:22.250            14.687          6336.844
       511   13 Jun 2027 10:56:45.933   13 Jun 2027 10:56:54.893             8.960           550.156
       512   13 Jun 2027 10:57:12.561   13 Jun 2027 10:57:18.984             6.423           552.125
       513   13 Jun 2027 10:57:59.129   13 Jun 2027 10:58:04.456             5.327          1152.469
       514   13 Jun 2027 10:58:46.041   13 Jun 2027 10:58:51.389             5.348          1299.531
       515   13 Jun 2027 10:59:16.995   13 Jun 2027 10:59:20.254             3.259           772.938
       516   13 Jun 2027 10:59:32.863   13 Jun 2027 10:59:35.775             2.912           327.188
