uniorb/output/strategy_2/Camera/Camera_KinoSat_111303.txt

KinoSat_111303
-------------------------
    Access    *     Start Time (UTCG)     *     Stop Time (UTCG)  *   Duration (s) *   Data (Mbytes)
         1   01 Jun 2027 03:47:13.558   01 Jun 2027 03:50:44.730           211.172        105586.000
         2   01 Jun 2027 03:51:38.001   01 Jun 2027 03:51:38.001             0.000             0.000
         3   01 Jun 2027 05:10:35.330   01 Jun 2027 05:11:34.294            58.964         29482.000
         4   01 Jun 2027 05:11:52.678   01 Jun 2027 05:11:52.678             0.000             0.000
         5   01 Jun 2027 06:46:57.533   01 Jun 2027 06:49:50.178           172.645         86322.500
         6   01 Jun 2027 08:19:14.558   01 Jun 2027 08:19:33.816            19.258          9629.000
         7   01 Jun 2027 08:21:01.616   01 Jun 2027 08:23:52.741           171.125         85562.500
         8   01 Jun 2027 08:28:57.827   01 Jun 2027 08:29:00.738             2.911          1455.500
         9   01 Jun 2027 09:58:05.965   01 Jun 2027 09:59:14.475            68.510         34255.000
        10   01 Jun 2027 10:00:22.682   01 Jun 2027 10:01:17.577            54.895         27447.500
        11   01 Jun 2027 10:02:56.612   01 Jun 2027 10:03:26.665            30.053         15026.500
        12   01 Jun 2027 11:35:02.455   01 Jun 2027 11:36:26.673            84.218         42109.000
        13   01 Jun 2027 11:38:09.975   01 Jun 2027 11:38:32.080            22.105         11052.500
        14   02 Jun 2027 03:59:41.877   02 Jun 2027 04:03:05.397           203.520        101760.000
        15   02 Jun 2027 04:03:09.851   02 Jun 2027 04:03:25.840            15.989          7994.500
        16   02 Jun 2027 05:22:38.941   02 Jun 2027 05:23:30.558            51.617         25808.500
        17   02 Jun 2027 06:59:08.214   02 Jun 2027 07:01:21.704           133.490         66745.000
        18   02 Jun 2027 07:02:32.003   02 Jun 2027 07:02:36.700             4.697          2348.500
        19   02 Jun 2027 08:34:13.070   02 Jun 2027 08:36:20.858           127.788         63894.000
        20   02 Jun 2027 08:36:35.229   02 Jun 2027 08:36:52.856            17.627          8708.688
        21   02 Jun 2027 08:37:22.630   02 Jun 2027 08:37:24.248             1.618           780.906
        22   02 Jun 2027 08:38:13.136   02 Jun 2027 08:38:21.838             8.702          1386.906
        23   02 Jun 2027 08:40:15.259   02 Jun 2027 08:40:15.259             0.000             0.000
        24   02 Jun 2027 08:40:37.733   02 Jun 2027 08:40:46.998             9.265          4233.469
        25   02 Jun 2027 10:10:34.634   02 Jun 2027 10:10:52.433            17.799          7361.906
        26   02 Jun 2027 10:11:25.347   02 Jun 2027 10:11:28.451             3.104           762.969
        27   02 Jun 2027 10:12:27.253   02 Jun 2027 10:12:29.884             2.631          1203.875
        28   02 Jun 2027 10:12:42.172   02 Jun 2027 10:12:43.704             1.532            52.188
        29   02 Jun 2027 10:13:20.229   02 Jun 2027 10:13:23.692             3.463          1077.813
        30   02 Jun 2027 10:14:12.084   02 Jun 2027 10:14:16.116             4.032          1512.250
        31   02 Jun 2027 10:14:39.823   02 Jun 2027 10:14:41.315             1.492           633.875
        32   02 Jun 2027 10:15:10.829   02 Jun 2027 10:15:12.186             1.357           358.937
        33   02 Jun 2027 10:16:03.487   02 Jun 2027 10:16:12.489             9.002          1429.469
        34   02 Jun 2027 11:48:05.442   02 Jun 2027 11:48:19.150            13.708          6854.000
        35   02 Jun 2027 11:49:35.929   02 Jun 2027 11:49:43.262             7.333          2726.375
        36   02 Jun 2027 11:50:02.425   02 Jun 2027 11:50:07.234             4.809           598.844
        37   02 Jun 2027 11:51:18.114   02 Jun 2027 11:51:22.558             4.444          2215.000
        38   03 Jun 2027 04:11:16.272   03 Jun 2027 04:11:52.604            36.332         18166.000
        39   03 Jun 2027 04:12:05.366   03 Jun 2027 04:14:38.041           152.675         76337.500
        40   03 Jun 2027 04:14:54.668   03 Jun 2027 04:14:55.660             0.992           496.000
        41   03 Jun 2027 05:34:35.410   03 Jun 2027 05:36:11.643            96.233         48116.500
        42   03 Jun 2027 05:37:46.129   03 Jun 2027 05:37:47.479             1.350           675.000
        43   03 Jun 2027 07:11:13.241   03 Jun 2027 07:11:49.673            36.432         17806.812
        44   03 Jun 2027 07:12:28.414   03 Jun 2027 07:12:37.108             8.694          1030.000
        45   03 Jun 2027 07:13:28.053   03 Jun 2027 07:13:31.803             3.750          1592.031
        46   03 Jun 2027 08:46:23.288   03 Jun 2027 08:46:31.206             7.918          3887.719
        47   03 Jun 2027 08:47:52.857   03 Jun 2027 08:47:55.405             2.548          1274.000
        48   03 Jun 2027 08:48:10.705   03 Jun 2027 08:48:15.838             5.133          1584.312
        49   03 Jun 2027 08:49:27.221   03 Jun 2027 08:49:30.166             2.945          1222.031
        50   03 Jun 2027 08:50:20.789   03 Jun 2027 08:50:23.928             3.139          1093.125
        51   03 Jun 2027 08:51:38.139   03 Jun 2027 08:51:45.905             7.766          2319.094
        52   03 Jun 2027 08:52:12.336   03 Jun 2027 08:52:15.119             2.783           774.531
        53   03 Jun 2027 08:52:22.705   03 Jun 2027 08:52:22.773             0.068            34.000
        54   03 Jun 2027 10:22:39.262   03 Jun 2027 10:22:59.820            20.558          7591.156
        55   03 Jun 2027 10:23:40.192   03 Jun 2027 10:23:42.732             2.540           581.469
        56   03 Jun 2027 10:24:33.704   03 Jun 2027 10:24:37.149             3.445          1285.656
        57   03 Jun 2027 10:24:56.380   03 Jun 2027 10:24:56.830             0.450           182.063
        58   03 Jun 2027 10:25:23.636   03 Jun 2027 10:25:27.129             3.493           837.687
        59   03 Jun 2027 10:26:44.003   03 Jun 2027 10:26:51.903             7.900          2296.906
        60   03 Jun 2027 10:27:44.877   03 Jun 2027 10:27:54.743             9.866          1617.531
        61   04 Jun 2027 04:12:25.192   04 Jun 2027 04:12:38.480            13.288          6644.000
        62   04 Jun 2027 04:23:12.828   04 Jun 2027 04:23:54.915            42.087         21043.500
        63   04 Jun 2027 04:24:01.009   04 Jun 2027 04:26:39.799           158.790         79395.000
        64   04 Jun 2027 05:47:11.558   04 Jun 2027 05:47:57.512            45.954         22977.000
        65   04 Jun 2027 05:49:36.747   04 Jun 2027 05:49:39.966             3.219          1609.500
        66   04 Jun 2027 07:22:56.864   04 Jun 2027 07:23:57.351            60.487         29881.187
        67   04 Jun 2027 07:24:09.377   04 Jun 2027 07:24:14.006             4.629           344.094
        68   04 Jun 2027 07:25:05.533   04 Jun 2027 07:25:05.533             0.000             0.000
        69   04 Jun 2027 07:25:30.118   04 Jun 2027 07:25:33.526             3.408          1704.000
        70   04 Jun 2027 07:25:40.868   04 Jun 2027 07:25:40.868             0.000             0.000
        71   04 Jun 2027 07:26:23.665   04 Jun 2027 07:26:28.795             5.130          2069.625
        72   04 Jun 2027 08:57:48.140   04 Jun 2027 08:57:58.363            10.223          4871.781
        73   04 Jun 2027 08:59:56.102   04 Jun 2027 09:00:04.331             8.229          2994.875
        74   04 Jun 2027 09:00:23.621   04 Jun 2027 09:00:31.146             7.525           560.500
        75   04 Jun 2027 09:01:03.358   04 Jun 2027 09:01:05.902             2.544          1006.625
        76   04 Jun 2027 09:01:53.619   04 Jun 2027 09:01:58.979             5.360          1491.156
        77   04 Jun 2027 09:02:28.093   04 Jun 2027 09:02:28.131             0.038            19.000
        78   04 Jun 2027 09:03:37.412   04 Jun 2027 09:03:42.727             5.315          2567.813
        79   04 Jun 2027 09:05:05.273   04 Jun 2027 09:05:09.498             4.225          2112.500
        80   04 Jun 2027 10:34:23.750   04 Jun 2027 10:34:40.002            16.252          8101.438
        81   04 Jun 2027 10:34:56.082   04 Jun 2027 10:34:57.075             0.993           407.000
        82   04 Jun 2027 10:35:33.649   04 Jun 2027 10:35:35.689             2.040           810.281
        83   04 Jun 2027 10:36:30.549   04 Jun 2027 10:36:34.028             3.479          1462.594
        84   04 Jun 2027 10:37:04.690   04 Jun 2027 10:37:07.331             2.641           827.188
        85   04 Jun 2027 10:37:35.523   04 Jun 2027 10:37:37.632             2.109           389.219
        86   04 Jun 2027 10:37:52.754   04 Jun 2027 10:37:54.080             1.326           389.000
        87   04 Jun 2027 10:38:18.340   04 Jun 2027 10:38:20.210             1.870           758.125
        88   04 Jun 2027 10:38:36.220   04 Jun 2027 10:38:38.079             1.859           174.469
        89   04 Jun 2027 10:39:26.385   04 Jun 2027 10:39:30.770             4.385          1509.562
        90   04 Jun 2027 10:40:23.996   04 Jun 2027 10:40:29.568             5.572          1501.969
        91   04 Jun 2027 10:40:44.628   04 Jun 2027 10:40:45.679             1.051           334.781
        92   05 Jun 2027 03:00:00.000   05 Jun 2027 03:00:45.896            45.896         22948.000
        93   05 Jun 2027 03:01:19.707   05 Jun 2027 03:01:19.707             0.000             0.000
        94   05 Jun 2027 03:01:31.147   05 Jun 2027 03:01:50.273            19.126          9563.000
        95   05 Jun 2027 03:02:46.107   05 Jun 2027 03:03:09.991            23.884         11942.000
        96   05 Jun 2027 03:03:58.024   05 Jun 2027 03:03:58.024             0.000             0.000
        97   05 Jun 2027 03:04:35.379   05 Jun 2027 03:05:51.282            75.903         37951.500
        98   05 Jun 2027 04:23:41.796   05 Jun 2027 04:24:30.228            48.432         24216.000
        99   05 Jun 2027 04:35:10.813   05 Jun 2027 04:36:44.386            93.573         46786.500
       100   05 Jun 2027 05:57:50.136   05 Jun 2027 05:58:20.813            30.677         15338.500
       101   05 Jun 2027 05:59:32.388   05 Jun 2027 05:59:43.597            11.209          5604.500
       102   05 Jun 2027 05:59:48.167   05 Jun 2027 05:59:53.800             5.633          2816.500
       103   05 Jun 2027 06:00:43.157   05 Jun 2027 06:00:48.509             5.352          2086.406
       104   05 Jun 2027 06:02:04.664   05 Jun 2027 06:02:09.630             4.966          2296.750
       105   05 Jun 2027 07:33:10.116   05 Jun 2027 07:33:23.894            13.778          5018.719
       106   05 Jun 2027 07:34:08.030   05 Jun 2027 07:34:08.859             0.829           414.500
       107   05 Jun 2027 07:36:20.406   05 Jun 2027 07:36:29.651             9.245          4124.125
       108   05 Jun 2027 07:36:34.128   05 Jun 2027 07:36:38.719             4.591            64.469
       109   05 Jun 2027 07:37:37.532   05 Jun 2027 07:37:41.726             4.194            84.781
       110   05 Jun 2027 07:37:51.764   05 Jun 2027 07:37:52.824             1.060           313.688
       111   05 Jun 2027 07:38:14.039   05 Jun 2027 07:38:17.401             3.362           429.500
       112   05 Jun 2027 07:38:24.044   05 Jun 2027 07:38:25.680             1.636           180.063
       113   05 Jun 2027 07:39:06.031   05 Jun 2027 07:39:09.008             2.977           888.938
       114   05 Jun 2027 07:39:18.454   05 Jun 2027 07:39:18.454             0.000             0.000
       115   05 Jun 2027 09:09:40.282   05 Jun 2027 09:09:56.498            16.216          4445.844
       116   05 Jun 2027 09:11:56.282   05 Jun 2027 09:12:04.824             8.542          3743.250
       117   05 Jun 2027 09:12:28.286   05 Jun 2027 09:12:29.724             1.438           324.969
       118   05 Jun 2027 09:13:03.206   05 Jun 2027 09:13:06.185             2.979           767.500
       119   05 Jun 2027 09:13:21.813   05 Jun 2027 09:13:24.218             2.405           488.375
       120   05 Jun 2027 09:14:16.661   05 Jun 2027 09:14:19.372             2.711           658.125
       121   05 Jun 2027 09:14:20.750   05 Jun 2027 09:14:25.709             4.959            16.250
       122   05 Jun 2027 09:14:47.863   05 Jun 2027 09:14:51.680             3.817           475.781
       123   05 Jun 2027 09:15:19.609   05 Jun 2027 09:15:21.499             1.890           872.781
       124   05 Jun 2027 09:15:35.173   05 Jun 2027 09:15:35.911             0.738           369.000
       125   05 Jun 2027 09:16:19.729   05 Jun 2027 09:16:19.729             0.000             0.000
       126   05 Jun 2027 09:16:21.716   05 Jun 2027 09:16:25.392             3.676          1474.781
       127   05 Jun 2027 09:16:56.404   05 Jun 2027 09:17:02.756             6.352           569.219
       128   05 Jun 2027 09:17:09.867   05 Jun 2027 09:17:09.916             0.049            24.500
       129   05 Jun 2027 10:46:44.951   05 Jun 2027 10:47:01.391            16.440          7633.562
       130   05 Jun 2027 10:48:06.644   05 Jun 2027 10:48:11.323             4.679          2039.156
       131   05 Jun 2027 10:48:18.912   05 Jun 2027 10:48:20.256             1.344           220.219
       132   05 Jun 2027 10:48:48.221   05 Jun 2027 10:48:51.027             2.806           732.031
       133   05 Jun 2027 10:48:54.998   05 Jun 2027 10:48:57.139             2.141           124.094
       134   05 Jun 2027 10:49:13.443   05 Jun 2027 10:49:14.265             0.822           403.531
       135   05 Jun 2027 10:49:23.125   05 Jun 2027 10:49:32.333             9.208           276.875
       136   05 Jun 2027 10:50:33.481   05 Jun 2027 10:50:37.537             4.056          1910.875
       137   05 Jun 2027 10:51:01.621   05 Jun 2027 10:51:08.249             6.628           752.625
       138   05 Jun 2027 10:51:30.395   05 Jun 2027 10:51:33.809             3.414           692.062
       139   05 Jun 2027 10:52:22.599   05 Jun 2027 10:52:23.153             0.554           277.000
       140   05 Jun 2027 10:52:24.921   05 Jun 2027 10:52:27.161             2.240          1120.000
       141   05 Jun 2027 10:52:53.223   05 Jun 2027 10:52:57.213             3.990           997.375
       142   06 Jun 2027 03:10:40.682   06 Jun 2027 03:13:06.241           145.559         72779.500
       143   06 Jun 2027 03:13:59.312   06 Jun 2027 03:14:21.601            22.289         11144.500
       144   06 Jun 2027 03:16:01.204   06 Jun 2027 03:16:04.706             3.502          1751.000
       145   06 Jun 2027 03:16:25.725   06 Jun 2027 03:16:25.725             0.000             0.000
       146   06 Jun 2027 03:16:49.749   06 Jun 2027 03:17:32.466            42.717         21358.500
       147   06 Jun 2027 04:34:57.758   06 Jun 2027 04:35:22.636            24.878         12439.000
       148   06 Jun 2027 04:36:30.768   06 Jun 2027 04:36:31.400             0.632           316.000
       149   06 Jun 2027 04:36:33.051   06 Jun 2027 04:36:52.948            19.897          9948.500
       150   06 Jun 2027 04:47:10.105   06 Jun 2027 04:47:57.171            47.066         23533.000
       151   06 Jun 2027 06:09:26.087   06 Jun 2027 06:10:11.235            45.148         21309.187
       152   06 Jun 2027 06:12:54.903   06 Jun 2027 06:13:02.881             7.978          3989.000
       153   06 Jun 2027 06:13:03.707   06 Jun 2027 06:13:07.006             3.299           894.844
       154   06 Jun 2027 07:44:19.692   06 Jun 2027 07:44:28.634             8.942          4214.906
       155   06 Jun 2027 07:44:54.889   06 Jun 2027 07:45:03.009             8.120           810.375
       156   06 Jun 2027 07:45:35.303   06 Jun 2027 07:45:45.971            10.668           984.312
       157   06 Jun 2027 07:45:59.677   06 Jun 2027 07:46:04.484             4.807           130.625
       158   06 Jun 2027 07:47:08.410   06 Jun 2027 07:47:16.986             8.576          1942.500
       159   06 Jun 2027 07:47:37.280   06 Jun 2027 07:47:37.854             0.574           286.125
       160   06 Jun 2027 07:48:10.428   06 Jun 2027 07:48:16.039             5.611           209.938
       161   06 Jun 2027 07:49:38.426   06 Jun 2027 07:49:44.908             6.482          2420.281
       162   06 Jun 2027 07:50:31.417   06 Jun 2027 07:50:34.707             3.290          1137.625
       163   06 Jun 2027 07:51:03.222   06 Jun 2027 07:51:05.024             1.802           303.938
       164   06 Jun 2027 07:52:22.397   06 Jun 2027 07:52:27.261             4.864          2212.625
       165   06 Jun 2027 09:21:53.524   06 Jun 2027 09:22:01.427             7.903          3951.500
       166   06 Jun 2027 09:22:38.764   06 Jun 2027 09:22:42.709             3.945          1349.375
       167   06 Jun 2027 09:25:16.521   06 Jun 2027 09:25:23.815             7.294          2680.812
       168   06 Jun 2027 09:25:43.722   06 Jun 2027 09:25:53.677             9.955           267.000
       169   06 Jun 2027 09:26:44.544   06 Jun 2027 09:26:48.022             3.478          1477.813
       170   06 Jun 2027 09:27:24.364   06 Jun 2027 09:27:27.197             2.833           664.094
       171   06 Jun 2027 09:27:31.078   06 Jun 2027 09:27:32.894             1.816           121.281
       172   06 Jun 2027 09:28:02.963   06 Jun 2027 09:28:10.286             7.323           921.000
       173   06 Jun 2027 09:28:50.725   06 Jun 2027 09:28:53.237             2.512           915.687
       174   06 Jun 2027 09:29:09.370   06 Jun 2027 09:29:10.488             1.118            30.625
       175   06 Jun 2027 10:58:36.083   06 Jun 2027 10:58:54.904            18.821          9045.906
       176   06 Jun 2027 10:58:56.008   06 Jun 2027 10:58:56.850             0.842            14.687
       177   06 Jun 2027 10:59:06.183   06 Jun 2027 10:59:13.248             7.065           291.656
       178   06 Jun 2027 10:59:41.575   06 Jun 2027 10:59:43.079             1.504           498.250
       179   06 Jun 2027 10:59:48.939   06 Jun 2027 10:59:54.097             5.158           168.938
       180   06 Jun 2027 11:00:09.711   06 Jun 2027 11:00:15.025             5.314           333.500
       181   06 Jun 2027 11:00:35.364   06 Jun 2027 11:00:37.040             1.676            31.250
       182   06 Jun 2027 11:01:02.393   06 Jun 2027 11:01:02.669             0.276            61.188
       183   06 Jun 2027 11:02:12.575   06 Jun 2027 11:02:16.253             3.678          1561.750
       184   06 Jun 2027 11:02:40.479   06 Jun 2027 11:02:43.951             3.472           581.156
       185   06 Jun 2027 11:02:49.731   06 Jun 2027 11:02:49.731             0.000             0.000
       186   06 Jun 2027 11:03:55.780   06 Jun 2027 11:04:03.143             7.363          2244.656
       187   06 Jun 2027 11:04:54.309   06 Jun 2027 11:05:01.194             6.885          1550.687
       188   06 Jun 2027 11:05:11.678   06 Jun 2027 11:05:13.829             2.151            93.562
       189   07 Jun 2027 03:22:44.912   07 Jun 2027 03:26:08.413           203.501        101750.500
       190   07 Jun 2027 03:26:44.142   07 Jun 2027 03:26:46.567             2.425          1212.500
       191   07 Jun 2027 03:27:14.298   07 Jun 2027 03:27:14.298             0.000             0.000
       192   07 Jun 2027 03:28:44.333   07 Jun 2027 03:29:24.871            40.538         20269.000
       193   07 Jun 2027 04:47:03.523   07 Jun 2027 04:47:55.021            51.498         25749.000
       194   07 Jun 2027 04:59:24.668   07 Jun 2027 04:59:43.831            19.163          9581.500
       195   07 Jun 2027 06:20:55.270   07 Jun 2027 06:21:20.853            25.583         10227.063
       196   07 Jun 2027 06:22:00.971   07 Jun 2027 06:22:02.635             1.664           299.125
       197   07 Jun 2027 06:23:18.518   07 Jun 2027 06:23:22.058             3.540          1717.375
       198   07 Jun 2027 06:24:57.111   07 Jun 2027 06:25:00.686             3.575          1787.500
       199   07 Jun 2027 06:26:25.002   07 Jun 2027 06:26:26.347             1.345           672.500
       200   07 Jun 2027 07:55:50.395   07 Jun 2027 07:56:01.275            10.880          5040.187
       201   07 Jun 2027 07:56:15.955   07 Jun 2027 07:56:17.119             1.164           161.719
       202   07 Jun 2027 07:56:50.943   07 Jun 2027 07:56:53.571             2.628             8.969
       203   07 Jun 2027 07:57:37.665   07 Jun 2027 07:57:45.873             8.208           236.500
       204   07 Jun 2027 07:58:25.002   07 Jun 2027 07:58:26.407             1.405           702.500
       205   07 Jun 2027 07:59:17.555   07 Jun 2027 07:59:23.626             6.071          1866.219
       206   07 Jun 2027 07:59:31.845   07 Jun 2027 07:59:32.730             0.885           234.625
       207   07 Jun 2027 08:01:41.977   07 Jun 2027 08:01:53.253            11.276          2996.781
       208   07 Jun 2027 08:02:48.643   07 Jun 2027 08:02:52.244             3.601          1577.469
       209   07 Jun 2027 08:03:37.010   07 Jun 2027 08:03:41.800             4.790          1357.969
       210   07 Jun 2027 08:04:27.499   07 Jun 2027 08:04:30.239             2.740          1095.281
       211   07 Jun 2027 08:05:08.531   07 Jun 2027 08:05:14.109             5.578           921.469
       212   07 Jun 2027 09:33:47.565   07 Jun 2027 09:33:59.527            11.962          5890.563
       213   07 Jun 2027 09:34:44.390   07 Jun 2027 09:34:47.345             2.955          1335.719
       214   07 Jun 2027 09:35:46.882   07 Jun 2027 09:35:49.938             3.056           548.688
       215   07 Jun 2027 09:35:51.719   07 Jun 2027 09:35:54.686             2.967            42.594
       216   07 Jun 2027 09:36:45.399   07 Jun 2027 09:36:50.097             4.698          1584.781
       217   07 Jun 2027 09:37:07.053   07 Jun 2027 09:37:09.413             2.360            43.750
       218   07 Jun 2027 09:37:56.021   07 Jun 2027 09:37:58.522             2.501           923.062
       219   07 Jun 2027 09:38:21.436   07 Jun 2027 09:38:23.038             1.602           375.688
       220   07 Jun 2027 09:38:50.279   07 Jun 2027 09:38:52.066             1.787           442.938
       221   07 Jun 2027 09:39:12.941   07 Jun 2027 09:39:14.861             1.920           650.313
       222   07 Jun 2027 09:40:07.670   07 Jun 2027 09:40:12.526             4.856          1644.906
       223   07 Jun 2027 09:40:12.939   07 Jun 2027 09:40:13.145             0.206            12.906
       224   07 Jun 2027 09:40:55.748   07 Jun 2027 09:41:00.815             5.067          1005.125
       225   07 Jun 2027 11:10:42.021   07 Jun 2027 11:10:59.794            17.773          7210.688
       226   07 Jun 2027 11:11:47.302   07 Jun 2027 11:11:50.458             3.156           562.344
       227   07 Jun 2027 11:12:36.407   07 Jun 2027 11:12:39.000             2.593           278.688
       228   07 Jun 2027 11:13:00.702   07 Jun 2027 11:13:02.038             1.336           506.344
       229   07 Jun 2027 11:13:32.977   07 Jun 2027 11:13:36.297             3.320           505.156
       230   07 Jun 2027 11:13:51.244   07 Jun 2027 11:13:52.767             1.523           419.625
       231   07 Jun 2027 11:14:41.436   07 Jun 2027 11:14:44.756             3.320          1520.906
       232   07 Jun 2027 11:15:06.228   07 Jun 2027 11:15:07.882             1.654           671.000
       233   07 Jun 2027 11:16:23.647   07 Jun 2027 11:16:28.072             4.425          1983.875
       234   07 Jun 2027 11:16:35.271   07 Jun 2027 11:16:36.011             0.740           224.969
       235   07 Jun 2027 11:17:10.384   07 Jun 2027 11:17:12.797             2.413          1074.156
       236   08 Jun 2027 03:35:10.934   08 Jun 2027 03:38:20.709           189.775         94887.500
       237   08 Jun 2027 03:39:24.461   08 Jun 2027 03:40:04.185            39.724         19862.000
       238   08 Jun 2027 04:58:59.392   08 Jun 2027 04:59:47.405            48.013         24006.500
       239   08 Jun 2027 06:34:59.214   08 Jun 2027 06:35:35.687            36.473         17636.469
       240   08 Jun 2027 06:35:52.831   08 Jun 2027 06:35:54.260             1.429           163.000
       241   08 Jun 2027 06:36:38.006   08 Jun 2027 06:36:40.591             2.585          1077.937
       242   08 Jun 2027 06:37:10.332   08 Jun 2027 06:37:12.096             1.764            57.375
       243   08 Jun 2027 06:37:38.132   08 Jun 2027 06:37:38.980             0.848           364.094
       244   08 Jun 2027 06:37:52.069   08 Jun 2027 06:37:52.069             0.000             0.000
       245   08 Jun 2027 06:37:53.095   08 Jun 2027 06:37:56.846             3.751            84.812
       246   08 Jun 2027 08:08:43.820   08 Jun 2027 08:09:04.616            20.796          5276.750
       247   08 Jun 2027 08:10:29.255   08 Jun 2027 08:10:35.273             6.018           872.594
       248   08 Jun 2027 08:11:42.684   08 Jun 2027 08:11:47.531             4.847          1151.875
       249   08 Jun 2027 08:12:37.131   08 Jun 2027 08:12:41.400             4.269           904.156
       250   08 Jun 2027 08:14:01.192   08 Jun 2027 08:14:06.188             4.996           624.969
       251   08 Jun 2027 08:14:58.477   08 Jun 2027 08:15:02.518             4.041          1585.375
       252   08 Jun 2027 08:15:24.942   08 Jun 2027 08:15:28.432             3.490           219.250
       253   08 Jun 2027 08:15:49.819   08 Jun 2027 08:15:53.760             3.941           452.156
       254   08 Jun 2027 08:16:37.906   08 Jun 2027 08:16:41.519             3.613          1379.562
       255   08 Jun 2027 09:46:08.654   08 Jun 2027 09:46:21.468            12.814          5595.125
       256   08 Jun 2027 09:47:24.032   08 Jun 2027 09:47:25.190             1.158           368.594
       257   08 Jun 2027 09:48:18.916   08 Jun 2027 09:48:22.211             3.295          1522.250
       258   08 Jun 2027 09:48:24.252   08 Jun 2027 09:48:25.380             1.128            32.125
       259   08 Jun 2027 09:49:59.354   08 Jun 2027 09:50:09.525            10.171          2827.219
       260   08 Jun 2027 09:50:50.161   08 Jun 2027 09:50:59.160             8.999           380.500
       261   08 Jun 2027 09:51:03.311   08 Jun 2027 09:51:04.732             1.421            99.406
       262   08 Jun 2027 09:51:21.022   08 Jun 2027 09:51:22.628             1.606           509.062
       263   08 Jun 2027 09:52:12.658   08 Jun 2027 09:52:22.133             9.475          1563.437
       264   08 Jun 2027 09:52:49.908   08 Jun 2027 09:52:52.920             3.012           867.969
       265   08 Jun 2027 09:53:02.139   08 Jun 2027 09:53:04.095             1.956           288.094
       266   08 Jun 2027 11:23:12.364   08 Jun 2027 11:23:25.607            13.243          6302.219
       267   08 Jun 2027 11:23:46.472   08 Jun 2027 11:23:48.884             2.412           652.031
       268   08 Jun 2027 11:24:20.413   08 Jun 2027 11:24:25.753             5.340           941.250
       269   08 Jun 2027 11:24:57.265   08 Jun 2027 11:24:59.796             2.531           415.250
       270   08 Jun 2027 11:25:30.304   08 Jun 2027 11:25:35.207             4.903           906.562
       271   08 Jun 2027 11:26:32.692   08 Jun 2027 11:26:37.739             5.047          1764.094
       272   08 Jun 2027 11:26:57.313   08 Jun 2027 11:27:01.910             4.597           611.687
       273   08 Jun 2027 11:27:10.502   08 Jun 2027 11:27:11.449             0.947           268.500
       274   08 Jun 2027 11:27:50.369   08 Jun 2027 11:27:57.114             6.745          1111.250
       275   08 Jun 2027 11:28:20.913   08 Jun 2027 11:28:20.913             0.000             0.000
       276   08 Jun 2027 11:28:25.666   08 Jun 2027 11:28:27.208             1.542           770.906
       277   08 Jun 2027 11:28:47.819   08 Jun 2027 11:28:49.697             1.878           644.094
       278   09 Jun 2027 03:47:29.486   09 Jun 2027 03:51:06.677           217.191        108595.500
       279   09 Jun 2027 03:51:52.499   09 Jun 2027 03:51:52.499             0.000             0.000
       280   09 Jun 2027 05:10:50.980   09 Jun 2027 05:11:50.112            59.132         29566.000
       281   09 Jun 2027 06:47:13.673   09 Jun 2027 06:47:57.502            43.829         20320.156
       282   09 Jun 2027 06:48:41.822   09 Jun 2027 06:48:44.075             2.253          1097.312
       283   09 Jun 2027 06:49:14.532   09 Jun 2027 06:49:14.532             0.000             0.000
       284   09 Jun 2027 06:49:27.711   09 Jun 2027 06:49:30.036             2.325          1143.281
       285   09 Jun 2027 06:49:38.330   09 Jun 2027 06:49:39.465             1.135           245.188
       286   09 Jun 2027 06:50:11.356   09 Jun 2027 06:50:14.212             2.856           996.594
       287   09 Jun 2027 06:50:35.251   09 Jun 2027 06:50:36.955             1.704           543.000
       288   09 Jun 2027 08:21:17.866   09 Jun 2027 08:21:26.693             8.827          4330.594
       289   09 Jun 2027 08:22:05.477   09 Jun 2027 08:22:08.837             3.360           126.531
       290   09 Jun 2027 08:24:10.033   09 Jun 2027 08:24:14.516             4.483          2095.594
       291   09 Jun 2027 08:25:01.944   09 Jun 2027 08:25:10.813             8.869           729.906
       292   09 Jun 2027 08:26:02.232   09 Jun 2027 08:26:02.232             0.000             0.000
       293   09 Jun 2027 08:26:23.782   09 Jun 2027 08:26:29.006             5.224          2274.375
       294   09 Jun 2027 08:27:54.666   09 Jun 2027 08:28:00.628             5.962          2612.719
       295   09 Jun 2027 08:28:51.228   09 Jun 2027 08:28:56.967             5.739          1541.500
       296   09 Jun 2027 09:58:22.263   09 Jun 2027 09:58:37.465            15.202          6924.750
       297   09 Jun 2027 09:58:50.645   09 Jun 2027 09:58:51.303             0.658           249.719
       298   09 Jun 2027 10:00:43.916   09 Jun 2027 10:00:47.258             3.342          1671.000
       299   09 Jun 2027 10:00:57.711   09 Jun 2027 10:00:59.915             2.204           960.844
       300   09 Jun 2027 10:01:41.871   09 Jun 2027 10:01:44.998             3.127          1311.125
       301   09 Jun 2027 10:02:26.006   09 Jun 2027 10:02:28.601             2.595           148.219
       302   09 Jun 2027 10:02:48.711   09 Jun 2027 10:02:50.123             1.412           628.438
       303   09 Jun 2027 10:02:59.000   09 Jun 2027 10:03:04.793             5.793           277.406
       304   09 Jun 2027 10:03:35.313   09 Jun 2027 10:03:39.614             4.301           868.687
       305   09 Jun 2027 10:04:27.459   09 Jun 2027 10:04:34.239             6.780          1458.563
       306   09 Jun 2027 11:35:18.133   09 Jun 2027 11:35:33.802            15.669          6109.812
       307   09 Jun 2027 11:36:11.076   09 Jun 2027 11:36:11.490             0.414            23.188
       308   09 Jun 2027 11:36:40.155   09 Jun 2027 11:36:40.642             0.487           243.500
       309   09 Jun 2027 11:37:01.706   09 Jun 2027 11:37:02.793             1.087           543.500
       310   09 Jun 2027 11:37:18.779   09 Jun 2027 11:37:24.660             5.881           764.438
       311   09 Jun 2027 11:38:01.514   09 Jun 2027 11:38:05.918             4.404          1026.406
       312   09 Jun 2027 11:38:21.756   09 Jun 2027 11:38:25.496             3.740           494.937
       313   09 Jun 2027 11:39:29.119   09 Jun 2027 11:39:31.422             2.303          1151.500
       314   09 Jun 2027 11:39:39.689   09 Jun 2027 11:39:42.161             2.472          1057.406
       315   10 Jun 2027 03:59:58.668   10 Jun 2027 04:01:55.046           116.378         58189.000
       316   10 Jun 2027 04:02:02.318   10 Jun 2027 04:03:20.818            78.500         39250.000
       317   10 Jun 2027 04:03:45.081   10 Jun 2027 04:03:48.149             3.068          1534.000
       318   10 Jun 2027 05:22:55.306   10 Jun 2027 05:23:44.916            49.610         24805.000
       319   10 Jun 2027 06:59:24.303   10 Jun 2027 07:00:29.476            65.173         32586.500
       320   10 Jun 2027 07:00:34.193   10 Jun 2027 07:00:43.974             9.781          1733.719
       321   10 Jun 2027 07:01:26.321   10 Jun 2027 07:01:27.802             1.481           674.562
       322   10 Jun 2027 07:02:30.593   10 Jun 2027 07:02:34.311             3.718          1857.031
       323   10 Jun 2027 08:34:29.646   10 Jun 2027 08:34:38.747             9.101          3553.344
       324   10 Jun 2027 08:35:06.690   10 Jun 2027 08:35:07.265             0.575           276.219
       325   10 Jun 2027 08:35:57.613   10 Jun 2027 08:36:08.325            10.712           901.469
       326   10 Jun 2027 08:38:06.767   10 Jun 2027 08:38:14.902             8.135          3601.187
       327   10 Jun 2027 08:39:11.671   10 Jun 2027 08:39:15.070             3.399          1258.937
       328   10 Jun 2027 08:39:25.932   10 Jun 2027 08:39:27.305             1.373           339.437
       329   10 Jun 2027 08:39:34.346   10 Jun 2027 08:39:37.263             2.917           152.844
       330   10 Jun 2027 08:40:54.769   10 Jun 2027 08:41:02.294             7.525          1864.750
       331   10 Jun 2027 10:10:51.825   10 Jun 2027 10:11:09.320            17.495          6142.531
       332   10 Jun 2027 10:12:30.312   10 Jun 2027 10:12:35.731             5.419          1630.406
       333   10 Jun 2027 10:12:38.464   10 Jun 2027 10:12:42.369             3.905            85.406
       334   10 Jun 2027 10:13:10.835   10 Jun 2027 10:13:13.962             3.127           860.500
       335   10 Jun 2027 10:13:21.050   10 Jun 2027 10:13:24.669             3.619           221.500
       336   10 Jun 2027 10:13:45.239   10 Jun 2027 10:13:45.833             0.594           269.250
       337   10 Jun 2027 10:14:07.027   10 Jun 2027 10:14:16.221             9.194           324.313
       338   10 Jun 2027 10:14:38.812   10 Jun 2027 10:14:41.067             2.255           705.969
       339   10 Jun 2027 10:14:50.948   10 Jun 2027 10:14:52.930             1.982           282.469
       340   10 Jun 2027 10:15:09.860   10 Jun 2027 10:15:11.397             1.537           448.438
       341   10 Jun 2027 10:15:28.389   10 Jun 2027 10:15:34.388             5.999           401.750
       342   10 Jun 2027 10:16:19.681   10 Jun 2027 10:16:27.763             8.082          1396.344
       343   10 Jun 2027 11:48:21.035   10 Jun 2027 11:48:34.070            13.035          6517.500
       344   10 Jun 2027 11:48:41.176   10 Jun 2027 11:48:42.776             1.600           393.000
       345   10 Jun 2027 11:48:59.930   10 Jun 2027 11:49:02.103             2.173           536.062
       346   10 Jun 2027 11:49:29.435   10 Jun 2027 11:49:30.977             1.542           771.000
       347   10 Jun 2027 11:49:42.771   10 Jun 2027 11:49:46.462             3.691           412.688
       348   10 Jun 2027 11:51:34.876   10 Jun 2027 11:51:40.900             6.024          3012.000
       349   10 Jun 2027 11:52:07.057   10 Jun 2027 11:52:18.161            11.104          1193.343
       350   11 Jun 2027 04:11:31.450   11 Jun 2027 04:12:08.814            37.364         18682.000
       351   11 Jun 2027 04:12:21.331   11 Jun 2027 04:15:10.627           169.296         84648.000
       352   11 Jun 2027 05:34:51.217   11 Jun 2027 05:36:09.106            77.889         38944.500
       353   11 Jun 2027 05:37:58.058   11 Jun 2027 05:37:58.058             0.000             0.000
       354   11 Jun 2027 07:11:28.865   11 Jun 2027 07:12:00.638            31.773         14215.500
       355   11 Jun 2027 07:12:44.336   11 Jun 2027 07:12:54.819            10.483           983.719
       356   11 Jun 2027 07:13:46.016   11 Jun 2027 07:13:49.229             3.213          1599.906
       357   11 Jun 2027 07:14:03.097   11 Jun 2027 07:14:04.384             1.287           282.031
       358   11 Jun 2027 08:46:39.268   11 Jun 2027 08:46:44.253             4.985          2492.500
       359   11 Jun 2027 08:47:08.589   11 Jun 2027 08:47:13.921             5.332          2180.250
       360   11 Jun 2027 08:47:36.716   11 Jun 2027 08:47:37.540             0.824           189.344
       361   11 Jun 2027 08:48:01.808   11 Jun 2027 08:48:03.229             1.421           430.031
       362   11 Jun 2027 08:48:12.633   11 Jun 2027 08:48:14.750             2.117            64.187
       363   11 Jun 2027 08:49:18.314   11 Jun 2027 08:49:23.842             5.528          1986.375
       364   11 Jun 2027 08:49:41.367   11 Jun 2027 08:49:42.372             1.005           241.438
       365   11 Jun 2027 08:50:13.248   11 Jun 2027 08:50:16.387             3.139           958.469
       366   11 Jun 2027 08:51:54.973   11 Jun 2027 08:52:01.986             7.013          2292.500
       367   11 Jun 2027 08:52:09.233   11 Jun 2027 08:52:10.854             1.621           218.500
       368   11 Jun 2027 10:22:52.627   11 Jun 2027 10:23:06.632            14.005          6801.594
       369   11 Jun 2027 10:23:15.477   11 Jun 2027 10:23:17.031             1.554           259.062
       370   11 Jun 2027 10:25:12.363   11 Jun 2027 10:25:19.295             6.932          3297.906
       371   11 Jun 2027 10:25:38.423   11 Jun 2027 10:25:41.368             2.945           496.188
       372   11 Jun 2027 10:25:51.568   11 Jun 2027 10:25:55.564             3.996            28.594
       373   11 Jun 2027 10:26:44.949   11 Jun 2027 10:26:51.780             6.831          1292.844
       374   11 Jun 2027 10:27:16.343   11 Jun 2027 10:27:21.184             4.841           575.094
       375   11 Jun 2027 10:27:54.031   11 Jun 2027 10:28:00.402             6.371          1026.469
       376   11 Jun 2027 10:28:22.896   11 Jun 2027 10:28:25.329             2.433           702.937
       377   11 Jun 2027 10:28:32.786   11 Jun 2027 10:28:34.317             1.531            56.437
       378   11 Jun 2027 10:28:52.629   11 Jun 2027 10:28:53.399             0.770           335.719
       379   12 Jun 2027 04:12:39.170   12 Jun 2027 04:12:56.405            17.235          8617.500
       380   12 Jun 2027 04:23:28.686   12 Jun 2027 04:26:24.509           175.823         87911.500
       381   12 Jun 2027 04:26:55.859   12 Jun 2027 04:27:04.730             8.871          4435.500
       382   12 Jun 2027 05:47:26.847   12 Jun 2027 05:48:08.065            41.218         20609.000
       383   12 Jun 2027 05:49:30.344   12 Jun 2027 05:49:30.344             0.000             0.000
       384   12 Jun 2027 07:23:13.065   12 Jun 2027 07:24:22.991            69.926         34246.188
       385   12 Jun 2027 07:24:51.813   12 Jun 2027 07:24:54.550             2.737           823.250
       386   12 Jun 2027 07:25:49.770   12 Jun 2027 07:25:56.566             6.796          1391.438
       387   12 Jun 2027 07:26:06.446   12 Jun 2027 07:26:06.446             0.000             0.000
       388   12 Jun 2027 07:26:39.755   12 Jun 2027 07:26:41.230             1.475           737.500
       389   12 Jun 2027 08:58:03.325   12 Jun 2027 08:58:13.161             9.836          3704.531
       390   12 Jun 2027 09:00:13.290   12 Jun 2027 09:00:25.048            11.758          3712.750
       391   12 Jun 2027 09:01:21.382   12 Jun 2027 09:01:24.022             2.640          1294.875
       392   12 Jun 2027 09:02:46.028   12 Jun 2027 09:02:51.349             5.321          2562.688
       393   12 Jun 2027 09:03:19.815   12 Jun 2027 09:03:24.350             4.535           889.562
       394   12 Jun 2027 09:03:35.196   12 Jun 2027 09:03:35.511             0.315           135.500
       395   12 Jun 2027 09:04:02.117   12 Jun 2027 09:04:04.935             2.818           732.375
       396   12 Jun 2027 09:04:51.569   12 Jun 2027 09:04:55.080             3.511          1019.750
       397   12 Jun 2027 09:05:15.948   12 Jun 2027 09:05:15.948             0.000             0.000
       398   12 Jun 2027 09:05:25.889   12 Jun 2027 09:05:25.946             0.057            28.500
       399   12 Jun 2027 10:34:39.689   12 Jun 2027 10:34:57.346            17.657          7933.656
       400   12 Jun 2027 10:35:51.256   12 Jun 2027 10:35:54.052             2.796           587.094
       401   12 Jun 2027 10:36:09.024   12 Jun 2027 10:36:18.622             9.598           225.938
       402   12 Jun 2027 10:36:45.097   12 Jun 2027 10:36:46.605             1.508           335.938
       403   12 Jun 2027 10:36:57.963   12 Jun 2027 10:36:58.643             0.680            16.156
       404   12 Jun 2027 10:37:42.060   12 Jun 2027 10:37:48.089             6.029          1038.469
       405   12 Jun 2027 10:38:10.672   12 Jun 2027 10:38:12.129             1.457           621.937
       406   12 Jun 2027 10:39:05.082   12 Jun 2027 10:39:10.209             5.127          1654.781
       407   12 Jun 2027 10:39:21.767   12 Jun 2027 10:39:31.938            10.171           207.344
       408   12 Jun 2027 10:40:39.167   12 Jun 2027 10:40:45.998             6.831          2086.562
       409   12 Jun 2027 10:41:01.813   12 Jun 2027 10:41:03.602             1.789           389.813
       410   13 Jun 2027 03:00:00.000   13 Jun 2027 03:00:03.266             3.266          1633.000
       411   13 Jun 2027 03:01:00.527   13 Jun 2027 03:01:37.276            36.749         18374.500
       412   13 Jun 2027 03:01:43.826   13 Jun 2027 03:02:02.547            18.721          9360.500
       413   13 Jun 2027 03:02:14.038   13 Jun 2027 03:02:37.855            23.817         11908.500
       414   13 Jun 2027 03:03:38.661   13 Jun 2027 03:03:50.585            11.924          5962.000
       415   13 Jun 2027 03:04:24.172   13 Jun 2027 03:04:49.908            25.736         12868.000
       416   13 Jun 2027 03:05:32.664   13 Jun 2027 03:06:07.922            35.258         17629.000
       417   13 Jun 2027 04:23:55.426   13 Jun 2027 04:24:45.442            50.016         25008.000
       418   13 Jun 2027 04:35:26.950   13 Jun 2027 04:36:37.031            70.081         35040.500
       419   13 Jun 2027 04:36:58.038   13 Jun 2027 04:37:04.740             6.702          3351.000
       420   13 Jun 2027 04:37:56.222   13 Jun 2027 04:37:57.913             1.691           845.500
       421   13 Jun 2027 05:58:05.960   13 Jun 2027 05:59:04.448            58.488         29244.000
       422   13 Jun 2027 05:59:59.371   13 Jun 2027 06:00:07.831             8.460          4200.781
       423   13 Jun 2027 07:33:14.253   13 Jun 2027 07:33:30.555            16.302          7168.875
       424   13 Jun 2027 07:33:31.462   13 Jun 2027 07:33:31.551             0.089            28.344
       425   13 Jun 2027 07:34:56.963   13 Jun 2027 07:35:02.168             5.205          1315.625
       426   13 Jun 2027 07:36:11.224   13 Jun 2027 07:36:15.647             4.423          2158.000
       427   13 Jun 2027 07:36:48.668   13 Jun 2027 07:36:48.668             0.000             0.000
       428   13 Jun 2027 07:36:48.809   13 Jun 2027 07:36:52.521             3.712           947.031
       429   13 Jun 2027 07:37:45.160   13 Jun 2027 07:37:47.009             1.849           776.750
       430   13 Jun 2027 07:37:55.628   13 Jun 2027 07:37:58.027             2.399           242.531
       431   13 Jun 2027 07:38:09.758   13 Jun 2027 07:38:10.561             0.803           366.594
       432   13 Jun 2027 07:38:23.748   13 Jun 2027 07:38:23.748             0.000             0.000
       433   13 Jun 2027 07:38:54.227   13 Jun 2027 07:38:56.710             2.483          1173.531
       434   13 Jun 2027 07:38:57.248   13 Jun 2027 07:38:57.581             0.333            16.812
       435   13 Jun 2027 07:39:34.797   13 Jun 2027 07:39:37.108             2.311           381.844
       436   13 Jun 2027 09:09:57.891   13 Jun 2027 09:10:08.007            10.116          4274.531
       437   13 Jun 2027 09:10:53.577   13 Jun 2027 09:11:00.963             7.386          1330.875
       438   13 Jun 2027 09:12:14.463   13 Jun 2027 09:12:19.437             4.974          1049.594
       439   13 Jun 2027 09:12:57.057   13 Jun 2027 09:13:01.178             4.121           875.781
       440   13 Jun 2027 09:13:22.022   13 Jun 2027 09:13:24.492             2.470           249.375
       441   13 Jun 2027 09:13:36.609   13 Jun 2027 09:13:40.067             3.458           130.750
       442   13 Jun 2027 09:14:35.673   13 Jun 2027 09:14:40.379             4.706          1737.687
       443   13 Jun 2027 09:15:02.808   13 Jun 2027 09:15:08.202             5.394           466.531
       444   13 Jun 2027 09:15:34.756   13 Jun 2027 09:15:36.465             1.709           829.813
       445   13 Jun 2027 09:15:51.950   13 Jun 2027 09:15:51.950             0.000             0.000
       446   13 Jun 2027 09:16:13.326   13 Jun 2027 09:16:16.637             3.311          1125.563
       447   13 Jun 2027 09:16:24.032   13 Jun 2027 09:16:28.018             3.986           179.031
       448   13 Jun 2027 09:17:17.393   13 Jun 2027 09:17:19.604             2.211          1105.500
       449   13 Jun 2027 10:47:00.953   13 Jun 2027 10:47:31.490            30.537          9686.625
       450   13 Jun 2027 10:48:48.463   13 Jun 2027 10:48:50.784             2.321           773.906
       451   13 Jun 2027 10:49:10.754   13 Jun 2027 10:49:11.798             1.044           131.938
       452   13 Jun 2027 10:49:29.474   13 Jun 2027 10:49:31.391             1.917           359.938
       453   13 Jun 2027 10:49:39.369   13 Jun 2027 10:49:45.478             6.109           206.656
       454   13 Jun 2027 10:50:49.080   13 Jun 2027 10:50:54.201             5.121          1908.469
       455   13 Jun 2027 10:51:59.395   13 Jun 2027 10:52:06.412             7.017          2037.312
