uniorb/output/strategy_2/Camera/Camera_KinoSat_111506.txt

KinoSat_111506
-------------------------
    Access    *     Start Time (UTCG)     *     Stop Time (UTCG)  *   Duration (s) *   Data (Mbytes)
         1   01 Jun 2027 03:08:47.024   01 Jun 2027 03:09:43.412            56.388         28194.000
         2   01 Jun 2027 03:09:49.132   01 Jun 2027 03:11:15.142            86.010         43005.000
         3   01 Jun 2027 03:11:59.943   01 Jun 2027 03:12:10.684            10.741          5370.500
         4   01 Jun 2027 03:13:55.010   01 Jun 2027 03:14:16.524            21.514         10757.000
         5   01 Jun 2027 03:14:18.820   01 Jun 2027 03:14:21.643             2.823          1411.500
         6   01 Jun 2027 04:47:15.235   01 Jun 2027 04:48:18.692            63.457         31728.500
         7   01 Jun 2027 04:48:27.006   01 Jun 2027 04:50:05.742            98.736         49368.000
         8   01 Jun 2027 04:50:13.539   01 Jun 2027 04:50:13.539             0.000             0.000
         9   01 Jun 2027 04:50:24.695   01 Jun 2027 04:50:41.264            16.569          8284.500
        10   01 Jun 2027 06:10:13.832   01 Jun 2027 06:11:11.103            57.271         28635.500
        11   01 Jun 2027 06:12:41.550   01 Jun 2027 06:12:50.121             8.571          4285.500
        12   01 Jun 2027 07:46:40.596   01 Jun 2027 07:49:16.204           155.608         77804.000
        13   01 Jun 2027 07:49:44.492   01 Jun 2027 07:49:51.886             7.394          3697.000
        14   01 Jun 2027 07:49:57.850   01 Jun 2027 07:50:05.024             7.174          3587.000
        15   01 Jun 2027 09:21:49.191   01 Jun 2027 09:23:22.257            93.066         46533.000
        16   01 Jun 2027 09:25:05.410   01 Jun 2027 09:25:34.290            28.880         14440.000
        17   01 Jun 2027 09:28:24.781   01 Jun 2027 09:28:36.590            11.809          5904.500
        18   01 Jun 2027 10:58:09.691   01 Jun 2027 10:59:42.900            93.209         46604.500
        19   01 Jun 2027 11:00:05.741   01 Jun 2027 11:00:31.356            25.615         12807.500
        20   01 Jun 2027 11:00:53.188   01 Jun 2027 11:00:58.358             5.170          2585.000
        21   01 Jun 2027 11:01:27.762   01 Jun 2027 11:01:32.250             4.488          2244.000
        22   01 Jun 2027 11:02:11.152   01 Jun 2027 11:02:15.321             4.169          2084.500
        23   01 Jun 2027 11:02:44.592   01 Jun 2027 11:02:50.122             5.530          2765.000
        24   01 Jun 2027 11:03:47.594   01 Jun 2027 11:03:52.635             5.041          2520.500
        25   02 Jun 2027 03:20:37.885   02 Jun 2027 03:21:36.462            58.577         29288.500
        26   02 Jun 2027 03:21:45.205   02 Jun 2027 03:23:44.882           119.677         59838.500
        27   02 Jun 2027 03:23:52.563   02 Jun 2027 03:23:53.825             1.262           631.000
        28   02 Jun 2027 03:25:35.505   02 Jun 2027 03:25:44.735             9.230          4615.000
        29   02 Jun 2027 03:26:11.589   02 Jun 2027 03:26:35.595            24.006         12003.000
        30   02 Jun 2027 04:58:54.684   02 Jun 2027 05:00:05.260            70.576         35288.000
        31   02 Jun 2027 05:00:40.162   02 Jun 2027 05:01:57.990            77.828         38914.000
        32   02 Jun 2027 05:02:15.495   02 Jun 2027 05:02:15.918             0.423           211.500
        33   02 Jun 2027 05:02:33.350   02 Jun 2027 05:02:40.313             6.963          3481.500
        34   02 Jun 2027 06:22:15.222   02 Jun 2027 06:22:29.377            14.155          7077.500
        35   02 Jun 2027 06:23:09.475   02 Jun 2027 06:23:14.478             5.003          2501.500
        36   02 Jun 2027 06:23:43.962   02 Jun 2027 06:23:49.944             5.982          2991.000
        37   02 Jun 2027 06:24:23.582   02 Jun 2027 06:25:01.793            38.211         19105.500
        38   02 Jun 2027 07:58:51.160   02 Jun 2027 08:01:17.953           146.793         73396.500
        39   02 Jun 2027 09:34:01.369   02 Jun 2027 09:34:14.762            13.393          6696.500
        40   02 Jun 2027 09:35:23.629   02 Jun 2027 09:35:37.385            13.756          6690.251
        41   02 Jun 2027 09:36:38.901   02 Jun 2027 09:36:43.434             4.533          1585.344
        42   02 Jun 2027 09:38:00.353   02 Jun 2027 09:38:05.559             5.206          2403.719
        43   02 Jun 2027 09:38:31.960   02 Jun 2027 09:38:36.030             4.070           316.219
        44   02 Jun 2027 09:38:53.403   02 Jun 2027 09:38:54.329             0.926           339.875
        45   02 Jun 2027 09:39:33.416   02 Jun 2027 09:39:36.659             3.243           694.594
        46   02 Jun 2027 09:39:58.660   02 Jun 2027 09:40:01.206             2.546           687.531
        47   02 Jun 2027 09:40:22.768   02 Jun 2027 09:40:24.061             1.293           286.656
        48   02 Jun 2027 09:40:24.204   02 Jun 2027 09:40:25.470             1.266             4.469
        49   02 Jun 2027 11:10:19.578   02 Jun 2027 11:10:36.195            16.617          7216.906
        50   02 Jun 2027 11:10:53.503   02 Jun 2027 11:10:57.381             3.878           207.344
        51   02 Jun 2027 11:12:02.684   02 Jun 2027 11:12:06.852             4.168          1986.000
        52   02 Jun 2027 11:12:28.448   02 Jun 2027 11:12:30.006             1.558           588.031
        53   02 Jun 2027 11:12:33.962   02 Jun 2027 11:12:43.130             9.168            13.469
        54   02 Jun 2027 11:13:16.822   02 Jun 2027 11:13:22.819             5.997           729.500
        55   02 Jun 2027 11:13:51.254   02 Jun 2027 11:13:54.222             2.968           839.969
        56   02 Jun 2027 11:14:38.523   02 Jun 2027 11:14:43.329             4.806          1072.344
        57   02 Jun 2027 11:14:47.853   02 Jun 2027 11:14:55.407             7.554           136.531
        58   02 Jun 2027 11:15:36.161   02 Jun 2027 11:15:44.976             8.815          1273.563
        59   02 Jun 2027 11:16:22.187   02 Jun 2027 11:16:25.934             3.747          1004.219
        60   03 Jun 2027 03:33:44.168   03 Jun 2027 03:35:53.400           129.232         64616.000
        61   03 Jun 2027 03:35:59.215   03 Jun 2027 03:37:32.769            93.554         46777.000
        62   03 Jun 2027 03:38:07.565   03 Jun 2027 03:38:10.544             2.979          1489.500
        63   03 Jun 2027 03:38:41.944   03 Jun 2027 03:38:46.581             4.637          2318.500
        64   03 Jun 2027 03:40:35.988   03 Jun 2027 03:40:54.109            18.121          9060.500
        65   03 Jun 2027 05:00:08.161   03 Jun 2027 05:00:10.049             1.888           944.000
        66   03 Jun 2027 05:10:50.964   03 Jun 2027 05:11:32.554            41.590         20795.000
        67   03 Jun 2027 05:11:40.313   03 Jun 2027 05:11:47.871             7.558          3779.000
        68   03 Jun 2027 05:12:11.676   03 Jun 2027 05:12:44.230            32.554         16192.469
        69   03 Jun 2027 05:13:47.812   03 Jun 2027 05:13:50.988             3.176          1509.500
        70   03 Jun 2027 05:14:00.428   03 Jun 2027 05:14:12.112            11.684           295.000
        71   03 Jun 2027 05:14:19.529   03 Jun 2027 05:14:22.536             3.007            67.438
        72   03 Jun 2027 06:34:49.606   03 Jun 2027 06:35:06.031            16.425          8212.500
        73   03 Jun 2027 06:35:16.079   03 Jun 2027 06:35:16.079             0.000             0.000
        74   03 Jun 2027 06:35:21.920   03 Jun 2027 06:35:26.187             4.267          1339.594
        75   03 Jun 2027 06:36:56.696   03 Jun 2027 06:37:02.435             5.739          2622.875
        76   03 Jun 2027 06:37:17.973   03 Jun 2027 06:37:25.740             7.767           485.562
        77   03 Jun 2027 08:10:36.999   03 Jun 2027 08:10:50.742            13.743          3634.375
        78   03 Jun 2027 08:12:41.143   03 Jun 2027 08:12:47.990             6.847          3412.313
        79   03 Jun 2027 08:13:15.379   03 Jun 2027 08:13:19.358             3.979           616.844
        80   03 Jun 2027 08:14:01.240   03 Jun 2027 08:14:05.649             4.409          1308.813
        81   03 Jun 2027 09:45:30.388   03 Jun 2027 09:45:38.573             8.185          4092.500
        82   03 Jun 2027 09:45:43.676   03 Jun 2027 09:45:47.084             3.408           365.907
        83   03 Jun 2027 09:47:24.580   03 Jun 2027 09:47:33.577             8.997          2658.875
        84   03 Jun 2027 09:47:55.989   03 Jun 2027 09:47:57.565             1.576           492.406
        85   03 Jun 2027 09:48:25.653   03 Jun 2027 09:48:27.515             1.862           877.750
        86   03 Jun 2027 09:48:33.866   03 Jun 2027 09:48:36.661             2.795           139.156
        87   03 Jun 2027 09:48:46.755   03 Jun 2027 09:48:48.199             1.444           147.719
        88   03 Jun 2027 09:51:11.631   03 Jun 2027 09:51:22.891            11.260          4356.719
        89   03 Jun 2027 09:51:46.030   03 Jun 2027 09:51:47.901             1.871           681.844
        90   03 Jun 2027 09:52:23.091   03 Jun 2027 09:52:27.961             4.870          1099.688
        91   03 Jun 2027 09:52:37.132   03 Jun 2027 09:52:42.328             5.196           153.687
        92   03 Jun 2027 11:22:01.064   03 Jun 2027 11:22:17.997            16.933          7670.781
        93   03 Jun 2027 11:22:56.469   03 Jun 2027 11:22:58.554             2.085           931.781
        94   03 Jun 2027 11:24:00.117   03 Jun 2027 11:24:04.304             4.187          1923.844
        95   03 Jun 2027 11:24:08.203   03 Jun 2027 11:24:08.920             0.717           121.844
        96   03 Jun 2027 11:24:55.496   03 Jun 2027 11:24:56.158             0.662           331.000
        97   03 Jun 2027 11:25:01.600   03 Jun 2027 11:25:09.154             7.554           711.125
        98   03 Jun 2027 11:25:47.801   03 Jun 2027 11:25:53.226             5.425          1027.531
        99   03 Jun 2027 11:26:13.197   03 Jun 2027 11:26:21.281             8.084           620.719
       100   03 Jun 2027 11:27:04.592   03 Jun 2027 11:27:05.646             1.054           527.000
       101   03 Jun 2027 11:27:32.038   03 Jun 2027 11:27:34.118             2.080          1040.000
       102   04 Jun 2027 03:45:49.045   04 Jun 2027 03:48:06.534           137.489         68744.500
       103   04 Jun 2027 03:48:14.316   04 Jun 2027 03:49:22.179            67.863         33931.500
       104   04 Jun 2027 03:49:41.463   04 Jun 2027 03:49:58.207            16.744          8372.000
       105   04 Jun 2027 03:51:09.723   04 Jun 2027 03:51:24.880            15.157          7578.500
       106   04 Jun 2027 03:52:52.444   04 Jun 2027 03:53:26.937            34.493         17246.500
       107   04 Jun 2027 05:11:26.261   04 Jun 2027 05:11:41.302            15.041          7520.500
       108   04 Jun 2027 05:12:12.622   04 Jun 2027 05:12:33.894            21.272         10636.000
       109   04 Jun 2027 05:22:48.560   04 Jun 2027 05:23:26.766            38.206         17828.157
       110   04 Jun 2027 06:45:24.502   04 Jun 2027 06:45:37.364            12.862          5392.188
       111   04 Jun 2027 06:46:58.764   04 Jun 2027 06:47:01.294             2.530          1265.000
       112   04 Jun 2027 06:47:18.271   04 Jun 2027 06:47:20.910             2.639           640.719
       113   04 Jun 2027 06:48:27.966   04 Jun 2027 06:48:27.966             0.000             0.000
       114   04 Jun 2027 06:49:01.981   04 Jun 2027 06:49:10.485             8.504          3158.469
       115   04 Jun 2027 06:49:52.515   04 Jun 2027 06:49:59.645             7.130           986.906
       116   04 Jun 2027 08:20:54.310   04 Jun 2027 08:21:04.419            10.109          5054.500
       117   04 Jun 2027 08:21:43.306   04 Jun 2027 08:21:45.727             2.421          1210.500
       118   04 Jun 2027 08:22:40.560   04 Jun 2027 08:22:48.317             7.757          2049.437
       119   04 Jun 2027 08:23:28.743   04 Jun 2027 08:23:31.679             2.936           700.594
       120   04 Jun 2027 08:25:12.889   04 Jun 2027 08:25:20.366             7.477          2623.250
       121   04 Jun 2027 08:25:21.908   04 Jun 2027 08:25:22.402             0.494            48.188
       122   04 Jun 2027 08:26:25.910   04 Jun 2027 08:26:30.281             4.371          1984.625
       123   04 Jun 2027 08:26:41.038   04 Jun 2027 08:26:41.038             0.000             0.000
       124   04 Jun 2027 08:26:43.402   04 Jun 2027 08:26:44.037             0.635           315.937
       125   04 Jun 2027 09:57:15.390   04 Jun 2027 09:57:26.545            11.155          5538.500
       126   04 Jun 2027 09:59:25.035   04 Jun 2027 09:59:25.035             0.000             0.000
       127   04 Jun 2027 10:00:31.041   04 Jun 2027 10:00:42.964            11.923          5418.906
       128   04 Jun 2027 10:01:36.356   04 Jun 2027 10:01:41.961             5.605          1575.250
       129   04 Jun 2027 10:01:55.411   04 Jun 2027 10:01:55.808             0.397           194.906
       130   04 Jun 2027 10:02:27.497   04 Jun 2027 10:02:30.326             2.829           990.281
       131   04 Jun 2027 10:02:49.163   04 Jun 2027 10:02:52.822             3.659           588.656
       132   04 Jun 2027 10:03:33.279   04 Jun 2027 10:03:35.691             2.412          1206.000
       133   04 Jun 2027 10:03:51.071   04 Jun 2027 10:03:51.071             0.000             0.000
       134   04 Jun 2027 10:04:30.543   04 Jun 2027 10:04:34.438             3.895          1772.406
       135   04 Jun 2027 11:34:21.359   04 Jun 2027 11:34:37.771            16.412          7837.469
       136   04 Jun 2027 11:35:39.602   04 Jun 2027 11:35:46.264             6.662          1932.219
       137   04 Jun 2027 11:35:51.066   04 Jun 2027 11:35:53.715             2.649           150.063
       138   04 Jun 2027 11:37:01.862   04 Jun 2027 11:37:07.470             5.608          2129.594
       139   04 Jun 2027 11:37:55.386   04 Jun 2027 11:38:00.876             5.490          1376.312
       140   04 Jun 2027 11:38:01.424   04 Jun 2027 11:38:01.974             0.550            17.125
       141   04 Jun 2027 11:38:30.735   04 Jun 2027 11:38:31.760             1.025           512.500
       142   04 Jun 2027 11:38:32.288   04 Jun 2027 11:38:34.339             2.051           332.250
       143   04 Jun 2027 11:39:03.610   04 Jun 2027 11:39:05.789             2.179           787.344
       144   04 Jun 2027 11:39:33.614   04 Jun 2027 11:39:35.281             1.667           833.500
       145   04 Jun 2027 11:39:47.065   04 Jun 2027 11:39:48.554             1.489           404.281
       146   04 Jun 2027 11:40:03.392   04 Jun 2027 11:40:07.984             4.592           258.313
       147   05 Jun 2027 03:58:18.383   05 Jun 2027 04:00:39.596           141.213         70606.500
       148   05 Jun 2027 04:00:49.416   05 Jun 2027 04:00:49.416             0.000             0.000
       149   05 Jun 2027 04:01:03.187   05 Jun 2027 04:01:10.102             6.915          3457.500
       150   05 Jun 2027 04:01:28.483   05 Jun 2027 04:01:35.768             7.285          3642.500
       151   05 Jun 2027 04:02:11.107   05 Jun 2027 04:02:22.228            11.121          5560.500
       152   05 Jun 2027 04:02:37.992   05 Jun 2027 04:02:58.538            20.546         10273.000
       153   05 Jun 2027 04:03:19.770   05 Jun 2027 04:04:06.385            46.615         23307.500
       154   05 Jun 2027 04:04:40.860   05 Jun 2027 04:04:48.715             7.855          3927.500
       155   05 Jun 2027 04:05:06.888   05 Jun 2027 04:05:25.882            18.994          9497.000
       156   05 Jun 2027 05:23:07.916   05 Jun 2027 05:23:42.893            34.977         17488.500
       157   05 Jun 2027 05:24:01.261   05 Jun 2027 05:24:09.215             7.954          3977.000
       158   05 Jun 2027 05:34:48.050   05 Jun 2027 05:35:35.310            47.260         23033.687
       159   05 Jun 2027 06:57:05.978   05 Jun 2027 06:57:26.347            20.369          6989.969
       160   05 Jun 2027 06:57:59.533   05 Jun 2027 06:58:04.410             4.877           289.500
       161   05 Jun 2027 07:00:39.913   05 Jun 2027 07:00:48.114             8.201          3497.125
       162   05 Jun 2027 07:01:23.762   05 Jun 2027 07:01:27.146             3.384           715.438
       163   05 Jun 2027 07:01:58.217   05 Jun 2027 07:02:01.340             3.123           754.906
       164   05 Jun 2027 08:32:01.438   05 Jun 2027 08:32:17.630            16.192          4034.500
       165   05 Jun 2027 08:32:59.495   05 Jun 2027 08:33:06.291             6.796           836.656
       166   05 Jun 2027 08:33:36.899   05 Jun 2027 08:33:44.267             7.368           956.500
       167   05 Jun 2027 08:35:49.735   05 Jun 2027 08:36:01.343            11.608          3920.875
       168   05 Jun 2027 08:36:17.475   05 Jun 2027 08:36:20.303             2.828           182.188
       169   05 Jun 2027 08:37:48.626   05 Jun 2027 08:37:51.741             3.115          1235.656
       170   05 Jun 2027 08:38:22.452   05 Jun 2027 08:38:27.595             5.143           959.719
       171   05 Jun 2027 08:38:34.824   05 Jun 2027 08:38:35.863             1.039           225.906
       172   05 Jun 2027 08:38:53.628   05 Jun 2027 08:38:53.628             0.000             0.000
       173   05 Jun 2027 10:09:32.201   05 Jun 2027 10:09:41.034             8.833          4044.094
       174   05 Jun 2027 10:10:20.366   05 Jun 2027 10:10:23.535             3.169           593.250
       175   05 Jun 2027 10:10:50.007   05 Jun 2027 10:10:54.057             4.050           649.313
       176   05 Jun 2027 10:11:02.326   05 Jun 2027 10:11:04.879             2.553            34.250
       177   05 Jun 2027 10:14:01.120   05 Jun 2027 10:14:14.342            13.222          4881.531
       178   05 Jun 2027 10:14:50.307   05 Jun 2027 10:14:58.329             8.022           419.500
       179   05 Jun 2027 10:15:44.174   05 Jun 2027 10:15:49.228             5.054          1121.156
       180   05 Jun 2027 10:16:09.122   05 Jun 2027 10:16:13.695             4.573           289.406
       181   05 Jun 2027 10:16:24.535   05 Jun 2027 10:16:24.698             0.163            81.500
       182   05 Jun 2027 10:16:32.323   05 Jun 2027 10:16:37.212             4.889           495.531
       183   05 Jun 2027 10:16:51.177   05 Jun 2027 10:16:51.651             0.474            69.719
       184   05 Jun 2027 11:46:17.444   05 Jun 2027 11:46:30.798            13.354          5961.781
       185   05 Jun 2027 11:47:22.584   05 Jun 2027 11:47:30.661             8.077          1244.719
       186   05 Jun 2027 11:48:21.514   05 Jun 2027 11:48:25.335             3.821          1402.937
       187   05 Jun 2027 11:49:15.497   05 Jun 2027 11:49:19.407             3.910          1379.469
       188   05 Jun 2027 11:50:10.326   05 Jun 2027 11:50:13.355             3.029           691.812
       189   05 Jun 2027 11:51:04.740   05 Jun 2027 11:51:06.539             1.799           899.500
       190   05 Jun 2027 11:51:39.751   05 Jun 2027 11:51:45.417             5.666          1744.156
       191   05 Jun 2027 11:52:13.834   05 Jun 2027 11:52:14.210             0.376           188.000
       192   05 Jun 2027 11:52:24.544   05 Jun 2027 11:52:26.754             2.210          1022.969
       193   05 Jun 2027 11:52:35.843   05 Jun 2027 11:52:35.843             0.000             0.000
       194   06 Jun 2027 04:10:21.538   06 Jun 2027 04:12:44.650           143.112         71556.000
       195   06 Jun 2027 04:13:31.154   06 Jun 2027 04:13:54.643            23.489         11744.500
       196   06 Jun 2027 04:14:47.956   06 Jun 2027 04:15:11.563            23.607         11803.500
       197   06 Jun 2027 04:16:28.114   06 Jun 2027 04:17:03.453            35.339         17669.500
       198   06 Jun 2027 05:34:41.523   06 Jun 2027 05:35:44.391            62.868         31434.000
       199   06 Jun 2027 05:35:51.876   06 Jun 2027 05:36:02.099            10.223          5111.500
       200   06 Jun 2027 05:46:57.118   06 Jun 2027 05:47:23.179            26.061         13030.500
       201   06 Jun 2027 07:08:38.190   06 Jun 2027 07:09:05.628            27.438         11367.406
       202   06 Jun 2027 07:10:46.122   06 Jun 2027 07:10:50.860             4.738          1695.687
       203   06 Jun 2027 07:12:26.060   06 Jun 2027 07:12:33.415             7.355          2436.625
       204   06 Jun 2027 07:14:20.147   06 Jun 2027 07:14:26.523             6.376          3188.000
       205   06 Jun 2027 08:43:31.359   06 Jun 2027 08:43:40.702             9.343          4095.969
       206   06 Jun 2027 08:45:30.611   06 Jun 2027 08:45:36.995             6.384          2161.687
       207   06 Jun 2027 08:45:43.934   06 Jun 2027 08:45:44.867             0.933           182.156
       208   06 Jun 2027 08:47:50.139   06 Jun 2027 08:47:59.018             8.879          3788.500
       209   06 Jun 2027 08:49:20.939   06 Jun 2027 08:49:29.831             8.892          2327.781
       210   06 Jun 2027 08:49:56.925   06 Jun 2027 08:49:59.267             2.342           846.688
       211   06 Jun 2027 08:50:37.179   06 Jun 2027 08:50:41.220             4.041          1080.969
       212   06 Jun 2027 08:51:01.588   06 Jun 2027 08:51:04.366             2.778           636.500
       213   06 Jun 2027 08:51:56.494   06 Jun 2027 08:52:01.495             5.001          1023.250
       214   06 Jun 2027 10:21:26.904   06 Jun 2027 10:21:41.179            14.275          6713.156
       215   06 Jun 2027 10:22:19.043   06 Jun 2027 10:22:23.081             4.038           215.250
       216   06 Jun 2027 10:23:05.605   06 Jun 2027 10:23:08.930             3.325           786.125
       217   06 Jun 2027 10:24:25.653   06 Jun 2027 10:24:25.994             0.341           170.500
       218   06 Jun 2027 10:25:38.098   06 Jun 2027 10:25:50.405            12.307          4480.344
       219   06 Jun 2027 10:25:54.323   06 Jun 2027 10:25:55.613             1.290           106.719
       220   06 Jun 2027 10:26:12.211   06 Jun 2027 10:26:14.570             2.359           518.688
       221   06 Jun 2027 10:26:24.513   06 Jun 2027 10:26:27.341             2.828           310.719
       222   06 Jun 2027 10:26:45.060   06 Jun 2027 10:26:47.127             2.067           547.844
       223   06 Jun 2027 10:26:47.247   06 Jun 2027 10:26:49.572             2.325             3.750
       224   06 Jun 2027 10:27:08.290   06 Jun 2027 10:27:12.411             4.121           584.937
       225   06 Jun 2027 10:27:15.050   06 Jun 2027 10:27:16.889             1.839            82.469
       226   06 Jun 2027 10:27:31.019   06 Jun 2027 10:27:34.634             3.615           225.531
       227   06 Jun 2027 10:28:19.579   06 Jun 2027 10:28:25.282             5.703          1282.906
       228   06 Jun 2027 10:28:34.919   06 Jun 2027 10:28:35.653             0.734           301.156
       229   06 Jun 2027 11:58:14.139   06 Jun 2027 11:58:29.919            15.780          7635.813
       230   06 Jun 2027 11:59:50.363   06 Jun 2027 11:59:52.628             2.265          1109.594
       231   07 Jun 2027 04:22:47.642   07 Jun 2027 04:24:06.727            79.085         39542.500
       232   07 Jun 2027 04:24:35.920   07 Jun 2027 04:25:25.483            49.563         24781.500
       233   07 Jun 2027 04:26:03.470   07 Jun 2027 04:27:42.759            99.289         49644.500
       234   07 Jun 2027 05:46:37.244   07 Jun 2027 05:47:20.137            42.893         21446.500
       235   07 Jun 2027 05:48:52.652   07 Jun 2027 05:48:53.794             1.142           571.000
       236   07 Jun 2027 07:22:37.025   07 Jun 2027 07:23:37.696            60.671         29901.281
       237   07 Jun 2027 07:24:05.095   07 Jun 2027 07:24:08.332             3.237           273.406
       238   07 Jun 2027 07:25:45.649   07 Jun 2027 07:25:49.927             4.278          2020.688
       239   07 Jun 2027 08:56:24.901   07 Jun 2027 08:56:37.589            12.688          3934.656
       240   07 Jun 2027 08:57:58.972   07 Jun 2027 08:58:00.506             1.534           627.781
       241   07 Jun 2027 08:59:36.338   07 Jun 2027 08:59:46.685            10.347          2127.188
       242   07 Jun 2027 09:01:03.888   07 Jun 2027 09:01:09.276             5.388          2306.938
       243   07 Jun 2027 09:01:27.309   07 Jun 2027 09:01:28.746             1.437           310.625
       244   07 Jun 2027 09:02:19.525   07 Jun 2027 09:02:19.525             0.000             0.000
       245   07 Jun 2027 09:03:06.744   07 Jun 2027 09:03:07.295             0.551           275.500
       246   07 Jun 2027 09:03:33.859   07 Jun 2027 09:03:39.885             6.026          2408.594
       247   07 Jun 2027 09:04:29.609   07 Jun 2027 09:04:42.139            12.530          1540.875
       248   07 Jun 2027 09:04:51.168   07 Jun 2027 09:04:51.170             0.002             1.000
       249   07 Jun 2027 10:33:38.433   07 Jun 2027 10:33:58.688            20.255          7333.781
       250   07 Jun 2027 10:34:21.522   07 Jun 2027 10:34:25.592             4.070           421.062
       251   07 Jun 2027 10:34:46.064   07 Jun 2027 10:34:49.711             3.647           627.781
       252   07 Jun 2027 10:38:07.237   07 Jun 2027 10:38:20.281            13.044          5972.563
       253   07 Jun 2027 10:38:55.516   07 Jun 2027 10:38:58.006             2.490          1101.094
       254   07 Jun 2027 10:39:14.724   07 Jun 2027 10:39:15.683             0.959            99.938
       255   07 Jun 2027 10:39:22.053   07 Jun 2027 10:39:27.256             5.203           173.031
       256   07 Jun 2027 10:39:40.091   07 Jun 2027 10:39:42.041             1.950           126.750
       257   07 Jun 2027 10:40:18.855   07 Jun 2027 10:40:21.069             2.214           722.937
       258   07 Jun 2027 10:40:21.789   07 Jun 2027 10:40:22.565             0.776            22.500
       259   07 Jun 2027 10:40:33.156   07 Jun 2027 10:40:33.544             0.388           138.719
       260   08 Jun 2027 03:00:00.000   08 Jun 2027 03:00:09.016             9.016          4508.000
       261   08 Jun 2027 03:00:24.985   08 Jun 2027 03:00:25.914             0.929           464.500
       262   08 Jun 2027 03:00:51.765   08 Jun 2027 03:01:38.757            46.992         23496.000
       263   08 Jun 2027 03:02:19.016   08 Jun 2027 03:02:44.606            25.590         12795.000
       264   08 Jun 2027 04:35:07.685   08 Jun 2027 04:37:31.548           143.863         71931.500
       265   08 Jun 2027 04:37:40.921   08 Jun 2027 04:38:16.314            35.393         17696.500
       266   08 Jun 2027 04:38:50.742   08 Jun 2027 04:38:50.742             0.000             0.000
       267   08 Jun 2027 05:58:29.393   08 Jun 2027 05:59:24.813            55.420         27710.000
       268   08 Jun 2027 07:34:50.795   08 Jun 2027 07:35:10.133            19.338          6183.437
       269   08 Jun 2027 07:36:17.421   08 Jun 2027 07:36:21.604             4.183          1665.875
       270   08 Jun 2027 07:36:49.073   08 Jun 2027 07:36:50.772             1.699           677.344
       271   08 Jun 2027 07:37:45.663   08 Jun 2027 07:37:50.282             4.619          1715.344
       272   08 Jun 2027 09:08:56.250   08 Jun 2027 09:09:06.057             9.807          4757.250
       273   08 Jun 2027 09:10:31.912   08 Jun 2027 09:10:31.912             0.000             0.000
       274   08 Jun 2027 09:10:50.008   08 Jun 2027 09:10:57.208             7.200          2214.156
       275   08 Jun 2027 09:11:38.369   08 Jun 2027 09:11:38.369             0.000             0.000
       276   08 Jun 2027 09:11:44.133   08 Jun 2027 09:11:49.409             5.276          1343.781
       277   08 Jun 2027 09:14:16.477   08 Jun 2027 09:14:26.529            10.052          4110.000
       278   08 Jun 2027 09:15:16.166   08 Jun 2027 09:15:19.961             3.795           771.281
       279   08 Jun 2027 09:15:31.630   08 Jun 2027 09:15:34.211             2.581           278.594
       280   08 Jun 2027 09:16:02.554   08 Jun 2027 09:16:06.849             4.295           885.719
       281   08 Jun 2027 09:16:13.654   08 Jun 2027 09:16:14.518             0.864           182.500
       282   08 Jun 2027 09:16:52.620   08 Jun 2027 09:16:54.348             1.728           796.750
       283   08 Jun 2027 10:46:00.486   08 Jun 2027 10:46:14.447            13.961          6319.781
       284   08 Jun 2027 10:46:29.788   08 Jun 2027 10:46:31.148             1.360            36.469
       285   08 Jun 2027 10:47:13.184   08 Jun 2027 10:47:16.364             3.180          1132.031
       286   08 Jun 2027 10:48:14.284   08 Jun 2027 10:48:19.923             5.639          1549.625
       287   08 Jun 2027 10:48:42.668   08 Jun 2027 10:48:45.154             2.486           710.781
       288   08 Jun 2027 10:49:28.999   08 Jun 2027 10:49:36.459             7.460          1370.156
       289   08 Jun 2027 10:50:43.629   08 Jun 2027 10:50:47.639             4.010          1972.844
       290   08 Jun 2027 10:50:56.852   08 Jun 2027 10:51:02.002             5.150           166.750
       291   08 Jun 2027 10:52:06.081   08 Jun 2027 10:52:11.083             5.002          2002.469
       292   08 Jun 2027 10:52:34.491   08 Jun 2027 10:52:39.743             5.252           731.500
       293   09 Jun 2027 03:08:59.251   09 Jun 2027 03:09:59.850            60.599         30299.500
       294   09 Jun 2027 03:10:05.613   09 Jun 2027 03:11:30.140            84.527         42263.500
       295   09 Jun 2027 03:12:16.512   09 Jun 2027 03:12:26.764            10.252          5126.000
       296   09 Jun 2027 03:12:52.483   09 Jun 2027 03:13:03.361            10.878          5439.000
       297   09 Jun 2027 03:13:15.679   09 Jun 2027 03:13:40.317            24.638         12319.000
       298   09 Jun 2027 03:14:31.218   09 Jun 2027 03:14:36.419             5.201          2600.500
       299   09 Jun 2027 04:47:35.089   09 Jun 2027 04:49:22.199           107.110         53339.250
       300   09 Jun 2027 04:49:46.111   09 Jun 2027 04:49:46.111             0.000             0.000
       301   09 Jun 2027 04:50:20.325   09 Jun 2027 04:50:30.244             9.919          1536.469
       302   09 Jun 2027 04:50:35.395   09 Jun 2027 04:50:37.355             1.960           160.969
       303   09 Jun 2027 04:50:57.382   09 Jun 2027 04:50:58.945             1.563            44.813
       304   09 Jun 2027 06:10:32.205   09 Jun 2027 06:10:44.893            12.688          5805.188
       305   09 Jun 2027 06:11:47.963   09 Jun 2027 06:11:47.963             0.000             0.000
       306   09 Jun 2027 07:46:57.623   09 Jun 2027 07:47:06.320             8.697          4210.563
       307   09 Jun 2027 07:47:37.565   09 Jun 2027 07:47:38.873             1.308           405.313
       308   09 Jun 2027 07:48:06.443   09 Jun 2027 07:48:09.178             2.735           535.250
       309   09 Jun 2027 07:48:35.054   09 Jun 2027 07:48:38.453             3.399           808.625
       310   09 Jun 2027 07:49:33.211   09 Jun 2027 07:49:37.754             4.543          1641.281
       311   09 Jun 2027 09:22:05.793   09 Jun 2027 09:22:14.694             8.901          3682.750
       312   09 Jun 2027 09:23:10.199   09 Jun 2027 09:23:12.929             2.730           893.000
       313   09 Jun 2027 09:24:25.722   09 Jun 2027 09:24:30.640             4.918          1977.969
       314   09 Jun 2027 09:24:50.655   09 Jun 2027 09:24:54.479             3.824            71.781
       315   09 Jun 2027 09:25:27.157   09 Jun 2027 09:25:29.487             2.330           325.969
       316   09 Jun 2027 09:25:49.362   09 Jun 2027 09:25:51.656             2.294           490.219
       317   09 Jun 2027 09:26:25.204   09 Jun 2027 09:26:29.185             3.981           754.156
       318   09 Jun 2027 09:26:55.330   09 Jun 2027 09:26:59.227             3.897           627.562
       319   09 Jun 2027 09:28:13.537   09 Jun 2027 09:28:25.743            12.206          2322.188
       320   09 Jun 2027 09:28:34.564   09 Jun 2027 09:28:35.160             0.596           220.469
       321   09 Jun 2027 09:28:47.367   09 Jun 2027 09:28:48.211             0.844           127.875
       322   09 Jun 2027 10:58:26.868   09 Jun 2027 10:58:37.183            10.315          5030.375
       323   09 Jun 2027 10:58:44.197   09 Jun 2027 10:58:44.650             0.453            24.750
       324   09 Jun 2027 11:00:16.155   09 Jun 2027 11:00:21.401             5.246          2278.125
       325   09 Jun 2027 11:00:43.135   09 Jun 2027 11:00:45.631             2.496           679.187
       326   09 Jun 2027 11:01:14.900   09 Jun 2027 11:01:20.654             5.754           914.656
       327   09 Jun 2027 11:02:39.826   09 Jun 2027 11:02:44.737             4.911          1723.031
       328   09 Jun 2027 11:02:54.232   09 Jun 2027 11:02:54.673             0.441           107.375
       329   09 Jun 2027 11:03:19.820   09 Jun 2027 11:03:21.768             1.948           785.844
       330   09 Jun 2027 11:04:08.241   09 Jun 2027 11:04:10.313             2.072           777.000
       331   09 Jun 2027 11:04:26.453   09 Jun 2027 11:04:29.371             2.918           358.063
       332   09 Jun 2027 11:04:40.169   09 Jun 2027 11:04:48.620             8.451           284.156
       333   10 Jun 2027 03:20:55.107   10 Jun 2027 03:21:50.438            55.331         27665.500
       334   10 Jun 2027 03:22:01.988   10 Jun 2027 03:24:14.152           132.164         66082.000
       335   10 Jun 2027 03:25:51.086   10 Jun 2027 03:25:59.248             8.162          4081.000
       336   10 Jun 2027 03:26:26.825   10 Jun 2027 03:26:57.189            30.364         15182.000
       337   10 Jun 2027 04:59:10.819   10 Jun 2027 04:59:46.750            35.931         17965.500
       338   10 Jun 2027 04:59:59.630   10 Jun 2027 05:00:45.537            45.907         21776.156
       339   10 Jun 2027 05:01:55.547   10 Jun 2027 05:01:55.547             0.000             0.000
       340   10 Jun 2027 05:02:27.404   10 Jun 2027 05:02:32.193             4.789          2394.500
       341   10 Jun 2027 05:02:43.249   10 Jun 2027 05:02:48.107             4.858          1088.969
       342   10 Jun 2027 06:22:30.771   10 Jun 2027 06:22:43.223            12.452          5937.281
       343   10 Jun 2027 06:23:48.669   10 Jun 2027 06:23:48.669             0.000             0.000
       344   10 Jun 2027 06:24:07.794   10 Jun 2027 06:24:14.434             6.640          2642.844
       345   10 Jun 2027 06:25:17.770   10 Jun 2027 06:25:23.625             5.855          1845.625
       346   10 Jun 2027 06:25:34.795   10 Jun 2027 06:25:36.777             1.982           349.063
       347   10 Jun 2027 07:59:07.705   10 Jun 2027 07:59:17.400             9.695          4213.469
       348   10 Jun 2027 07:59:40.731   10 Jun 2027 07:59:43.003             2.272           505.625
       349   10 Jun 2027 08:00:31.634   10 Jun 2027 08:00:32.729             1.095           547.500
       350   10 Jun 2027 08:00:39.267   10 Jun 2027 08:00:41.702             2.435           511.125
       351   10 Jun 2027 08:00:51.326   10 Jun 2027 08:00:52.097             0.771           273.750
       352   10 Jun 2027 08:02:28.331   10 Jun 2027 08:02:33.374             5.043          2219.125
       353   10 Jun 2027 09:34:17.687   10 Jun 2027 09:34:25.319             7.632          3562.938
       354   10 Jun 2027 09:35:41.414   10 Jun 2027 09:35:46.527             5.113          2222.125
       355   10 Jun 2027 09:35:55.086   10 Jun 2027 09:35:55.824             0.738           238.844
       356   10 Jun 2027 09:37:13.389   10 Jun 2027 09:37:16.533             3.144          1115.781
       357   10 Jun 2027 09:39:29.529   10 Jun 2027 09:39:29.529             0.000             0.000
       358   10 Jun 2027 09:40:40.255   10 Jun 2027 09:40:53.169            12.914          6153.312
       359   10 Jun 2027 11:10:34.978   10 Jun 2027 11:10:50.263            15.285          6386.625
       360   10 Jun 2027 11:11:11.828   10 Jun 2027 11:11:14.035             2.207           275.812
       361   10 Jun 2027 11:11:33.213   10 Jun 2027 11:11:35.389             2.176           316.312
       362   10 Jun 2027 11:12:26.175   10 Jun 2027 11:12:29.405             3.230          1470.031
       363   10 Jun 2027 11:12:41.328   10 Jun 2027 11:12:45.587             4.259           372.594
       364   10 Jun 2027 11:13:17.392   10 Jun 2027 11:13:22.215             4.823           993.906
       365   10 Jun 2027 11:14:24.781   10 Jun 2027 11:14:28.524             3.743          1666.781
       366   10 Jun 2027 11:14:49.221   10 Jun 2027 11:14:53.407             4.186           622.656
       367   10 Jun 2027 11:14:59.709   10 Jun 2027 11:15:02.763             3.054           196.938
       368   10 Jun 2027 11:15:36.739   10 Jun 2027 11:15:39.704             2.965           733.937
       369   10 Jun 2027 11:16:02.926   10 Jun 2027 11:16:05.309             2.383           723.906
       370   10 Jun 2027 11:16:36.923   10 Jun 2027 11:16:40.401             3.478           976.344
       371   11 Jun 2027 03:34:00.849   11 Jun 2027 03:37:48.259           227.410        113705.000
       372   11 Jun 2027 03:39:03.960   11 Jun 2027 03:39:04.187             0.227           113.500
       373   11 Jun 2027 03:40:36.290   11 Jun 2027 03:40:39.435             3.145          1572.500
       374   11 Jun 2027 03:40:52.873   11 Jun 2027 03:41:10.234            17.361          8680.500
       375   11 Jun 2027 03:41:48.494   11 Jun 2027 03:41:52.429             3.935          1967.500
       376   11 Jun 2027 05:00:22.379   11 Jun 2027 05:00:29.673             7.294          3647.000
       377   11 Jun 2027 05:11:07.203   11 Jun 2027 05:11:53.618            46.415         23207.500
       378   11 Jun 2027 05:12:04.185   11 Jun 2027 05:12:12.433             8.248          3335.219
       379   11 Jun 2027 05:13:18.309   11 Jun 2027 05:13:18.309             0.000             0.000
       380   11 Jun 2027 05:13:28.306   11 Jun 2027 05:13:32.600             4.294          1970.187
       381   11 Jun 2027 05:14:02.324   11 Jun 2027 05:14:03.219             0.895            21.469
       382   11 Jun 2027 05:14:05.597   11 Jun 2027 05:14:05.597             0.000             0.000
       383   11 Jun 2027 05:14:14.673   11 Jun 2027 05:14:26.647            11.974           357.937
       384   11 Jun 2027 05:14:37.596   11 Jun 2027 05:14:37.924             0.328           110.469
       385   11 Jun 2027 06:35:07.027   11 Jun 2027 06:35:18.745            11.718          4478.656
       386   11 Jun 2027 06:35:59.135   11 Jun 2027 06:36:01.644             2.509          1193.969
       387   11 Jun 2027 06:37:11.904   11 Jun 2027 06:37:16.061             4.157          1947.375
       388   11 Jun 2027 08:10:51.778   11 Jun 2027 08:11:07.542            15.764          3781.562
       389   11 Jun 2027 08:11:24.854   11 Jun 2027 08:11:35.979            11.125           276.219
       390   11 Jun 2027 08:12:27.031   11 Jun 2027 08:12:30.012             2.981          1351.594
       391   11 Jun 2027 08:13:42.006   11 Jun 2027 08:13:46.446             4.440          1310.437
       392   11 Jun 2027 08:13:50.151   11 Jun 2027 08:13:52.309             2.158           115.781
       393   11 Jun 2027 09:45:44.610   11 Jun 2027 09:45:54.310             9.700          4076.719
       394   11 Jun 2027 09:46:02.933   11 Jun 2027 09:46:03.547             0.614           269.469
       395   11 Jun 2027 09:46:43.927   11 Jun 2027 09:46:46.698             2.771          1261.875
       396   11 Jun 2027 09:47:20.914   11 Jun 2027 09:47:25.913             4.999           264.125
       397   11 Jun 2027 09:48:52.656   11 Jun 2027 09:48:57.392             4.736          2197.938
       398   11 Jun 2027 09:49:59.428   11 Jun 2027 09:50:04.002             4.574          1727.562
       399   11 Jun 2027 09:50:09.606   11 Jun 2027 09:50:17.817             8.211           144.000
       400   11 Jun 2027 09:50:33.733   11 Jun 2027 09:50:36.720             2.987           329.625
       401   11 Jun 2027 09:51:01.059   11 Jun 2027 09:51:02.505             1.446           620.969
       402   11 Jun 2027 09:51:40.798   11 Jun 2027 09:51:44.583             3.785          1196.656
       403   11 Jun 2027 09:52:20.596   11 Jun 2027 09:52:26.941             6.345          1122.187
       404   11 Jun 2027 09:52:59.230   11 Jun 2027 09:53:00.905             1.675           659.594
       405   11 Jun 2027 11:22:18.462   11 Jun 2027 11:22:33.209            14.747          6477.781
       406   11 Jun 2027 11:22:49.878   11 Jun 2027 11:22:53.109             3.231           326.344
       407   11 Jun 2027 11:23:26.582   11 Jun 2027 11:23:27.729             1.147           409.375
       408   11 Jun 2027 11:23:58.350   11 Jun 2027 11:24:06.950             8.600           313.156
       409   11 Jun 2027 11:24:14.561   11 Jun 2027 11:24:16.911             2.350           237.844
       410   11 Jun 2027 11:25:13.543   11 Jun 2027 11:25:17.288             3.745          1769.750
       411   11 Jun 2027 11:26:03.475   11 Jun 2027 11:26:09.100             5.625          1404.813
       412   11 Jun 2027 11:26:30.463   11 Jun 2027 11:26:36.049             5.586           667.594
       413   11 Jun 2027 11:27:18.928   11 Jun 2027 11:27:20.366             1.438           719.000
       414   11 Jun 2027 11:27:46.673   11 Jun 2027 11:27:51.258             4.585          1204.594
       415   12 Jun 2027 03:46:09.143   12 Jun 2027 03:48:48.375           159.232         79616.000
       416   12 Jun 2027 03:50:13.037   12 Jun 2027 03:50:58.903            45.866         22933.000
       417   12 Jun 2027 03:51:24.264   12 Jun 2027 03:52:20.467            56.203         28101.500
       418   12 Jun 2027 03:53:09.934   12 Jun 2027 03:53:43.360            33.426         16434.063
       419   12 Jun 2027 05:12:48.941   12 Jun 2027 05:12:51.669             2.728          1364.000
       420   12 Jun 2027 05:23:05.187   12 Jun 2027 05:24:04.110            58.923         29461.500
       421   12 Jun 2027 06:45:43.600   12 Jun 2027 06:45:55.760            12.160          5053.875
       422   12 Jun 2027 06:47:03.425   12 Jun 2027 06:47:09.207             5.782          1385.594
       423   12 Jun 2027 06:47:16.157   12 Jun 2027 06:47:17.314             1.157            46.375
       424   12 Jun 2027 06:47:38.923   12 Jun 2027 06:47:41.318             2.395           133.219
       425   12 Jun 2027 06:48:42.190   12 Jun 2027 06:48:42.190             0.000             0.000
       426   12 Jun 2027 06:49:04.788   12 Jun 2027 06:49:10.431             5.643          2369.156
       427   12 Jun 2027 06:49:38.019   12 Jun 2027 06:49:40.978             2.959           644.937
       428   12 Jun 2027 06:50:23.376   12 Jun 2027 06:50:23.408             0.032            16.000
       429   12 Jun 2027 08:21:06.021   12 Jun 2027 08:21:15.371             9.350          4069.875
       430   12 Jun 2027 08:22:56.048   12 Jun 2027 08:23:03.835             7.787          2895.469
       431   12 Jun 2027 08:23:46.688   12 Jun 2027 08:23:47.229             0.541           270.500
       432   12 Jun 2027 08:24:34.321   12 Jun 2027 08:24:38.556             4.235          1957.375
       433   12 Jun 2027 08:25:01.546   12 Jun 2027 08:25:03.694             2.148             9.344
       434   12 Jun 2027 08:25:22.053   12 Jun 2027 08:25:25.487             3.434           572.875
       435   12 Jun 2027 08:26:07.250   12 Jun 2027 08:26:11.611             4.361          1099.219
       436   12 Jun 2027 08:26:50.088   12 Jun 2027 08:26:55.544             5.456          1189.000
       437   12 Jun 2027 08:26:57.232   12 Jun 2027 08:26:59.300             2.068            13.781
       438   12 Jun 2027 09:57:52.424   12 Jun 2027 09:58:02.597            10.173          4836.406
       439   12 Jun 2027 09:58:31.692   12 Jun 2027 09:58:35.508             3.816           438.469
       440   12 Jun 2027 09:59:11.829   12 Jun 2027 09:59:15.217             3.388           947.750
       441   12 Jun 2027 10:00:50.387   12 Jun 2027 10:00:54.739             4.352          2114.406
       442   12 Jun 2027 10:03:27.697   12 Jun 2027 10:03:27.697             0.000             0.000
       443   12 Jun 2027 10:04:17.627   12 Jun 2027 10:04:30.817            13.190          6104.188
       444   12 Jun 2027 10:05:03.989   12 Jun 2027 10:05:04.107             0.118            59.000
       445   12 Jun 2027 11:34:40.035   12 Jun 2027 11:34:54.968            14.933          7466.500
       446   12 Jun 2027 11:35:23.978   12 Jun 2027 11:35:28.181             4.203           955.938
       447   12 Jun 2027 11:36:20.928   12 Jun 2027 11:36:26.846             5.918          1249.625
       448   12 Jun 2027 11:36:40.483   12 Jun 2027 11:36:43.851             3.368           256.344
       449   12 Jun 2027 11:37:16.776   12 Jun 2027 11:37:17.888             1.112           556.000
       450   12 Jun 2027 11:38:00.547   12 Jun 2027 11:38:03.093             2.546          1273.000
       451   12 Jun 2027 11:38:44.896   12 Jun 2027 11:38:46.865             1.969           984.500
       452   12 Jun 2027 11:39:20.503   12 Jun 2027 11:39:22.690             2.187          1093.500
       453   12 Jun 2027 11:39:51.233   12 Jun 2027 11:40:02.150            10.917          1633.063
       454   12 Jun 2027 11:40:39.882   12 Jun 2027 11:40:41.735             1.853           926.500
       455   13 Jun 2027 03:58:35.091   13 Jun 2027 04:01:48.124           193.033         96516.500
       456   13 Jun 2027 04:02:38.934   13 Jun 2027 04:02:55.713            16.779          8389.500
       457   13 Jun 2027 04:03:13.091   13 Jun 2027 04:03:46.980            33.889         16944.500
       458   13 Jun 2027 04:04:25.885   13 Jun 2027 04:04:43.833            17.948          8974.000
       459   13 Jun 2027 04:05:24.261   13 Jun 2027 04:05:41.762            17.501          8750.500
       460   13 Jun 2027 05:22:53.551   13 Jun 2027 05:23:28.537            34.986         17493.000
       461   13 Jun 2027 05:35:04.565   13 Jun 2027 05:35:56.301            51.736         21783.437
       462   13 Jun 2027 06:57:21.461   13 Jun 2027 06:57:38.450            16.989          7590.625
       463   13 Jun 2027 06:59:48.395   13 Jun 2027 06:59:56.379             7.984          2838.531
       464   13 Jun 2027 07:01:16.241   13 Jun 2027 07:01:16.241             0.000             0.000
       465   13 Jun 2027 07:01:40.833   13 Jun 2027 07:01:48.380             7.547          2991.313
       466   13 Jun 2027 07:02:14.551   13 Jun 2027 07:02:16.881             2.330           765.219
       467   13 Jun 2027 08:32:15.269   13 Jun 2027 08:32:22.816             7.547          3683.719
       468   13 Jun 2027 08:33:16.800   13 Jun 2027 08:33:18.652             1.852           899.750
       469   13 Jun 2027 08:33:36.511   13 Jun 2027 08:33:36.511             0.000             0.000
       470   13 Jun 2027 08:34:01.250   13 Jun 2027 08:34:05.359             4.109          1331.187
       471   13 Jun 2027 08:35:49.412   13 Jun 2027 08:35:54.850             5.438          2344.063
       472   13 Jun 2027 08:37:37.805   13 Jun 2027 08:37:45.870             8.065          3126.812
       473   13 Jun 2027 08:40:18.627   13 Jun 2027 08:40:27.642             9.015          3311.844
       474   13 Jun 2027 10:09:48.270   13 Jun 2027 10:09:57.464             9.194          4089.781
       475   13 Jun 2027 10:10:45.063   13 Jun 2027 10:10:46.591             1.528           764.000
       476   13 Jun 2027 10:10:52.253   13 Jun 2027 10:10:52.422             0.169            84.500
       477   13 Jun 2027 10:10:54.058   13 Jun 2027 10:10:55.571             1.513           181.281
       478   13 Jun 2027 10:12:01.839   13 Jun 2027 10:12:06.119             4.280          1810.688
       479   13 Jun 2027 10:12:37.070   13 Jun 2027 10:12:40.328             3.258           671.656
       480   13 Jun 2027 10:12:50.667   13 Jun 2027 10:12:52.093             1.426           258.344
       481   13 Jun 2027 10:15:25.495   13 Jun 2027 10:15:35.698            10.203          4745.406
       482   13 Jun 2027 10:15:48.494   13 Jun 2027 10:15:51.685             3.191           360.563
       483   13 Jun 2027 10:15:56.708   13 Jun 2027 10:15:58.485             1.777           156.969
       484   13 Jun 2027 10:16:24.149   13 Jun 2027 10:16:26.491             2.342           248.375
       485   13 Jun 2027 10:16:39.931   13 Jun 2027 10:16:40.207             0.276           138.000
       486   13 Jun 2027 10:16:47.044   13 Jun 2027 10:16:52.739             5.695           389.969
       487   13 Jun 2027 11:46:31.056   13 Jun 2027 11:46:43.964            12.908          6131.969
       488   13 Jun 2027 11:47:12.164   13 Jun 2027 11:47:14.575             2.411           814.063
       489   13 Jun 2027 11:49:17.878   13 Jun 2027 11:49:24.894             7.016          3408.188
       490   13 Jun 2027 11:49:51.484   13 Jun 2027 11:49:56.944             5.460           830.937
       491   13 Jun 2027 11:50:37.600   13 Jun 2027 11:50:42.567             4.967          1067.719
       492   13 Jun 2027 11:51:49.721   13 Jun 2027 11:51:56.164             6.443          2098.562
