uniorb/output/strategy_2/Camera/Camera_KinoSat_110706.txt

KinoSat_110706
-------------------------
    Access    *     Start Time (UTCG)     *     Stop Time (UTCG)  *   Duration (s) *   Data (Mbytes)
         1   01 Jun 2027 03:28:08.436   01 Jun 2027 03:29:11.646            63.210         31605.000
         2   01 Jun 2027 03:29:14.313   01 Jun 2027 03:29:14.981             0.668           334.000
         3   01 Jun 2027 03:32:13.255   01 Jun 2027 03:32:13.255             0.000             0.000
         4   01 Jun 2027 03:32:37.358   01 Jun 2027 03:32:37.358             0.000             0.000
         5   01 Jun 2027 05:02:56.949   01 Jun 2027 05:06:29.265           212.316        106158.000
         6   01 Jun 2027 05:06:56.973   01 Jun 2027 05:07:43.445            46.472         23236.000
         7   01 Jun 2027 05:09:47.412   01 Jun 2027 05:10:00.197            12.785          6392.500
         8   01 Jun 2027 05:11:48.864   01 Jun 2027 05:11:52.678             3.814          1907.000
         9   01 Jun 2027 06:40:45.344   01 Jun 2027 06:43:22.453           157.109         78554.500
        10   01 Jun 2027 06:45:33.189   01 Jun 2027 06:45:48.032            14.843          7421.500
        11   01 Jun 2027 06:46:27.301   01 Jun 2027 06:46:51.019            23.718         11859.000
        12   01 Jun 2027 08:17:29.929   01 Jun 2027 08:17:55.089            25.160         12580.000
        13   01 Jun 2027 08:17:58.876   01 Jun 2027 08:20:29.942           151.066         75533.000
        14   01 Jun 2027 08:20:58.491   01 Jun 2027 08:21:22.267            23.776         11888.000
        15   01 Jun 2027 08:21:45.354   01 Jun 2027 08:21:53.769             8.415          4207.500
        16   01 Jun 2027 08:22:21.517   01 Jun 2027 08:22:35.530            14.013          7006.500
        17   01 Jun 2027 08:23:35.318   01 Jun 2027 08:23:35.318             0.000             0.000
        18   01 Jun 2027 09:55:37.007   01 Jun 2027 09:58:17.185           160.178         80089.000
        19   01 Jun 2027 09:58:47.340   01 Jun 2027 09:58:47.340             0.000             0.000
        20   01 Jun 2027 11:29:28.122   01 Jun 2027 11:30:31.229            63.107         31553.500
        21   01 Jun 2027 11:30:32.678   01 Jun 2027 11:30:47.510            14.832          7416.000
        22   01 Jun 2027 11:33:54.022   01 Jun 2027 11:33:55.317             1.295           647.500
        23   01 Jun 2027 11:34:28.054   01 Jun 2027 11:34:49.133            21.079         10539.500
        24   02 Jun 2027 03:41:54.260   02 Jun 2027 03:42:21.047            26.787         13393.500
        25   02 Jun 2027 03:43:39.571   02 Jun 2027 03:44:20.247            40.676         20338.000
        26   02 Jun 2027 03:44:51.586   02 Jun 2027 03:44:51.586             0.000             0.000
        27   02 Jun 2027 03:45:43.298   02 Jun 2027 03:45:45.963             2.665          1332.500
        28   02 Jun 2027 05:15:45.075   02 Jun 2027 05:19:06.742           201.667        100833.500
        29   02 Jun 2027 05:21:55.967   02 Jun 2027 05:21:59.178             3.211          1605.500
        30   02 Jun 2027 05:23:30.558   02 Jun 2027 05:23:36.881             6.323          3161.500
        31   02 Jun 2027 06:52:51.737   02 Jun 2027 06:55:15.866           144.129         72064.500
        32   02 Jun 2027 06:55:50.582   02 Jun 2027 06:55:53.295             2.713          1356.500
        33   02 Jun 2027 06:56:23.697   02 Jun 2027 06:57:09.731            46.034         23017.000
        34   02 Jun 2027 06:57:38.978   02 Jun 2027 06:57:42.008             3.030          1515.000
        35   02 Jun 2027 06:57:52.166   02 Jun 2027 06:58:00.265             8.099          4049.500
        36   02 Jun 2027 06:58:05.641   02 Jun 2027 06:58:07.774             2.133          1066.500
        37   02 Jun 2027 08:29:53.725   02 Jun 2027 08:31:46.919           113.194         56597.000
        38   02 Jun 2027 08:31:57.994   02 Jun 2027 08:32:05.828             7.834          2412.781
        39   02 Jun 2027 08:32:23.103   02 Jun 2027 08:32:30.317             7.214           284.906
        40   02 Jun 2027 08:33:41.652   02 Jun 2027 08:33:49.284             7.632          2229.219
        41   02 Jun 2027 08:34:22.914   02 Jun 2027 08:34:25.301             2.387          1050.938
        42   02 Jun 2027 08:34:35.538   02 Jun 2027 08:34:37.684             2.146           236.750
        43   02 Jun 2027 08:35:24.305   02 Jun 2027 08:35:27.847             3.542          1456.906
        44   02 Jun 2027 10:06:50.919   02 Jun 2027 10:07:11.298            20.379          9815.937
        45   02 Jun 2027 10:08:42.291   02 Jun 2027 10:08:51.463             9.172          2157.969
        46   02 Jun 2027 10:09:16.701   02 Jun 2027 10:09:21.621             4.920           701.937
        47   02 Jun 2027 10:10:30.770   02 Jun 2027 10:10:35.762             4.992          2160.906
        48   02 Jun 2027 11:41:54.867   02 Jun 2027 11:42:04.446             9.579          3622.938
        49   02 Jun 2027 11:43:32.818   02 Jun 2027 11:43:36.429             3.611          1476.969
        50   02 Jun 2027 11:44:17.826   02 Jun 2027 11:44:21.325             3.499           891.656
        51   02 Jun 2027 11:44:33.053   02 Jun 2027 11:44:34.043             0.990           366.500
        52   02 Jun 2027 11:45:03.272   02 Jun 2027 11:45:03.762             0.490           245.000
        53   02 Jun 2027 11:45:23.730   02 Jun 2027 11:45:29.915             6.185          1223.125
        54   02 Jun 2027 11:46:45.703   02 Jun 2027 11:46:48.373             2.670          1335.000
        55   03 Jun 2027 03:54:15.744   03 Jun 2027 03:55:13.783            58.039         29019.500
        56   03 Jun 2027 03:55:20.242   03 Jun 2027 03:55:24.405             4.163          2081.500
        57   03 Jun 2027 03:56:25.947   03 Jun 2027 03:56:37.806            11.859          5929.500
        58   03 Jun 2027 05:27:43.424   03 Jun 2027 05:28:16.050            32.626         16313.000
        59   03 Jun 2027 05:28:35.374   03 Jun 2027 05:31:49.151           193.777         96888.500
        60   03 Jun 2027 05:32:36.836   03 Jun 2027 05:32:36.836             0.000             0.000
        61   03 Jun 2027 05:36:11.643   03 Jun 2027 05:36:14.057             2.414          1207.000
        62   03 Jun 2027 07:05:17.411   03 Jun 2027 07:06:06.412            49.001         21604.062
        63   03 Jun 2027 07:06:18.454   03 Jun 2027 07:06:20.148             1.694           332.500
        64   03 Jun 2027 07:07:50.972   03 Jun 2027 07:07:59.523             8.551          1323.375
        65   03 Jun 2027 07:08:52.442   03 Jun 2027 07:08:58.414             5.972          1559.781
        66   03 Jun 2027 07:09:38.411   03 Jun 2027 07:09:43.690             5.279           693.094
        67   03 Jun 2027 07:09:53.016   03 Jun 2027 07:09:54.209             1.193           291.437
        68   03 Jun 2027 07:10:14.460   03 Jun 2027 07:10:18.054             3.594           581.906
        69   03 Jun 2027 07:10:57.552   03 Jun 2027 07:10:59.262             1.710           855.000
        70   03 Jun 2027 07:11:57.639   03 Jun 2027 07:11:59.696             2.057          1028.500
        71   03 Jun 2027 08:42:11.161   03 Jun 2027 08:42:42.543            31.382         13377.469
        72   03 Jun 2027 08:42:45.353   03 Jun 2027 08:42:46.284             0.931             6.437
        73   03 Jun 2027 08:43:13.894   03 Jun 2027 08:43:16.620             2.726           441.313
        74   03 Jun 2027 08:43:49.584   03 Jun 2027 08:43:50.881             1.297           462.656
        75   03 Jun 2027 08:44:02.526   03 Jun 2027 08:44:02.526             0.000             0.000
        76   03 Jun 2027 08:44:29.850   03 Jun 2027 08:44:39.997            10.147           938.094
        77   03 Jun 2027 08:45:09.791   03 Jun 2027 08:45:11.133             1.342           372.563
        78   03 Jun 2027 08:45:15.708   03 Jun 2027 08:45:16.858             1.150           142.969
        79   03 Jun 2027 08:46:10.140   03 Jun 2027 08:46:14.520             4.380          1437.125
        80   03 Jun 2027 08:46:38.106   03 Jun 2027 08:46:39.787             1.681           662.719
        81   03 Jun 2027 08:46:55.428   03 Jun 2027 08:46:56.626             1.198           488.781
        82   03 Jun 2027 08:47:13.993   03 Jun 2027 08:47:16.011             2.018           215.813
        83   03 Jun 2027 08:47:20.042   03 Jun 2027 08:47:21.165             1.123           125.969
        84   03 Jun 2027 10:19:05.058   03 Jun 2027 10:19:23.245            18.187          8980.250
        85   03 Jun 2027 10:19:56.125   03 Jun 2027 10:19:57.698             1.573           786.500
        86   03 Jun 2027 10:19:58.530   03 Jun 2027 10:20:06.642             8.112            69.625
        87   03 Jun 2027 10:21:05.910   03 Jun 2027 10:21:09.219             3.309          1646.313
        88   03 Jun 2027 10:21:32.462   03 Jun 2027 10:21:34.493             2.031           623.188
        89   03 Jun 2027 10:22:00.611   03 Jun 2027 10:22:03.796             3.185           816.188
        90   03 Jun 2027 10:22:47.921   03 Jun 2027 10:22:50.213             2.292          1108.219
        91   03 Jun 2027 10:23:00.277   03 Jun 2027 10:23:00.545             0.268           134.000
        92   03 Jun 2027 10:23:13.240   03 Jun 2027 10:23:13.240             0.000             0.000
        93   03 Jun 2027 11:56:52.222   03 Jun 2027 11:56:59.073             6.851          2635.063
        94   04 Jun 2027 04:06:17.078   04 Jun 2027 04:07:14.862            57.784         28892.000
        95   04 Jun 2027 04:07:41.778   04 Jun 2027 04:08:05.103            23.325         11662.500
        96   04 Jun 2027 04:08:06.056   04 Jun 2027 04:08:24.199            18.143          9071.500
        97   04 Jun 2027 04:09:17.937   04 Jun 2027 04:09:17.937             0.000             0.000
        98   04 Jun 2027 04:09:18.309   04 Jun 2027 04:09:27.339             9.030          4515.000
        99   04 Jun 2027 05:41:12.101   04 Jun 2027 05:43:28.463           136.362         68181.000
       100   04 Jun 2027 05:43:31.808   04 Jun 2027 05:43:31.912             0.104            52.000
       101   04 Jun 2027 05:43:50.937   04 Jun 2027 05:44:05.846            14.909          7454.500
       102   04 Jun 2027 05:44:18.100   04 Jun 2027 05:44:24.965             6.865          3432.500
       103   04 Jun 2027 05:46:20.565   04 Jun 2027 05:46:55.472            34.907         17453.500
       104   04 Jun 2027 05:48:06.561   04 Jun 2027 05:48:10.283             3.722          1861.000
       105   04 Jun 2027 07:17:24.575   04 Jun 2027 07:18:01.275            36.700         18350.000
       106   04 Jun 2027 07:18:11.187   04 Jun 2027 07:18:14.636             3.449          1074.625
       107   04 Jun 2027 07:18:59.016   04 Jun 2027 07:19:02.232             3.216           248.094
       108   04 Jun 2027 07:19:39.295   04 Jun 2027 07:19:42.954             3.659           817.875
       109   04 Jun 2027 07:20:16.357   04 Jun 2027 07:20:23.409             7.052           585.813
       110   04 Jun 2027 07:20:53.789   04 Jun 2027 07:20:56.293             2.504           895.875
       111   04 Jun 2027 07:22:39.064   04 Jun 2027 07:22:44.881             5.817          2722.344
       112   04 Jun 2027 07:22:59.995   04 Jun 2027 07:23:08.775             8.780           472.313
       113   04 Jun 2027 07:23:14.003   04 Jun 2027 07:23:18.567             4.564           163.375
       114   04 Jun 2027 08:55:07.670   04 Jun 2027 08:55:37.988            30.318         11517.406
       115   04 Jun 2027 08:56:19.714   04 Jun 2027 08:56:25.777             6.063           630.125
       116   04 Jun 2027 08:56:33.388   04 Jun 2027 08:56:35.678             2.290           237.844
       117   04 Jun 2027 08:57:03.618   04 Jun 2027 08:57:07.608             3.990           687.969
       118   04 Jun 2027 08:57:24.643   04 Jun 2027 08:57:28.666             4.023           273.938
       119   04 Jun 2027 08:58:23.458   04 Jun 2027 08:58:29.384             5.926          1565.938
       120   04 Jun 2027 08:58:37.050   04 Jun 2027 08:58:38.674             1.624           239.562
       121   04 Jun 2027 08:59:20.866   04 Jun 2027 08:59:24.767             3.901          1226.688
       122   04 Jun 2027 10:31:12.098   04 Jun 2027 10:31:28.367            16.269          7382.500
       123   04 Jun 2027 10:31:34.958   04 Jun 2027 10:31:36.890             1.932            90.344
       124   04 Jun 2027 10:32:19.978   04 Jun 2027 10:32:22.752             2.774          1339.687
       125   04 Jun 2027 10:33:01.062   04 Jun 2027 10:33:06.787             5.725          1197.188
       126   04 Jun 2027 10:33:16.473   04 Jun 2027 10:33:16.656             0.183            91.500
       127   04 Jun 2027 10:33:55.086   04 Jun 2027 10:34:01.454             6.368          1412.125
       128   04 Jun 2027 10:34:23.442   04 Jun 2027 10:34:26.133             2.691           352.500
       129   04 Jun 2027 10:34:53.073   04 Jun 2027 10:34:56.082             3.009           573.312
       130   04 Jun 2027 10:35:11.424   04 Jun 2027 10:35:14.612             3.188           448.406
       131   05 Jun 2027 04:18:24.819   05 Jun 2027 04:20:36.488           131.669         65834.500
       132   05 Jun 2027 04:20:45.805   05 Jun 2027 04:20:46.261             0.456           228.000
       133   05 Jun 2027 04:21:23.900   05 Jun 2027 04:21:23.900             0.000             0.000
       134   05 Jun 2027 04:21:42.586   05 Jun 2027 04:21:53.968            11.382          5691.000
       135   05 Jun 2027 05:53:34.781   05 Jun 2027 05:56:08.200           153.419         76709.500
       136   05 Jun 2027 05:57:47.233   05 Jun 2027 05:58:01.722            14.489          7244.500
       137   05 Jun 2027 05:58:28.701   05 Jun 2027 05:58:41.958            13.257          4602.157
       138   05 Jun 2027 05:58:49.553   05 Jun 2027 05:58:50.130             0.577           237.344
       139   05 Jun 2027 05:59:00.781   05 Jun 2027 05:59:03.419             2.638            23.562
       140   05 Jun 2027 05:59:48.167   05 Jun 2027 05:59:48.167             0.000             0.000
       141   05 Jun 2027 05:59:53.800   05 Jun 2027 05:59:57.278             3.478          1574.406
       142   05 Jun 2027 07:30:00.176   05 Jun 2027 07:30:28.653            28.477         13629.094
       143   05 Jun 2027 07:30:40.403   05 Jun 2027 07:30:46.263             5.860           187.906
       144   05 Jun 2027 07:31:46.080   05 Jun 2027 07:31:49.456             3.376           172.094
       145   05 Jun 2027 07:32:15.778   05 Jun 2027 07:32:18.942             3.164           338.281
       146   05 Jun 2027 07:33:27.854   05 Jun 2027 07:33:32.892             5.038          1853.594
       147   05 Jun 2027 07:33:47.086   05 Jun 2027 07:33:50.443             3.357           443.562
       148   05 Jun 2027 07:35:53.450   05 Jun 2027 07:36:01.132             7.682          3764.969
       149   05 Jun 2027 09:07:14.647   05 Jun 2027 09:07:39.053            24.406         11366.250
       150   05 Jun 2027 09:08:56.915   05 Jun 2027 09:09:03.746             6.831          2407.344
       151   05 Jun 2027 09:09:40.009   05 Jun 2027 09:09:40.009             0.000             0.000
       152   05 Jun 2027 09:09:44.608   05 Jun 2027 09:09:46.810             2.202           619.594
       153   05 Jun 2027 09:10:17.170   05 Jun 2027 09:10:30.145            12.975           893.031
       154   05 Jun 2027 09:11:11.386   05 Jun 2027 09:11:14.296             2.910          1038.063
       155   05 Jun 2027 09:11:15.868   05 Jun 2027 09:11:16.208             0.340            42.719
       156   05 Jun 2027 10:43:29.254   05 Jun 2027 10:43:45.110            15.856          7411.344
       157   05 Jun 2027 10:44:00.647   05 Jun 2027 10:44:01.639             0.992           193.250
       158   05 Jun 2027 10:44:24.345   05 Jun 2027 10:44:32.962             8.617           703.125
       159   05 Jun 2027 10:44:56.894   05 Jun 2027 10:44:59.118             2.224           747.875
       160   05 Jun 2027 10:45:20.511   05 Jun 2027 10:45:22.543             2.032           469.844
       161   05 Jun 2027 10:45:57.290   05 Jun 2027 10:45:59.542             2.252           421.562
       162   05 Jun 2027 10:47:01.936   05 Jun 2027 10:47:14.720            12.784          1760.656
       163   06 Jun 2027 04:30:17.761   06 Jun 2027 04:32:49.751           151.990         75995.000
       164   06 Jun 2027 04:33:42.655   06 Jun 2027 04:34:15.469            32.814         16407.000
       165   06 Jun 2027 04:34:16.863   06 Jun 2027 04:34:17.378             0.515           257.500
       166   06 Jun 2027 06:05:14.098   06 Jun 2027 06:05:59.175            45.077         22538.500
       167   06 Jun 2027 06:07:15.776   06 Jun 2027 06:07:49.890            34.114         17057.000
       168   06 Jun 2027 06:09:11.549   06 Jun 2027 06:09:45.980            34.431         17215.500
       169   06 Jun 2027 06:10:39.044   06 Jun 2027 06:10:53.247            14.203          7101.500
       170   06 Jun 2027 06:11:00.179   06 Jun 2027 06:11:00.179             0.000             0.000
       171   06 Jun 2027 06:11:27.483   06 Jun 2027 06:11:31.219             3.736          1868.000
       172   06 Jun 2027 06:12:15.812   06 Jun 2027 06:12:19.832             4.020          2010.000
       173   06 Jun 2027 07:41:32.466   06 Jun 2027 07:42:02.735            30.269         15077.094
       174   06 Jun 2027 07:42:57.697   06 Jun 2027 07:43:01.745             4.048           251.594
       175   06 Jun 2027 07:43:42.898   06 Jun 2027 07:43:45.036             2.138           741.594
       176   06 Jun 2027 07:44:18.853   06 Jun 2027 07:44:24.583             5.730           984.031
       177   06 Jun 2027 07:44:35.212   06 Jun 2027 07:44:36.300             1.088           332.156
       178   06 Jun 2027 07:45:34.778   06 Jun 2027 07:45:34.778             0.000             0.000
       179   06 Jun 2027 07:45:35.733   06 Jun 2027 07:45:45.971            10.238          1350.219
       180   06 Jun 2027 07:46:51.599   06 Jun 2027 07:46:56.460             4.861          2050.875
       181   06 Jun 2027 09:19:48.109   06 Jun 2027 09:20:11.204            23.095         10635.844
       182   06 Jun 2027 09:21:25.832   06 Jun 2027 09:21:30.685             4.853          2332.125
       183   06 Jun 2027 09:21:55.371   06 Jun 2027 09:21:59.870             4.499           727.750
       184   06 Jun 2027 09:22:58.305   06 Jun 2027 09:23:00.794             2.489          1004.688
       185   06 Jun 2027 10:55:08.183   06 Jun 2027 10:55:21.810            13.627          6533.375
       186   06 Jun 2027 10:55:52.362   06 Jun 2027 10:55:53.923             1.561           780.500
       187   06 Jun 2027 10:56:01.891   06 Jun 2027 10:56:03.844             1.953           423.250
       188   06 Jun 2027 10:56:40.076   06 Jun 2027 10:56:42.462             2.386          1036.844
       189   06 Jun 2027 10:56:51.124   06 Jun 2027 10:56:52.280             1.156            67.969
       190   06 Jun 2027 10:57:09.310   06 Jun 2027 10:57:09.310             0.000             0.000
       191   06 Jun 2027 10:58:10.157   06 Jun 2027 10:58:15.986             5.829          2399.344
       192   06 Jun 2027 10:59:40.563   06 Jun 2027 10:59:48.099             7.536          1957.812
       193   06 Jun 2027 11:00:16.761   06 Jun 2027 11:00:18.651             1.890           707.188
       194   07 Jun 2027 03:05:19.780   07 Jun 2027 03:05:50.940            31.160         15580.000
       195   07 Jun 2027 03:06:28.130   07 Jun 2027 03:06:29.275             1.145           572.500
       196   07 Jun 2027 03:07:03.289   07 Jun 2027 03:07:37.953            34.664         17332.000
       197   07 Jun 2027 03:08:27.419   07 Jun 2027 03:08:50.614            23.195         11597.500
       198   07 Jun 2027 03:09:06.240   07 Jun 2027 03:09:06.544             0.304           152.000
       199   07 Jun 2027 04:40:36.467   07 Jun 2027 04:41:09.922            33.455         16727.500
       200   07 Jun 2027 04:42:01.598   07 Jun 2027 04:43:50.515           108.917         54458.500
       201   07 Jun 2027 04:45:14.868   07 Jun 2027 04:45:43.970            29.102         14551.000
       202   07 Jun 2027 04:45:53.522   07 Jun 2027 04:45:57.583             4.061          2030.500
       203   07 Jun 2027 06:16:47.356   07 Jun 2027 06:17:46.431            59.075         29442.657
       204   07 Jun 2027 06:19:04.121   07 Jun 2027 06:19:07.328             3.207          1596.688
       205   07 Jun 2027 06:20:00.412   07 Jun 2027 06:20:03.340             2.928           555.531
       206   07 Jun 2027 06:21:51.399   07 Jun 2027 06:22:00.971             9.572          3223.094
       207   07 Jun 2027 06:22:24.984   07 Jun 2027 06:22:29.067             4.083           750.406
       208   07 Jun 2027 06:23:03.521   07 Jun 2027 06:23:05.969             2.448          1076.687
       209   07 Jun 2027 06:23:30.225   07 Jun 2027 06:23:30.225             0.000             0.000
       210   07 Jun 2027 06:23:40.445   07 Jun 2027 06:23:46.866             6.421           893.500
       211   07 Jun 2027 06:24:05.699   07 Jun 2027 06:24:06.544             0.845           291.437
       212   07 Jun 2027 07:53:51.720   07 Jun 2027 07:54:27.742            36.022         17353.094
       213   07 Jun 2027 07:55:02.222   07 Jun 2027 07:55:04.638             2.416           507.031
       214   07 Jun 2027 07:55:42.037   07 Jun 2027 07:55:45.659             3.622          1112.625
       215   07 Jun 2027 07:56:28.516   07 Jun 2027 07:56:35.629             7.113           912.281
       216   07 Jun 2027 07:57:30.048   07 Jun 2027 07:57:33.816             3.768          1663.969
       217   07 Jun 2027 07:58:09.367   07 Jun 2027 07:58:13.523             4.156           997.375
       218   07 Jun 2027 07:58:44.749   07 Jun 2027 07:58:49.077             4.328           838.844
       219   07 Jun 2027 09:31:50.909   07 Jun 2027 09:32:11.057            20.148          9304.094
       220   07 Jun 2027 09:32:31.124   07 Jun 2027 09:32:32.525             1.401           492.375
       221   07 Jun 2027 09:33:11.360   07 Jun 2027 09:33:15.168             3.808          1213.594
       222   07 Jun 2027 09:33:23.847   07 Jun 2027 09:33:24.768             0.921           124.500
       223   07 Jun 2027 09:33:50.474   07 Jun 2027 09:33:52.874             2.400           753.875
       224   07 Jun 2027 09:34:40.801   07 Jun 2027 09:34:41.554             0.753           131.906
       225   07 Jun 2027 09:35:35.293   07 Jun 2027 09:35:38.994             3.701          1679.344
       226   07 Jun 2027 09:35:42.037   07 Jun 2027 09:35:43.935             1.898            95.094
       227   07 Jun 2027 11:05:00.075   07 Jun 2027 11:05:16.300            16.225          7414.188
       228   07 Jun 2027 11:06:28.792   07 Jun 2027 11:06:31.774             2.982          1228.344
       229   07 Jun 2027 11:06:47.027   07 Jun 2027 11:06:49.043             2.016           397.500
       230   07 Jun 2027 11:06:56.898   07 Jun 2027 11:06:58.364             1.466           210.406
       231   07 Jun 2027 11:07:17.969   07 Jun 2027 11:07:18.729             0.760           315.625
       232   07 Jun 2027 11:07:46.767   07 Jun 2027 11:07:49.044             2.277           197.812
       233   07 Jun 2027 11:08:27.653   07 Jun 2027 11:08:29.474             1.821           910.500
       234   07 Jun 2027 11:08:35.425   07 Jun 2027 11:08:36.562             1.137           482.000
       235   07 Jun 2027 11:09:49.298   07 Jun 2027 11:09:53.451             4.153          1838.437
       236   07 Jun 2027 11:10:06.131   07 Jun 2027 11:10:06.131             0.000             0.000
       237   07 Jun 2027 11:10:20.235   07 Jun 2027 11:10:23.283             3.048           712.125
       238   07 Jun 2027 11:10:33.750   07 Jun 2027 11:10:37.344             3.594           127.063
       239   07 Jun 2027 11:11:14.014   07 Jun 2027 11:11:14.014             0.000             0.000
       240   07 Jun 2027 11:11:28.755   07 Jun 2027 11:11:36.162             7.407          1459.063
       241   07 Jun 2027 11:12:11.836   07 Jun 2027 11:12:14.296             2.460          1089.437
       242   08 Jun 2027 03:16:38.791   08 Jun 2027 03:16:58.844            20.053         10026.500
       243   08 Jun 2027 03:17:41.804   08 Jun 2027 03:17:49.617             7.813          3906.500
       244   08 Jun 2027 03:18:40.585   08 Jun 2027 03:18:58.808            18.223          9111.500
       245   08 Jun 2027 03:19:03.218   08 Jun 2027 03:19:24.269            21.051         10525.500
       246   08 Jun 2027 03:19:27.086   08 Jun 2027 03:19:36.807             9.721          4860.500
       247   08 Jun 2027 03:20:50.644   08 Jun 2027 03:20:51.521             0.877           438.500
       248   08 Jun 2027 04:51:43.166   08 Jun 2027 04:53:26.331           103.165         51582.500
       249   08 Jun 2027 04:53:46.133   08 Jun 2027 04:54:44.743            58.610         29305.000
       250   08 Jun 2027 04:55:16.201   08 Jun 2027 04:55:56.628            40.427         20213.500
       251   08 Jun 2027 04:57:22.873   08 Jun 2027 04:57:39.857            16.984          8492.000
       252   08 Jun 2027 06:29:04.489   08 Jun 2027 06:29:36.160            31.671         15555.156
       253   08 Jun 2027 06:29:54.032   08 Jun 2027 06:29:57.229             3.197             7.750
       254   08 Jun 2027 06:30:16.125   08 Jun 2027 06:30:19.536             3.411           465.219
       255   08 Jun 2027 06:30:34.352   08 Jun 2027 06:30:35.516             1.164            49.531
       256   08 Jun 2027 06:31:52.507   08 Jun 2027 06:31:53.257             0.750           316.750
       257   08 Jun 2027 06:32:11.537   08 Jun 2027 06:32:13.253             1.716           332.437
       258   08 Jun 2027 06:33:30.594   08 Jun 2027 06:33:34.532             3.938          1901.281
       259   08 Jun 2027 06:34:03.769   08 Jun 2027 06:34:09.242             5.473           422.063
       260   08 Jun 2027 06:34:20.384   08 Jun 2027 06:34:20.778             0.394            85.219
       261   08 Jun 2027 06:34:39.524   08 Jun 2027 06:34:43.595             4.071           585.813
       262   08 Jun 2027 08:05:53.417   08 Jun 2027 08:06:26.288            32.871         15693.594
       263   08 Jun 2027 08:06:37.349   08 Jun 2027 08:06:37.610             0.261           110.687
       264   08 Jun 2027 08:07:31.830   08 Jun 2027 08:07:35.051             3.221           833.063
       265   08 Jun 2027 08:08:02.932   08 Jun 2027 08:08:04.766             1.834           729.688
       266   08 Jun 2027 08:08:28.576   08 Jun 2027 08:08:30.665             2.089           575.750
       267   08 Jun 2027 08:10:04.359   08 Jun 2027 08:10:09.936             5.577          2416.500
       268   08 Jun 2027 08:10:35.273   08 Jun 2027 08:10:37.675             2.402           599.219
       269   08 Jun 2027 08:10:57.248   08 Jun 2027 08:10:58.012             0.764           207.562
       270   08 Jun 2027 08:11:28.956   08 Jun 2027 08:11:31.184             2.228           787.937
       271   08 Jun 2027 08:12:04.556   08 Jun 2027 08:12:06.748             2.192           472.281
       272   08 Jun 2027 08:12:10.026   08 Jun 2027 08:12:18.877             8.851           102.437
       273   08 Jun 2027 09:43:50.416   08 Jun 2027 09:44:09.718            19.302          9651.000
       274   08 Jun 2027 09:44:53.133   08 Jun 2027 09:44:57.057             3.924          1687.063
       275   08 Jun 2027 09:45:02.595   08 Jun 2027 09:45:04.889             2.294           173.062
       276   08 Jun 2027 09:45:34.693   08 Jun 2027 09:45:38.889             4.196           843.437
       277   08 Jun 2027 09:46:36.069   08 Jun 2027 09:46:41.337             5.268          1744.125
       278   08 Jun 2027 09:46:42.619   08 Jun 2027 09:46:43.984             1.365            40.062
       279   08 Jun 2027 09:47:11.823   08 Jun 2027 09:47:14.097             2.274           818.937
       280   08 Jun 2027 09:47:39.486   08 Jun 2027 09:47:45.489             6.003           482.937
       281   08 Jun 2027 11:17:27.003   08 Jun 2027 11:17:33.884             6.881          1781.875
       282   08 Jun 2027 11:18:04.542   08 Jun 2027 11:18:09.130             4.588           410.687
       283   08 Jun 2027 11:18:46.557   08 Jun 2027 11:18:48.563             2.006           349.812
       284   08 Jun 2027 11:18:59.551   08 Jun 2027 11:19:01.702             2.151           343.375
       285   08 Jun 2027 11:19:43.845   08 Jun 2027 11:19:51.883             8.038          1316.969
       286   08 Jun 2027 11:20:48.121   08 Jun 2027 11:20:51.951             3.830          1389.125
       287   08 Jun 2027 11:21:46.017   08 Jun 2027 11:21:49.870             3.853          1262.781
       288   08 Jun 2027 11:22:33.614   08 Jun 2027 11:22:42.435             8.821          1169.625
       289   08 Jun 2027 11:23:26.692   08 Jun 2027 11:23:34.418             7.726          1383.031
       290   08 Jun 2027 11:24:09.671   08 Jun 2027 11:24:18.612             8.941           547.375
       291   08 Jun 2027 11:24:43.977   08 Jun 2027 11:24:44.893             0.916           403.438
       292   09 Jun 2027 03:28:22.945   09 Jun 2027 03:29:30.726            67.781         33890.500
       293   09 Jun 2027 03:29:37.248   09 Jun 2027 03:29:43.111             5.863          2931.500
       294   09 Jun 2027 03:30:30.976   09 Jun 2027 03:30:30.976             0.000             0.000
       295   09 Jun 2027 03:30:57.778   09 Jun 2027 03:31:05.043             7.265          3632.500
       296   09 Jun 2027 03:33:13.448   09 Jun 2027 03:33:58.457            45.009         22504.500
       297   09 Jun 2027 03:33:59.701   09 Jun 2027 03:34:01.956             2.255          1127.500
       298   09 Jun 2027 05:03:11.366   09 Jun 2027 05:05:38.211           146.845         73422.500
       299   09 Jun 2027 05:06:25.032   09 Jun 2027 05:06:45.241            20.209         10104.500
       300   09 Jun 2027 05:08:09.948   09 Jun 2027 05:08:09.948             0.000             0.000
       301   09 Jun 2027 05:09:59.447   09 Jun 2027 05:10:02.664             3.217          1608.500
       302   09 Jun 2027 05:10:53.561   09 Jun 2027 05:10:53.561             0.000             0.000
       303   09 Jun 2027 05:11:50.112   09 Jun 2027 05:11:54.937             4.825          2412.500
       304   09 Jun 2027 06:41:00.016   09 Jun 2027 06:41:38.409            38.393         19196.500
       305   09 Jun 2027 06:42:09.598   09 Jun 2027 06:42:17.435             7.837          3458.968
       306   09 Jun 2027 06:43:06.858   09 Jun 2027 06:43:06.858             0.000             0.000
       307   09 Jun 2027 06:43:38.202   09 Jun 2027 06:43:40.404             2.202          1083.375
       308   09 Jun 2027 06:44:14.840   09 Jun 2027 06:44:17.300             2.460           383.750
       309   09 Jun 2027 06:44:24.298   09 Jun 2027 06:44:25.325             1.027           218.688
       310   09 Jun 2027 06:45:48.316   09 Jun 2027 06:45:56.922             8.606          2224.281
       311   09 Jun 2027 06:46:04.006   09 Jun 2027 06:46:06.424             2.418           216.156
       312   09 Jun 2027 06:46:36.085   09 Jun 2027 06:46:39.425             3.340           926.906
       313   09 Jun 2027 06:46:58.340   09 Jun 2027 06:46:59.090             0.750           375.000
       314   09 Jun 2027 06:47:09.379   09 Jun 2027 06:47:09.379             0.000             0.000
       315   09 Jun 2027 08:17:44.452   09 Jun 2027 08:18:09.706            25.254         12627.000
       316   09 Jun 2027 08:18:13.937   09 Jun 2027 08:18:21.939             8.002          3577.906
       317   09 Jun 2027 08:19:22.027   09 Jun 2027 08:19:25.942             3.915          1570.562
       318   09 Jun 2027 08:20:45.109   09 Jun 2027 08:20:45.769             0.660           330.000
       319   09 Jun 2027 08:21:40.283   09 Jun 2027 08:21:50.747            10.464          2503.812
       320   09 Jun 2027 08:22:09.420   09 Jun 2027 08:22:11.145             1.725           293.750
       321   09 Jun 2027 08:22:48.206   09 Jun 2027 08:22:50.646             2.440           868.344
       322   09 Jun 2027 08:23:04.690   09 Jun 2027 08:23:05.495             0.805           402.500
       323   09 Jun 2027 08:23:21.739   09 Jun 2027 08:23:22.415             0.676           338.000
       324   09 Jun 2027 08:24:28.500   09 Jun 2027 08:24:30.283             1.783           891.500
       325   09 Jun 2027 09:55:51.940   09 Jun 2027 09:56:10.563            18.623          9311.500
       326   09 Jun 2027 09:56:33.182   09 Jun 2027 09:56:40.435             7.253          1616.469
       327   09 Jun 2027 09:56:56.755   09 Jun 2027 09:56:56.755             0.000             0.000
       328   09 Jun 2027 09:57:21.042   09 Jun 2027 09:57:30.441             9.399          1268.969
       329   09 Jun 2027 09:57:33.233   09 Jun 2027 09:57:33.897             0.664            87.250
       330   09 Jun 2027 09:58:13.764   09 Jun 2027 09:58:18.191             4.427          1230.219
       331   09 Jun 2027 09:58:37.465   09 Jun 2027 09:58:37.465             0.000             0.000
       332   09 Jun 2027 09:59:02.309   09 Jun 2027 09:59:05.018             2.709           953.875
       333   09 Jun 2027 11:29:43.015   09 Jun 2027 11:29:51.185             8.170          1540.781
       334   09 Jun 2027 11:31:02.271   09 Jun 2027 11:31:06.571             4.300          2146.688
       335   09 Jun 2027 11:31:30.450   09 Jun 2027 11:31:30.450             0.000             0.000
       336   09 Jun 2027 11:31:34.738   09 Jun 2027 11:31:36.609             1.871           650.687
       337   09 Jun 2027 11:32:04.059   09 Jun 2027 11:32:09.484             5.425           857.813
       338   09 Jun 2027 11:32:46.307   09 Jun 2027 11:32:46.307             0.000             0.000
       339   09 Jun 2027 11:33:22.531   09 Jun 2027 11:33:30.313             7.782          1612.781
       340   09 Jun 2027 11:33:47.084   09 Jun 2027 11:33:47.084             0.000             0.000
       341   09 Jun 2027 11:34:11.904   09 Jun 2027 11:34:16.375             4.471          1229.594
       342   09 Jun 2027 11:35:05.236   09 Jun 2027 11:35:05.236             0.000             0.000
       343   09 Jun 2027 11:35:09.498   09 Jun 2027 11:35:14.328             4.830          1119.156
       344   10 Jun 2027 03:42:08.752   10 Jun 2027 03:42:35.649            26.897         13448.500
       345   10 Jun 2027 03:43:29.118   10 Jun 2027 03:43:32.219             3.101          1550.500
       346   10 Jun 2027 03:44:22.766   10 Jun 2027 03:44:52.592            29.826         14913.000
       347   10 Jun 2027 05:15:59.782   10 Jun 2027 05:19:21.871           202.089        101044.500
       348   10 Jun 2027 05:20:10.471   10 Jun 2027 05:20:11.801             1.330           665.000
       349   10 Jun 2027 06:53:06.434   10 Jun 2027 06:54:15.261            68.827         34187.125
       350   10 Jun 2027 06:55:00.420   10 Jun 2027 06:55:03.361             2.941          1199.500
       351   10 Jun 2027 06:56:13.549   10 Jun 2027 06:56:18.144             4.595          1949.969
       352   10 Jun 2027 06:56:46.085   10 Jun 2027 06:56:47.271             1.186           593.000
       353   10 Jun 2027 06:56:55.963   10 Jun 2027 06:56:57.223             1.260           551.781
       354   10 Jun 2027 06:57:24.705   10 Jun 2027 06:57:26.618             1.913           708.500
       355   10 Jun 2027 06:57:49.258   10 Jun 2027 06:57:53.900             4.642           119.813
       356   10 Jun 2027 06:57:55.689   10 Jun 2027 06:57:56.671             0.982            55.906
       357   10 Jun 2027 06:58:59.971   10 Jun 2027 06:59:04.746             4.775          1978.125
       358   10 Jun 2027 06:59:25.532   10 Jun 2027 06:59:27.915             2.383           302.906
       359   10 Jun 2027 07:00:04.445   10 Jun 2027 07:00:08.980             4.535          1141.563
       360   10 Jun 2027 07:00:17.747   10 Jun 2027 07:00:19.595             1.848           273.969
       361   10 Jun 2027 08:30:08.787   10 Jun 2027 08:30:37.443            28.656         14110.500
       362   10 Jun 2027 08:31:29.975   10 Jun 2027 08:31:37.853             7.878          1593.031
       363   10 Jun 2027 08:31:48.927   10 Jun 2027 08:31:52.886             3.959           232.844
       364   10 Jun 2027 08:32:12.985   10 Jun 2027 08:32:13.373             0.388           194.000
       365   10 Jun 2027 08:32:15.830   10 Jun 2027 08:32:22.153             6.323           243.219
       366   10 Jun 2027 08:32:37.730   10 Jun 2027 08:32:44.928             7.198           224.781
       367   10 Jun 2027 08:33:56.330   10 Jun 2027 08:34:00.914             4.584          2231.312
       368   10 Jun 2027 08:34:29.933   10 Jun 2027 08:34:31.711             1.778           805.844
       369   10 Jun 2027 08:35:26.209   10 Jun 2027 08:35:30.007             3.798          1703.062
       370   10 Jun 2027 08:36:08.325   10 Jun 2027 08:36:11.529             3.204          1197.437
       371   10 Jun 2027 10:07:06.044   10 Jun 2027 10:07:23.578            17.534          8402.781
       372   10 Jun 2027 10:07:32.075   10 Jun 2027 10:07:32.735             0.660           265.531
       373   10 Jun 2027 10:07:57.273   10 Jun 2027 10:08:00.871             3.598           505.094
       374   10 Jun 2027 10:08:11.057   10 Jun 2027 10:08:11.057             0.000             0.000
       375   10 Jun 2027 10:08:27.669   10 Jun 2027 10:08:28.856             1.187           526.687
       376   10 Jun 2027 10:08:38.369   10 Jun 2027 10:08:38.793             0.424           122.188
       377   10 Jun 2027 10:09:26.964   10 Jun 2027 10:09:30.469             3.505          1279.125
       378   10 Jun 2027 10:09:53.181   10 Jun 2027 10:09:59.850             6.669           709.750
       379   10 Jun 2027 10:10:16.310   10 Jun 2027 10:10:20.067             3.757           376.813
       380   10 Jun 2027 10:11:00.356   10 Jun 2027 10:11:00.356             0.000             0.000
       381   10 Jun 2027 10:11:16.797   10 Jun 2027 10:11:19.903             3.106          1500.937
       382   10 Jun 2027 11:42:09.754   10 Jun 2027 11:42:21.403            11.649          2875.875
       383   10 Jun 2027 11:43:48.171   10 Jun 2027 11:43:55.376             7.205          1555.719
       384   10 Jun 2027 11:44:32.459   10 Jun 2027 11:44:36.907             4.448           889.156
       385   10 Jun 2027 11:45:20.597   10 Jun 2027 11:45:24.097             3.500          1113.219
       386   10 Jun 2027 11:46:04.151   10 Jun 2027 11:46:07.367             3.216          1251.688
       387   10 Jun 2027 11:46:28.787   10 Jun 2027 11:46:34.670             5.883           661.781
       388   11 Jun 2027 03:54:30.491   11 Jun 2027 03:55:29.549            59.058         29529.000
       389   11 Jun 2027 03:55:39.151   11 Jun 2027 03:55:39.151             0.000             0.000
       390   11 Jun 2027 03:55:58.270   11 Jun 2027 03:56:06.624             8.354          4177.000
       391   11 Jun 2027 03:56:42.675   11 Jun 2027 03:56:42.675             0.000             0.000
       392   11 Jun 2027 03:57:29.299   11 Jun 2027 03:57:56.356            27.057         13528.500
       393   11 Jun 2027 05:27:58.396   11 Jun 2027 05:31:13.015           194.619         97309.500
       394   11 Jun 2027 05:32:51.649   11 Jun 2027 05:32:52.541             0.892           446.000
       395   11 Jun 2027 05:33:40.486   11 Jun 2027 05:33:49.201             8.715          4357.500
       396   11 Jun 2027 05:34:56.950   11 Jun 2027 05:34:59.218             2.268          1134.000
       397   11 Jun 2027 05:35:45.568   11 Jun 2027 05:36:19.448            33.880         16940.000
       398   11 Jun 2027 07:05:32.247   11 Jun 2027 07:05:54.616            22.369         11184.500
       399   11 Jun 2027 07:05:58.010   11 Jun 2027 07:06:21.172            23.162          8540.874
       400   11 Jun 2027 07:06:34.598   11 Jun 2027 07:06:37.210             2.612           372.969
       401   11 Jun 2027 07:08:05.939   11 Jun 2027 07:08:14.821             8.882          1728.469
       402   11 Jun 2027 07:09:06.597   11 Jun 2027 07:09:13.148             6.551          1536.406
       403   11 Jun 2027 07:09:13.885   11 Jun 2027 07:09:15.600             1.715            23.031
       404   11 Jun 2027 07:11:12.244   11 Jun 2027 07:11:19.393             7.149          3193.781
       405   11 Jun 2027 07:12:10.564   11 Jun 2027 07:12:13.685             3.121          1551.812
       406   11 Jun 2027 08:42:26.360   11 Jun 2027 08:42:57.405            31.045         14159.688
       407   11 Jun 2027 08:43:03.821   11 Jun 2027 08:43:04.875             1.054            49.687
       408   11 Jun 2027 08:43:29.893   11 Jun 2027 08:43:31.814             1.921           680.813
       409   11 Jun 2027 08:44:02.867   11 Jun 2027 08:44:04.595             1.728           811.656
       410   11 Jun 2027 08:44:44.465   11 Jun 2027 08:44:54.783            10.318          1245.937
       411   11 Jun 2027 08:45:42.116   11 Jun 2027 08:45:44.837             2.721          1360.500
       412   11 Jun 2027 08:45:59.500   11 Jun 2027 08:45:59.731             0.231           115.500
       413   11 Jun 2027 08:47:07.304   11 Jun 2027 08:47:13.921             6.617          2485.094
       414   11 Jun 2027 08:47:30.657   11 Jun 2027 08:47:33.576             2.919           208.844
       415   11 Jun 2027 08:47:48.047   11 Jun 2027 08:47:52.380             4.333           452.219
       416   11 Jun 2027 10:19:19.855   11 Jun 2027 10:19:37.437            17.582          8780.750
       417   11 Jun 2027 10:20:11.123   11 Jun 2027 10:20:12.433             1.310           655.000
       418   11 Jun 2027 10:20:35.871   11 Jun 2027 10:20:36.210             0.339           169.500
       419   11 Jun 2027 10:21:14.643   11 Jun 2027 10:21:21.430             6.787          2161.656
       420   11 Jun 2027 10:21:30.790   11 Jun 2027 10:21:33.791             3.001           292.500
       421   11 Jun 2027 10:21:48.932   11 Jun 2027 10:21:51.441             2.509           398.563
       422   11 Jun 2027 10:21:57.447   11 Jun 2027 10:22:00.639             3.192           147.375
       423   11 Jun 2027 10:22:26.376   11 Jun 2027 10:22:42.927            16.551           804.281
       424   11 Jun 2027 10:22:45.659   11 Jun 2027 10:22:48.215             2.556            85.375
       425   11 Jun 2027 10:23:04.702   11 Jun 2027 10:23:06.632             1.930           181.719
       426   11 Jun 2027 10:23:23.663   11 Jun 2027 10:23:26.830             3.167           532.219
       427   11 Jun 2027 11:56:59.510   11 Jun 2027 11:57:04.976             5.466          1599.000
       428   11 Jun 2027 11:57:57.170   11 Jun 2027 11:58:05.541             8.371          1502.031
       429   11 Jun 2027 11:58:14.089   11 Jun 2027 11:58:18.680             4.591           264.188
       430   12 Jun 2027 04:06:32.078   12 Jun 2027 04:07:23.047            50.969         25484.500
       431   12 Jun 2027 04:07:55.305   12 Jun 2027 04:08:12.313            17.008          8504.000
       432   12 Jun 2027 04:08:33.398   12 Jun 2027 04:08:34.426             1.028           514.000
       433   12 Jun 2027 04:09:32.938   12 Jun 2027 04:09:42.212             9.274          4637.000
       434   12 Jun 2027 04:10:02.867   12 Jun 2027 04:10:02.867             0.000             0.000
       435   12 Jun 2027 05:41:27.084   12 Jun 2027 05:44:20.593           173.509         86754.500
       436   12 Jun 2027 05:44:22.295   12 Jun 2027 05:44:26.902             4.607          2303.500
       437   12 Jun 2027 05:48:08.065   12 Jun 2027 05:48:25.078            17.013          8506.500
       438   12 Jun 2027 07:17:39.652   12 Jun 2027 07:18:17.581            37.929         18964.500
       439   12 Jun 2027 07:19:06.547   12 Jun 2027 07:19:09.054             2.507          1253.500
       440   12 Jun 2027 07:19:45.002   12 Jun 2027 07:20:13.255            28.253         13699.094
       441   12 Jun 2027 07:20:40.236   12 Jun 2027 07:20:41.377             1.141           219.250
       442   12 Jun 2027 07:21:25.785   12 Jun 2027 07:21:26.803             1.018           306.812
       443   12 Jun 2027 07:21:49.942   12 Jun 2027 07:21:49.942             0.000             0.000
       444   12 Jun 2027 07:21:55.507   12 Jun 2027 07:21:57.239             1.732           719.750
       445   12 Jun 2027 07:22:28.710   12 Jun 2027 07:22:30.576             1.866           764.812
       446   12 Jun 2027 07:22:32.808   12 Jun 2027 07:22:36.215             3.407            37.313
       447   12 Jun 2027 07:23:25.974   12 Jun 2027 07:23:29.569             3.595          1418.156
       448   12 Jun 2027 07:23:37.369   12 Jun 2027 07:23:42.246             4.877            95.125
       449   12 Jun 2027 08:55:23.024   12 Jun 2027 08:55:48.622            25.598         11449.781
       450   12 Jun 2027 08:56:52.190   12 Jun 2027 08:56:58.038             5.848          1725.969
       451   12 Jun 2027 08:57:13.994   12 Jun 2027 08:57:15.143             1.149           118.469
       452   12 Jun 2027 08:57:50.384   12 Jun 2027 08:57:50.717             0.333           166.500
       453   12 Jun 2027 08:57:57.441   12 Jun 2027 08:58:00.336             2.895          1050.344
       454   12 Jun 2027 08:58:13.161   12 Jun 2027 08:58:13.161             0.000             0.000
       455   12 Jun 2027 08:58:31.152   12 Jun 2027 08:58:33.454             2.302           785.750
       456   12 Jun 2027 08:58:52.521   12 Jun 2027 08:58:55.839             3.318           265.594
       457   12 Jun 2027 10:31:29.310   12 Jun 2027 10:31:46.039            16.729          7831.656
       458   12 Jun 2027 10:33:10.212   12 Jun 2027 10:33:16.261             6.049          2360.531
       459   12 Jun 2027 10:34:09.851   12 Jun 2027 10:34:17.934             8.083          1663.844
       460   12 Jun 2027 10:34:39.040   12 Jun 2027 10:34:40.692             1.652           659.562
       461   12 Jun 2027 10:35:12.013   12 Jun 2027 10:35:13.669             1.656           669.781
       462   12 Jun 2027 10:35:26.087   12 Jun 2027 10:35:28.091             2.004           388.062
       463   12 Jun 2027 10:35:48.508   12 Jun 2027 10:35:51.111             2.603           322.531
       464   13 Jun 2027 04:18:39.505   13 Jun 2027 04:20:12.721            93.216         46608.000
       465   13 Jun 2027 04:20:44.700   13 Jun 2027 04:21:38.723            54.023         27011.500
       466   13 Jun 2027 05:53:49.569   13 Jun 2027 05:56:09.974           140.405         70202.500
       467   13 Jun 2027 05:56:19.701   13 Jun 2027 05:56:22.968             3.267          1633.500
       468   13 Jun 2027 05:56:42.930   13 Jun 2027 05:56:42.930             0.000             0.000
       469   13 Jun 2027 05:56:47.444   13 Jun 2027 05:56:54.674             7.230          3615.000
       470   13 Jun 2027 05:59:19.095   13 Jun 2027 05:59:37.724            18.629          9314.500
       471   13 Jun 2027 07:30:14.733   13 Jun 2027 07:30:53.530            38.797         19250.469
       472   13 Jun 2027 07:30:53.812   13 Jun 2027 07:30:54.165             0.353             8.813
       473   13 Jun 2027 07:31:25.995   13 Jun 2027 07:31:27.224             1.229           614.500
       474   13 Jun 2027 07:32:22.907   13 Jun 2027 07:32:27.751             4.844          1814.062
       475   13 Jun 2027 07:33:13.277   13 Jun 2027 07:33:14.253             0.976           375.125
       476   13 Jun 2027 07:33:20.115   13 Jun 2027 07:33:20.279             0.164             7.969
       477   13 Jun 2027 07:33:42.297   13 Jun 2027 07:33:45.486             3.189           688.063
       478   13 Jun 2027 07:34:21.550   13 Jun 2027 07:34:24.493             2.943          1019.094
       479   13 Jun 2027 07:35:10.422   13 Jun 2027 07:35:15.648             5.226          1070.375
       480   13 Jun 2027 09:07:29.632   13 Jun 2027 09:07:52.726            23.094         11058.937
       481   13 Jun 2027 09:08:18.907   13 Jun 2027 09:08:20.823             1.916           776.094
       482   13 Jun 2027 09:08:44.550   13 Jun 2027 09:08:44.550             0.000             0.000
       483   13 Jun 2027 09:09:42.670   13 Jun 2027 09:09:46.147             3.477          1738.500
       484   13 Jun 2027 09:09:48.717   13 Jun 2027 09:09:50.978             2.261           899.531
       485   13 Jun 2027 09:10:31.235   13 Jun 2027 09:10:32.264             1.029           514.500
       486   13 Jun 2027 09:11:05.099   13 Jun 2027 09:11:10.370             5.271          1750.625
       487   13 Jun 2027 09:11:33.332   13 Jun 2027 09:11:34.936             1.604           438.875
       488   13 Jun 2027 10:43:44.042   13 Jun 2027 10:43:58.127            14.085          6839.844
       489   13 Jun 2027 10:44:09.719   13 Jun 2027 10:44:10.468             0.749             8.875
       490   13 Jun 2027 10:44:18.349   13 Jun 2027 10:44:19.038             0.689           185.969
       491   13 Jun 2027 10:44:30.001   13 Jun 2027 10:44:38.980             8.979           238.594
       492   13 Jun 2027 10:44:48.654   13 Jun 2027 10:44:58.989            10.335           302.312
       493   13 Jun 2027 10:45:13.674   13 Jun 2027 10:45:14.516             0.842           400.563
       494   13 Jun 2027 10:46:20.869   13 Jun 2027 10:46:24.667             3.798          1520.688
       495   13 Jun 2027 10:46:39.629   13 Jun 2027 10:46:42.806             3.177           363.844
       496   13 Jun 2027 10:47:06.662   13 Jun 2027 10:47:06.662             0.000             0.000
       497   13 Jun 2027 10:47:41.601   13 Jun 2027 10:47:50.415             8.814          1386.156
       498   13 Jun 2027 10:48:03.011   13 Jun 2027 10:48:12.126             9.115           359.344
