uniorb/output/strategy_2/Camera/Camera_KinoSat_111806.txt

KinoSat_111806
-------------------------
    Access    *     Start Time (UTCG)     *     Stop Time (UTCG)  *   Duration (s) *   Data (Mbytes)
         1   01 Jun 2027 03:00:00.000   01 Jun 2027 03:00:34.495            34.495         17247.500
         2   01 Jun 2027 03:01:15.069   01 Jun 2027 03:01:40.056            24.987         12493.500
         3   01 Jun 2027 03:01:52.018   01 Jun 2027 03:02:13.812            21.794         10897.000
         4   01 Jun 2027 04:33:12.984   01 Jun 2027 04:34:14.264            61.280         30640.000
         5   01 Jun 2027 04:34:20.949   01 Jun 2027 04:36:04.842           103.893         51946.500
         6   01 Jun 2027 04:36:07.151   01 Jun 2027 04:36:07.151             0.000             0.000
         7   01 Jun 2027 04:36:40.207   01 Jun 2027 04:37:10.805            30.598         15299.000
         8   01 Jun 2027 04:38:40.415   01 Jun 2027 04:38:44.322             3.907          1953.500
         9   01 Jun 2027 04:38:50.251   01 Jun 2027 04:38:58.142             7.891          3945.500
        10   01 Jun 2027 04:39:23.027   01 Jun 2027 04:39:25.186             2.159          1079.500
        11   01 Jun 2027 06:11:30.407   01 Jun 2027 06:11:53.907            23.500         11750.000
        12   01 Jun 2027 06:11:54.788   01 Jun 2027 06:14:04.801           130.013         65006.500
        13   01 Jun 2027 06:14:23.537   01 Jun 2027 06:14:23.537             0.000             0.000
        14   01 Jun 2027 06:15:04.774   01 Jun 2027 06:15:12.851             8.077          4038.500
        15   01 Jun 2027 07:34:53.523   01 Jun 2027 07:35:44.184            50.661         25330.500
        16   01 Jun 2027 07:36:23.696   01 Jun 2027 07:36:26.853             3.157          1578.500
        17   01 Jun 2027 09:11:26.061   01 Jun 2027 09:12:34.158            68.097         34048.500
        18   01 Jun 2027 09:13:57.384   01 Jun 2027 09:14:58.025            60.641         30320.500
        19   01 Jun 2027 10:46:36.653   01 Jun 2027 10:48:11.727            95.074         47537.000
        20   01 Jun 2027 10:53:01.719   01 Jun 2027 10:53:12.559            10.840          5420.000
        21   02 Jun 2027 03:07:02.009   02 Jun 2027 03:09:11.273           129.264         64632.000
        22   02 Jun 2027 03:10:42.472   02 Jun 2027 03:10:42.576             0.104            52.000
        23   02 Jun 2027 03:11:21.174   02 Jun 2027 03:11:50.156            28.982         14491.000
        24   02 Jun 2027 03:13:49.960   02 Jun 2027 03:13:55.747             5.787          2893.500
        25   02 Jun 2027 04:46:19.696   02 Jun 2027 04:47:10.692            50.996         25498.000
        26   02 Jun 2027 04:47:19.611   02 Jun 2027 04:47:50.843            31.232         15616.000
        27   02 Jun 2027 04:48:54.374   02 Jun 2027 04:50:02.182            67.808         33904.000
        28   02 Jun 2027 04:52:49.055   02 Jun 2027 04:52:57.945             8.890          4445.000
        29   02 Jun 2027 04:53:16.768   02 Jun 2027 04:53:54.098            37.330         18665.000
        30   02 Jun 2027 06:23:27.390   02 Jun 2027 06:24:07.793            40.403         20201.500
        31   02 Jun 2027 06:24:25.501   02 Jun 2027 06:25:36.181            70.680         35340.000
        32   02 Jun 2027 06:26:10.989   02 Jun 2027 06:26:52.395            41.406         20703.000
        33   02 Jun 2027 07:46:55.098   02 Jun 2027 07:47:20.341            25.243         12621.500
        34   02 Jun 2027 07:47:29.057   02 Jun 2027 07:47:55.029            25.972         12986.000
        35   02 Jun 2027 09:23:18.068   02 Jun 2027 09:24:37.520            79.452         39082.062
        36   02 Jun 2027 09:25:25.904   02 Jun 2027 09:25:31.129             5.225          1137.719
        37   02 Jun 2027 09:25:48.345   02 Jun 2027 09:25:53.146             4.801           433.406
        38   02 Jun 2027 10:58:11.568   02 Jun 2027 10:58:31.444            19.876          9881.594
        39   02 Jun 2027 11:04:52.915   02 Jun 2027 11:05:16.713            23.798         11621.344
        40   03 Jun 2027 03:19:43.221   03 Jun 2027 03:21:56.838           133.617         66808.500
        41   03 Jun 2027 03:23:14.055   03 Jun 2027 03:23:59.461            45.406         22703.000
        42   03 Jun 2027 03:24:24.250   03 Jun 2027 03:24:42.547            18.297          9148.500
        43   03 Jun 2027 03:25:17.343   03 Jun 2027 03:25:17.343             0.000             0.000
        44   03 Jun 2027 04:58:23.843   03 Jun 2027 05:00:13.536           109.693         53992.469
        45   03 Jun 2027 05:00:24.092   03 Jun 2027 05:00:32.192             8.100           245.219
        46   03 Jun 2027 05:00:53.969   03 Jun 2027 05:00:53.969             0.000             0.000
        47   03 Jun 2027 05:01:07.139   03 Jun 2027 05:01:10.211             3.072           980.156
        48   03 Jun 2027 05:02:33.250   03 Jun 2027 05:02:38.741             5.491          1916.438
        49   03 Jun 2027 05:04:11.002   03 Jun 2027 05:04:16.556             5.554          2712.281
        50   03 Jun 2027 05:04:56.978   03 Jun 2027 05:05:03.268             6.290          1201.687
        51   03 Jun 2027 06:24:10.481   03 Jun 2027 06:24:20.573            10.092          5046.000
        52   03 Jun 2027 06:24:49.879   03 Jun 2027 06:24:52.015             2.136          1068.000
        53   03 Jun 2027 06:35:24.111   03 Jun 2027 06:35:31.469             7.358          3442.969
        54   03 Jun 2027 06:35:40.002   03 Jun 2027 06:35:42.794             2.792           247.375
        55   03 Jun 2027 06:35:52.149   03 Jun 2027 06:35:52.726             0.577           285.312
        56   03 Jun 2027 06:36:52.579   03 Jun 2027 06:36:56.696             4.117          1326.469
        57   03 Jun 2027 06:36:58.985   03 Jun 2027 06:37:01.235             2.250            43.219
        58   03 Jun 2027 07:58:00.807   03 Jun 2027 07:58:13.420            12.613          6124.813
        59   03 Jun 2027 07:59:08.258   03 Jun 2027 07:59:16.021             7.763          1590.344
        60   03 Jun 2027 07:59:24.940   03 Jun 2027 07:59:25.938             0.998           278.719
        61   03 Jun 2027 08:00:24.405   03 Jun 2027 08:00:24.405             0.000             0.000
        62   03 Jun 2027 08:01:33.855   03 Jun 2027 08:01:45.874            12.019          3013.937
        63   03 Jun 2027 09:33:35.409   03 Jun 2027 09:33:51.717            16.308          4871.188
        64   03 Jun 2027 09:33:54.563   03 Jun 2027 09:33:59.369             4.806            80.469
        65   03 Jun 2027 09:35:22.140   03 Jun 2027 09:35:27.424             5.284          2348.375
        66   03 Jun 2027 09:36:37.649   03 Jun 2027 09:36:37.649             0.000             0.000
        67   03 Jun 2027 09:37:49.633   03 Jun 2027 09:37:53.483             3.850          1925.000
        68   03 Jun 2027 09:38:22.850   03 Jun 2027 09:38:28.591             5.741          2850.968
        69   03 Jun 2027 09:39:14.961   03 Jun 2027 09:39:17.509             2.548          1030.250
        70   03 Jun 2027 09:39:28.814   03 Jun 2027 09:39:30.757             1.943           353.281
        71   03 Jun 2027 11:12:49.903   03 Jun 2027 11:13:08.337            18.434          9217.000
        72   03 Jun 2027 11:16:40.915   03 Jun 2027 11:16:57.474            16.559          7034.125
        73   03 Jun 2027 11:17:02.561   03 Jun 2027 11:17:02.940             0.379            92.844
        74   03 Jun 2027 11:17:07.853   03 Jun 2027 11:17:12.274             4.421           153.531
        75   04 Jun 2027 03:31:49.227   04 Jun 2027 03:34:04.622           135.395         67697.500
        76   04 Jun 2027 03:34:22.856   04 Jun 2027 03:34:31.994             9.138          4569.000
        77   04 Jun 2027 03:34:55.956   04 Jun 2027 03:36:07.014            71.058         35529.000
        78   04 Jun 2027 03:36:44.199   04 Jun 2027 03:37:01.450            17.251          8625.500
        79   04 Jun 2027 03:37:28.427   04 Jun 2027 03:37:35.306             6.879          3439.500
        80   04 Jun 2027 05:10:53.937   04 Jun 2027 05:12:06.292            72.355         36177.500
        81   04 Jun 2027 05:12:22.087   04 Jun 2027 05:12:24.737             2.650          1062.345
        82   04 Jun 2027 05:13:26.147   04 Jun 2027 05:13:31.616             5.469          1919.062
        83   04 Jun 2027 05:14:57.589   04 Jun 2027 05:15:01.580             3.991          1734.687
        84   04 Jun 2027 05:15:38.451   04 Jun 2027 05:15:41.810             3.359           354.406
        85   04 Jun 2027 05:16:07.298   04 Jun 2027 05:16:09.168             1.870           796.500
        86   04 Jun 2027 05:16:23.382   04 Jun 2027 05:16:24.740             1.358           325.531
        87   04 Jun 2027 05:16:43.404   04 Jun 2027 05:16:45.613             2.209           581.625
        88   04 Jun 2027 05:17:41.278   04 Jun 2027 05:17:45.739             4.461          1739.125
        89   04 Jun 2027 06:35:44.287   04 Jun 2027 06:35:54.798            10.511          4770.875
        90   04 Jun 2027 06:47:25.175   04 Jun 2027 06:47:32.735             7.560          3286.750
        91   04 Jun 2027 08:09:43.135   04 Jun 2027 08:09:51.418             8.283          4141.500
        92   04 Jun 2027 08:10:11.179   04 Jun 2027 08:10:17.330             6.151          3048.125
        93   04 Jun 2027 08:11:40.406   04 Jun 2027 08:11:45.051             4.645          1888.031
        94   04 Jun 2027 08:13:33.091   04 Jun 2027 08:13:43.933            10.842          2923.344
        95   04 Jun 2027 08:14:34.781   04 Jun 2027 08:14:37.608             2.827          1330.313
        96   04 Jun 2027 09:44:42.169   04 Jun 2027 09:44:52.411            10.242          3989.281
        97   04 Jun 2027 09:45:31.457   04 Jun 2027 09:45:33.417             1.960           608.875
        98   04 Jun 2027 09:45:56.469   04 Jun 2027 09:45:56.469             0.000             0.000
        99   04 Jun 2027 09:46:45.908   04 Jun 2027 09:46:49.656             3.748          1845.937
       100   04 Jun 2027 09:51:15.924   04 Jun 2027 09:51:32.492            16.568          7801.187
       101   04 Jun 2027 09:51:39.731   04 Jun 2027 09:51:40.222             0.491           140.344
       102   04 Jun 2027 09:52:40.593   04 Jun 2027 09:52:42.349             1.756           779.250
       103   04 Jun 2027 11:28:24.201   04 Jun 2027 11:29:00.016            35.815         17824.656
       104   04 Jun 2027 11:29:05.440   04 Jun 2027 11:29:09.953             4.513           106.281
       105   04 Jun 2027 11:29:26.479   04 Jun 2027 11:29:26.707             0.228           114.000
       106   05 Jun 2027 03:44:09.370   05 Jun 2027 03:44:36.009            26.639         13319.500
       107   05 Jun 2027 03:44:41.465   05 Jun 2027 03:45:15.240            33.775         16887.500
       108   05 Jun 2027 03:45:19.121   05 Jun 2027 03:46:14.506            55.385         27692.500
       109   05 Jun 2027 03:46:15.289   05 Jun 2027 03:46:17.580             2.291          1145.500
       110   05 Jun 2027 03:46:34.599   05 Jun 2027 03:47:15.695            41.096         20548.000
       111   05 Jun 2027 03:48:02.726   05 Jun 2027 03:49:12.232            69.506         34753.000
       112   05 Jun 2027 03:49:35.273   05 Jun 2027 03:49:41.464             6.191          3095.500
       113   05 Jun 2027 03:50:02.637   05 Jun 2027 03:50:09.346             6.709          3354.500
       114   05 Jun 2027 05:22:56.178   05 Jun 2027 05:24:17.481            81.303         39047.438
       115   05 Jun 2027 05:24:44.528   05 Jun 2027 05:24:47.176             2.648           748.844
       116   05 Jun 2027 05:25:19.114   05 Jun 2027 05:25:22.127             3.013           549.594
       117   05 Jun 2027 05:26:13.318   05 Jun 2027 05:26:15.237             1.919           735.281
       118   05 Jun 2027 05:26:43.227   05 Jun 2027 05:26:50.960             7.733           380.063
       119   05 Jun 2027 05:27:00.322   05 Jun 2027 05:27:01.454             1.132           242.250
       120   05 Jun 2027 05:27:42.324   05 Jun 2027 05:27:45.048             2.724           977.906
       121   05 Jun 2027 05:28:13.411   05 Jun 2027 05:28:16.007             2.596           886.344
       122   05 Jun 2027 05:28:47.238   05 Jun 2027 05:28:47.238             0.000             0.000
       123   05 Jun 2027 05:29:33.123   05 Jun 2027 05:29:41.133             8.010          2325.656
       124   05 Jun 2027 05:29:54.140   05 Jun 2027 05:29:55.916             1.776           158.813
       125   05 Jun 2027 06:47:16.697   05 Jun 2027 06:47:31.112            14.415          5482.656
       126   05 Jun 2027 06:48:24.006   05 Jun 2027 06:48:27.089             3.083          1492.094
       127   05 Jun 2027 06:48:43.170   05 Jun 2027 06:48:45.272             2.102           287.031
       128   05 Jun 2027 06:59:32.909   05 Jun 2027 06:59:38.781             5.872          2891.781
       129   05 Jun 2027 08:21:21.777   05 Jun 2027 08:21:43.296            21.519          8531.281
       130   05 Jun 2027 08:21:56.364   05 Jun 2027 08:22:01.303             4.939           100.438
       131   05 Jun 2027 08:23:33.246   05 Jun 2027 08:23:38.247             5.001          2263.687
       132   05 Jun 2027 08:25:31.573   05 Jun 2027 08:25:36.985             5.412          2706.000
       133   05 Jun 2027 08:26:07.281   05 Jun 2027 08:26:11.738             4.457          1059.031
       134   05 Jun 2027 09:56:10.184   05 Jun 2027 09:56:20.119             9.935          4469.437
       135   05 Jun 2027 09:57:58.018   05 Jun 2027 09:58:01.865             3.847          1772.000
       136   05 Jun 2027 09:58:15.120   05 Jun 2027 09:58:16.978             1.858           203.188
       137   05 Jun 2027 10:01:43.414   05 Jun 2027 10:01:43.414             0.000             0.000
       138   05 Jun 2027 10:03:06.840   05 Jun 2027 10:03:06.840             0.000             0.000
       139   05 Jun 2027 10:05:07.244   05 Jun 2027 10:05:08.628             1.384           692.000
       140   05 Jun 2027 11:34:03.043   05 Jun 2027 11:34:29.859            26.816         12128.813
       141   05 Jun 2027 11:34:50.898   05 Jun 2027 11:34:51.271             0.373           186.500
       142   05 Jun 2027 11:35:08.558   05 Jun 2027 11:35:10.159             1.601           792.219
       143   05 Jun 2027 11:36:32.608   05 Jun 2027 11:36:37.760             5.152          2342.000
       144   05 Jun 2027 11:39:59.635   05 Jun 2027 11:40:13.454            13.819          6184.969
       145   05 Jun 2027 11:40:54.880   05 Jun 2027 11:40:55.131             0.251           125.500
       146   05 Jun 2027 11:40:56.960   05 Jun 2027 11:40:59.686             2.726          1226.219
       147   06 Jun 2027 03:56:52.283   06 Jun 2027 03:57:07.056            14.773          7386.500
       148   06 Jun 2027 03:57:16.059   06 Jun 2027 03:58:27.959            71.900         35950.000
       149   06 Jun 2027 03:58:57.069   06 Jun 2027 04:00:40.959           103.890         51945.000
       150   06 Jun 2027 04:01:05.549   06 Jun 2027 04:01:30.337            24.788         12394.000
       151   06 Jun 2027 05:35:43.884   06 Jun 2027 05:37:33.185           109.301         51721.656
       152   06 Jun 2027 05:38:11.616   06 Jun 2027 05:38:14.249             2.633          1053.313
       153   06 Jun 2027 05:39:01.169   06 Jun 2027 05:39:01.896             0.727           363.500
       154   06 Jun 2027 05:39:57.826   06 Jun 2027 05:40:03.642             5.816          2447.312
       155   06 Jun 2027 06:59:14.448   06 Jun 2027 06:59:36.159            21.711          7767.250
       156   06 Jun 2027 07:00:12.108   06 Jun 2027 07:00:16.037             3.929          1091.688
       157   06 Jun 2027 07:01:22.271   06 Jun 2027 07:01:26.812             4.541          1923.906
       158   06 Jun 2027 08:35:12.564   06 Jun 2027 08:35:31.559            18.995          8745.344
       159   06 Jun 2027 08:36:02.899   06 Jun 2027 08:36:09.104             6.205           917.250
       160   06 Jun 2027 08:36:45.131   06 Jun 2027 08:36:45.131             0.000             0.000
       161   06 Jun 2027 08:38:15.621   06 Jun 2027 08:38:31.002            15.381          3939.687
       162   06 Jun 2027 10:09:01.169   06 Jun 2027 10:09:09.926             8.757          3521.000
       163   06 Jun 2027 10:10:11.971   06 Jun 2027 10:10:21.462             9.491           622.438
       164   06 Jun 2027 10:11:07.145   06 Jun 2027 10:11:12.397             5.252           945.094
       165   06 Jun 2027 10:16:48.618   06 Jun 2027 10:17:10.350            21.732         10444.656
       166   06 Jun 2027 11:46:10.211   06 Jun 2027 11:46:21.402            11.191          5540.063
       167   06 Jun 2027 11:47:35.554   06 Jun 2027 11:47:38.787             3.233          1616.500
       168   06 Jun 2027 11:48:46.797   06 Jun 2027 11:48:52.547             5.750          2214.625
       169   06 Jun 2027 11:48:54.578   06 Jun 2027 11:48:56.435             1.857            63.469
       170   06 Jun 2027 11:51:26.496   06 Jun 2027 11:51:36.248             9.752          4688.719
       171   06 Jun 2027 11:52:24.166   06 Jun 2027 11:52:27.263             3.097          1497.438
       172   07 Jun 2027 04:09:36.273   07 Jun 2027 04:09:55.423            19.150          9575.000
       173   07 Jun 2027 04:10:09.140   07 Jun 2027 04:11:04.423            55.283         27641.500
       174   07 Jun 2027 04:11:04.728   07 Jun 2027 04:13:17.196           132.468         66234.000
       175   07 Jun 2027 04:13:22.832   07 Jun 2027 04:13:32.500             9.668          4834.000
       176   07 Jun 2027 04:13:46.740   07 Jun 2027 04:14:08.673            21.933         10966.500
       177   07 Jun 2027 04:14:38.669   07 Jun 2027 04:14:46.075             7.406          3703.000
       178   07 Jun 2027 05:47:43.885   07 Jun 2027 05:48:11.510            27.625         13812.500
       179   07 Jun 2027 05:48:26.062   07 Jun 2027 05:48:37.554            11.492          5746.000
       180   07 Jun 2027 05:49:33.555   07 Jun 2027 05:50:27.084            53.529         26764.500
       181   07 Jun 2027 05:51:42.785   07 Jun 2027 05:51:55.481            12.696          5931.968
       182   07 Jun 2027 07:11:07.260   07 Jun 2027 07:11:26.488            19.228          7691.500
       183   07 Jun 2027 07:12:52.641   07 Jun 2027 07:12:58.137             5.496          2557.875
       184   07 Jun 2027 07:13:18.706   07 Jun 2027 07:13:21.213             2.507           273.781
       185   07 Jun 2027 08:47:29.724   07 Jun 2027 08:47:51.865            22.141          8787.000
       186   07 Jun 2027 08:50:15.933   07 Jun 2027 08:50:25.918             9.985          4502.125
       187   07 Jun 2027 10:21:24.140   07 Jun 2027 10:21:34.692            10.552          4653.344
       188   07 Jun 2027 10:23:25.483   07 Jun 2027 10:23:25.483             0.000             0.000
       189   07 Jun 2027 10:23:30.888   07 Jun 2027 10:23:30.888             0.000             0.000
       190   07 Jun 2027 10:24:11.964   07 Jun 2027 10:24:19.926             7.962          3981.000
       191   07 Jun 2027 10:24:39.923   07 Jun 2027 10:24:41.788             1.865           772.469
       192   07 Jun 2027 10:25:02.982   07 Jun 2027 10:25:04.481             1.499           662.312
       193   07 Jun 2027 10:25:31.379   07 Jun 2027 10:25:34.250             2.871           840.562
       194   07 Jun 2027 10:25:44.249   07 Jun 2027 10:25:47.201             2.952           114.188
       195   07 Jun 2027 10:26:48.819   07 Jun 2027 10:26:53.863             5.044          1850.531
       196   07 Jun 2027 10:27:31.339   07 Jun 2027 10:27:33.811             2.472          1171.125
       197   07 Jun 2027 10:28:23.291   07 Jun 2027 10:28:24.904             1.613           483.281
       198   07 Jun 2027 10:28:31.046   07 Jun 2027 10:28:31.775             0.729           176.875
       199   07 Jun 2027 10:28:40.695   07 Jun 2027 10:28:40.695             0.000             0.000
       200   07 Jun 2027 10:29:30.021   07 Jun 2027 10:29:32.260             2.239          1119.500
       201   07 Jun 2027 11:58:36.321   07 Jun 2027 11:58:50.967            14.646          6872.937
       202   07 Jun 2027 11:59:30.792   07 Jun 2027 11:59:34.055             3.263          1126.719
       203   08 Jun 2027 04:21:39.753   08 Jun 2027 04:22:36.283            56.530         28265.000
       204   08 Jun 2027 04:22:41.990   08 Jun 2027 04:24:25.359           103.369         51684.500
       205   08 Jun 2027 04:25:01.657   08 Jun 2027 04:25:31.586            29.929         14964.500
       206   08 Jun 2027 04:25:48.394   08 Jun 2027 04:26:37.694            49.300         24650.000
       207   08 Jun 2027 04:27:35.283   08 Jun 2027 04:27:38.304             3.021          1510.500
       208   08 Jun 2027 06:00:06.356   08 Jun 2027 06:01:30.643            84.287         42143.500
       209   08 Jun 2027 06:01:41.628   08 Jun 2027 06:01:44.645             3.017          1508.500
       210   08 Jun 2027 06:01:49.326   08 Jun 2027 06:01:53.513             4.187           389.469
       211   08 Jun 2027 06:02:13.273   08 Jun 2027 06:02:13.273             0.000             0.000
       212   08 Jun 2027 06:02:14.471   08 Jun 2027 06:02:17.465             2.994           319.062
       213   08 Jun 2027 06:02:49.229   08 Jun 2027 06:02:50.874             1.645           297.062
       214   08 Jun 2027 06:03:54.910   08 Jun 2027 06:03:58.060             3.150          1520.969
       215   08 Jun 2027 07:22:57.453   08 Jun 2027 07:23:17.379            19.926          6288.813
       216   08 Jun 2027 07:24:28.118   08 Jun 2027 07:24:33.582             5.464          2067.781
       217   08 Jun 2027 07:24:57.912   08 Jun 2027 07:24:58.844             0.932           449.594
       218   08 Jun 2027 09:00:02.885   08 Jun 2027 09:00:17.600            14.715          6335.594
       219   08 Jun 2027 10:34:41.610   08 Jun 2027 10:35:01.533            19.923          9241.906
       220   08 Jun 2027 10:38:31.779   08 Jun 2027 10:38:44.548            12.769          5904.688
       221   08 Jun 2027 10:39:32.105   08 Jun 2027 10:39:34.296             2.191          1074.313
       222   08 Jun 2027 10:39:35.529   08 Jun 2027 10:39:35.964             0.435            38.531
       223   08 Jun 2027 10:41:12.221   08 Jun 2027 10:41:18.381             6.160          2975.937
       224   08 Jun 2027 10:41:22.651   08 Jun 2027 10:41:25.130             2.479           133.438
       225   09 Jun 2027 03:00:00.000   09 Jun 2027 03:00:53.212            53.212         26606.000
       226   09 Jun 2027 03:00:54.526   09 Jun 2027 03:00:54.526             0.000             0.000
       227   09 Jun 2027 03:01:30.134   09 Jun 2027 03:01:32.498             2.364          1182.000
       228   09 Jun 2027 03:01:57.790   09 Jun 2027 03:02:05.680             7.890          3945.000
       229   09 Jun 2027 03:02:19.860   09 Jun 2027 03:02:30.893            11.033          5516.500
       230   09 Jun 2027 04:33:30.910   09 Jun 2027 04:34:29.547            58.637         29318.500
       231   09 Jun 2027 04:34:38.156   09 Jun 2027 04:36:54.705           136.549         68274.500
       232   09 Jun 2027 04:37:41.782   09 Jun 2027 04:37:41.782             0.000             0.000
       233   09 Jun 2027 04:39:09.402   09 Jun 2027 04:39:33.438            24.036         12018.000
       234   09 Jun 2027 06:11:47.654   09 Jun 2027 06:12:08.471            20.817         10408.500
       235   09 Jun 2027 06:12:09.841   09 Jun 2027 06:12:20.855            11.014          4858.687
       236   09 Jun 2027 06:12:28.028   09 Jun 2027 06:12:29.770             1.742           217.531
       237   09 Jun 2027 06:12:36.534   09 Jun 2027 06:12:37.088             0.554           211.375
       238   09 Jun 2027 06:13:05.579   09 Jun 2027 06:13:06.997             1.418           709.000
       239   09 Jun 2027 06:13:58.741   09 Jun 2027 06:14:07.331             8.590          1621.938
       240   09 Jun 2027 06:14:39.485   09 Jun 2027 06:14:39.485             0.000             0.000
       241   09 Jun 2027 06:15:08.357   09 Jun 2027 06:15:14.474             6.117          1408.250
       242   09 Jun 2027 07:35:09.824   09 Jun 2027 07:35:22.961            13.137          6003.500
       243   09 Jun 2027 07:36:00.445   09 Jun 2027 07:36:02.341             1.896           687.594
       244   09 Jun 2027 07:37:41.361   09 Jun 2027 07:37:46.579             5.218          2260.969
       245   09 Jun 2027 07:38:14.286   09 Jun 2027 07:38:17.918             3.632           865.844
       246   09 Jun 2027 09:11:44.466   09 Jun 2027 09:11:57.208            12.742          4066.188
       247   09 Jun 2027 10:46:54.083   09 Jun 2027 10:47:11.894            17.811          8905.500
       248   09 Jun 2027 10:48:32.532   09 Jun 2027 10:48:43.206            10.674          4812.531
       249   09 Jun 2027 10:50:19.296   09 Jun 2027 10:50:24.049             4.753          1501.469
       250   09 Jun 2027 10:51:16.292   09 Jun 2027 10:51:22.439             6.147          1301.094
       251   09 Jun 2027 10:51:38.421   09 Jun 2027 10:51:41.156             2.735           311.594
       252   09 Jun 2027 10:52:28.866   09 Jun 2027 10:52:30.190             1.324           662.000
       253   09 Jun 2027 10:52:43.547   09 Jun 2027 10:52:51.687             8.140           902.094
       254   10 Jun 2027 03:07:19.421   10 Jun 2027 03:09:39.632           140.211         70105.500
       255   10 Jun 2027 03:10:10.071   10 Jun 2027 03:10:15.656             5.585          2792.500
       256   10 Jun 2027 03:10:41.202   10 Jun 2027 03:10:50.286             9.084          4542.000
       257   10 Jun 2027 03:11:42.351   10 Jun 2027 03:11:45.639             3.288          1644.000
       258   10 Jun 2027 03:12:02.570   10 Jun 2027 03:12:06.242             3.672          1836.000
       259   10 Jun 2027 03:14:08.644   10 Jun 2027 03:14:12.997             4.353          2176.500
       260   10 Jun 2027 04:46:37.235   10 Jun 2027 04:48:18.766           101.531         50765.500
       261   10 Jun 2027 04:48:43.865   10 Jun 2027 04:49:10.814            26.949         13474.500
       262   10 Jun 2027 04:52:59.601   10 Jun 2027 04:53:16.546            16.945          8472.500
       263   10 Jun 2027 04:53:21.537   10 Jun 2027 04:53:32.016            10.479          3819.751
       264   10 Jun 2027 06:23:44.091   10 Jun 2027 06:23:59.845            15.754          7122.062
       265   10 Jun 2027 06:24:47.258   10 Jun 2027 06:24:50.784             3.526          1395.469
       266   10 Jun 2027 06:25:52.089   10 Jun 2027 06:25:55.889             3.800          1749.375
       267   10 Jun 2027 06:26:38.865   10 Jun 2027 06:26:41.051             2.186           400.375
       268   10 Jun 2027 07:47:40.616   10 Jun 2027 07:48:01.980            21.364          8200.781
       269   10 Jun 2027 07:48:17.590   10 Jun 2027 07:48:18.174             0.584           162.562
       270   10 Jun 2027 07:49:46.404   10 Jun 2027 07:49:51.951             5.547          2401.250
       271   10 Jun 2027 09:23:33.459   10 Jun 2027 09:23:45.834            12.375          4481.250
       272   10 Jun 2027 09:26:55.612   10 Jun 2027 09:27:08.337            12.725          5819.000
       273   10 Jun 2027 09:27:39.053   10 Jun 2027 09:27:40.177             1.124           133.250
       274   10 Jun 2027 10:58:56.829   10 Jun 2027 10:59:20.073            23.244          9629.844
       275   10 Jun 2027 10:59:56.846   10 Jun 2027 10:59:59.327             2.481           142.875
       276   10 Jun 2027 11:00:17.359   10 Jun 2027 11:00:22.676             5.317           350.094
       277   10 Jun 2027 11:05:09.468   10 Jun 2027 11:05:26.523            17.055          8480.844
       278   11 Jun 2027 03:20:00.869   11 Jun 2027 03:22:38.575           157.706         78853.000
       279   11 Jun 2027 03:24:15.478   11 Jun 2027 03:24:24.298             8.820          4410.000
       280   11 Jun 2027 03:24:36.268   11 Jun 2027 03:24:38.853             2.585          1292.500
       281   11 Jun 2027 03:24:58.042   11 Jun 2027 03:25:15.583            17.541          8770.500
       282   11 Jun 2027 03:25:37.470   11 Jun 2027 03:25:40.366             2.896          1448.000
       283   11 Jun 2027 03:26:00.870   11 Jun 2027 03:26:23.179            22.309         11154.500
       284   11 Jun 2027 04:58:42.260   11 Jun 2027 04:59:21.384            39.124         19562.000
       285   11 Jun 2027 05:00:31.576   11 Jun 2027 05:01:45.548            73.972         35792.937
       286   11 Jun 2027 05:02:23.340   11 Jun 2027 05:02:26.249             2.909          1095.656
       287   11 Jun 2027 05:02:52.360   11 Jun 2027 05:02:54.773             2.413           735.313
       288   11 Jun 2027 05:04:00.074   11 Jun 2027 05:04:04.598             4.524          1712.844
       289   11 Jun 2027 05:04:36.589   11 Jun 2027 05:04:39.334             2.745           425.844
       290   11 Jun 2027 05:04:58.244   11 Jun 2027 05:04:58.244             0.000             0.000
       291   11 Jun 2027 05:05:02.347   11 Jun 2027 05:05:03.304             0.957           372.563
       292   11 Jun 2027 05:06:14.800   11 Jun 2027 05:06:18.703             3.903          1939.719
       293   11 Jun 2027 06:24:24.002   11 Jun 2027 06:24:42.222            18.220          8555.719
       294   11 Jun 2027 06:25:09.357   11 Jun 2027 06:25:09.357             0.000             0.000
       295   11 Jun 2027 06:35:41.746   11 Jun 2027 06:35:48.390             6.644          3205.313
       296   11 Jun 2027 06:36:09.104   11 Jun 2027 06:36:16.897             7.793           357.312
       297   11 Jun 2027 07:58:16.975   11 Jun 2027 07:58:30.867            13.892          5930.156
       298   11 Jun 2027 07:59:35.143   11 Jun 2027 07:59:38.739             3.596          1606.469
       299   11 Jun 2027 08:00:14.747   11 Jun 2027 08:00:17.072             2.325          1125.250
       300   11 Jun 2027 08:01:40.056   11 Jun 2027 08:01:44.480             4.424          2198.531
       301   11 Jun 2027 08:02:07.150   11 Jun 2027 08:02:08.255             1.105           532.937
       302   11 Jun 2027 09:33:48.943   11 Jun 2027 09:33:55.349             6.406          3203.000
       303   11 Jun 2027 09:37:52.889   11 Jun 2027 09:38:10.872            17.983          8991.500
       304   11 Jun 2027 09:39:43.209   11 Jun 2027 09:39:43.209             0.000             0.000
       305   11 Jun 2027 11:10:07.840   11 Jun 2027 11:10:27.229            19.389          8818.562
       306   11 Jun 2027 11:13:10.676   11 Jun 2027 11:13:10.676             0.000             0.000
       307   11 Jun 2027 11:13:22.915   11 Jun 2027 11:13:34.680            11.765          5241.531
       308   11 Jun 2027 11:16:57.145   11 Jun 2027 11:17:14.247            17.102          6313.469
       309   11 Jun 2027 11:17:19.434   11 Jun 2027 11:17:20.287             0.853           162.094
       310   12 Jun 2027 03:32:07.157   12 Jun 2027 03:35:10.379           183.222         91611.000
       311   12 Jun 2027 03:35:38.354   12 Jun 2027 03:36:22.965            44.611         22305.500
       312   12 Jun 2027 03:36:59.688   12 Jun 2027 03:37:03.859             4.171          2085.500
       313   12 Jun 2027 03:37:31.201   12 Jun 2027 03:37:51.170            19.969          9984.500
       314   12 Jun 2027 05:11:11.675   12 Jun 2027 05:12:11.344            59.669         29834.500
       315   12 Jun 2027 05:12:24.150   12 Jun 2027 05:12:26.960             2.810           662.625
       316   12 Jun 2027 05:12:45.912   12 Jun 2027 05:12:48.941             3.029           592.250
       317   12 Jun 2027 05:13:40.964   12 Jun 2027 05:13:46.133             5.169          1345.656
       318   12 Jun 2027 05:15:11.357   12 Jun 2027 05:15:15.210             3.853          1926.500
       319   12 Jun 2027 05:15:42.307   12 Jun 2027 05:15:45.145             2.838          1235.875
       320   12 Jun 2027 05:16:29.751   12 Jun 2027 05:16:35.202             5.451          1136.500
       321   12 Jun 2027 05:17:00.090   12 Jun 2027 05:17:01.224             1.134           567.000
       322   12 Jun 2027 05:17:17.893   12 Jun 2027 05:17:20.234             2.341           643.906
       323   12 Jun 2027 05:17:59.825   12 Jun 2027 05:18:01.102             1.277            49.500
       324   12 Jun 2027 06:36:01.312   12 Jun 2027 06:36:20.877            19.565          7565.906
       325   12 Jun 2027 06:47:41.318   12 Jun 2027 06:47:48.975             7.657          3802.938
       326   12 Jun 2027 08:10:00.323   12 Jun 2027 08:10:17.822            17.499          8669.188
       327   12 Jun 2027 08:10:37.216   12 Jun 2027 08:10:37.715             0.499           225.437
       328   12 Jun 2027 08:12:29.328   12 Jun 2027 08:12:37.148             7.820          2738.844
       329   12 Jun 2027 08:13:49.291   12 Jun 2027 08:13:57.658             8.367          1985.500
       330   12 Jun 2027 08:14:51.873   12 Jun 2027 08:14:57.195             5.322          1303.219
       331   12 Jun 2027 09:44:57.471   12 Jun 2027 09:45:05.211             7.740          3582.281
       332   12 Jun 2027 09:45:50.497   12 Jun 2027 09:45:54.715             4.218           704.375
       333   12 Jun 2027 09:47:42.055   12 Jun 2027 09:47:52.904            10.849          3088.406
       334   12 Jun 2027 09:50:08.218   12 Jun 2027 09:50:16.873             8.655          3971.281
       335   12 Jun 2027 11:22:26.589   12 Jun 2027 11:22:37.149            10.560          5280.000
       336   12 Jun 2027 11:25:07.668   12 Jun 2027 11:25:22.378            14.710          6393.312
       337   12 Jun 2027 11:25:31.792   12 Jun 2027 11:25:32.850             1.058           226.594
       338   12 Jun 2027 11:26:41.117   12 Jun 2027 11:26:45.348             4.231          1742.719
       339   12 Jun 2027 11:27:06.239   12 Jun 2027 11:27:10.109             3.870           478.187
       340   12 Jun 2027 11:28:18.261   12 Jun 2027 11:28:26.734             8.473          1722.687
       341   12 Jun 2027 11:28:33.987   12 Jun 2027 11:28:34.377             0.390           170.906
       342   12 Jun 2027 11:28:56.452   12 Jun 2027 11:29:00.194             3.742           667.594
       343   12 Jun 2027 11:29:35.500   12 Jun 2027 11:29:38.758             3.258           894.156
       344   13 Jun 2027 03:44:28.856   13 Jun 2027 03:44:53.666            24.810         12405.000
       345   13 Jun 2027 03:45:00.555   13 Jun 2027 03:45:31.997            31.442         15721.000
       346   13 Jun 2027 03:46:32.343   13 Jun 2027 03:49:35.389           183.046         91523.000
       347   13 Jun 2027 03:50:22.113   13 Jun 2027 03:50:25.166             3.053          1526.500
       348   13 Jun 2027 05:23:15.017   13 Jun 2027 05:23:43.846            28.829         14414.500
       349   13 Jun 2027 05:23:52.214   13 Jun 2027 05:24:16.046            23.832         11916.000
       350   13 Jun 2027 05:24:36.130   13 Jun 2027 05:24:55.883            19.753          9615.562
       351   13 Jun 2027 05:25:16.958   13 Jun 2027 05:25:19.155             2.197           552.313
       352   13 Jun 2027 05:25:50.955   13 Jun 2027 05:25:53.447             2.492           763.094
       353   13 Jun 2027 05:26:45.809   13 Jun 2027 05:26:46.882             1.073           508.406
       354   13 Jun 2027 05:26:57.756   13 Jun 2027 05:26:58.888             1.132           102.687
       355   13 Jun 2027 05:27:15.169   13 Jun 2027 05:27:16.151             0.982           212.344
       356   13 Jun 2027 05:27:25.800   13 Jun 2027 05:27:28.977             3.177           301.531
       357   13 Jun 2027 05:29:01.834   13 Jun 2027 05:29:08.347             6.513          2741.531
       358   13 Jun 2027 05:29:54.803   13 Jun 2027 05:29:56.194             1.391           642.094
       359   13 Jun 2027 06:47:34.777   13 Jun 2027 06:47:45.553            10.776          5148.531
       360   13 Jun 2027 06:48:15.834   13 Jun 2027 06:48:20.551             4.717           704.719
       361   13 Jun 2027 06:49:08.545   13 Jun 2027 06:49:13.150             4.605           851.844
       362   13 Jun 2027 06:59:50.573   13 Jun 2027 07:00:02.873            12.300          3346.500
       363   13 Jun 2027 08:21:32.681   13 Jun 2027 08:21:49.288            16.607          8037.469
       364   13 Jun 2027 08:22:14.586   13 Jun 2027 08:22:16.370             1.784           152.594
       365   13 Jun 2027 08:23:41.944   13 Jun 2027 08:23:45.954             4.010          1011.469
       366   13 Jun 2027 08:25:07.002   13 Jun 2027 08:25:18.243            11.241          2335.594
       367   13 Jun 2027 08:26:12.609   13 Jun 2027 08:26:13.042             0.433           216.500
       368   13 Jun 2027 08:26:38.486   13 Jun 2027 08:26:47.699             9.213          2262.969
       369   13 Jun 2027 09:57:17.091   13 Jun 2027 09:57:28.292            11.201          5238.625
       370   13 Jun 2027 09:58:27.767   13 Jun 2027 09:58:29.862             2.095           366.250
       371   13 Jun 2027 09:59:37.983   13 Jun 2027 09:59:43.539             5.556          2088.375
       372   13 Jun 2027 10:04:08.972   13 Jun 2027 10:04:08.972             0.000             0.000
       373   13 Jun 2027 10:05:23.371   13 Jun 2027 10:05:46.765            23.394         10619.750
       374   13 Jun 2027 11:34:20.244   13 Jun 2027 11:34:20.520             0.276           138.000
       375   13 Jun 2027 11:36:32.585   13 Jun 2027 11:36:52.312            19.727          9197.687
       376   13 Jun 2027 11:37:16.731   13 Jun 2027 11:37:16.731             0.000             0.000
       377   13 Jun 2027 11:40:14.450   13 Jun 2027 11:40:28.669            14.219          6186.625
       378   13 Jun 2027 11:41:18.060   13 Jun 2027 11:41:21.346             3.286          1543.469
