uniorb/output/strategy_2/Camera/Camera_KinoSat_110207.txt

KinoSat_110207
-------------------------
    Access    *     Start Time (UTCG)     *     Stop Time (UTCG)  *   Duration (s) *   Data (Mbytes)
         1   01 Jun 2027 03:41:54.257   01 Jun 2027 03:41:57.982             3.725          1862.500
         2   01 Jun 2027 03:42:22.379   01 Jun 2027 03:42:23.566             1.187           593.500
         3   01 Jun 2027 03:42:53.647   01 Jun 2027 03:42:59.399             5.752          2876.000
         4   01 Jun 2027 03:43:28.368   01 Jun 2027 03:43:29.396             1.028           514.000
         5   01 Jun 2027 03:44:00.606   01 Jun 2027 03:44:04.111             3.505          1752.500
         6   01 Jun 2027 03:44:27.866   01 Jun 2027 03:44:28.877             1.011           505.500
         7   01 Jun 2027 03:44:38.784   01 Jun 2027 03:44:42.004             3.220          1610.000
         8   01 Jun 2027 03:45:08.379   01 Jun 2027 03:45:09.020             0.641           320.500
         9   01 Jun 2027 03:45:35.443   01 Jun 2027 03:45:36.492             1.049           524.500
        10   01 Jun 2027 03:45:41.375   01 Jun 2027 03:45:56.590            15.215          7607.500
        11   01 Jun 2027 03:47:02.080   01 Jun 2027 03:47:08.155             6.075          3037.500
        12   01 Jun 2027 03:47:54.825   01 Jun 2027 03:47:58.765             3.940          1970.000
        13   01 Jun 2027 03:48:19.209   01 Jun 2027 03:48:35.030            15.821          7910.500
        14   01 Jun 2027 05:18:48.694   01 Jun 2027 05:18:53.103             4.409          2204.500
        15   01 Jun 2027 05:19:09.672   01 Jun 2027 05:19:33.625            23.953         11976.500
        16   01 Jun 2027 05:21:33.307   01 Jun 2027 05:21:33.872             0.565           282.500
        17   01 Jun 2027 05:21:43.626   01 Jun 2027 05:22:04.191            20.565         10282.500
        18   01 Jun 2027 05:23:33.957   01 Jun 2027 05:23:39.003             5.046          2523.000
        19   01 Jun 2027 05:24:29.741   01 Jun 2027 05:24:37.148             7.407          3703.500
        20   01 Jun 2027 06:56:32.293   01 Jun 2027 06:56:33.404             1.111           555.500
        21   01 Jun 2027 06:56:50.198   01 Jun 2027 06:56:51.414             1.216           608.000
        22   01 Jun 2027 06:57:12.121   01 Jun 2027 06:57:18.015             5.894          2947.000
        23   01 Jun 2027 06:58:14.321   01 Jun 2027 06:58:16.106             1.785           892.500
        24   01 Jun 2027 06:58:25.354   01 Jun 2027 06:58:28.109             2.755          1377.500
        25   01 Jun 2027 06:59:07.863   01 Jun 2027 06:59:10.804             2.941          1470.500
        26   01 Jun 2027 06:59:40.294   01 Jun 2027 06:59:44.299             4.005          2002.500
        27   01 Jun 2027 07:00:39.866   01 Jun 2027 07:00:46.465             6.599          3299.500
        28   01 Jun 2027 08:30:46.644   01 Jun 2027 08:30:49.138             2.494          1247.000
        29   01 Jun 2027 08:30:59.844   01 Jun 2027 08:31:12.377            12.533          6266.500
        30   01 Jun 2027 08:32:31.830   01 Jun 2027 08:32:33.879             2.049          1024.500
        31   01 Jun 2027 08:32:43.264   01 Jun 2027 08:33:01.004            17.740          8870.000
        32   01 Jun 2027 08:34:18.168   01 Jun 2027 08:34:31.637            13.469          6734.500
        33   01 Jun 2027 08:35:34.616   01 Jun 2027 08:35:37.371             2.755          1377.500
        34   01 Jun 2027 08:35:43.924   01 Jun 2027 08:35:55.949            12.025          6012.500
        35   02 Jun 2027 03:54:15.168   02 Jun 2027 03:54:15.601             0.433           216.500
        36   02 Jun 2027 03:54:20.837   02 Jun 2027 03:54:35.313            14.476          7238.000
        37   02 Jun 2027 03:55:10.750   02 Jun 2027 03:55:17.391             6.641          3320.500
        38   02 Jun 2027 03:56:40.391   02 Jun 2027 03:56:43.690             3.299          1649.500
        39   02 Jun 2027 03:57:16.726   02 Jun 2027 03:57:26.286             9.560          4780.000
        40   02 Jun 2027 03:58:08.497   02 Jun 2027 03:58:10.249             1.752           876.000
        41   02 Jun 2027 03:59:00.393   02 Jun 2027 03:59:08.962             8.569          4284.500
        42   02 Jun 2027 03:59:48.439   02 Jun 2027 03:59:51.115             2.676          1338.000
        43   02 Jun 2027 04:00:11.734   02 Jun 2027 04:00:31.489            19.755          9877.500
        44   02 Jun 2027 05:31:18.918   02 Jun 2027 05:31:39.566            20.648         10324.000
        45   02 Jun 2027 05:31:56.891   02 Jun 2027 05:31:58.527             1.636           818.000
        46   02 Jun 2027 05:33:24.343   02 Jun 2027 05:33:24.504             0.161            80.500
        47   02 Jun 2027 05:33:39.431   02 Jun 2027 05:33:39.593             0.162            81.000
        48   02 Jun 2027 05:33:40.306   02 Jun 2027 05:33:43.700             3.394          1697.000
        49   02 Jun 2027 05:34:20.330   02 Jun 2027 05:34:24.220             3.890          1945.000
        50   02 Jun 2027 05:34:49.885   02 Jun 2027 05:35:00.491            10.606          5303.000
        51   02 Jun 2027 05:35:45.490   02 Jun 2027 05:35:46.671             1.181           590.500
        52   02 Jun 2027 05:36:19.337   02 Jun 2027 05:36:19.776             0.439           219.500
        53   02 Jun 2027 05:36:25.062   02 Jun 2027 05:36:26.846             1.784           892.000
        54   02 Jun 2027 05:36:46.763   02 Jun 2027 05:36:53.383             6.620          3310.000
        55   02 Jun 2027 07:08:03.762   02 Jun 2027 07:08:11.858             8.096          4048.000
        56   02 Jun 2027 07:08:33.913   02 Jun 2027 07:08:38.241             4.328          2164.000
        57   02 Jun 2027 07:08:41.337   02 Jun 2027 07:08:53.311            11.974          5987.000
        58   02 Jun 2027 07:09:00.574   02 Jun 2027 07:09:06.938             6.364          3182.000
        59   02 Jun 2027 07:11:12.714   02 Jun 2027 07:11:20.189             7.475          3737.500
        60   02 Jun 2027 07:11:59.137   02 Jun 2027 07:12:03.743             4.606          2303.000
        61   02 Jun 2027 07:12:37.235   02 Jun 2027 07:12:46.289             9.054          4527.000
        62   02 Jun 2027 08:43:20.038   02 Jun 2027 08:43:20.224             0.186            93.000
        63   02 Jun 2027 08:43:27.862   02 Jun 2027 08:43:28.205             0.343           171.500
        64   02 Jun 2027 08:45:01.130   02 Jun 2027 08:45:02.163             1.033           516.500
        65   02 Jun 2027 08:45:58.415   02 Jun 2027 08:46:19.786            21.371         10685.500
        66   03 Jun 2027 04:06:28.682   03 Jun 2027 04:06:54.199            25.517         12758.500
        67   03 Jun 2027 04:08:48.371   03 Jun 2027 04:08:54.660             6.289          3144.500
        68   03 Jun 2027 04:09:47.369   03 Jun 2027 04:09:50.743             3.374          1687.000
        69   03 Jun 2027 04:10:13.346   03 Jun 2027 04:10:19.596             6.250          3125.000
        70   03 Jun 2027 04:11:06.731   03 Jun 2027 04:11:08.709             1.978           989.000
        71   03 Jun 2027 04:11:20.609   03 Jun 2027 04:11:37.414            16.805          8402.500
        72   03 Jun 2027 04:12:56.258   03 Jun 2027 04:13:10.320            14.062          7031.000
        73   03 Jun 2027 05:43:24.488   03 Jun 2027 05:43:45.650            21.162         10581.000
        74   03 Jun 2027 05:44:55.985   03 Jun 2027 05:45:02.357             6.372          3186.000
        75   03 Jun 2027 05:46:07.776   03 Jun 2027 05:46:09.660             1.884           942.000
        76   03 Jun 2027 05:46:19.939   03 Jun 2027 05:46:20.669             0.730           365.000
        77   03 Jun 2027 05:46:44.085   03 Jun 2027 05:46:47.050             2.965          1482.500
        78   03 Jun 2027 05:47:02.636   03 Jun 2027 05:47:06.741             4.105          2052.500
        79   03 Jun 2027 05:47:28.911   03 Jun 2027 05:47:31.577             2.666          1333.000
        80   03 Jun 2027 05:47:51.242   03 Jun 2027 05:47:53.270             2.028          1014.000
        81   03 Jun 2027 05:48:16.040   03 Jun 2027 05:48:17.938             1.898           949.000
        82   03 Jun 2027 07:20:10.991   03 Jun 2027 07:20:29.064            18.073          9036.500
        83   03 Jun 2027 07:21:51.680   03 Jun 2027 07:22:09.487            17.807          8903.500
        84   03 Jun 2027 07:23:04.867   03 Jun 2027 07:23:14.873            10.006          5003.000
        85   03 Jun 2027 07:23:26.361   03 Jun 2027 07:23:27.619             1.258           629.000
        86   03 Jun 2027 07:23:45.395   03 Jun 2027 07:23:50.449             5.054          2527.000
        87   03 Jun 2027 07:24:35.811   03 Jun 2027 07:24:41.262             5.451          2725.500
        88   03 Jun 2027 08:58:23.388   03 Jun 2027 08:58:32.955             9.567          4783.500
        89   03 Jun 2027 08:59:15.695   03 Jun 2027 08:59:19.610             3.915          1957.500
        90   04 Jun 2027 04:18:57.813   04 Jun 2027 04:19:03.490             5.677          2838.500
        91   04 Jun 2027 04:19:31.452   04 Jun 2027 04:19:45.542            14.090          7045.000
        92   04 Jun 2027 04:20:17.929   04 Jun 2027 04:20:21.215             3.286          1643.000
        93   04 Jun 2027 04:21:06.946   04 Jun 2027 04:21:10.592             3.646          1823.000
        94   04 Jun 2027 04:21:39.977   04 Jun 2027 04:21:56.785            16.808          8404.000
        95   04 Jun 2027 04:22:52.842   04 Jun 2027 04:22:53.576             0.734           367.000
        96   04 Jun 2027 04:23:09.068   04 Jun 2027 04:23:11.214             2.146          1073.000
        97   04 Jun 2027 04:24:12.665   04 Jun 2027 04:24:12.988             0.323           161.500
        98   04 Jun 2027 04:24:41.740   04 Jun 2027 04:24:52.604            10.864          5432.000
        99   04 Jun 2027 05:56:27.748   04 Jun 2027 05:56:28.000             0.252           126.000
       100   04 Jun 2027 05:56:32.658   04 Jun 2027 05:56:37.700             5.042          2521.000
       101   04 Jun 2027 05:57:10.620   04 Jun 2027 05:57:11.167             0.547           273.500
       102   04 Jun 2027 05:57:39.152   04 Jun 2027 05:57:43.690             4.538          2269.000
       103   04 Jun 2027 05:58:25.364   04 Jun 2027 05:58:27.668             2.304          1152.000
       104   04 Jun 2027 05:58:42.163   04 Jun 2027 05:58:44.766             2.603          1301.500
       105   04 Jun 2027 05:59:04.841   04 Jun 2027 05:59:16.525            11.684          5842.000
       106   04 Jun 2027 06:00:20.400   04 Jun 2027 06:00:24.221             3.821          1910.500
       107   04 Jun 2027 07:32:32.500   04 Jun 2027 07:32:34.940             2.440          1220.000
       108   04 Jun 2027 07:32:44.984   04 Jun 2027 07:32:49.496             4.512          2256.000
       109   04 Jun 2027 07:33:57.543   04 Jun 2027 07:34:07.471             9.928          4964.000
       110   04 Jun 2027 07:34:48.306   04 Jun 2027 07:35:02.759            14.453          7226.500
       111   04 Jun 2027 07:36:12.118   04 Jun 2027 07:36:14.191             2.073          1036.500
       112   04 Jun 2027 07:36:22.670   04 Jun 2027 07:36:25.788             3.118          1559.000
       113   05 Jun 2027 03:00:00.000   05 Jun 2027 03:00:09.191             9.191          4595.500
       114   05 Jun 2027 03:00:18.746   05 Jun 2027 03:00:21.028             2.282          1141.000
       115   05 Jun 2027 03:01:02.915   05 Jun 2027 03:01:05.817             2.902          1451.000
       116   05 Jun 2027 03:01:19.707   05 Jun 2027 03:01:21.788             2.081          1040.500
       117   05 Jun 2027 04:30:59.385   05 Jun 2027 04:31:03.734             4.349          2174.500
       118   05 Jun 2027 04:31:44.661   05 Jun 2027 04:31:55.833            11.172          5586.000
       119   05 Jun 2027 04:32:06.634   05 Jun 2027 04:32:20.082            13.448          6724.000
       120   05 Jun 2027 04:33:57.359   05 Jun 2027 04:33:58.498             1.139           569.500
       121   05 Jun 2027 04:34:24.119   05 Jun 2027 04:34:24.457             0.338           169.000
       122   05 Jun 2027 04:34:31.733   05 Jun 2027 04:34:33.340             1.607           803.500
       123   05 Jun 2027 04:35:33.270   05 Jun 2027 04:35:37.801             4.531          2265.500
       124   05 Jun 2027 04:36:02.511   05 Jun 2027 04:36:12.671            10.160          5080.000
       125   05 Jun 2027 04:37:00.230   05 Jun 2027 04:37:07.140             6.910          3455.000
       126   05 Jun 2027 06:08:33.381   05 Jun 2027 06:08:36.688             3.307          1653.500
       127   05 Jun 2027 06:09:11.053   05 Jun 2027 06:09:12.553             1.500           750.000
       128   05 Jun 2027 06:09:53.532   05 Jun 2027 06:10:06.733            13.201          6600.500
       129   05 Jun 2027 06:11:37.753   05 Jun 2027 06:11:47.008             9.255          4627.500
       130   05 Jun 2027 06:12:29.113   05 Jun 2027 06:12:34.061             4.948          2474.000
       131   05 Jun 2027 06:12:58.316   05 Jun 2027 06:12:58.510             0.194            97.000
       132   05 Jun 2027 07:44:34.686   05 Jun 2027 07:44:39.552             4.866          2433.000
       133   05 Jun 2027 07:45:24.982   05 Jun 2027 07:45:35.000            10.018          5009.000
       134   05 Jun 2027 07:46:37.380   05 Jun 2027 07:46:40.810             3.430          1715.000
       135   05 Jun 2027 07:47:14.338   05 Jun 2027 07:47:28.260            13.922          6961.000
       136   05 Jun 2027 07:48:24.451   05 Jun 2027 07:48:24.513             0.062            31.000
       137   05 Jun 2027 07:48:34.979   05 Jun 2027 07:48:35.948             0.969           484.500
       138   05 Jun 2027 07:48:58.123   05 Jun 2027 07:48:58.393             0.270           135.000
       139   05 Jun 2027 07:49:01.250   05 Jun 2027 07:49:04.212             2.962          1481.000
       140   05 Jun 2027 07:49:23.607   05 Jun 2027 07:49:29.127             5.520          2760.000
       141   06 Jun 2027 03:06:09.593   06 Jun 2027 03:06:24.134            14.541          7270.500
       142   06 Jun 2027 03:07:59.868   06 Jun 2027 03:08:03.600             3.732          1866.000
       143   06 Jun 2027 03:08:42.539   06 Jun 2027 03:08:50.306             7.767          3883.500
       144   06 Jun 2027 03:10:43.064   06 Jun 2027 03:10:49.751             6.687          3343.500
       145   06 Jun 2027 03:11:24.367   06 Jun 2027 03:11:27.470             3.103          1551.500
       146   06 Jun 2027 03:12:04.418   06 Jun 2027 03:12:18.435            14.017          7008.500
       147   06 Jun 2027 04:42:45.557   06 Jun 2027 04:43:00.916            15.359          7679.500
       148   06 Jun 2027 04:44:22.814   06 Jun 2027 04:44:45.783            22.969         11484.500
       149   06 Jun 2027 04:46:31.884   06 Jun 2027 04:46:40.439             8.555          4277.500
       150   06 Jun 2027 06:21:03.326   06 Jun 2027 06:21:05.967             2.641          1320.500
       151   06 Jun 2027 06:21:54.118   06 Jun 2027 06:22:03.874             9.756          4878.000
       152   06 Jun 2027 06:22:50.063   06 Jun 2027 06:22:54.131             4.068          2034.000
       153   06 Jun 2027 06:23:28.370   06 Jun 2027 06:23:30.134             1.764           882.000
       154   06 Jun 2027 06:23:37.547   06 Jun 2027 06:23:39.787             2.240          1120.000
       155   06 Jun 2027 06:23:56.424   06 Jun 2027 06:24:05.929             9.505          4752.500
       156   06 Jun 2027 06:24:39.514   06 Jun 2027 06:24:48.841             9.327          4663.500
       157   06 Jun 2027 07:54:23.631   06 Jun 2027 07:54:32.103             8.472          4236.000
       158   06 Jun 2027 07:56:23.119   06 Jun 2027 07:56:33.385            10.266          5133.000
       159   06 Jun 2027 07:57:20.797   06 Jun 2027 07:57:21.999             1.202           601.000
       160   06 Jun 2027 07:58:33.413   06 Jun 2027 07:58:34.780             1.367           683.500
       161   06 Jun 2027 07:58:42.038   06 Jun 2027 07:58:46.412             4.374          2187.000
       162   06 Jun 2027 07:59:05.718   06 Jun 2027 07:59:18.960            13.242          6621.000
       163   06 Jun 2027 08:00:12.008   06 Jun 2027 08:00:15.962             3.954          1977.000
       164   06 Jun 2027 08:00:55.498   06 Jun 2027 08:00:59.363             3.865          1932.500
       165   06 Jun 2027 08:01:17.810   06 Jun 2027 08:01:24.064             6.254          3127.000
       166   07 Jun 2027 03:18:02.922   07 Jun 2027 03:18:15.284            12.362          6181.000
       167   07 Jun 2027 03:19:09.692   07 Jun 2027 03:19:13.377             3.685          1842.500
       168   07 Jun 2027 03:19:29.557   07 Jun 2027 03:19:32.417             2.860          1430.000
       169   07 Jun 2027 03:20:37.930   07 Jun 2027 03:20:38.736             0.806           403.000
       170   07 Jun 2027 03:21:00.736   07 Jun 2027 03:21:05.753             5.017          2508.500
       171   07 Jun 2027 03:21:29.323   07 Jun 2027 03:21:29.348             0.025            12.500
       172   07 Jun 2027 03:21:34.446   07 Jun 2027 03:21:57.956            23.510         11755.000
       173   07 Jun 2027 03:23:12.084   07 Jun 2027 03:23:15.704             3.620          1810.000
       174   07 Jun 2027 03:24:42.133   07 Jun 2027 03:24:50.295             8.162          4081.000
       175   07 Jun 2027 03:25:28.864   07 Jun 2027 03:25:28.920             0.056            28.000
       176   07 Jun 2027 04:55:06.689   07 Jun 2027 04:55:13.218             6.529          3264.500
       177   07 Jun 2027 04:56:03.813   07 Jun 2027 04:56:14.087            10.274          5137.000
       178   07 Jun 2027 04:56:57.440   07 Jun 2027 04:57:01.255             3.815          1907.500
       179   07 Jun 2027 04:58:04.788   07 Jun 2027 04:58:08.267             3.479          1739.500
       180   07 Jun 2027 04:58:29.321   07 Jun 2027 04:58:31.261             1.940           970.000
       181   07 Jun 2027 04:58:48.482   07 Jun 2027 04:58:51.939             3.457          1728.500
       182   07 Jun 2027 04:59:17.803   07 Jun 2027 04:59:25.214             7.411          3705.500
       183   07 Jun 2027 05:00:07.907   07 Jun 2027 05:00:08.089             0.182            91.000
       184   07 Jun 2027 05:00:26.406   07 Jun 2027 05:00:32.690             6.284          3142.000
       185   07 Jun 2027 06:33:00.969   07 Jun 2027 06:33:05.362             4.393          2196.500
       186   07 Jun 2027 06:33:47.988   07 Jun 2027 06:33:50.609             2.621          1310.500
       187   07 Jun 2027 06:34:13.926   07 Jun 2027 06:34:17.751             3.825          1912.500
       188   07 Jun 2027 06:34:40.806   07 Jun 2027 06:34:44.282             3.476          1738.000
       189   07 Jun 2027 06:34:58.649   07 Jun 2027 06:35:11.334            12.685          6342.500
       190   07 Jun 2027 06:36:36.681   07 Jun 2027 06:36:36.901             0.220           110.000
       191   07 Jun 2027 08:06:13.594   07 Jun 2027 08:06:54.033            40.439         20219.500
       192   07 Jun 2027 08:10:38.750   07 Jun 2027 08:10:43.447             4.697          2348.500
       193   07 Jun 2027 08:11:28.291   07 Jun 2027 08:11:29.670             1.379           689.500
       194   07 Jun 2027 08:11:36.736   07 Jun 2027 08:11:41.248             4.512          2256.000
       195   07 Jun 2027 08:12:16.387   07 Jun 2027 08:12:30.172            13.785          6892.500
       196   08 Jun 2027 03:30:15.006   08 Jun 2027 03:30:16.753             1.747           873.500
       197   08 Jun 2027 03:30:25.398   08 Jun 2027 03:30:37.049            11.651          5825.500
       198   08 Jun 2027 03:31:31.417   08 Jun 2027 03:31:32.367             0.950           475.000
       199   08 Jun 2027 03:31:34.107   08 Jun 2027 03:31:34.107             0.000             0.000
       200   08 Jun 2027 03:32:06.325   08 Jun 2027 03:32:16.305             9.980          4990.000
       201   08 Jun 2027 03:32:56.811   08 Jun 2027 03:32:57.500             0.689           344.500
       202   08 Jun 2027 03:33:18.007   08 Jun 2027 03:33:18.520             0.513           256.500
       203   08 Jun 2027 03:34:11.680   08 Jun 2027 03:34:17.680             6.000          3000.000
       204   08 Jun 2027 03:34:49.966   08 Jun 2027 03:34:53.112             3.146          1573.000
       205   08 Jun 2027 03:35:06.657   08 Jun 2027 03:35:07.349             0.692           346.000
       206   08 Jun 2027 03:35:58.207   08 Jun 2027 03:36:13.778            15.571          7785.500
       207   08 Jun 2027 03:36:58.673   08 Jun 2027 03:37:08.297             9.624          4812.000
       208   08 Jun 2027 05:06:57.766   08 Jun 2027 05:07:09.326            11.560          5780.000
       209   08 Jun 2027 05:09:09.449   08 Jun 2027 05:09:22.897            13.448          6724.000
       210   08 Jun 2027 05:10:23.070   08 Jun 2027 05:10:23.624             0.554           277.000
       211   08 Jun 2027 05:11:03.812   08 Jun 2027 05:11:04.836             1.024           512.000
       212   08 Jun 2027 05:11:16.911   08 Jun 2027 05:11:23.085             6.174          3087.000
       213   08 Jun 2027 05:11:43.517   08 Jun 2027 05:11:46.535             3.018          1509.000
       214   08 Jun 2027 05:12:16.633   08 Jun 2027 05:12:16.887             0.254           127.000
       215   08 Jun 2027 05:12:19.706   08 Jun 2027 05:12:30.046            10.340          5170.000
       216   08 Jun 2027 05:13:33.557   08 Jun 2027 05:13:34.986             1.429           714.500
       217   08 Jun 2027 06:45:00.787   08 Jun 2027 06:45:03.696             2.909          1454.500
       218   08 Jun 2027 06:45:08.703   08 Jun 2027 06:45:16.447             7.744          3872.000
       219   08 Jun 2027 06:45:48.977   08 Jun 2027 06:45:56.154             7.177          3588.500
       220   08 Jun 2027 06:46:40.167   08 Jun 2027 06:46:40.317             0.150            75.000
       221   08 Jun 2027 06:46:49.491   08 Jun 2027 06:46:53.013             3.522          1761.000
       222   08 Jun 2027 06:47:12.490   08 Jun 2027 06:47:13.614             1.124           562.000
       223   08 Jun 2027 06:48:12.287   08 Jun 2027 06:48:13.596             1.309           654.500
       224   08 Jun 2027 06:48:32.081   08 Jun 2027 06:48:34.436             2.355          1177.500
       225   08 Jun 2027 06:49:01.972   08 Jun 2027 06:49:10.315             8.343          4171.500
       226   08 Jun 2027 08:18:41.546   08 Jun 2027 08:19:00.222            18.676          9338.000
       227   08 Jun 2027 08:20:20.682   08 Jun 2027 08:20:28.293             7.611          3805.500
       228   08 Jun 2027 08:21:26.642   08 Jun 2027 08:21:30.893             4.251          2125.500
       229   08 Jun 2027 08:22:11.891   08 Jun 2027 08:22:25.559            13.668          6834.000
       230   08 Jun 2027 08:23:24.499   08 Jun 2027 08:23:38.989            14.490          7245.000
       231   08 Jun 2027 08:24:39.706   08 Jun 2027 08:24:51.570            11.864          5932.000
       232   08 Jun 2027 08:25:39.236   08 Jun 2027 08:26:01.533            22.297         11148.500
       233   09 Jun 2027 03:42:09.010   09 Jun 2027 03:42:20.303            11.293          5646.500
       234   09 Jun 2027 03:43:43.269   09 Jun 2027 03:43:51.966             8.697          4348.500
       235   09 Jun 2027 03:44:35.574   09 Jun 2027 03:44:43.136             7.562          3781.000
       236   09 Jun 2027 03:45:19.217   09 Jun 2027 03:45:19.875             0.658           329.000
       237   09 Jun 2027 03:45:23.621   09 Jun 2027 03:45:24.861             1.240           620.000
       238   09 Jun 2027 03:46:16.090   09 Jun 2027 03:46:17.803             1.713           856.500
       239   09 Jun 2027 03:47:12.464   09 Jun 2027 03:47:13.071             0.607           303.500
       240   09 Jun 2027 03:47:27.612   09 Jun 2027 03:47:37.897            10.285          5142.500
       241   09 Jun 2027 03:47:54.303   09 Jun 2027 03:48:10.630            16.327          8163.500
       242   09 Jun 2027 05:19:03.847   09 Jun 2027 05:19:07.025             3.178          1589.000
       243   09 Jun 2027 05:19:30.237   09 Jun 2027 05:19:48.649            18.412          9206.000
       244   09 Jun 2027 05:21:10.654   09 Jun 2027 05:21:11.641             0.987           493.500
       245   09 Jun 2027 05:21:12.561   09 Jun 2027 05:21:15.455             2.894          1447.000
       246   09 Jun 2027 05:21:47.614   09 Jun 2027 05:21:47.945             0.331           165.500
       247   09 Jun 2027 05:22:00.321   09 Jun 2027 05:22:18.944            18.623          9311.500
       248   09 Jun 2027 05:23:48.796   09 Jun 2027 05:23:57.185             8.389          4194.500
       249   09 Jun 2027 05:24:44.424   09 Jun 2027 05:24:51.906             7.482          3741.000
       250   09 Jun 2027 06:56:46.928   09 Jun 2027 06:56:49.187             2.259          1129.500
       251   09 Jun 2027 06:57:06.078   09 Jun 2027 06:57:10.192             4.114          2057.000
       252   09 Jun 2027 06:57:39.586   09 Jun 2027 06:57:43.243             3.657          1828.500
       253   09 Jun 2027 06:58:01.818   09 Jun 2027 06:58:11.751             9.933          4966.500
       254   09 Jun 2027 06:59:22.665   09 Jun 2027 06:59:25.115             2.450          1225.000
       255   09 Jun 2027 06:59:55.346   09 Jun 2027 06:59:59.005             3.659          1829.500
       256   09 Jun 2027 07:00:15.226   09 Jun 2027 07:00:24.825             9.599          4799.500
       257   09 Jun 2027 08:31:01.880   09 Jun 2027 08:31:03.985             2.105          1052.500
       258   09 Jun 2027 08:31:14.612   09 Jun 2027 08:31:31.551            16.939          8469.500
       259   09 Jun 2027 08:33:00.874   09 Jun 2027 08:33:15.508            14.634          7317.000
       260   09 Jun 2027 08:34:21.271   09 Jun 2027 08:34:33.022            11.751          5875.500
       261   09 Jun 2027 08:35:26.934   09 Jun 2027 08:35:36.936            10.002          5001.000
       262   10 Jun 2027 03:54:30.135   10 Jun 2027 03:54:38.005             7.870          3935.000
       263   10 Jun 2027 03:55:11.268   10 Jun 2027 03:55:21.651            10.383          5191.500
       264   10 Jun 2027 03:56:07.648   10 Jun 2027 03:56:12.588             4.940          2470.000
       265   10 Jun 2027 03:56:48.398   10 Jun 2027 03:56:48.563             0.165            82.500
       266   10 Jun 2027 03:56:53.093   10 Jun 2027 03:56:57.912             4.819          2409.500
       267   10 Jun 2027 03:57:35.508   10 Jun 2027 03:57:41.590             6.082          3041.000
       268   10 Jun 2027 03:58:12.129   10 Jun 2027 03:58:17.607             5.478          2739.000
       269   10 Jun 2027 03:58:22.801   10 Jun 2027 03:58:23.232             0.431           215.500
       270   10 Jun 2027 03:59:01.408   10 Jun 2027 03:59:01.460             0.052            26.000
       271   10 Jun 2027 03:59:06.043   10 Jun 2027 03:59:08.856             2.813          1406.500
       272   10 Jun 2027 03:59:26.642   10 Jun 2027 03:59:53.519            26.877         13438.500
       273   10 Jun 2027 05:31:33.710   10 Jun 2027 05:31:56.809            23.099         11549.500
       274   10 Jun 2027 05:33:39.727   10 Jun 2027 05:33:44.556             4.829          2414.500
       275   10 Jun 2027 05:34:08.465   10 Jun 2027 05:34:09.854             1.389           694.500
       276   10 Jun 2027 05:34:40.855   10 Jun 2027 05:34:42.760             1.905           952.500
       277   10 Jun 2027 05:35:51.330   10 Jun 2027 05:35:51.411             0.081            40.500
       278   10 Jun 2027 05:36:00.031   10 Jun 2027 05:36:02.974             2.943          1471.500
       279   10 Jun 2027 05:36:36.668   10 Jun 2027 05:36:37.480             0.812           406.000
       280   10 Jun 2027 05:36:42.389   10 Jun 2027 05:36:43.728             1.339           669.500
       281   10 Jun 2027 05:37:06.609   10 Jun 2027 05:37:09.036             2.427          1213.500
       282   10 Jun 2027 07:08:18.795   10 Jun 2027 07:08:27.508             8.713          4356.500
       283   10 Jun 2027 07:09:19.884   10 Jun 2027 07:09:21.408             1.524           762.000
       284   10 Jun 2027 07:10:09.218   10 Jun 2027 07:10:12.728             3.510          1755.000
       285   10 Jun 2027 07:10:40.361   10 Jun 2027 07:10:40.506             0.145            72.500
       286   10 Jun 2027 07:10:44.492   10 Jun 2027 07:10:44.833             0.341           170.500
       287   10 Jun 2027 07:10:56.808   10 Jun 2027 07:10:58.033             1.225           612.500
       288   10 Jun 2027 07:11:03.310   10 Jun 2027 07:11:03.413             0.103            51.500
       289   10 Jun 2027 07:11:34.984   10 Jun 2027 07:11:40.602             5.618          2809.000
       290   10 Jun 2027 07:12:12.446   10 Jun 2027 07:12:13.252             0.806           403.000
       291   10 Jun 2027 07:12:53.557   10 Jun 2027 07:13:02.882             9.325          4662.500
       292   10 Jun 2027 08:43:35.137   10 Jun 2027 08:43:42.782             7.645          3822.500
       293   10 Jun 2027 08:45:16.551   10 Jun 2027 08:45:17.048             0.497           248.500
       294   10 Jun 2027 08:46:15.769   10 Jun 2027 08:46:34.641            18.872          9436.000
       295   11 Jun 2027 04:06:43.324   11 Jun 2027 04:07:11.347            28.023         14011.500
       296   11 Jun 2027 04:08:21.134   11 Jun 2027 04:08:22.057             0.923           461.500
       297   11 Jun 2027 04:09:05.479   11 Jun 2027 04:09:22.000            16.521          8260.500
       298   11 Jun 2027 04:10:33.663   11 Jun 2027 04:10:35.592             1.929           964.500
       299   11 Jun 2027 04:10:45.907   11 Jun 2027 04:10:49.391             3.484          1742.000
       300   11 Jun 2027 04:11:08.005   11 Jun 2027 04:11:20.523            12.518          6259.000
       301   11 Jun 2027 04:12:27.607   11 Jun 2027 04:12:46.529            18.922          9461.000
       302   11 Jun 2027 04:13:06.004   11 Jun 2027 04:13:13.280             7.276          3638.000
       303   11 Jun 2027 05:43:39.435   11 Jun 2027 05:44:00.705            21.270         10635.000
       304   11 Jun 2027 05:45:32.741   11 Jun 2027 05:45:35.081             2.340          1170.000
       305   11 Jun 2027 05:45:49.125   11 Jun 2027 05:45:52.026             2.901          1450.500
       306   11 Jun 2027 05:46:21.342   11 Jun 2027 05:46:24.400             3.058          1529.000
       307   11 Jun 2027 05:46:54.146   11 Jun 2027 05:46:58.671             4.525          2262.500
       308   11 Jun 2027 05:47:16.887   11 Jun 2027 05:47:20.529             3.642          1821.000
       309   11 Jun 2027 05:47:43.706   11 Jun 2027 05:47:47.233             3.527          1763.500
       310   11 Jun 2027 05:48:08.921   11 Jun 2027 05:48:11.207             2.286          1143.000
       311   11 Jun 2027 05:48:39.196   11 Jun 2027 05:48:40.135             0.939           469.500
       312   11 Jun 2027 07:20:25.768   11 Jun 2027 07:20:43.673            17.905          8952.500
       313   11 Jun 2027 07:22:00.029   11 Jun 2027 07:22:05.480             5.451          2725.500
       314   11 Jun 2027 07:22:46.365   11 Jun 2027 07:22:53.816             7.451          3725.500
       315   11 Jun 2027 07:23:32.576   11 Jun 2027 07:23:41.148             8.572          4286.000
       316   11 Jun 2027 07:24:01.230   11 Jun 2027 07:24:05.448             4.218          2109.000
       317   11 Jun 2027 07:24:52.438   11 Jun 2027 07:24:56.958             4.520          2260.000
       318   11 Jun 2027 08:58:38.530   11 Jun 2027 08:58:47.609             9.079          4539.500
       319   11 Jun 2027 08:59:30.875   11 Jun 2027 08:59:34.245             3.370          1685.000
       320   12 Jun 2027 04:19:13.082   12 Jun 2027 04:19:32.135            19.053          9526.500
       321   12 Jun 2027 04:20:58.185   12 Jun 2027 04:21:04.407             6.222          3111.000
       322   12 Jun 2027 04:21:56.564   12 Jun 2027 04:21:58.208             1.644           822.000
       323   12 Jun 2027 04:22:28.066   12 Jun 2027 04:22:30.974             2.908          1454.000
       324   12 Jun 2027 04:23:04.665   12 Jun 2027 04:23:09.960             5.295          2647.500
       325   12 Jun 2027 04:23:40.049   12 Jun 2027 04:23:40.355             0.306           153.000
       326   12 Jun 2027 04:23:49.861   12 Jun 2027 04:23:57.536             7.675          3837.500
       327   12 Jun 2027 04:24:24.132   12 Jun 2027 04:24:26.600             2.468          1234.000
       328   12 Jun 2027 04:24:38.125   12 Jun 2027 04:24:57.203            19.078          9539.000
       329   12 Jun 2027 05:56:41.727   12 Jun 2027 05:56:42.641             0.914           457.000
       330   12 Jun 2027 05:56:50.739   12 Jun 2027 05:56:52.598             1.859           929.500
       331   12 Jun 2027 05:57:27.936   12 Jun 2027 05:57:37.543             9.607          4803.500
       332   12 Jun 2027 05:58:26.353   12 Jun 2027 05:58:39.645            13.292          6646.000
       333   12 Jun 2027 05:59:42.334   12 Jun 2027 05:59:46.172             3.838          1919.000
       334   12 Jun 2027 06:00:14.615   12 Jun 2027 06:00:23.196             8.581          4290.500
       335   12 Jun 2027 07:32:47.668   12 Jun 2027 07:32:50.260             2.592          1296.000
       336   12 Jun 2027 07:33:11.700   12 Jun 2027 07:33:20.793             9.093          4546.500
       337   12 Jun 2027 07:34:00.359   12 Jun 2027 07:34:11.965            11.606          5803.000
       338   12 Jun 2027 07:34:38.282   12 Jun 2027 07:34:41.544             3.262          1631.000
       339   12 Jun 2027 07:35:20.932   12 Jun 2027 07:35:32.437            11.505          5752.500
       340   12 Jun 2027 07:35:46.708   12 Jun 2027 07:35:49.801             3.093          1546.500
       341   12 Jun 2027 07:36:36.226   12 Jun 2027 07:36:37.830             1.604           802.000
       342   13 Jun 2027 03:00:00.000   13 Jun 2027 03:00:06.183             6.183          3091.500
       343   13 Jun 2027 03:00:56.749   13 Jun 2027 03:01:00.527             3.778          1889.000
       344   13 Jun 2027 03:01:22.739   13 Jun 2027 03:01:24.421             1.682           841.000
       345   13 Jun 2027 04:31:13.431   13 Jun 2027 04:31:19.018             5.587          2793.500
       346   13 Jun 2027 04:31:59.164   13 Jun 2027 04:32:10.683            11.519          5759.500
       347   13 Jun 2027 04:32:22.657   13 Jun 2027 04:32:37.037            14.380          7190.000
       348   13 Jun 2027 04:34:14.381   13 Jun 2027 04:34:16.288             1.907           953.500
       349   13 Jun 2027 04:34:39.136   13 Jun 2027 04:34:39.246             0.110            55.000
       350   13 Jun 2027 04:34:48.450   13 Jun 2027 04:34:48.481             0.031            15.500
       351   13 Jun 2027 04:35:47.782   13 Jun 2027 04:35:52.548             4.766          2383.000
       352   13 Jun 2027 04:36:19.777   13 Jun 2027 04:36:28.330             8.553          4276.500
       353   13 Jun 2027 04:37:17.255   13 Jun 2027 04:37:21.544             4.289          2144.500
       354   13 Jun 2027 06:08:48.105   13 Jun 2027 06:08:54.337             6.232          3116.000
       355   13 Jun 2027 06:09:27.013   13 Jun 2027 06:09:29.862             2.849          1424.500
       356   13 Jun 2027 06:10:12.733   13 Jun 2027 06:10:21.291             8.558          4279.000
       357   13 Jun 2027 06:11:01.596   13 Jun 2027 06:11:04.188             2.592          1296.000
       358   13 Jun 2027 06:11:52.838   13 Jun 2027 06:12:01.745             8.907          4453.500
       359   13 Jun 2027 06:12:43.957   13 Jun 2027 06:12:51.399             7.442          3721.000
       360   13 Jun 2027 07:44:49.633   13 Jun 2027 07:44:54.706             5.073          2536.500
       361   13 Jun 2027 07:45:41.380   13 Jun 2027 07:45:49.663             8.283          4141.500
       362   13 Jun 2027 07:46:53.248   13 Jun 2027 07:46:55.667             2.419          1209.500
       363   13 Jun 2027 07:47:14.636   13 Jun 2027 07:47:26.587            11.951          5975.500
       364   13 Jun 2027 07:48:43.840   13 Jun 2027 07:48:45.891             2.051          1025.500
       365   13 Jun 2027 07:49:39.159   13 Jun 2027 07:49:45.212             6.053          3026.500
