uniorb/output/strategy_2/Camera/Camera_KinoSat_111601.txt

KinoSat_111601
-------------------------
    Access    *     Start Time (UTCG)     *     Stop Time (UTCG)  *   Duration (s) *   Data (Mbytes)
         1   01 Jun 2027 03:52:52.791   01 Jun 2027 03:53:02.871            10.080          5040.000
         2   01 Jun 2027 03:53:54.487   01 Jun 2027 03:55:14.407            79.920         39960.000
         3   01 Jun 2027 03:55:17.110   01 Jun 2027 03:55:29.333            12.223          6111.500
         4   01 Jun 2027 03:55:47.754   01 Jun 2027 03:56:07.222            19.468          9734.000
         5   01 Jun 2027 03:56:09.195   01 Jun 2027 03:56:23.616            14.421          7210.500
         6   01 Jun 2027 03:56:43.331   01 Jun 2027 03:57:42.865            59.534         29767.000
         7   01 Jun 2027 03:58:13.604   01 Jun 2027 03:58:54.191            40.587         20293.500
         8   01 Jun 2027 05:31:03.119   01 Jun 2027 05:31:41.905            38.786         19393.000
         9   01 Jun 2027 05:32:07.521   01 Jun 2027 05:32:36.608            29.087         14543.500
        10   01 Jun 2027 05:32:45.712   01 Jun 2027 05:33:52.519            66.807         33403.500
        11   01 Jun 2027 06:55:08.918   01 Jun 2027 06:56:27.167            78.249         39124.500
        12   01 Jun 2027 08:30:54.341   01 Jun 2027 08:33:19.161           144.820         72410.000
        13   01 Jun 2027 08:33:51.863   01 Jun 2027 08:34:16.345            24.482         12241.000
        14   01 Jun 2027 10:05:51.828   01 Jun 2027 10:06:16.694            24.866         12433.000
        15   01 Jun 2027 10:07:24.172   01 Jun 2027 10:08:34.116            69.944         34972.000
        16   01 Jun 2027 10:09:30.587   01 Jun 2027 10:10:21.309            50.722         25361.000
        17   01 Jun 2027 10:10:29.382   01 Jun 2027 10:11:16.092            46.710         23355.000
        18   01 Jun 2027 10:12:29.390   01 Jun 2027 10:12:29.639             0.249           124.500
        19   01 Jun 2027 11:42:05.450   01 Jun 2027 11:43:56.076           110.626         55313.000
        20   02 Jun 2027 04:05:58.104   02 Jun 2027 04:07:23.071            84.967         42483.500
        21   02 Jun 2027 04:07:43.504   02 Jun 2027 04:09:22.129            98.625         49312.500
        22   02 Jun 2027 04:09:26.864   02 Jun 2027 04:09:45.848            18.984          9492.000
        23   02 Jun 2027 04:10:47.764   02 Jun 2027 04:11:26.626            38.862         19431.000
        24   02 Jun 2027 04:12:57.590   02 Jun 2027 04:13:36.611            39.021         19510.500
        25   02 Jun 2027 05:31:53.759   02 Jun 2027 05:32:20.235            26.476         13238.000
        26   02 Jun 2027 05:42:59.600   02 Jun 2027 05:44:09.427            69.827         34913.500
        27   02 Jun 2027 05:45:05.590   02 Jun 2027 05:45:49.642            44.052         22026.000
        28   02 Jun 2027 07:05:56.923   02 Jun 2027 07:07:28.342            91.419         45709.500
        29   02 Jun 2027 07:09:07.640   02 Jun 2027 07:09:29.111            21.471         10735.500
        30   02 Jun 2027 08:41:16.553   02 Jun 2027 08:41:42.154            25.601         12800.500
        31   02 Jun 2027 08:42:39.522   02 Jun 2027 08:44:07.520            87.998         42862.062
        32   02 Jun 2027 08:46:52.802   02 Jun 2027 08:47:02.437             9.635          4817.500
        33   02 Jun 2027 10:17:24.910   02 Jun 2027 10:17:39.973            15.063          5288.062
        34   02 Jun 2027 10:17:52.402   02 Jun 2027 10:17:52.890             0.488           205.688
        35   02 Jun 2027 10:23:15.319   02 Jun 2027 10:23:40.404            25.085          9925.844
        36   02 Jun 2027 10:23:49.129   02 Jun 2027 10:23:50.027             0.898           169.094
        37   02 Jun 2027 10:24:22.104   02 Jun 2027 10:24:28.055             5.951          1002.406
        38   02 Jun 2027 11:54:27.401   02 Jun 2027 11:54:45.085            17.684          8072.719
        39   02 Jun 2027 11:57:11.335   02 Jun 2027 11:57:21.644            10.309          4522.031
        40   02 Jun 2027 11:58:05.812   02 Jun 2027 11:58:11.334             5.522          1233.781
        41   02 Jun 2027 11:58:38.487   02 Jun 2027 11:58:44.506             6.019           848.531
        42   02 Jun 2027 11:59:55.102   02 Jun 2027 11:59:59.821             4.719          2206.125
        43   03 Jun 2027 04:18:27.972   03 Jun 2027 04:21:17.290           169.318         84659.000
        44   03 Jun 2027 04:21:19.854   03 Jun 2027 04:21:47.301            27.447         13723.500
        45   03 Jun 2027 04:22:32.105   03 Jun 2027 04:23:11.695            39.590         19795.000
        46   03 Jun 2027 05:43:19.437   03 Jun 2027 05:43:53.247            33.810         16905.000
        47   03 Jun 2027 05:55:02.714   03 Jun 2027 05:56:14.065            71.351         33294.438
        48   03 Jun 2027 07:17:15.015   03 Jun 2027 07:17:30.655            15.640          7183.688
        49   03 Jun 2027 07:18:06.141   03 Jun 2027 07:18:08.363             2.222          1078.094
        50   03 Jun 2027 07:18:27.488   03 Jun 2027 07:18:27.634             0.146            73.000
        51   03 Jun 2027 07:19:22.163   03 Jun 2027 07:19:26.361             4.198          1656.187
        52   03 Jun 2027 07:21:06.911   03 Jun 2027 07:21:13.483             6.572          3015.000
        53   03 Jun 2027 07:21:47.425   03 Jun 2027 07:21:48.667             1.242           480.344
        54   03 Jun 2027 08:52:21.105   03 Jun 2027 08:52:29.452             8.347          4035.125
        55   03 Jun 2027 08:52:45.001   03 Jun 2027 08:52:47.989             2.988           485.906
        56   03 Jun 2027 08:53:09.463   03 Jun 2027 08:53:10.357             0.894           447.000
        57   03 Jun 2027 08:54:42.034   03 Jun 2027 08:54:48.739             6.705          2999.250
        58   03 Jun 2027 08:55:16.037   03 Jun 2027 08:55:19.850             3.813           853.063
        59   03 Jun 2027 08:56:09.628   03 Jun 2027 08:56:12.190             2.562          1240.531
        60   03 Jun 2027 08:57:43.728   03 Jun 2027 08:57:49.342             5.614          2513.000
        61   03 Jun 2027 10:29:37.122   03 Jun 2027 10:29:52.412            15.290          5827.187
        62   03 Jun 2027 10:30:15.930   03 Jun 2027 10:30:18.896             2.966           138.750
        63   03 Jun 2027 10:30:46.012   03 Jun 2027 10:30:48.114             2.102           646.688
        64   03 Jun 2027 10:31:45.705   03 Jun 2027 10:31:54.702             8.997          1693.594
        65   03 Jun 2027 10:32:42.989   03 Jun 2027 10:32:50.752             7.763          1508.969
        66   03 Jun 2027 10:35:13.731   03 Jun 2027 10:35:22.981             9.250          4468.094
        67   03 Jun 2027 10:36:22.040   03 Jun 2027 10:36:32.979            10.939          1845.594
        68   03 Jun 2027 10:36:38.898   03 Jun 2027 10:36:46.513             7.615           184.969
        69   04 Jun 2027 04:30:36.516   04 Jun 2027 04:34:16.889           220.373        110186.500
        70   04 Jun 2027 04:34:24.246   04 Jun 2027 04:34:24.246             0.000             0.000
        71   04 Jun 2027 04:34:34.117   04 Jun 2027 04:35:10.701            36.584         18292.000
        72   04 Jun 2027 04:35:42.834   04 Jun 2027 04:35:47.060             4.226          2113.000
        73   04 Jun 2027 04:37:25.997   04 Jun 2027 04:37:33.868             7.871          3935.500
        74   04 Jun 2027 05:54:48.257   04 Jun 2027 05:55:21.134            32.877         16438.500
        75   04 Jun 2027 05:56:41.236   04 Jun 2027 05:57:01.827            20.591         10295.500
        76   04 Jun 2027 06:07:03.539   04 Jun 2027 06:07:24.760            21.221         10610.500
        77   04 Jun 2027 07:29:00.543   04 Jun 2027 07:29:17.362            16.819          7223.156
        78   04 Jun 2027 07:30:07.696   04 Jun 2027 07:30:09.189             1.493           746.500
        79   04 Jun 2027 07:30:16.737   04 Jun 2027 07:30:20.846             4.109          1042.875
        80   04 Jun 2027 07:31:25.566   04 Jun 2027 07:31:28.616             3.050          1411.188
        81   04 Jun 2027 07:33:05.465   04 Jun 2027 07:33:12.554             7.089          2912.875
        82   04 Jun 2027 07:33:34.855   04 Jun 2027 07:33:40.832             5.977           153.594
        83   04 Jun 2027 09:03:50.179   04 Jun 2027 09:04:01.612            11.433          4210.062
        84   04 Jun 2027 09:04:35.125   04 Jun 2027 09:04:35.960             0.835           365.438
        85   04 Jun 2027 09:05:44.933   04 Jun 2027 09:05:44.933             0.000             0.000
        86   04 Jun 2027 09:06:33.190   04 Jun 2027 09:06:42.478             9.288          1899.875
        87   04 Jun 2027 09:07:32.643   04 Jun 2027 09:07:35.669             3.026           606.937
        88   04 Jun 2027 09:09:30.576   04 Jun 2027 09:09:38.477             7.901          3561.313
        89   04 Jun 2027 09:10:48.893   04 Jun 2027 09:10:52.034             3.141          1185.313
        90   04 Jun 2027 09:11:29.444   04 Jun 2027 09:11:32.639             3.195          1169.063
        91   04 Jun 2027 09:12:30.513   04 Jun 2027 09:12:35.018             4.505          1733.156
        92   04 Jun 2027 10:41:37.277   04 Jun 2027 10:41:52.630            15.353          5430.437
        93   04 Jun 2027 10:42:20.417   04 Jun 2027 10:42:26.107             5.690           115.281
        94   04 Jun 2027 10:42:32.265   04 Jun 2027 10:42:33.538             1.273           173.500
        95   04 Jun 2027 10:42:39.250   04 Jun 2027 10:42:42.841             3.591           121.500
        96   04 Jun 2027 10:43:10.895   04 Jun 2027 10:43:13.785             2.890           791.938
        97   04 Jun 2027 10:43:46.251   04 Jun 2027 10:43:48.124             1.873           936.500
        98   04 Jun 2027 10:44:33.681   04 Jun 2027 10:44:38.213             4.532          1501.719
        99   04 Jun 2027 10:45:12.228   04 Jun 2027 10:45:16.723             4.495          1062.969
       100   04 Jun 2027 10:47:39.700   04 Jun 2027 10:47:48.916             9.216          4086.594
       101   04 Jun 2027 10:48:04.093   04 Jun 2027 10:48:06.664             2.571           257.688
       102   04 Jun 2027 10:48:11.591   04 Jun 2027 10:48:12.236             0.645           153.969
       103   04 Jun 2027 10:48:21.485   04 Jun 2027 10:48:26.216             4.731           114.656
       104   04 Jun 2027 10:48:59.468   04 Jun 2027 10:49:03.268             3.800          1039.125
       105   05 Jun 2027 03:04:24.708   05 Jun 2027 03:06:06.044           101.336         50668.000
       106   05 Jun 2027 03:06:15.396   05 Jun 2027 03:07:17.543            62.147         31073.500
       107   05 Jun 2027 03:07:56.079   05 Jun 2027 03:08:00.539             4.460          2230.000
       108   05 Jun 2027 03:09:53.199   05 Jun 2027 03:09:57.958             4.759          2379.500
       109   05 Jun 2027 04:42:47.437   05 Jun 2027 04:43:32.068            44.631         22315.500
       110   05 Jun 2027 04:43:36.791   05 Jun 2027 04:43:53.799            17.008          8504.000
       111   05 Jun 2027 04:44:59.325   05 Jun 2027 04:46:13.279            73.954         35981.125
       112   05 Jun 2027 04:46:36.183   05 Jun 2027 04:46:37.633             1.450           715.750
       113   05 Jun 2027 04:47:45.375   05 Jun 2027 04:47:49.496             4.121          1860.594
       114   05 Jun 2027 06:06:49.974   05 Jun 2027 06:07:07.043            17.069          8528.688
       115   05 Jun 2027 06:07:49.136   05 Jun 2027 06:07:49.136             0.000             0.000
       116   05 Jun 2027 06:07:56.322   05 Jun 2027 06:08:00.018             3.696          1082.375
       117   05 Jun 2027 06:08:02.609   05 Jun 2027 06:08:02.609             0.000             0.000
       118   05 Jun 2027 06:08:48.068   05 Jun 2027 06:08:54.746             6.678          1501.562
       119   05 Jun 2027 07:42:47.915   05 Jun 2027 07:43:03.487            15.572          7747.219
       120   05 Jun 2027 07:43:21.656   05 Jun 2027 07:43:27.551             5.895           516.781
       121   05 Jun 2027 07:44:22.525   05 Jun 2027 07:44:22.525             0.000             0.000
       122   05 Jun 2027 07:44:41.010   05 Jun 2027 07:44:46.451             5.441          2292.906
       123   05 Jun 2027 07:45:14.477   05 Jun 2027 07:45:14.477             0.000             0.000
       124   05 Jun 2027 07:45:37.473   05 Jun 2027 07:45:46.545             9.072          1072.563
       125   05 Jun 2027 09:16:36.993   05 Jun 2027 09:16:48.721            11.728          4776.844
       126   05 Jun 2027 09:17:59.450   05 Jun 2027 09:18:04.767             5.317           421.563
       127   05 Jun 2027 09:19:02.039   05 Jun 2027 09:19:04.702             2.663          1265.437
       128   05 Jun 2027 09:21:30.275   05 Jun 2027 09:21:39.095             8.820          4408.906
       129   05 Jun 2027 09:22:01.201   05 Jun 2027 09:22:03.530             2.329           669.750
       130   05 Jun 2027 09:22:39.265   05 Jun 2027 09:22:41.439             2.174           810.000
       131   05 Jun 2027 09:23:06.407   05 Jun 2027 09:23:13.204             6.797           780.250
       132   05 Jun 2027 09:23:31.169   05 Jun 2027 09:23:34.863             3.694           561.406
       133   05 Jun 2027 09:24:26.951   05 Jun 2027 09:24:31.063             4.112          1490.094
       134   05 Jun 2027 09:25:00.031   05 Jun 2027 09:25:05.127             5.096           773.781
       135   05 Jun 2027 10:53:42.659   05 Jun 2027 10:54:00.192            17.533          6826.281
       136   05 Jun 2027 10:54:32.667   05 Jun 2027 10:54:35.143             2.476           329.719
       137   05 Jun 2027 10:56:26.734   05 Jun 2027 10:56:26.734             0.000             0.000
       138   05 Jun 2027 10:57:55.958   05 Jun 2027 10:58:08.356            12.398          5464.187
       139   05 Jun 2027 10:58:30.566   05 Jun 2027 10:58:32.952             2.386            70.125
       140   05 Jun 2027 10:58:36.781   05 Jun 2027 10:58:37.041             0.260            65.688
       141   05 Jun 2027 10:59:03.110   05 Jun 2027 10:59:05.769             2.659           799.750
       142   05 Jun 2027 10:59:10.484   05 Jun 2027 10:59:11.396             0.912           147.344
       143   05 Jun 2027 11:00:08.538   05 Jun 2027 11:00:13.064             4.526          1785.688
       144   05 Jun 2027 11:00:34.255   05 Jun 2027 11:00:37.395             3.140           662.219
       145   06 Jun 2027 03:17:02.181   06 Jun 2027 03:17:46.558            44.377         22188.500
       146   06 Jun 2027 03:17:55.354   06 Jun 2027 03:18:38.689            43.335         21667.500
       147   06 Jun 2027 03:18:40.520   06 Jun 2027 03:20:05.111            84.591         42295.500
       148   06 Jun 2027 03:20:34.381   06 Jun 2027 03:20:40.247             5.866          2933.000
       149   06 Jun 2027 03:20:59.866   06 Jun 2027 03:21:08.115             8.249          4124.500
       150   06 Jun 2027 03:21:40.156   06 Jun 2027 03:22:07.711            27.555         13777.500
       151   06 Jun 2027 03:22:41.199   06 Jun 2027 03:22:41.199             0.000             0.000
       152   06 Jun 2027 04:55:22.342   06 Jun 2027 04:56:24.254            61.912         30956.000
       153   06 Jun 2027 04:57:26.450   06 Jun 2027 04:57:27.790             1.340           670.000
       154   06 Jun 2027 04:58:07.849   06 Jun 2027 04:58:33.530            25.681         12840.500
       155   06 Jun 2027 04:58:38.258   06 Jun 2027 04:58:47.633             9.375          4165.875
       156   06 Jun 2027 06:18:44.376   06 Jun 2027 06:18:57.310            12.934          6074.219
       157   06 Jun 2027 06:20:03.869   06 Jun 2027 06:20:07.143             3.274          1525.656
       158   06 Jun 2027 06:20:53.892   06 Jun 2027 06:20:56.465             2.573          1259.250
       159   06 Jun 2027 07:55:07.289   06 Jun 2027 07:55:24.386            17.097          8006.125
       160   06 Jun 2027 07:55:32.386   06 Jun 2027 07:55:32.763             0.377            97.906
       161   06 Jun 2027 07:56:08.064   06 Jun 2027 07:56:16.256             8.192          1036.906
       162   06 Jun 2027 07:56:59.787   06 Jun 2027 07:57:03.215             3.428          1160.812
       163   06 Jun 2027 07:57:39.889   06 Jun 2027 07:57:45.349             5.460           740.469
       164   06 Jun 2027 09:28:35.365   06 Jun 2027 09:28:47.182            11.817          4943.500
       165   06 Jun 2027 09:29:08.390   06 Jun 2027 09:29:10.488             2.098           541.531
       166   06 Jun 2027 09:31:03.477   06 Jun 2027 09:31:03.646             0.169            84.500
       167   06 Jun 2027 09:31:37.389   06 Jun 2027 09:31:44.672             7.283          3375.063
       168   06 Jun 2027 09:35:10.052   06 Jun 2027 09:35:30.084            20.032          6418.125
       169   06 Jun 2027 09:36:28.420   06 Jun 2027 09:36:32.876             4.456          1746.812
       170   06 Jun 2027 11:06:09.297   06 Jun 2027 11:06:25.440            16.143          7501.406
       171   06 Jun 2027 11:06:47.907   06 Jun 2027 11:06:50.153             2.246           432.656
       172   06 Jun 2027 11:07:16.777   06 Jun 2027 11:07:19.714             2.937           832.000
       173   06 Jun 2027 11:08:08.569   06 Jun 2027 11:08:10.876             2.307          1087.313
       174   06 Jun 2027 11:08:30.225   06 Jun 2027 11:08:38.099             7.874           480.281
       175   06 Jun 2027 11:09:03.112   06 Jun 2027 11:09:07.371             4.259           597.969
       176   06 Jun 2027 11:09:20.867   06 Jun 2027 11:09:25.213             4.346           421.750
       177   06 Jun 2027 11:10:31.429   06 Jun 2027 11:10:34.471             3.042          1521.000
       178   06 Jun 2027 11:10:53.549   06 Jun 2027 11:11:02.134             8.585          1120.219
       179   06 Jun 2027 11:12:17.903   06 Jun 2027 11:12:29.406            11.503          2351.094
       180   06 Jun 2027 11:12:41.023   06 Jun 2027 11:12:41.809             0.786           259.250
       181   07 Jun 2027 03:28:55.863   07 Jun 2027 03:29:01.417             5.554          2777.000
       182   07 Jun 2027 03:29:21.181   07 Jun 2027 03:31:57.151           155.970         77985.000
       183   07 Jun 2027 03:32:36.175   07 Jun 2027 03:33:47.432            71.257         35628.500
       184   07 Jun 2027 03:34:09.918   07 Jun 2027 03:34:15.954             6.036          3018.000
       185   07 Jun 2027 03:34:26.076   07 Jun 2027 03:34:26.076             0.000             0.000
       186   07 Jun 2027 05:07:00.289   07 Jun 2027 05:07:55.199            54.910         27455.000
       187   07 Jun 2027 05:07:55.238   07 Jun 2027 05:07:57.830             2.592          1296.000
       188   07 Jun 2027 05:08:47.175   07 Jun 2027 05:08:58.414            11.239          5619.500
       189   07 Jun 2027 05:09:55.990   07 Jun 2027 05:10:13.606            17.616          8645.938
       190   07 Jun 2027 05:11:10.608   07 Jun 2027 05:11:17.599             6.991          1570.594
       191   07 Jun 2027 06:30:33.372   07 Jun 2027 06:30:44.932            11.560          5780.000
       192   07 Jun 2027 06:31:58.782   07 Jun 2027 06:32:04.443             5.661          2763.125
       193   07 Jun 2027 06:33:18.307   07 Jun 2027 06:33:18.307             0.000             0.000
       194   07 Jun 2027 08:07:08.897   07 Jun 2027 08:07:18.027             9.130          4208.562
       195   07 Jun 2027 08:07:47.433   07 Jun 2027 08:07:47.433             0.000             0.000
       196   07 Jun 2027 08:08:02.032   07 Jun 2027 08:08:06.170             4.138           850.156
       197   07 Jun 2027 08:09:00.624   07 Jun 2027 08:09:00.624             0.000             0.000
       198   07 Jun 2027 08:09:55.189   07 Jun 2027 08:10:04.317             9.128          3374.469
       199   07 Jun 2027 09:42:02.705   07 Jun 2027 09:42:10.297             7.592          3689.969
       200   07 Jun 2027 09:43:07.110   07 Jun 2027 09:43:07.110             0.000             0.000
       201   07 Jun 2027 09:44:24.972   07 Jun 2027 09:44:31.362             6.390          2775.656
       202   07 Jun 2027 09:44:44.797   07 Jun 2027 09:44:46.305             1.508             3.344
       203   07 Jun 2027 09:45:28.018   07 Jun 2027 09:45:33.818             5.800           896.594
       204   07 Jun 2027 09:46:45.314   07 Jun 2027 09:46:52.344             7.030          1997.531
       205   07 Jun 2027 09:47:13.169   07 Jun 2027 09:47:17.986             4.817           279.750
       206   07 Jun 2027 09:47:28.473   07 Jun 2027 09:47:32.633             4.160           160.656
       207   07 Jun 2027 09:48:07.066   07 Jun 2027 09:48:10.349             3.283          1050.406
       208   07 Jun 2027 09:48:21.834   07 Jun 2027 09:48:24.500             2.666           292.094
       209   07 Jun 2027 09:48:43.262   07 Jun 2027 09:48:45.266             2.004           346.656
       210   07 Jun 2027 11:18:15.910   07 Jun 2027 11:18:25.914            10.004          4649.313
       211   07 Jun 2027 11:18:41.230   07 Jun 2027 11:18:46.229             4.999           269.000
       212   07 Jun 2027 11:19:22.511   07 Jun 2027 11:19:26.400             3.889          1133.812
       213   07 Jun 2027 11:20:16.821   07 Jun 2027 11:20:21.564             4.743          1488.125
       214   07 Jun 2027 11:20:55.474   07 Jun 2027 11:20:59.298             3.824           743.187
       215   07 Jun 2027 11:21:21.436   07 Jun 2027 11:21:23.102             1.666           546.094
       216   07 Jun 2027 11:21:53.680   07 Jun 2027 11:22:04.405            10.725           926.844
       217   07 Jun 2027 11:22:21.779   07 Jun 2027 11:22:23.223             1.444           323.719
       218   07 Jun 2027 11:22:41.069   07 Jun 2027 11:22:41.724             0.655           296.062
       219   07 Jun 2027 11:22:45.434   07 Jun 2027 11:22:46.541             1.107           115.937
       220   07 Jun 2027 11:23:09.215   07 Jun 2027 11:23:11.896             2.681           546.125
       221   07 Jun 2027 11:24:17.654   07 Jun 2027 11:24:25.148             7.494          2000.250
       222   07 Jun 2027 11:24:47.763   07 Jun 2027 11:24:49.917             2.154           502.656
       223   08 Jun 2027 03:41:04.685   08 Jun 2027 03:42:06.466            61.781         30890.500
       224   08 Jun 2027 03:42:13.810   08 Jun 2027 03:44:00.178           106.368         53184.000
       225   08 Jun 2027 03:44:38.064   08 Jun 2027 03:45:00.034            21.970         10985.000
       226   08 Jun 2027 03:45:45.729   08 Jun 2027 03:45:49.859             4.130          2065.000
       227   08 Jun 2027 03:45:51.330   08 Jun 2027 03:46:27.643            36.313         18156.500
       228   08 Jun 2027 05:19:23.201   08 Jun 2027 05:19:54.265            31.064         15532.000
       229   08 Jun 2027 05:20:12.770   08 Jun 2027 05:20:41.610            28.840         14420.000
       230   08 Jun 2027 05:21:11.371   08 Jun 2027 05:21:27.907            16.536          7637.562
       231   08 Jun 2027 05:22:08.659   08 Jun 2027 05:22:09.579             0.920           460.000
       232   08 Jun 2027 05:22:48.564   08 Jun 2027 05:22:53.106             4.542          1982.094
       233   08 Jun 2027 05:23:12.085   08 Jun 2027 05:23:15.159             3.074           509.344
       234   08 Jun 2027 06:42:45.876   08 Jun 2027 06:42:58.087            12.211          5713.625
       235   08 Jun 2027 06:43:30.652   08 Jun 2027 06:43:30.652             0.000             0.000
       236   08 Jun 2027 06:43:40.233   08 Jun 2027 06:43:41.605             1.372           530.406
       237   08 Jun 2027 06:44:22.621   08 Jun 2027 06:44:25.193             2.572          1281.750
       238   08 Jun 2027 06:45:23.065   08 Jun 2027 06:45:24.743             1.678           839.000
       239   08 Jun 2027 08:19:29.621   08 Jun 2027 08:19:43.460            13.839          5649.438
       240   08 Jun 2027 08:20:25.625   08 Jun 2027 08:20:25.625             0.000             0.000
       241   08 Jun 2027 08:21:13.904   08 Jun 2027 08:21:19.672             5.768          2193.625
       242   08 Jun 2027 09:54:27.365   08 Jun 2027 09:54:38.291            10.926          3800.281
       243   08 Jun 2027 09:55:40.958   08 Jun 2027 09:55:40.958             0.000             0.000
       244   08 Jun 2027 09:56:35.501   08 Jun 2027 09:56:43.172             7.671          3420.469
       245   08 Jun 2027 09:58:09.674   08 Jun 2027 09:58:14.442             4.768          2031.344
       246   08 Jun 2027 09:58:23.746   08 Jun 2027 09:58:24.615             0.869           290.750
       247   08 Jun 2027 09:58:54.426   08 Jun 2027 09:58:57.190             2.764           931.594
       248   08 Jun 2027 10:00:10.099   08 Jun 2027 10:00:17.362             7.263          2278.406
       249   08 Jun 2027 10:00:47.082   08 Jun 2027 10:00:50.296             3.214           928.750
       250   08 Jun 2027 11:30:52.298   08 Jun 2027 11:31:05.066            12.768          5634.406
       251   08 Jun 2027 11:31:14.979   08 Jun 2027 11:31:17.657             2.678           230.187
       252   08 Jun 2027 11:31:36.476   08 Jun 2027 11:31:43.306             6.830           588.094
       253   08 Jun 2027 11:32:57.558   08 Jun 2027 11:33:04.772             7.214          1963.687
       254   08 Jun 2027 11:34:30.977   08 Jun 2027 11:34:36.239             5.262          2228.000
       255   08 Jun 2027 11:34:58.279   08 Jun 2027 11:35:01.744             3.465           688.750
       256   08 Jun 2027 11:35:32.793   08 Jun 2027 11:35:37.875             5.082           911.844
       257   08 Jun 2027 11:35:54.329   08 Jun 2027 11:35:57.085             2.756           231.094
       258   08 Jun 2027 11:36:23.073   08 Jun 2027 11:36:31.082             8.009           748.469
       259   08 Jun 2027 11:36:55.320   08 Jun 2027 11:36:59.976             4.656           757.437
       260   09 Jun 2027 03:53:10.402   09 Jun 2027 03:53:17.428             7.026          3513.000
       261   09 Jun 2027 03:54:11.367   09 Jun 2027 03:56:22.961           131.594         65797.000
       262   09 Jun 2027 03:56:26.662   09 Jun 2027 03:57:39.677            73.015         36507.500
       263   09 Jun 2027 03:58:45.393   09 Jun 2027 03:59:11.482            26.089         13044.500
       264   09 Jun 2027 04:00:58.461   09 Jun 2027 04:01:04.366             5.905          2952.500
       265   09 Jun 2027 05:31:20.117   09 Jun 2027 05:31:59.088            38.971         19485.500
       266   09 Jun 2027 05:32:21.849   09 Jun 2027 05:32:51.405            29.556         13898.813
       267   09 Jun 2027 05:33:33.198   09 Jun 2027 05:33:36.129             2.931          1306.031
       268   09 Jun 2027 05:34:45.522   09 Jun 2027 05:34:50.011             4.489          2168.531
       269   09 Jun 2027 06:55:22.010   09 Jun 2027 06:55:33.539            11.529          5367.813
       270   09 Jun 2027 06:55:55.413   09 Jun 2027 06:55:56.998             1.585           675.750
       271   09 Jun 2027 06:57:20.408   09 Jun 2027 06:57:26.036             5.628          2506.469
       272   09 Jun 2027 08:31:10.760   09 Jun 2027 08:31:18.425             7.665          3368.437
       273   09 Jun 2027 08:32:58.502   09 Jun 2027 08:33:04.366             5.864          2932.000
       274   09 Jun 2027 08:33:15.462   09 Jun 2027 08:33:16.640             1.178           419.281
       275   09 Jun 2027 08:34:31.467   09 Jun 2027 08:34:37.494             6.027          1935.938
       276   09 Jun 2027 10:06:07.577   09 Jun 2027 10:06:14.991             7.414          3707.000
       277   09 Jun 2027 10:06:43.923   09 Jun 2027 10:06:46.845             2.922           931.688
       278   09 Jun 2027 10:11:33.729   09 Jun 2027 10:11:51.169            17.440          7236.156
       279   09 Jun 2027 10:12:15.986   09 Jun 2027 10:12:18.845             2.859           700.531
       280   09 Jun 2027 10:12:50.243   09 Jun 2027 10:12:55.601             5.358           784.094
       281   09 Jun 2027 11:42:25.336   09 Jun 2027 11:42:40.879            15.543          6800.031
       282   09 Jun 2027 11:43:21.909   09 Jun 2027 11:43:25.163             3.254          1057.156
       283   09 Jun 2027 11:44:20.445   09 Jun 2027 11:44:24.288             3.843          1592.063
       284   09 Jun 2027 11:44:58.936   09 Jun 2027 11:45:04.933             5.997          1044.094
       285   09 Jun 2027 11:45:27.897   09 Jun 2027 11:45:29.086             1.189           470.156
       286   09 Jun 2027 11:46:12.838   09 Jun 2027 11:46:14.725             1.887           831.156
       287   09 Jun 2027 11:46:34.894   09 Jun 2027 11:46:37.344             2.450           567.281
       288   09 Jun 2027 11:47:03.560   09 Jun 2027 11:47:06.465             2.905           819.250
       289   09 Jun 2027 11:47:59.547   09 Jun 2027 11:48:11.716            12.169          1658.812
       290   10 Jun 2027 04:06:15.101   10 Jun 2027 04:10:01.630           226.529        113264.500
       291   10 Jun 2027 04:11:41.481   10 Jun 2027 04:11:41.481             0.000             0.000
       292   10 Jun 2027 04:12:17.692   10 Jun 2027 04:12:23.620             5.928          2964.000
       293   10 Jun 2027 05:32:07.585   10 Jun 2027 05:32:30.665            23.080         11540.000
       294   10 Jun 2027 05:43:16.363   10 Jun 2027 05:44:15.438            59.075         29537.500
       295   10 Jun 2027 05:44:36.866   10 Jun 2027 05:44:47.798            10.932          5405.874
       296   10 Jun 2027 05:45:28.676   10 Jun 2027 05:45:28.676             0.000             0.000
       297   10 Jun 2027 05:46:04.389   10 Jun 2027 05:46:09.407             5.018          2330.500
       298   10 Jun 2027 07:06:13.400   10 Jun 2027 07:06:26.730            13.330          6228.563
       299   10 Jun 2027 07:06:39.836   10 Jun 2027 07:06:42.656             2.820           318.156
       300   10 Jun 2027 07:08:00.363   10 Jun 2027 07:08:09.702             9.339          1720.094
       301   10 Jun 2027 07:09:23.313   10 Jun 2027 07:09:35.290            11.977          2283.125
       302   10 Jun 2027 07:10:22.751   10 Jun 2027 07:10:27.057             4.306          1132.281
       303   10 Jun 2027 08:41:29.757   10 Jun 2027 08:41:38.253             8.496          3912.813
       304   10 Jun 2027 08:41:59.313   10 Jun 2027 08:42:01.796             2.483           545.969
       305   10 Jun 2027 08:44:57.156   10 Jun 2027 08:45:11.144            13.988          5192.719
       306   10 Jun 2027 08:45:47.962   10 Jun 2027 08:45:49.943             1.981           587.563
       307   10 Jun 2027 08:46:04.357   10 Jun 2027 08:46:13.720             9.363           441.156
       308   10 Jun 2027 08:46:48.448   10 Jun 2027 08:46:51.003             2.555           599.094
       309   10 Jun 2027 10:17:40.774   10 Jun 2027 10:17:51.851            11.077          4146.906
       310   10 Jun 2027 10:18:37.794   10 Jun 2027 10:18:41.168             3.374           794.125
       311   10 Jun 2027 10:20:40.250   10 Jun 2027 10:20:45.664             5.414          2100.156
       312   10 Jun 2027 10:21:05.519   10 Jun 2027 10:21:05.519             0.000             0.000
       313   10 Jun 2027 10:23:32.884   10 Jun 2027 10:23:44.543            11.659          5194.156
       314   10 Jun 2027 10:24:17.982   10 Jun 2027 10:24:21.199             3.217          1005.187
       315   10 Jun 2027 10:24:25.766   10 Jun 2027 10:24:25.932             0.166            83.000
       316   10 Jun 2027 10:24:49.113   10 Jun 2027 10:24:56.891             7.778           775.062
       317   10 Jun 2027 11:54:44.980   10 Jun 2027 11:55:00.759            15.779          7889.500
       318   10 Jun 2027 11:56:17.826   10 Jun 2027 11:56:22.022             4.196          2098.000
       319   10 Jun 2027 11:56:37.136   10 Jun 2027 11:56:40.078             2.942          1271.656
       320   10 Jun 2027 11:58:18.863   10 Jun 2027 11:58:23.742             4.879          2089.125
       321   10 Jun 2027 11:58:31.412   10 Jun 2027 11:58:32.175             0.763           239.687
       322   10 Jun 2027 11:58:38.701   10 Jun 2027 11:58:38.857             0.156            78.000
       323   10 Jun 2027 11:58:44.341   10 Jun 2027 11:58:47.665             3.324           297.312
       324   10 Jun 2027 11:59:01.066   10 Jun 2027 11:59:01.066             0.000             0.000
       325   10 Jun 2027 11:59:18.622   10 Jun 2027 11:59:23.680             5.058           774.094
       326   10 Jun 2027 11:59:59.147   10 Jun 2027 12:00:00.000             0.853           426.500
       327   11 Jun 2027 04:18:44.723   11 Jun 2027 04:20:26.366           101.643         50821.500
       328   11 Jun 2027 04:21:34.588   11 Jun 2027 04:23:33.990           119.402         59701.000
       329   11 Jun 2027 04:24:29.913   11 Jun 2027 04:24:42.919            13.006          6503.000
       330   11 Jun 2027 04:25:30.600   11 Jun 2027 04:25:51.393            20.793         10396.500
       331   11 Jun 2027 05:43:36.630   11 Jun 2027 05:43:42.450             5.820          2910.000
       332   11 Jun 2027 05:44:42.687   11 Jun 2027 05:45:07.507            24.820         12410.000
       333   11 Jun 2027 05:55:19.027   11 Jun 2027 05:56:12.167            53.140         24640.656
       334   11 Jun 2027 07:17:32.373   11 Jun 2027 07:17:48.098            15.725          6976.250
       335   11 Jun 2027 07:19:40.419   11 Jun 2027 07:19:45.655             5.236          2380.000
       336   11 Jun 2027 07:21:22.556   11 Jun 2027 07:21:28.748             6.192          2982.125
       337   11 Jun 2027 08:52:36.694   11 Jun 2027 08:52:46.436             9.742          3995.844
       338   11 Jun 2027 08:53:08.616   11 Jun 2027 08:53:09.136             0.520           251.781
       339   11 Jun 2027 08:54:09.770   11 Jun 2027 08:54:17.767             7.997          1754.375
       340   11 Jun 2027 08:55:32.455   11 Jun 2027 08:55:32.721             0.266           133.000
       341   11 Jun 2027 08:55:41.741   11 Jun 2027 08:55:46.747             5.006          1775.500
       342   11 Jun 2027 08:57:47.479   11 Jun 2027 08:57:58.048            10.569          3730.281
       343   11 Jun 2027 09:00:36.121   11 Jun 2027 09:00:44.213             8.092          3601.063
       344   11 Jun 2027 10:29:58.051   11 Jun 2027 10:30:08.831            10.780          3651.875
       345   11 Jun 2027 10:30:57.317   11 Jun 2027 10:30:59.415             2.098           164.719
       346   11 Jun 2027 10:31:09.047   11 Jun 2027 10:31:09.992             0.945           297.594
       347   11 Jun 2027 10:31:56.923   11 Jun 2027 10:31:59.990             3.067           871.250
       348   11 Jun 2027 10:32:49.785   11 Jun 2027 10:32:51.881             2.096           112.000
       349   11 Jun 2027 10:33:15.264   11 Jun 2027 10:33:19.163             3.899           523.250
       350   11 Jun 2027 10:35:31.216   11 Jun 2027 10:35:42.473            11.257          3980.500
       351   11 Jun 2027 10:35:52.920   11 Jun 2027 10:35:57.997             5.077           167.500
       352   11 Jun 2027 10:36:29.524   11 Jun 2027 10:36:30.152             0.628           314.000
       353   11 Jun 2027 10:36:32.424   11 Jun 2027 10:36:34.457             2.033           738.969
       354   11 Jun 2027 10:36:40.361   11 Jun 2027 10:36:46.030             5.669            56.156
       355   11 Jun 2027 10:37:03.530   11 Jun 2027 10:37:05.725             2.195           397.719
       356   12 Jun 2027 04:30:45.503   12 Jun 2027 04:33:55.009           189.506         94753.000
       357   12 Jun 2027 04:34:36.089   12 Jun 2027 04:34:51.146            15.057          7528.500
       358   12 Jun 2027 04:35:08.273   12 Jun 2027 04:35:25.517            17.244          8622.000
       359   12 Jun 2027 04:36:31.582   12 Jun 2027 04:36:39.278             7.696          3848.000
       360   12 Jun 2027 04:37:43.499   12 Jun 2027 04:37:47.975             4.476          2238.000
       361   12 Jun 2027 05:55:06.754   12 Jun 2027 05:55:39.240            32.486         16243.000
       362   12 Jun 2027 05:57:17.198   12 Jun 2027 05:57:20.165             2.967          1483.500
       363   12 Jun 2027 06:07:20.664   12 Jun 2027 06:07:52.248            31.584         15792.000
       364   12 Jun 2027 07:29:16.804   12 Jun 2027 07:29:33.643            16.839          8419.500
       365   12 Jun 2027 07:30:25.245   12 Jun 2027 07:30:31.001             5.756          2743.343
       366   12 Jun 2027 07:31:30.073   12 Jun 2027 07:31:30.073             0.000             0.000
       367   12 Jun 2027 07:31:59.117   12 Jun 2027 07:32:12.084            12.967          2633.406
       368   12 Jun 2027 07:32:52.675   12 Jun 2027 07:32:54.396             1.721           860.500
       369   12 Jun 2027 07:34:11.739   12 Jun 2027 07:34:18.650             6.911          2749.625
       370   12 Jun 2027 07:34:26.990   12 Jun 2027 07:34:30.314             3.324           107.469
       371   12 Jun 2027 09:04:04.935   12 Jun 2027 09:04:13.911             8.976          4029.844
       372   12 Jun 2027 09:04:50.541   12 Jun 2027 09:04:51.569             1.028           301.594
       373   12 Jun 2027 09:06:02.466   12 Jun 2027 09:06:02.618             0.152            76.000
       374   12 Jun 2027 09:08:08.151   12 Jun 2027 09:08:17.519             9.368          4222.156
       375   12 Jun 2027 09:09:41.215   12 Jun 2027 09:09:47.729             6.514          2383.469
       376   12 Jun 2027 09:11:10.236   12 Jun 2027 09:11:19.886             9.650          2578.344
       377   12 Jun 2027 09:11:53.516   12 Jun 2027 09:11:57.009             3.493           194.438
       378   12 Jun 2027 09:12:34.269   12 Jun 2027 09:12:38.985             4.716           944.281
       379   12 Jun 2027 09:12:45.959   12 Jun 2027 09:12:50.626             4.667            56.812
       380   12 Jun 2027 10:41:53.898   12 Jun 2027 10:42:07.268            13.370          5144.313
       381   12 Jun 2027 10:43:03.295   12 Jun 2027 10:43:05.971             2.676           537.625
       382   12 Jun 2027 10:43:31.999   12 Jun 2027 10:43:40.277             8.278            20.937
       383   12 Jun 2027 10:44:56.848   12 Jun 2027 10:44:56.848             0.000             0.000
       384   12 Jun 2027 10:45:48.843   12 Jun 2027 10:45:57.832             8.989          3940.125
       385   12 Jun 2027 10:46:17.881   12 Jun 2027 10:46:19.089             1.208           591.156
       386   12 Jun 2027 10:46:50.770   12 Jun 2027 10:46:55.821             5.051           884.031
       387   12 Jun 2027 10:47:23.694   12 Jun 2027 10:47:25.717             2.023           657.625
       388   12 Jun 2027 10:47:54.599   12 Jun 2027 10:47:59.169             4.570           813.938
       389   12 Jun 2027 10:48:32.663   12 Jun 2027 10:48:36.184             3.521           986.219
       390   13 Jun 2027 03:04:42.004   13 Jun 2027 03:06:21.528            99.524         49762.000
       391   13 Jun 2027 03:06:43.952   13 Jun 2027 03:06:54.181            10.229          5114.500
       392   13 Jun 2027 03:07:15.418   13 Jun 2027 03:07:56.617            41.199         20599.500
       393   13 Jun 2027 03:09:05.698   13 Jun 2027 03:09:12.007             6.309          3154.500
       394   13 Jun 2027 03:09:47.331   13 Jun 2027 03:09:49.729             2.398          1199.000
       395   13 Jun 2027 04:43:06.364   13 Jun 2027 04:43:46.811            40.447         20223.500
       396   13 Jun 2027 04:43:54.355   13 Jun 2027 04:45:19.931            85.576         42788.000
       397   13 Jun 2027 04:45:21.603   13 Jun 2027 04:45:44.060            22.457         11228.500
       398   13 Jun 2027 04:46:53.208   13 Jun 2027 04:46:58.502             5.294          2593.000
       399   13 Jun 2027 04:47:33.452   13 Jun 2027 04:47:38.078             4.626          1043.094
       400   13 Jun 2027 04:48:07.890   13 Jun 2027 04:48:08.342             0.452           190.094
       401   13 Jun 2027 06:07:06.145   13 Jun 2027 06:07:23.680            17.535          7863.594
       402   13 Jun 2027 06:08:05.734   13 Jun 2027 06:08:07.625             1.891           907.187
       403   13 Jun 2027 06:09:05.022   13 Jun 2027 06:09:09.409             4.387          1626.469
       404   13 Jun 2027 07:43:03.029   13 Jun 2027 07:43:19.775            16.746          8152.188
       405   13 Jun 2027 07:43:38.001   13 Jun 2027 07:43:43.074             5.073           509.813
       406   13 Jun 2027 07:44:37.346   13 Jun 2027 07:44:40.846             3.500          1601.531
       407   13 Jun 2027 09:16:53.703   13 Jun 2027 09:17:07.513            13.810          4701.469
       408   13 Jun 2027 09:18:17.798   13 Jun 2027 09:18:17.798             0.000             0.000
       409   13 Jun 2027 09:19:05.089   13 Jun 2027 09:19:11.076             5.987          1926.094
       410   13 Jun 2027 09:19:53.275   13 Jun 2027 09:19:58.855             5.580          1169.375
       411   13 Jun 2027 09:21:33.781   13 Jun 2027 09:21:39.996             6.215          2669.031
       412   13 Jun 2027 09:21:52.415   13 Jun 2027 09:21:52.767             0.352           173.156
       413   13 Jun 2027 09:22:15.478   13 Jun 2027 09:22:17.506             2.028           664.250
       414   13 Jun 2027 09:22:54.127   13 Jun 2027 09:22:57.061             2.934           774.000
       415   13 Jun 2027 09:23:23.541   13 Jun 2027 09:23:25.404             1.863           827.500
       416   13 Jun 2027 09:23:48.988   13 Jun 2027 09:23:56.766             7.778           541.750
       417   13 Jun 2027 09:24:42.285   13 Jun 2027 09:24:45.608             3.323          1422.469
       418   13 Jun 2027 10:54:00.568   13 Jun 2027 10:54:16.776            16.208          7904.281
       419   13 Jun 2027 10:54:42.849   13 Jun 2027 10:54:44.061             1.212            77.250
       420   13 Jun 2027 10:58:58.940   13 Jun 2027 10:59:13.013            14.073          7036.500
       421   13 Jun 2027 11:00:05.242   13 Jun 2027 11:00:10.499             5.257          2215.969
       422   13 Jun 2027 11:00:31.117   13 Jun 2027 11:00:33.182             2.065           584.437
       423   13 Jun 2027 11:00:43.904   13 Jun 2027 11:00:43.904             0.000             0.000
