uniorb/output/strategy_2/Camera/Camera_KinoSat_111903.txt

KinoSat_111903
-------------------------
    Access    *     Start Time (UTCG)     *     Stop Time (UTCG)  *   Duration (s) *   Data (Mbytes)
         1   01 Jun 2027 03:20:00.432   01 Jun 2027 03:23:21.395           200.963        100481.500
         2   01 Jun 2027 03:23:45.783   01 Jun 2027 03:23:50.926             5.143          2571.500
         3   01 Jun 2027 03:24:31.186   01 Jun 2027 03:24:38.181             6.995          3497.500
         4   01 Jun 2027 03:25:08.315   01 Jun 2027 03:25:31.094            22.779         11389.500
         5   01 Jun 2027 03:25:48.387   01 Jun 2027 03:25:57.846             9.459          4729.500
         6   01 Jun 2027 03:26:01.080   01 Jun 2027 03:26:04.584             3.504          1752.000
         7   01 Jun 2027 03:26:31.780   01 Jun 2027 03:26:32.143             0.363           181.500
         8   01 Jun 2027 04:58:08.455   01 Jun 2027 04:59:10.388            61.933         30966.500
         9   01 Jun 2027 04:59:16.876   01 Jun 2027 05:00:28.213            71.337         35668.500
        10   01 Jun 2027 05:00:53.947   01 Jun 2027 05:00:53.947             0.000             0.000
        11   01 Jun 2027 05:01:08.715   01 Jun 2027 05:01:52.438            43.723         21861.500
        12   01 Jun 2027 06:37:29.052   01 Jun 2027 06:39:02.639            93.587         46793.500
        13   01 Jun 2027 06:39:24.387   01 Jun 2027 06:39:46.042            21.655         10827.500
        14   01 Jun 2027 07:59:49.511   01 Jun 2027 08:02:31.093           161.582         80791.000
        15   01 Jun 2027 09:36:21.440   01 Jun 2027 09:36:39.703            18.263          9131.500
        16   01 Jun 2027 09:38:37.476   01 Jun 2027 09:38:49.340            11.864          5932.000
        17   01 Jun 2027 09:39:35.020   01 Jun 2027 09:39:55.000            19.980          9990.000
        18   01 Jun 2027 11:11:31.326   01 Jun 2027 11:11:54.896            23.570         11785.000
        19   01 Jun 2027 11:13:09.113   01 Jun 2027 11:14:19.931            70.818         35409.000
        20   01 Jun 2027 11:17:58.175   01 Jun 2027 11:18:07.675             9.500          4750.000
        21   02 Jun 2027 03:31:57.786   02 Jun 2027 03:35:10.550           192.764         96382.000
        22   02 Jun 2027 03:35:13.080   02 Jun 2027 03:35:41.285            28.205         14102.500
        23   02 Jun 2027 03:36:58.378   02 Jun 2027 03:36:58.378             0.000             0.000
        24   02 Jun 2027 03:38:42.152   02 Jun 2027 03:38:53.714            11.562          5781.000
        25   02 Jun 2027 05:11:15.141   02 Jun 2027 05:12:43.862            88.721         44360.500
        26   02 Jun 2027 05:12:57.277   02 Jun 2027 05:14:28.122            90.845         45422.500
        27   02 Jun 2027 05:14:31.610   02 Jun 2027 05:14:36.057             4.447          2223.500
        28   02 Jun 2027 05:18:07.263   02 Jun 2027 05:18:55.573            48.310         24155.000
        29   02 Jun 2027 05:19:11.894   02 Jun 2027 05:19:12.465             0.571           285.500
        30   02 Jun 2027 06:48:23.427   02 Jun 2027 06:49:03.043            39.616         19808.000
        31   02 Jun 2027 06:49:23.244   02 Jun 2027 06:50:10.128            46.884         23442.000
        32   02 Jun 2027 06:50:18.742   02 Jun 2027 06:50:37.788            19.046          9523.000
        33   02 Jun 2027 06:51:48.143   02 Jun 2027 06:51:52.952             4.809          2404.500
        34   02 Jun 2027 08:12:25.318   02 Jun 2027 08:13:47.622            82.304         39837.313
        35   02 Jun 2027 09:48:14.649   02 Jun 2027 09:48:32.173            17.524          8762.000
        36   02 Jun 2027 09:51:41.154   02 Jun 2027 09:51:41.154             0.000             0.000
        37   02 Jun 2027 11:25:03.719   02 Jun 2027 11:25:44.913            41.194         20597.000
        38   02 Jun 2027 11:25:47.788   02 Jun 2027 11:25:51.210             3.422          1407.969
        39   02 Jun 2027 11:28:34.467   02 Jun 2027 11:28:34.467             0.000             0.000
        40   02 Jun 2027 11:29:31.657   02 Jun 2027 11:29:45.152            13.495          6567.594
        41   02 Jun 2027 11:30:11.982   02 Jun 2027 11:30:15.388             3.406           799.094
        42   03 Jun 2027 03:44:38.171   03 Jun 2027 03:48:14.609           216.438        108219.000
        43   03 Jun 2027 03:48:32.481   03 Jun 2027 03:48:46.572            14.091          7045.500
        44   03 Jun 2027 05:23:19.250   03 Jun 2027 05:24:43.778            84.528         41708.562
        45   03 Jun 2027 05:24:59.453   03 Jun 2027 05:25:02.370             2.917            60.125
        46   03 Jun 2027 05:25:51.233   03 Jun 2027 05:25:56.399             5.166          1084.688
        47   03 Jun 2027 05:26:55.819   03 Jun 2027 05:27:00.055             4.236          1305.969
        48   03 Jun 2027 05:27:39.038   03 Jun 2027 05:27:42.816             3.778          1105.187
        49   03 Jun 2027 05:28:31.170   03 Jun 2027 05:28:31.170             0.000             0.000
        50   03 Jun 2027 05:29:23.317   03 Jun 2027 05:29:31.452             8.135          3140.656
        51   03 Jun 2027 05:29:46.454   03 Jun 2027 05:29:48.056             1.602           468.813
        52   03 Jun 2027 06:49:10.941   03 Jun 2027 06:49:22.707            11.766          5808.656
        53   03 Jun 2027 07:00:19.653   03 Jun 2027 07:00:28.385             8.732          3648.969
        54   03 Jun 2027 07:01:14.167   03 Jun 2027 07:01:18.669             4.502          1430.687
        55   03 Jun 2027 07:01:33.790   03 Jun 2027 07:01:34.852             1.062           312.812
        56   03 Jun 2027 07:01:58.587   03 Jun 2027 07:02:00.574             1.987           483.719
        57   03 Jun 2027 08:22:58.391   03 Jun 2027 08:23:12.815            14.424          7209.187
        58   03 Jun 2027 08:23:45.361   03 Jun 2027 08:23:49.638             4.277           829.469
        59   03 Jun 2027 08:25:11.377   03 Jun 2027 08:25:16.299             4.922          2292.250
        60   03 Jun 2027 08:26:36.069   03 Jun 2027 08:26:43.403             7.334          2210.906
        61   03 Jun 2027 10:02:17.745   03 Jun 2027 10:02:45.384            27.639         12979.031
        62   03 Jun 2027 11:34:44.208   03 Jun 2027 11:34:56.709            12.501          6250.500
        63   03 Jun 2027 11:35:31.852   03 Jun 2027 11:35:35.419             3.567          1698.656
        64   03 Jun 2027 11:36:37.156   03 Jun 2027 11:36:40.327             3.171           646.031
        65   03 Jun 2027 11:38:10.981   03 Jun 2027 11:38:11.070             0.089            44.500
        66   03 Jun 2027 11:39:06.794   03 Jun 2027 11:39:15.091             8.297          3632.094
        67   03 Jun 2027 11:39:53.392   03 Jun 2027 11:39:56.489             3.097          1170.594
        68   03 Jun 2027 11:40:27.300   03 Jun 2027 11:40:29.908             2.608           808.469
        69   03 Jun 2027 11:41:05.346   03 Jun 2027 11:41:14.086             8.740          1107.437
        70   03 Jun 2027 11:41:38.109   03 Jun 2027 11:41:39.490             1.381           690.500
        71   03 Jun 2027 11:41:52.418   03 Jun 2027 11:41:55.094             2.676           413.875
        72   03 Jun 2027 11:42:18.043   03 Jun 2027 11:42:18.043             0.000             0.000
        73   04 Jun 2027 03:56:44.226   04 Jun 2027 03:58:28.532           104.306         52153.000
        74   04 Jun 2027 03:59:35.159   04 Jun 2027 04:01:16.283           101.124         50562.000
        75   04 Jun 2027 04:01:20.001   04 Jun 2027 04:01:37.101            17.100          8550.000
        76   04 Jun 2027 05:35:48.546   04 Jun 2027 05:37:29.152           100.606         50300.062
        77   04 Jun 2027 05:38:30.193   04 Jun 2027 05:38:36.207             6.014          1678.469
        78   04 Jun 2027 05:38:54.096   04 Jun 2027 05:38:58.145             4.049           497.281
        79   04 Jun 2027 05:40:29.244   04 Jun 2027 05:40:35.647             6.403          2551.281
        80   04 Jun 2027 05:41:15.283   04 Jun 2027 05:41:17.074             1.791           363.531
        81   04 Jun 2027 05:41:46.785   04 Jun 2027 05:41:50.694             3.909           772.250
        82   04 Jun 2027 05:42:35.679   04 Jun 2027 05:42:37.596             1.917           585.406
        83   04 Jun 2027 07:00:40.620   04 Jun 2027 07:00:51.264            10.644          4992.906
        84   04 Jun 2027 07:01:25.532   04 Jun 2027 07:01:27.993             2.461          1008.000
        85   04 Jun 2027 07:12:22.976   04 Jun 2027 07:12:29.887             6.911          3184.781
        86   04 Jun 2027 08:34:36.522   04 Jun 2027 08:34:55.160            18.638          9319.000
        87   04 Jun 2027 08:35:17.738   04 Jun 2027 08:35:23.028             5.290          1723.125
        88   04 Jun 2027 08:36:37.217   04 Jun 2027 08:36:40.667             3.450          1440.219
        89   04 Jun 2027 08:37:29.538   04 Jun 2027 08:37:33.417             3.879           979.437
        90   04 Jun 2027 10:10:13.761   04 Jun 2027 10:10:13.761             0.000             0.000
        91   04 Jun 2027 10:10:35.719   04 Jun 2027 10:10:52.746            17.027          7083.406
        92   04 Jun 2027 10:12:43.077   04 Jun 2027 10:12:47.682             4.605          2178.438
        93   04 Jun 2027 10:13:01.231   04 Jun 2027 10:13:07.222             5.991           386.813
        94   04 Jun 2027 10:14:42.110   04 Jun 2027 10:14:42.566             0.456           228.000
        95   04 Jun 2027 11:53:22.017   04 Jun 2027 11:54:18.444            56.427         23117.313
        96   05 Jun 2027 04:09:04.695   05 Jun 2027 04:09:31.122            26.427         13213.500
        97   05 Jun 2027 04:09:35.988   05 Jun 2027 04:10:10.986            34.998         17499.000
        98   05 Jun 2027 04:10:14.421   05 Jun 2027 04:12:44.384           149.963         74981.500
        99   05 Jun 2027 04:13:15.337   05 Jun 2027 04:13:30.326            14.989          7494.500
       100   05 Jun 2027 04:13:49.291   05 Jun 2027 04:14:12.932            23.641         11820.500
       101   05 Jun 2027 04:14:59.528   05 Jun 2027 04:14:59.528             0.000             0.000
       102   05 Jun 2027 05:47:50.811   05 Jun 2027 05:49:32.020           101.209         50373.750
       103   05 Jun 2027 05:50:00.878   05 Jun 2027 05:50:01.018             0.140            70.000
       104   05 Jun 2027 05:50:20.570   05 Jun 2027 05:50:28.619             8.049          1324.906
       105   05 Jun 2027 05:51:15.451   05 Jun 2027 05:51:15.451             0.000             0.000
       106   05 Jun 2027 05:51:37.031   05 Jun 2027 05:51:39.863             2.832          1416.000
       107   05 Jun 2027 05:52:58.487   05 Jun 2027 05:53:04.868             6.381          3178.875
       108   05 Jun 2027 05:53:30.556   05 Jun 2027 05:53:32.426             1.870           503.281
       109   05 Jun 2027 05:54:48.748   05 Jun 2027 05:54:50.868             2.120          1060.000
       110   05 Jun 2027 07:12:11.311   05 Jun 2027 07:12:26.958            15.647          6134.937
       111   05 Jun 2027 07:12:35.109   05 Jun 2027 07:12:35.109             0.000             0.000
       112   05 Jun 2027 07:13:22.752   05 Jun 2027 07:13:26.423             3.671          1743.562
       113   05 Jun 2027 07:14:07.051   05 Jun 2027 07:14:09.150             2.099           895.656
       114   05 Jun 2027 07:24:25.352   05 Jun 2027 07:24:34.502             9.150          3399.375
       115   05 Jun 2027 08:46:20.285   05 Jun 2027 08:46:44.802            24.517         12153.563
       116   05 Jun 2027 08:48:23.453   05 Jun 2027 08:48:29.585             6.132          2673.312
       117   05 Jun 2027 08:49:27.806   05 Jun 2027 08:49:30.539             2.733           865.844
       118   05 Jun 2027 08:50:05.127   05 Jun 2027 08:50:09.767             4.640          1025.687
       119   05 Jun 2027 08:50:36.515   05 Jun 2027 08:50:38.351             1.836           220.438
       120   05 Jun 2027 08:51:03.433   05 Jun 2027 08:51:06.540             3.107           727.688
       121   05 Jun 2027 08:51:46.460   05 Jun 2027 08:51:46.460             0.000             0.000
       122   05 Jun 2027 10:21:08.210   05 Jun 2027 10:21:19.999            11.789          5806.844
       123   05 Jun 2027 10:23:06.815   05 Jun 2027 10:23:06.815             0.000             0.000
       124   05 Jun 2027 10:23:19.835   05 Jun 2027 10:23:25.435             5.600          2401.500
       125   06 Jun 2027 04:21:47.289   06 Jun 2027 04:23:24.549            97.260         48630.000
       126   06 Jun 2027 04:23:51.452   06 Jun 2027 04:25:19.617            88.165         44082.500
       127   06 Jun 2027 04:25:33.405   06 Jun 2027 04:25:38.296             4.891          2445.500
       128   06 Jun 2027 04:27:07.851   06 Jun 2027 04:27:16.935             9.084          4542.000
       129   06 Jun 2027 06:00:14.682   06 Jun 2027 06:02:14.113           119.431         59715.500
       130   06 Jun 2027 06:02:47.274   06 Jun 2027 06:02:55.690             8.416          3985.094
       131   06 Jun 2027 06:03:34.959   06 Jun 2027 06:03:34.959             0.000             0.000
       132   06 Jun 2027 06:03:57.315   06 Jun 2027 06:04:00.228             2.913          1363.312
       133   06 Jun 2027 06:05:03.250   06 Jun 2027 06:05:07.915             4.665          1965.594
       134   06 Jun 2027 07:24:10.364   06 Jun 2027 07:24:29.587            19.223          9005.719
       135   06 Jun 2027 07:25:10.944   06 Jun 2027 07:25:15.689             4.745          1062.125
       136   06 Jun 2027 07:26:23.626   06 Jun 2027 07:26:26.556             2.930          1465.000
       137   06 Jun 2027 09:00:07.055   06 Jun 2027 09:00:31.176            24.121         11939.906
       138   06 Jun 2027 09:00:40.245   06 Jun 2027 09:00:42.585             2.340           246.187
       139   06 Jun 2027 09:01:46.645   06 Jun 2027 09:01:51.920             5.275          2001.875
       140   06 Jun 2027 09:03:02.848   06 Jun 2027 09:03:06.414             3.566           983.062
       141   06 Jun 2027 10:35:35.065   06 Jun 2027 10:35:57.024            21.959         10151.563
       142   06 Jun 2027 10:36:12.467   06 Jun 2027 10:36:12.467             0.000             0.000
       143   06 Jun 2027 10:36:18.174   06 Jun 2027 10:36:20.776             2.602           652.969
       144   06 Jun 2027 10:40:01.954   06 Jun 2027 10:40:20.656            18.702          6439.500
       145   06 Jun 2027 10:41:13.339   06 Jun 2027 10:41:18.321             4.982          1435.719
       146   06 Jun 2027 10:42:00.401   06 Jun 2027 10:42:04.624             4.223          1315.000
       147   07 Jun 2027 03:00:26.280   07 Jun 2027 03:01:31.261            64.981         32490.500
       148   07 Jun 2027 03:01:35.684   07 Jun 2027 03:01:52.021            16.337          8168.500
       149   07 Jun 2027 04:34:32.128   07 Jun 2027 04:34:51.838            19.710          9855.000
       150   07 Jun 2027 04:35:07.135   07 Jun 2027 04:36:00.043            52.908         26454.000
       151   07 Jun 2027 04:36:01.838   07 Jun 2027 04:37:19.169            77.331         38665.500
       152   07 Jun 2027 04:37:44.870   07 Jun 2027 04:38:05.682            20.812         10406.000
       153   07 Jun 2027 04:39:45.102   07 Jun 2027 04:39:56.751            11.649          5824.500
       154   07 Jun 2027 04:40:16.021   07 Jun 2027 04:40:26.454            10.433          5216.500
       155   07 Jun 2027 06:12:40.264   07 Jun 2027 06:14:04.697            84.433         41164.062
       156   07 Jun 2027 06:14:04.756   07 Jun 2027 06:14:06.061             1.305             1.844
       157   07 Jun 2027 06:15:04.364   07 Jun 2027 06:15:05.758             1.394           697.000
       158   07 Jun 2027 06:15:10.588   07 Jun 2027 06:15:14.670             4.082           724.594
       159   07 Jun 2027 06:15:28.450   07 Jun 2027 06:15:30.275             1.825           179.625
       160   07 Jun 2027 06:15:59.542   07 Jun 2027 06:15:59.542             0.000             0.000
       161   07 Jun 2027 06:16:32.795   07 Jun 2027 06:16:40.509             7.714          1856.812
       162   07 Jun 2027 06:17:18.810   07 Jun 2027 06:17:21.408             2.598          1162.000
       163   07 Jun 2027 07:36:04.969   07 Jun 2027 07:36:30.022            25.053          8890.250
       164   07 Jun 2027 07:37:25.804   07 Jun 2027 07:37:29.754             3.950          1723.000
       165   07 Jun 2027 07:37:49.703   07 Jun 2027 07:37:49.845             0.142            71.000
       166   07 Jun 2027 07:37:51.447   07 Jun 2027 07:37:53.396             1.949           532.375
       167   07 Jun 2027 07:38:13.457   07 Jun 2027 07:38:14.787             1.330           390.125
       168   07 Jun 2027 09:12:29.070   07 Jun 2027 09:12:49.990            20.920         10460.000
       169   07 Jun 2027 09:13:32.247   07 Jun 2027 09:13:35.507             3.260          1503.375
       170   07 Jun 2027 09:14:27.855   07 Jun 2027 09:14:27.855             0.000             0.000
       171   07 Jun 2027 10:46:17.182   07 Jun 2027 10:46:31.914            14.732          5418.500
       172   07 Jun 2027 10:47:14.389   07 Jun 2027 10:47:16.732             2.343           879.375
       173   07 Jun 2027 10:48:26.107   07 Jun 2027 10:48:30.042             3.935           737.594
       174   07 Jun 2027 10:49:18.290   07 Jun 2027 10:49:36.156            17.866          1507.750
       175   07 Jun 2027 10:49:48.557   07 Jun 2027 10:49:52.293             3.736           319.625
       176   07 Jun 2027 10:50:08.713   07 Jun 2027 10:50:10.304             1.591           513.125
       177   07 Jun 2027 10:53:17.359   07 Jun 2027 10:53:34.325            16.966          5762.031
       178   07 Jun 2027 10:54:26.264   07 Jun 2027 10:54:28.100             1.836           918.000
       179   08 Jun 2027 03:08:17.000   08 Jun 2027 03:08:54.628            37.628         18814.000
       180   08 Jun 2027 03:09:00.322   08 Jun 2027 03:11:02.613           122.291         61145.500
       181   08 Jun 2027 03:12:14.711   08 Jun 2027 03:12:41.725            27.014         13507.000
       182   08 Jun 2027 03:13:37.430   08 Jun 2027 03:13:42.204             4.774          2387.000
       183   08 Jun 2027 03:13:59.560   08 Jun 2027 03:14:05.139             5.579          2789.500
       184   08 Jun 2027 03:15:37.905   08 Jun 2027 03:15:42.183             4.278          2139.000
       185   08 Jun 2027 04:47:44.400   08 Jun 2027 04:50:07.692           143.292         70830.688
       186   08 Jun 2027 04:51:47.062   08 Jun 2027 04:51:49.317             2.255          1127.500
       187   08 Jun 2027 06:24:58.447   08 Jun 2027 06:25:22.178            23.731         11476.000
       188   08 Jun 2027 06:25:38.448   08 Jun 2027 06:25:40.571             2.123           303.531
       189   08 Jun 2027 06:25:52.828   08 Jun 2027 06:25:53.483             0.655           327.500
       190   08 Jun 2027 06:27:03.070   08 Jun 2027 06:27:14.456            11.386          2230.125
       191   08 Jun 2027 06:28:34.049   08 Jun 2027 06:28:38.759             4.710          2333.000
       192   08 Jun 2027 07:47:52.337   08 Jun 2027 07:48:14.844            22.507          7784.469
       193   08 Jun 2027 07:50:18.619   08 Jun 2027 07:50:26.121             7.502          3646.188
       194   08 Jun 2027 09:24:32.554   08 Jun 2027 09:24:48.517            15.963          6998.812
       195   08 Jun 2027 09:27:13.066   08 Jun 2027 09:27:13.066             0.000             0.000
       196   08 Jun 2027 10:59:31.837   08 Jun 2027 10:59:54.620            22.783          9665.313
       197   08 Jun 2027 11:02:40.119   08 Jun 2027 11:02:49.737             9.618          4313.563
       198   08 Jun 2027 11:03:46.743   08 Jun 2027 11:03:56.459             9.716          1764.844
       199   08 Jun 2027 11:04:30.592   08 Jun 2027 11:04:34.568             3.976           662.719
       200   08 Jun 2027 11:05:07.374   08 Jun 2027 11:05:09.838             2.464           960.875
       201   08 Jun 2027 11:05:17.731   08 Jun 2027 11:05:20.908             3.177           246.656
       202   08 Jun 2027 11:05:26.155   08 Jun 2027 11:05:26.386             0.231            16.469
       203   08 Jun 2027 11:05:37.895   08 Jun 2027 11:05:38.145             0.250           125.000
       204   08 Jun 2027 11:06:21.601   08 Jun 2027 11:06:23.516             1.915           957.500
       205   09 Jun 2027 03:20:17.888   09 Jun 2027 03:23:24.594           186.706         93353.000
       206   09 Jun 2027 03:24:01.024   09 Jun 2027 03:24:04.044             3.020          1510.000
       207   09 Jun 2027 03:24:54.702   09 Jun 2027 03:25:22.896            28.194         14097.000
       208   09 Jun 2027 03:25:32.994   09 Jun 2027 03:25:32.994             0.000             0.000
       209   09 Jun 2027 03:26:22.495   09 Jun 2027 03:26:28.031             5.536          2768.000
       210   09 Jun 2027 03:26:36.757   09 Jun 2027 03:27:14.072            37.315         18657.500
       211   09 Jun 2027 04:58:26.198   09 Jun 2027 04:59:27.355            61.157         30578.500
       212   09 Jun 2027 04:59:34.071   09 Jun 2027 05:00:01.128            27.057         12602.343
       213   09 Jun 2027 05:00:30.176   09 Jun 2027 05:00:33.428             3.252           577.250
       214   09 Jun 2027 05:01:45.775   09 Jun 2027 05:01:49.662             3.887          1885.937
       215   09 Jun 2027 05:02:45.676   09 Jun 2027 05:02:47.553             1.877           938.500
       216   09 Jun 2027 05:03:13.771   09 Jun 2027 05:03:16.547             2.776          1377.125
       217   09 Jun 2027 05:03:50.963   09 Jun 2027 05:03:54.448             3.485           983.406
       218   09 Jun 2027 06:36:43.571   09 Jun 2027 06:36:55.253            11.682          5579.906
       219   09 Jun 2027 06:37:21.872   09 Jun 2027 06:37:23.731             1.859           804.500
       220   09 Jun 2027 06:38:08.118   09 Jun 2027 06:38:12.108             3.990          1294.969
       221   09 Jun 2027 06:39:20.701   09 Jun 2027 06:39:29.306             8.605          2036.250
       222   09 Jun 2027 08:00:06.940   09 Jun 2027 08:00:20.900            13.960          6419.719
       223   09 Jun 2027 08:01:35.045   09 Jun 2027 08:01:38.608             3.563          1778.813
       224   09 Jun 2027 08:02:51.879   09 Jun 2027 08:02:53.357             1.478           739.000
       225   09 Jun 2027 09:36:39.183   09 Jun 2027 09:36:52.450            13.267          4671.719
       226   09 Jun 2027 11:11:49.768   09 Jun 2027 11:12:11.275            21.507         10753.500
       227   09 Jun 2027 11:14:37.527   09 Jun 2027 11:14:48.303            10.776          4804.188
       228   09 Jun 2027 11:17:59.827   09 Jun 2027 11:17:59.827             0.000             0.000
       229   09 Jun 2027 11:18:15.184   09 Jun 2027 11:18:25.702            10.518          5259.000
       230   10 Jun 2027 03:32:15.174   10 Jun 2027 03:35:28.622           193.448         96724.000
       231   10 Jun 2027 03:36:02.367   10 Jun 2027 03:36:34.067            31.700         15850.000
       232   10 Jun 2027 03:37:02.818   10 Jun 2027 03:37:05.797             2.979          1489.500
       233   10 Jun 2027 03:37:12.910   10 Jun 2027 03:37:19.227             6.317          3158.500
       234   10 Jun 2027 03:37:26.979   10 Jun 2027 03:37:38.785            11.806          5903.000
       235   10 Jun 2027 03:38:48.027   10 Jun 2027 03:38:55.673             7.646          3823.000
       236   10 Jun 2027 05:11:32.925   10 Jun 2027 05:12:37.726            64.801         30786.094
       237   10 Jun 2027 05:13:11.763   10 Jun 2027 05:13:12.696             0.933           290.125
       238   10 Jun 2027 05:13:39.128   10 Jun 2027 05:13:40.194             1.066           533.000
       239   10 Jun 2027 05:14:09.472   10 Jun 2027 05:14:11.899             2.427          1032.125
       240   10 Jun 2027 05:15:21.336   10 Jun 2027 05:15:26.682             5.346          2169.906
       241   10 Jun 2027 05:18:02.303   10 Jun 2027 05:18:08.913             6.610          3133.000
       242   10 Jun 2027 05:18:23.393   10 Jun 2027 05:18:25.296             1.903           263.313
       243   10 Jun 2027 05:19:29.417   10 Jun 2027 05:19:29.787             0.370           185.000
       244   10 Jun 2027 06:48:40.545   10 Jun 2027 06:48:52.142            11.597          5655.156
       245   10 Jun 2027 06:49:00.466   10 Jun 2027 06:49:01.296             0.830           260.125
       246   10 Jun 2027 06:50:16.648   10 Jun 2027 06:50:25.568             8.920          2320.688
       247   10 Jun 2027 06:50:33.402   10 Jun 2027 06:50:37.118             3.716           244.812
       248   10 Jun 2027 06:51:22.044   10 Jun 2027 06:51:22.044             0.000             0.000
       249   10 Jun 2027 06:51:31.185   10 Jun 2027 06:51:35.761             4.576          1163.844
       250   10 Jun 2027 06:52:01.986   10 Jun 2027 06:52:03.884             1.898           673.094
       251   10 Jun 2027 08:12:08.556   10 Jun 2027 08:12:24.530            15.974          7046.281
       252   10 Jun 2027 08:12:40.027   10 Jun 2027 08:12:40.924             0.897           136.750
       253   10 Jun 2027 08:13:13.881   10 Jun 2027 08:13:15.928             2.047            83.125
       254   10 Jun 2027 08:14:48.778   10 Jun 2027 08:14:54.736             5.958          2505.750
       255   10 Jun 2027 09:50:08.201   10 Jun 2027 09:50:32.492            24.291         10511.094
       256   10 Jun 2027 09:50:54.890   10 Jun 2027 09:50:56.862             1.972           168.031
       257   10 Jun 2027 11:25:24.378   10 Jun 2027 11:25:53.505            29.127         14068.844
       258   10 Jun 2027 11:29:46.374   10 Jun 2027 11:29:46.374             0.000             0.000
       259   10 Jun 2027 11:30:06.454   10 Jun 2027 11:30:21.127            14.673          6960.562
       260   11 Jun 2027 03:44:56.503   11 Jun 2027 03:48:10.991           194.488         97244.000
       261   11 Jun 2027 03:48:33.988   11 Jun 2027 03:49:01.111            27.123         13561.500
       262   11 Jun 2027 03:49:14.918   11 Jun 2027 03:49:36.667            21.749         10874.500
       263   11 Jun 2027 03:50:09.073   11 Jun 2027 03:50:14.674             5.601          2800.500
       264   11 Jun 2027 05:23:37.157   11 Jun 2027 05:24:58.422            81.265         37859.875
       265   11 Jun 2027 05:26:01.614   11 Jun 2027 05:26:05.569             3.955          1425.750
       266   11 Jun 2027 05:26:14.025   11 Jun 2027 05:26:18.769             4.744            33.250
       267   11 Jun 2027 05:26:45.348   11 Jun 2027 05:26:46.130             0.782           314.812
       268   11 Jun 2027 05:27:20.924   11 Jun 2027 05:27:23.839             2.915           573.437
       269   11 Jun 2027 05:28:12.722   11 Jun 2027 05:28:14.521             1.799           899.500
       270   11 Jun 2027 05:28:23.278   11 Jun 2027 05:28:25.630             2.352           830.219
       271   11 Jun 2027 05:28:59.245   11 Jun 2027 05:29:01.564             2.319           587.906
       272   11 Jun 2027 05:30:00.640   11 Jun 2027 05:30:04.753             4.113          1131.219
       273   11 Jun 2027 05:30:39.722   11 Jun 2027 05:30:43.116             3.394          1054.687
       274   11 Jun 2027 06:49:24.474   11 Jun 2027 06:49:35.205            10.731          5079.313
       275   11 Jun 2027 07:00:37.389   11 Jun 2027 07:00:45.374             7.985          3131.375
       276   11 Jun 2027 07:01:44.660   11 Jun 2027 07:01:48.411             3.751          1852.688
       277   11 Jun 2027 07:02:14.020   11 Jun 2027 07:02:16.188             2.168           792.937
       278   11 Jun 2027 08:23:14.218   11 Jun 2027 08:23:29.103            14.885          6877.437
       279   11 Jun 2027 08:24:02.765   11 Jun 2027 08:24:05.183             2.418           839.000
       280   11 Jun 2027 08:26:42.377   11 Jun 2027 08:26:52.608            10.231          4547.375
       281   11 Jun 2027 08:26:58.393   11 Jun 2027 08:27:00.906             2.513           180.781
       282   11 Jun 2027 10:02:38.678   11 Jun 2027 10:03:00.612            21.934         10967.000
       283   11 Jun 2027 11:35:01.449   11 Jun 2027 11:35:27.451            26.002         11096.656
       284   11 Jun 2027 11:41:54.542   11 Jun 2027 11:42:20.570            26.028         11862.094
       285   11 Jun 2027 11:42:32.704   11 Jun 2027 11:42:32.704             0.000             0.000
       286   12 Jun 2027 03:57:02.601   12 Jun 2027 03:59:13.057           130.456         65228.000
       287   12 Jun 2027 03:59:49.733   12 Jun 2027 04:01:31.035           101.302         50651.000
       288   12 Jun 2027 05:36:07.367   12 Jun 2027 05:37:37.817            90.450         45214.813
       289   12 Jun 2027 05:37:40.925   12 Jun 2027 05:37:41.262             0.337            97.125
       290   12 Jun 2027 05:38:16.624   12 Jun 2027 05:38:16.667             0.043            21.500
       291   12 Jun 2027 05:38:40.560   12 Jun 2027 05:38:44.835             4.275          1091.344
       292   12 Jun 2027 05:39:22.973   12 Jun 2027 05:39:28.532             5.559          1191.812
       293   12 Jun 2027 05:39:34.240   12 Jun 2027 05:39:35.659             1.419            57.125
       294   12 Jun 2027 05:41:22.465   12 Jun 2027 05:41:25.813             3.348          1674.000
       295   12 Jun 2027 05:42:54.583   12 Jun 2027 05:43:04.761            10.178          4347.406
       296   12 Jun 2027 07:00:57.701   12 Jun 2027 07:01:10.421            12.720          5844.469
       297   12 Jun 2027 07:01:41.676   12 Jun 2027 07:01:44.156             2.480           958.469
       298   12 Jun 2027 07:12:38.050   12 Jun 2027 07:12:44.706             6.656          3233.437
       299   12 Jun 2027 07:13:36.734   12 Jun 2027 07:13:39.236             2.502          1242.844
       300   12 Jun 2027 08:34:56.456   12 Jun 2027 08:35:18.967            22.511         10738.969
       301   12 Jun 2027 08:35:37.090   12 Jun 2027 08:35:38.784             1.694           252.875
       302   12 Jun 2027 08:37:28.482   12 Jun 2027 08:37:35.421             6.939          3210.375
       303   12 Jun 2027 08:39:01.484   12 Jun 2027 08:39:08.096             6.612          2323.750
       304   12 Jun 2027 10:10:29.968   12 Jun 2027 10:10:29.968             0.000             0.000
       305   12 Jun 2027 10:10:55.384   12 Jun 2027 10:11:15.320            19.936          8020.219
       306   12 Jun 2027 10:13:00.295   12 Jun 2027 10:13:04.943             4.648          2129.875
       307   12 Jun 2027 10:13:21.454   12 Jun 2027 10:13:25.087             3.633           515.969
       308   12 Jun 2027 10:15:00.079   12 Jun 2027 10:15:10.973            10.894          2563.312
       309   12 Jun 2027 11:53:37.934   12 Jun 2027 11:54:20.098            42.164         20236.781
       310   12 Jun 2027 11:54:34.364   12 Jun 2027 11:54:38.073             3.709           445.812
       311   13 Jun 2027 04:09:22.813   13 Jun 2027 04:10:28.514            65.701         32850.500
       312   13 Jun 2027 04:10:32.438   13 Jun 2027 04:11:27.231            54.793         27396.500
       313   13 Jun 2027 04:11:28.524   13 Jun 2027 04:13:28.432           119.908         59954.000
       314   13 Jun 2027 04:13:57.844   13 Jun 2027 04:14:09.669            11.825          5912.500
       315   13 Jun 2027 05:48:09.625   13 Jun 2027 05:49:40.107            90.482         44820.313
       316   13 Jun 2027 05:50:24.269   13 Jun 2027 05:50:26.837             2.568          1254.469
       317   13 Jun 2027 05:51:51.811   13 Jun 2027 05:51:56.177             4.366          2183.000
       318   13 Jun 2027 05:53:13.228   13 Jun 2027 05:53:18.324             5.096          2471.281
       319   13 Jun 2027 05:53:37.306   13 Jun 2027 05:53:37.306             0.000             0.000
       320   13 Jun 2027 05:54:04.323   13 Jun 2027 05:54:04.323             0.000             0.000
       321   13 Jun 2027 05:55:07.484   13 Jun 2027 05:55:09.227             1.743           871.500
       322   13 Jun 2027 07:12:30.004   13 Jun 2027 07:12:48.105            18.101          8670.813
       323   13 Jun 2027 07:13:40.319   13 Jun 2027 07:13:44.338             4.019          1489.563
       324   13 Jun 2027 07:14:29.168   13 Jun 2027 07:14:29.168             0.000             0.000
       325   13 Jun 2027 07:24:46.200   13 Jun 2027 07:24:53.036             6.836          2829.594
       326   13 Jun 2027 08:46:36.459   13 Jun 2027 08:46:57.288            20.829          8875.437
       327   13 Jun 2027 08:48:39.737   13 Jun 2027 08:48:45.038             5.301          2070.531
       328   13 Jun 2027 08:49:46.121   13 Jun 2027 08:49:51.455             5.334           888.750
       329   13 Jun 2027 08:50:50.250   13 Jun 2027 08:50:50.250             0.000             0.000
       330   13 Jun 2027 08:51:36.815   13 Jun 2027 08:51:44.506             7.691          3207.312
       331   13 Jun 2027 10:22:18.959   13 Jun 2027 10:22:40.478            21.519          6736.906
       332   13 Jun 2027 10:24:02.897   13 Jun 2027 10:24:02.897             0.000             0.000
       333   13 Jun 2027 10:24:57.245   13 Jun 2027 10:24:57.269             0.024            12.000
       334   13 Jun 2027 10:30:21.028   13 Jun 2027 10:30:21.696             0.668           334.000
