uniorb/output/strategy_2/Camera/Camera_KinoSat_110809.txt

KinoSat_110809
-------------------------
    Access    *     Start Time (UTCG)     *     Stop Time (UTCG)  *   Duration (s) *   Data (Mbytes)
         1   01 Jun 2027 04:33:07.268   01 Jun 2027 04:36:30.243           202.975        101487.500
         2   01 Jun 2027 06:05:17.589   01 Jun 2027 06:05:26.601             9.012          4506.000
         3   01 Jun 2027 06:07:14.202   01 Jun 2027 06:09:41.910           147.708         73854.000
         4   01 Jun 2027 06:10:52.104   01 Jun 2027 06:11:11.869            19.765          9882.500
         5   01 Jun 2027 06:11:13.121   01 Jun 2027 06:11:28.208            15.087          7543.500
         6   01 Jun 2027 06:11:53.957   01 Jun 2027 06:11:54.788             0.831           415.500
         7   01 Jun 2027 06:12:28.728   01 Jun 2027 06:12:34.209             5.481          2740.500
         8   01 Jun 2027 06:13:20.622   01 Jun 2027 06:13:22.381             1.759           879.500
         9   01 Jun 2027 06:14:07.992   01 Jun 2027 06:14:32.247            24.255         12127.500
        10   01 Jun 2027 07:44:12.299   01 Jun 2027 07:46:40.625           148.326         74163.000
        11   01 Jun 2027 07:46:50.186   01 Jun 2027 07:47:04.819            14.633          7316.500
        12   01 Jun 2027 07:47:16.953   01 Jun 2027 07:47:20.810             3.857          1928.500
        13   01 Jun 2027 07:49:51.886   01 Jun 2027 07:49:57.850             5.964          2982.000
        14   01 Jun 2027 09:21:30.272   01 Jun 2027 09:21:48.551            18.279          9139.500
        15   01 Jun 2027 09:21:59.099   01 Jun 2027 09:23:36.582            97.483         48741.500
        16   01 Jun 2027 09:25:41.871   01 Jun 2027 09:26:09.664            27.793         13896.500
        17   01 Jun 2027 10:57:57.557   01 Jun 2027 11:00:00.922           123.365         61682.500
        18   01 Jun 2027 11:01:32.250   01 Jun 2027 11:01:46.891            14.641          7320.500
        19   01 Jun 2027 11:02:25.194   01 Jun 2027 11:02:36.112            10.918          5459.000
        20   02 Jun 2027 03:08:48.376   02 Jun 2027 03:09:38.978            50.602         25301.000
        21   02 Jun 2027 03:10:08.825   02 Jun 2027 03:10:19.278            10.453          5226.500
        22   02 Jun 2027 04:46:01.397   02 Jun 2027 04:48:55.237           173.840         86920.000
        23   02 Jun 2027 06:20:27.295   02 Jun 2027 06:22:06.719            99.424         49712.000
        24   02 Jun 2027 06:22:39.749   02 Jun 2027 06:23:09.475            29.726         14863.000
        25   02 Jun 2027 06:23:14.478   02 Jun 2027 06:23:43.962            29.484         14742.000
        26   02 Jun 2027 06:25:14.919   02 Jun 2027 06:25:43.625            28.706         14353.000
        27   02 Jun 2027 06:26:42.809   02 Jun 2027 06:26:48.948             6.139          3069.500
        28   02 Jun 2027 06:26:52.693   02 Jun 2027 06:27:03.508            10.815          5407.500
        29   02 Jun 2027 07:56:46.287   02 Jun 2027 07:59:03.084           136.797         68398.500
        30   02 Jun 2027 07:59:20.293   02 Jun 2027 07:59:28.214             7.921          3960.500
        31   02 Jun 2027 07:59:29.139   02 Jun 2027 07:59:38.920             9.781          4890.500
        32   02 Jun 2027 08:01:39.064   02 Jun 2027 08:01:51.499            12.435          5816.156
        33   02 Jun 2027 08:02:06.656   02 Jun 2027 08:02:08.986             2.330           333.937
        34   02 Jun 2027 08:02:36.238   02 Jun 2027 08:02:37.682             1.444           579.594
        35   02 Jun 2027 08:02:54.813   02 Jun 2027 08:02:56.403             1.590           535.344
        36   02 Jun 2027 09:34:09.748   02 Jun 2027 09:34:38.116            28.368         13945.438
        37   02 Jun 2027 09:35:56.913   02 Jun 2027 09:36:01.460             4.547          2239.750
        38   02 Jun 2027 09:36:37.000   02 Jun 2027 09:36:39.526             2.526          1110.625
        39   02 Jun 2027 09:37:00.778   02 Jun 2027 09:37:05.338             4.560           610.094
        40   02 Jun 2027 09:37:55.593   02 Jun 2027 09:38:00.353             4.760          1287.719
        41   02 Jun 2027 09:38:05.559   02 Jun 2027 09:38:07.303             1.744            89.625
        42   02 Jun 2027 09:38:13.547   02 Jun 2027 09:38:14.392             0.845            20.844
        43   02 Jun 2027 09:38:31.947   02 Jun 2027 09:38:36.030             4.083           548.594
        44   02 Jun 2027 11:10:21.305   02 Jun 2027 11:10:36.195            14.890          6868.062
        45   02 Jun 2027 11:11:08.818   02 Jun 2027 11:11:10.491             1.673           786.469
        46   02 Jun 2027 11:11:54.330   02 Jun 2027 11:12:00.076             5.746          1339.281
        47   02 Jun 2027 11:12:52.605   02 Jun 2027 11:12:57.142             4.537          1641.531
        48   02 Jun 2027 11:13:39.077   02 Jun 2027 11:13:40.575             1.498           749.000
        49   02 Jun 2027 11:13:48.060   02 Jun 2027 11:13:51.002             2.942           456.656
        50   02 Jun 2027 11:14:12.046   02 Jun 2027 11:14:17.996             5.950           649.750
        51   03 Jun 2027 03:20:49.487   03 Jun 2027 03:21:08.187            18.700          9350.000
        52   03 Jun 2027 03:21:15.528   03 Jun 2027 03:21:25.394             9.866          4933.000
        53   03 Jun 2027 03:21:37.774   03 Jun 2027 03:21:53.466            15.692          7846.000
        54   03 Jun 2027 03:22:15.640   03 Jun 2027 03:23:07.510            51.870         25935.000
        55   03 Jun 2027 03:23:08.419   03 Jun 2027 03:23:08.419             0.000             0.000
        56   03 Jun 2027 03:23:25.097   03 Jun 2027 03:23:41.419            16.322          8161.000
        57   03 Jun 2027 04:57:17.212   03 Jun 2027 04:57:57.689            40.477         20238.500
        58   03 Jun 2027 04:58:24.431   03 Jun 2027 05:00:06.905           102.474         51237.000
        59   03 Jun 2027 06:32:30.019   03 Jun 2027 06:33:28.406            58.387         27587.875
        60   03 Jun 2027 06:33:34.507   03 Jun 2027 06:33:40.752             6.245           190.656
        61   03 Jun 2027 06:34:48.383   03 Jun 2027 06:34:51.203             2.820          1410.000
        62   03 Jun 2027 06:35:13.530   03 Jun 2027 06:35:16.079             2.549          1088.250
        63   03 Jun 2027 06:35:21.920   03 Jun 2027 06:35:21.920             0.000             0.000
        64   03 Jun 2027 06:37:02.435   03 Jun 2027 06:37:13.540            11.105          3323.625
        65   03 Jun 2027 06:38:10.818   03 Jun 2027 06:38:15.836             5.018          1651.406
        66   03 Jun 2027 06:38:40.397   03 Jun 2027 06:38:43.521             3.124           642.250
        67   03 Jun 2027 06:38:52.944   03 Jun 2027 06:38:54.136             1.192           294.469
        68   03 Jun 2027 08:08:25.242   03 Jun 2027 08:08:47.920            22.678         11141.156
        69   03 Jun 2027 08:10:24.746   03 Jun 2027 08:10:29.544             4.798          1667.750
        70   03 Jun 2027 08:10:51.664   03 Jun 2027 08:10:55.712             4.048           489.031
        71   03 Jun 2027 08:12:43.588   03 Jun 2027 08:12:55.513            11.925          2930.094
        72   03 Jun 2027 08:13:49.737   03 Jun 2027 08:13:52.527             2.790          1266.531
        73   03 Jun 2027 08:13:55.761   03 Jun 2027 08:13:57.387             1.626           101.063
        74   03 Jun 2027 08:14:05.649   03 Jun 2027 08:14:06.881             1.232           245.625
        75   03 Jun 2027 09:46:24.246   03 Jun 2027 09:46:51.063            26.817          9997.656
        76   03 Jun 2027 09:48:05.068   03 Jun 2027 09:48:08.467             3.399          1673.781
        77   03 Jun 2027 09:48:37.761   03 Jun 2027 09:48:39.477             1.716           858.000
        78   03 Jun 2027 09:49:18.295   03 Jun 2027 09:49:20.957             2.662          1270.500
        79   03 Jun 2027 09:49:26.383   03 Jun 2027 09:49:28.909             2.526           150.156
        80   03 Jun 2027 09:49:44.228   03 Jun 2027 09:49:44.928             0.700           124.125
        81   03 Jun 2027 09:50:12.234   03 Jun 2027 09:50:15.162             2.928           767.531
        82   03 Jun 2027 11:22:15.871   03 Jun 2027 11:22:30.208            14.337          7168.062
        83   03 Jun 2027 11:22:37.741   03 Jun 2027 11:22:43.710             5.969           136.437
        84   03 Jun 2027 11:23:06.314   03 Jun 2027 11:23:10.358             4.044           391.406
        85   03 Jun 2027 11:24:09.722   03 Jun 2027 11:24:17.759             8.037          1825.094
        86   03 Jun 2027 11:24:32.496   03 Jun 2027 11:24:37.290             4.794            52.031
        87   03 Jun 2027 11:25:14.920   03 Jun 2027 11:25:17.383             2.463          1012.062
        88   03 Jun 2027 11:25:53.334   03 Jun 2027 11:25:53.696             0.362           181.000
        89   03 Jun 2027 11:26:04.932   03 Jun 2027 11:26:05.774             0.842           421.000
        90   03 Jun 2027 11:27:03.188   03 Jun 2027 11:27:13.872            10.684          2399.719
        91   04 Jun 2027 03:33:15.763   04 Jun 2027 03:34:12.826            57.063         28531.500
        92   04 Jun 2027 03:35:27.771   04 Jun 2027 03:35:46.338            18.567          9283.500
        93   04 Jun 2027 05:09:01.031   04 Jun 2027 05:12:12.622           191.591         95795.500
        94   04 Jun 2027 05:13:19.123   04 Jun 2027 05:13:22.142             3.019          1509.500
        95   04 Jun 2027 06:43:44.927   04 Jun 2027 06:44:26.283            41.356         20642.094
        96   04 Jun 2027 06:45:15.205   04 Jun 2027 06:45:18.103             2.898          1370.750
        97   04 Jun 2027 06:46:02.331   04 Jun 2027 06:46:04.357             2.026           959.906
        98   04 Jun 2027 06:46:59.106   04 Jun 2027 06:47:02.120             3.014          1386.844
        99   04 Jun 2027 06:47:58.875   04 Jun 2027 06:48:02.305             3.430          1327.625
       100   04 Jun 2027 06:49:20.934   04 Jun 2027 06:49:25.491             4.557          1655.250
       101   04 Jun 2027 06:50:20.424   04 Jun 2027 06:50:24.825             4.401          1071.719
       102   04 Jun 2027 06:50:28.884   04 Jun 2027 06:50:28.884             0.000             0.000
       103   04 Jun 2027 06:50:56.552   04 Jun 2027 06:50:59.487             2.935           991.469
       104   04 Jun 2027 08:20:33.859   04 Jun 2027 08:21:00.235            26.376         12843.938
       105   04 Jun 2027 08:21:56.413   04 Jun 2027 08:22:01.189             4.776           725.750
       106   04 Jun 2027 08:22:23.147   04 Jun 2027 08:22:24.063             0.916           129.812
       107   04 Jun 2027 08:23:10.794   04 Jun 2027 08:23:12.882             2.088          1044.000
       108   04 Jun 2027 08:23:41.056   04 Jun 2027 08:23:43.659             2.603          1142.375
       109   04 Jun 2027 08:24:43.370   04 Jun 2027 08:24:46.364             2.994          1059.625
       110   04 Jun 2027 08:25:31.878   04 Jun 2027 08:25:34.798             2.920          1417.000
       111   04 Jun 2027 08:25:56.513   04 Jun 2027 08:25:59.529             3.016           636.094
       112   04 Jun 2027 08:26:05.047   04 Jun 2027 08:26:06.890             1.843           172.438
       113   04 Jun 2027 09:58:47.015   04 Jun 2027 09:59:06.724            19.709          7814.000
       114   04 Jun 2027 09:59:35.575   04 Jun 2027 09:59:41.275             5.700           885.594
       115   04 Jun 2027 09:59:58.274   04 Jun 2027 09:59:59.209             0.935           137.156
       116   04 Jun 2027 10:00:37.835   04 Jun 2027 10:00:39.421             1.586           720.500
       117   04 Jun 2027 10:01:15.786   04 Jun 2027 10:01:21.414             5.628           693.219
       118   04 Jun 2027 10:02:08.331   04 Jun 2027 10:02:12.346             4.015          1101.687
       119   04 Jun 2027 11:32:04.730   04 Jun 2027 11:32:24.847            20.117          7817.531
       120   04 Jun 2027 11:33:34.060   04 Jun 2027 11:33:37.127             3.067          1533.500
       121   04 Jun 2027 11:33:40.366   04 Jun 2027 11:33:41.498             1.132           134.375
       122   04 Jun 2027 11:34:22.023   04 Jun 2027 11:34:22.023             0.000             0.000
       123   04 Jun 2027 11:34:29.778   04 Jun 2027 11:34:36.819             7.041          1010.687
       124   04 Jun 2027 11:35:04.382   04 Jun 2027 11:35:05.810             1.428           543.625
       125   04 Jun 2027 11:35:13.030   04 Jun 2027 11:35:18.537             5.507           158.000
       126   04 Jun 2027 11:35:49.800   04 Jun 2027 11:35:51.066             1.266           598.500
       127   04 Jun 2027 11:36:51.970   04 Jun 2027 11:36:55.543             3.573          1620.312
       128   04 Jun 2027 11:38:09.803   04 Jun 2027 11:38:14.591             4.788          2320.625
       129   04 Jun 2027 11:39:07.934   04 Jun 2027 11:39:14.741             6.807          1250.312
       130   05 Jun 2027 03:43:51.140   05 Jun 2027 03:44:51.999            60.859         30429.500
       131   05 Jun 2027 03:45:43.860   05 Jun 2027 03:45:43.921             0.061            30.500
       132   05 Jun 2027 03:46:13.751   05 Jun 2027 03:46:16.475             2.724          1362.000
       133   05 Jun 2027 03:46:25.698   05 Jun 2027 03:47:10.304            44.606         22303.000
       134   05 Jun 2027 03:47:18.807   05 Jun 2027 03:47:47.281            28.474         14237.000
       135   05 Jun 2027 03:47:51.918   05 Jun 2027 03:47:51.918             0.000             0.000
       136   05 Jun 2027 05:18:54.544   05 Jun 2027 05:20:13.331            78.787         39393.500
       137   05 Jun 2027 05:20:45.108   05 Jun 2027 05:21:28.515            43.407         21703.500
       138   05 Jun 2027 05:21:36.491   05 Jun 2027 05:21:57.852            21.361         10680.500
       139   05 Jun 2027 05:23:29.200   05 Jun 2027 05:23:30.627             1.427           713.500
       140   05 Jun 2027 05:23:42.893   05 Jun 2027 05:24:01.261            18.368          9184.000
       141   05 Jun 2027 06:56:53.529   05 Jun 2027 06:57:38.873            45.344         22406.469
       142   05 Jun 2027 06:58:15.514   05 Jun 2027 06:58:17.192             1.678           347.000
       143   05 Jun 2027 06:59:02.143   05 Jun 2027 06:59:04.327             2.184          1067.000
       144   05 Jun 2027 06:59:51.652   05 Jun 2027 06:59:54.605             2.953          1137.094
       145   05 Jun 2027 07:00:48.114   05 Jun 2027 07:00:51.092             2.978          1265.656
       146   05 Jun 2027 07:00:57.882   05 Jun 2027 07:01:00.868             2.986           212.188
       147   05 Jun 2027 07:01:23.762   05 Jun 2027 07:01:27.146             3.384           715.438
       148   05 Jun 2027 07:02:58.212   05 Jun 2027 07:03:04.757             6.545          2652.281
       149   05 Jun 2027 08:32:51.148   05 Jun 2027 08:33:16.163            25.015         12212.500
       150   05 Jun 2027 08:33:59.268   05 Jun 2027 08:34:00.568             1.300           357.906
       151   05 Jun 2027 08:34:18.208   05 Jun 2027 08:34:22.008             3.800           516.750
       152   05 Jun 2027 08:34:39.241   05 Jun 2027 08:34:41.860             2.619           538.531
       153   05 Jun 2027 08:35:36.069   05 Jun 2027 08:35:39.127             3.058           937.688
       154   05 Jun 2027 08:35:55.339   05 Jun 2027 08:36:01.343             6.004           411.094
       155   05 Jun 2027 08:36:11.645   05 Jun 2027 08:36:14.105             2.460            38.906
       156   05 Jun 2027 08:36:40.356   05 Jun 2027 08:36:44.051             3.695           715.031
       157   05 Jun 2027 08:36:48.301   05 Jun 2027 08:36:51.937             3.636            15.656
       158   05 Jun 2027 08:37:00.794   05 Jun 2027 08:37:03.472             2.678           276.781
       159   05 Jun 2027 08:37:13.889   05 Jun 2027 08:37:18.174             4.285           214.781
       160   05 Jun 2027 08:38:03.847   05 Jun 2027 08:38:09.427             5.580          1241.563
       161   05 Jun 2027 08:38:27.595   05 Jun 2027 08:38:29.520             1.925           567.750
       162   05 Jun 2027 10:10:46.291   05 Jun 2027 10:11:04.879            18.588          8791.437
       163   05 Jun 2027 10:12:01.244   05 Jun 2027 10:12:04.709             3.465          1720.313
       164   05 Jun 2027 10:12:25.495   05 Jun 2027 10:12:26.759             1.264            29.406
       165   05 Jun 2027 10:12:53.954   05 Jun 2027 10:12:54.658             0.704           125.969
       166   05 Jun 2027 10:13:26.997   05 Jun 2027 10:13:26.997             0.000             0.000
       167   05 Jun 2027 10:14:10.871   05 Jun 2027 10:14:18.489             7.618          2343.125
       168   05 Jun 2027 10:14:22.773   05 Jun 2027 10:14:24.313             1.540            32.063
       169   05 Jun 2027 10:14:25.585   05 Jun 2027 10:14:27.480             1.895            39.750
       170   05 Jun 2027 10:14:36.883   05 Jun 2027 10:14:37.903             1.020           278.563
       171   05 Jun 2027 11:44:05.691   05 Jun 2027 11:44:17.468            11.777          5807.094
       172   05 Jun 2027 11:45:35.997   05 Jun 2027 11:45:40.088             4.091          1576.000
       173   05 Jun 2027 11:46:07.056   05 Jun 2027 11:46:09.302             2.246           842.750
       174   05 Jun 2027 11:46:30.798   05 Jun 2027 11:46:30.798             0.000             0.000
       175   05 Jun 2027 11:46:41.296   05 Jun 2027 11:46:45.670             4.374           939.250
       176   05 Jun 2027 11:47:51.797   05 Jun 2027 11:48:04.511            12.714          1674.625
       177   05 Jun 2027 11:49:09.570   05 Jun 2027 11:49:15.497             5.927          2025.625
       178   05 Jun 2027 11:50:17.218   05 Jun 2027 11:50:17.218             0.000             0.000
       179   05 Jun 2027 11:50:27.606   05 Jun 2027 11:50:34.500             6.894          1652.313
       180   06 Jun 2027 03:55:15.532   06 Jun 2027 03:56:05.319            49.787         24893.500
       181   06 Jun 2027 03:57:33.938   06 Jun 2027 03:57:39.148             5.210          2605.000
       182   06 Jun 2027 03:58:04.817   06 Jun 2027 03:58:15.865            11.048          5524.000
       183   06 Jun 2027 03:58:54.668   06 Jun 2027 03:58:54.668             0.000             0.000
       184   06 Jun 2027 03:59:12.433   06 Jun 2027 03:59:12.433             0.000             0.000
       185   06 Jun 2027 03:59:27.221   06 Jun 2027 03:59:32.837             5.616          2808.000
       186   06 Jun 2027 03:59:35.611   06 Jun 2027 03:59:48.431            12.820          6410.000
       187   06 Jun 2027 04:00:01.021   06 Jun 2027 04:00:01.021             0.000             0.000
       188   06 Jun 2027 05:30:19.462   06 Jun 2027 05:33:37.414           197.952         98976.000
       189   06 Jun 2027 05:35:26.209   06 Jun 2027 05:35:32.539             6.330          3165.000
       190   06 Jun 2027 05:35:44.391   06 Jun 2027 05:35:51.876             7.485          3742.500
       191   06 Jun 2027 05:36:02.099   06 Jun 2027 05:36:25.790            23.691         11845.500
       192   06 Jun 2027 07:07:55.208   06 Jun 2027 07:08:38.190            42.982         21237.156
       193   06 Jun 2027 07:09:37.816   06 Jun 2027 07:09:41.042             3.226           698.062
       194   06 Jun 2027 07:10:46.475   06 Jun 2027 07:10:48.901             2.426           682.219
       195   06 Jun 2027 07:12:08.043   06 Jun 2027 07:12:13.776             5.733          1869.187
       196   06 Jun 2027 07:12:37.881   06 Jun 2027 07:12:42.793             4.912           681.344
       197   06 Jun 2027 07:12:47.766   06 Jun 2027 07:12:47.898             0.132            64.000
       198   06 Jun 2027 07:13:20.235   06 Jun 2027 07:13:22.708             2.473           801.500
       199   06 Jun 2027 07:14:11.586   06 Jun 2027 07:14:15.898             4.312          1527.438
       200   06 Jun 2027 07:15:07.255   06 Jun 2027 07:15:10.874             3.619          1489.594
       201   06 Jun 2027 08:44:40.779   06 Jun 2027 08:44:50.405             9.626          4813.000
       202   06 Jun 2027 08:44:59.382   06 Jun 2027 08:45:17.269            17.887          7577.375
       203   06 Jun 2027 08:45:42.290   06 Jun 2027 08:45:43.677             1.387           273.750
       204   06 Jun 2027 08:45:54.180   06 Jun 2027 08:45:54.869             0.689           223.250
       205   06 Jun 2027 08:46:21.295   06 Jun 2027 08:46:23.250             1.955           768.062
       206   06 Jun 2027 08:47:00.212   06 Jun 2027 08:47:02.047             1.835           599.875
       207   06 Jun 2027 08:47:52.160   06 Jun 2027 08:47:55.543             3.383          1320.000
       208   06 Jun 2027 08:48:27.808   06 Jun 2027 08:48:31.877             4.069           540.031
       209   06 Jun 2027 08:48:49.699   06 Jun 2027 08:48:52.900             3.201           556.938
       210   06 Jun 2027 08:48:54.962   06 Jun 2027 08:48:55.070             0.108             4.250
       211   06 Jun 2027 08:49:39.086   06 Jun 2027 08:49:45.998             6.912          1343.563
       212   06 Jun 2027 08:50:57.244   06 Jun 2027 08:51:01.407             4.163          1725.687
       213   06 Jun 2027 08:51:20.047   06 Jun 2027 08:51:22.160             2.113           582.500
       214   06 Jun 2027 10:22:45.619   06 Jun 2027 10:23:03.675            18.056          7646.406
       215   06 Jun 2027 10:23:08.930   06 Jun 2027 10:23:13.747             4.817           103.906
       216   06 Jun 2027 10:23:52.015   06 Jun 2027 10:23:52.015             0.000             0.000
       217   06 Jun 2027 10:24:13.404   06 Jun 2027 10:24:17.613             4.209          1860.750
       218   06 Jun 2027 10:24:25.074   06 Jun 2027 10:24:25.653             0.579           207.437
       219   06 Jun 2027 10:24:49.035   06 Jun 2027 10:24:49.035             0.000             0.000
       220   06 Jun 2027 10:25:22.076   06 Jun 2027 10:25:29.105             7.029          1301.625
       221   06 Jun 2027 10:25:55.798   06 Jun 2027 10:25:58.943             3.145           834.156
       222   06 Jun 2027 10:26:17.996   06 Jun 2027 10:26:19.274             1.278           595.406
       223   06 Jun 2027 10:26:49.572   06 Jun 2027 10:26:51.140             1.568           783.094
       224   06 Jun 2027 11:56:32.149   06 Jun 2027 11:56:39.418             7.269          1229.156
       225   06 Jun 2027 11:57:04.440   06 Jun 2027 11:57:10.553             6.113           726.719
       226   06 Jun 2027 11:57:39.778   06 Jun 2027 11:57:43.122             3.344           737.219
       227   06 Jun 2027 11:58:11.456   06 Jun 2027 11:58:14.139             2.683           794.000
       228   06 Jun 2027 11:59:04.015   06 Jun 2027 11:59:11.293             7.278          1289.688
       229   07 Jun 2027 04:06:57.671   07 Jun 2027 04:08:29.978            92.307         46153.500
       230   07 Jun 2027 04:10:22.019   07 Jun 2027 04:11:14.888            52.869         26434.500
       231   07 Jun 2027 04:11:17.777   07 Jun 2027 04:11:39.374            21.597         10798.500
       232   07 Jun 2027 05:41:50.234   07 Jun 2027 05:43:34.057           103.823         51911.500
       233   07 Jun 2027 05:44:35.053   07 Jun 2027 05:45:09.681            34.628         17314.000
       234   07 Jun 2027 05:46:14.559   07 Jun 2027 05:46:32.058            17.499          8749.500
       235   07 Jun 2027 05:50:47.561   07 Jun 2027 05:51:01.584            14.023          7011.500
       236   07 Jun 2027 05:51:07.492   07 Jun 2027 05:51:10.232             2.740          1370.000
       237   07 Jun 2027 07:19:55.607   07 Jun 2027 07:20:51.865            56.258         26385.000
       238   07 Jun 2027 07:21:40.752   07 Jun 2027 07:21:45.220             4.468           813.031
       239   07 Jun 2027 07:22:35.146   07 Jun 2027 07:22:37.714             2.568          1240.437
       240   07 Jun 2027 07:23:24.456   07 Jun 2027 07:23:29.044             4.588          1418.938
       241   07 Jun 2027 07:23:56.346   07 Jun 2027 07:23:57.948             1.602           792.812
       242   07 Jun 2027 07:24:29.478   07 Jun 2027 07:24:32.448             2.970           636.437
       243   07 Jun 2027 07:25:33.689   07 Jun 2027 07:25:38.602             4.913          1913.781
       244   07 Jun 2027 07:26:09.327   07 Jun 2027 07:26:12.780             3.453           942.125
       245   07 Jun 2027 07:26:35.650   07 Jun 2027 07:26:41.178             5.528           462.750
       246   07 Jun 2027 07:27:07.386   07 Jun 2027 07:27:08.229             0.843           341.375
       247   07 Jun 2027 08:56:49.222   07 Jun 2027 08:57:12.642            23.420         11536.094
       248   07 Jun 2027 08:58:16.168   07 Jun 2027 08:58:18.296             2.128           287.719
       249   07 Jun 2027 08:58:42.867   07 Jun 2027 08:58:47.535             4.668           684.250
       250   07 Jun 2027 08:59:01.608   07 Jun 2027 08:59:06.213             4.605           349.469
       251   07 Jun 2027 09:00:04.911   07 Jun 2027 09:00:09.658             4.747          1782.531
       252   07 Jun 2027 09:00:12.899   07 Jun 2027 09:00:20.296             7.397             5.688
       253   07 Jun 2027 09:00:25.246   07 Jun 2027 09:00:27.734             2.488           154.688
       254   07 Jun 2027 09:01:29.946   07 Jun 2027 09:01:32.917             2.971          1461.437
       255   07 Jun 2027 09:01:50.530   07 Jun 2027 09:01:53.465             2.935           421.656
       256   07 Jun 2027 09:02:08.067   07 Jun 2027 09:02:15.400             7.333           402.844
       257   07 Jun 2027 10:33:58.688   07 Jun 2027 10:34:18.003            19.315          8155.625
       258   07 Jun 2027 10:34:39.791   07 Jun 2027 10:34:41.151             1.360           652.594
       259   07 Jun 2027 10:36:10.625   07 Jun 2027 10:36:18.646             8.021          2786.469
       260   07 Jun 2027 10:36:42.932   07 Jun 2027 10:36:45.799             2.867           628.719
       261   07 Jun 2027 10:37:37.693   07 Jun 2027 10:37:47.578             9.885          1561.375
       262   07 Jun 2027 10:38:06.399   07 Jun 2027 10:38:07.534             1.135           541.969
       263   07 Jun 2027 10:38:27.472   07 Jun 2027 10:38:29.366             1.894           475.375
       264   07 Jun 2027 10:38:51.580   07 Jun 2027 10:38:52.880             1.300           149.344
       265   08 Jun 2027 04:21:16.845   08 Jun 2027 04:23:24.355           127.510         63755.000
       266   08 Jun 2027 04:24:20.803   08 Jun 2027 04:24:49.488            28.685         14342.500
       267   08 Jun 2027 05:54:50.149   08 Jun 2027 05:56:47.973           117.824         58912.000
       268   08 Jun 2027 05:57:23.204   08 Jun 2027 05:57:36.135            12.931          6465.500
       269   08 Jun 2027 05:57:57.021   08 Jun 2027 05:57:57.021             0.000             0.000
       270   08 Jun 2027 05:58:31.529   08 Jun 2027 05:59:02.632            31.103         14227.594
       271   08 Jun 2027 06:01:15.826   08 Jun 2027 06:01:16.217             0.391           195.500
       272   08 Jun 2027 06:02:04.191   08 Jun 2027 06:02:14.471            10.280          5140.000
       273   08 Jun 2027 06:02:39.723   08 Jun 2027 06:02:41.584             1.861           829.219
       274   08 Jun 2027 06:03:06.239   08 Jun 2027 06:03:06.239             0.000             0.000
       275   08 Jun 2027 07:32:18.731   08 Jun 2027 07:32:43.585            24.854         12372.187
       276   08 Jun 2027 07:35:28.325   08 Jun 2027 07:35:34.305             5.980          1510.656
       277   08 Jun 2027 07:36:17.421   08 Jun 2027 07:36:19.632             2.211          1105.500
       278   08 Jun 2027 07:36:23.665   08 Jun 2027 07:36:27.398             3.733           367.906
       279   08 Jun 2027 07:36:58.991   08 Jun 2027 07:37:01.689             2.698           898.094
       280   08 Jun 2027 07:37:17.849   08 Jun 2027 07:37:21.159             3.310           264.687
       281   08 Jun 2027 07:38:00.934   08 Jun 2027 07:38:05.746             4.812          1176.594
       282   08 Jun 2027 07:38:19.678   08 Jun 2027 07:38:20.673             0.995           435.375
       283   08 Jun 2027 07:38:57.846   08 Jun 2027 07:39:01.957             4.111          1005.375
       284   08 Jun 2027 09:09:17.230   08 Jun 2027 09:09:38.265            21.035         10387.750
       285   08 Jun 2027 09:11:25.472   08 Jun 2027 09:11:32.503             7.031          1973.094
       286   08 Jun 2027 09:11:50.923   08 Jun 2027 09:11:58.152             7.229           575.625
       287   08 Jun 2027 09:12:36.747   08 Jun 2027 09:12:42.825             6.078          1116.563
       288   08 Jun 2027 09:13:42.266   08 Jun 2027 09:13:47.191             4.925          1667.969
       289   08 Jun 2027 09:14:22.065   08 Jun 2027 09:14:24.377             2.312           787.906
       290   08 Jun 2027 10:46:11.274   08 Jun 2027 10:46:24.866            13.592          6529.313
       291   08 Jun 2027 10:47:16.364   08 Jun 2027 10:47:18.415             2.051          1025.500
       292   08 Jun 2027 10:48:11.038   08 Jun 2027 10:48:14.284             3.246          1623.000
       293   08 Jun 2027 10:48:19.923   08 Jun 2027 10:48:21.844             1.921           740.719
       294   08 Jun 2027 10:48:28.834   08 Jun 2027 10:48:28.834             0.000             0.000
       295   08 Jun 2027 10:48:37.567   08 Jun 2027 10:48:41.661             4.094           385.219
       296   08 Jun 2027 10:48:45.154   08 Jun 2027 10:48:45.393             0.239            77.687
       297   08 Jun 2027 10:49:01.832   08 Jun 2027 10:49:07.168             5.336           222.063
       298   08 Jun 2027 10:49:13.778   08 Jun 2027 10:49:16.002             2.224           206.562
       299   08 Jun 2027 10:50:04.917   08 Jun 2027 10:50:05.149             0.232           116.000
       300   08 Jun 2027 10:50:05.447   08 Jun 2027 10:50:05.820             0.373           186.500
       301   09 Jun 2027 04:33:21.964   09 Jun 2027 04:36:57.604           215.640        107820.000
       302   09 Jun 2027 06:05:31.657   09 Jun 2027 06:05:41.372             9.715          4857.500
       303   09 Jun 2027 06:07:30.686   09 Jun 2027 06:08:48.742            78.056         38618.657
       304   09 Jun 2027 06:09:34.605   09 Jun 2027 06:09:37.345             2.740           898.062
       305   09 Jun 2027 06:09:59.672   09 Jun 2027 06:09:59.672             0.000             0.000
       306   09 Jun 2027 06:11:29.480   09 Jun 2027 06:11:36.460             6.980          3441.500
       307   09 Jun 2027 06:12:55.819   09 Jun 2027 06:12:55.819             0.000             0.000
       308   09 Jun 2027 06:13:17.198   09 Jun 2027 06:13:20.766             3.568          1784.000
       309   09 Jun 2027 06:13:33.910   09 Jun 2027 06:13:37.274             3.364          1590.437
       310   09 Jun 2027 06:13:46.519   09 Jun 2027 06:13:49.979             3.460           288.906
       311   09 Jun 2027 06:14:22.677   09 Jun 2027 06:14:23.293             0.616           308.000
       312   09 Jun 2027 06:14:37.912   09 Jun 2027 06:14:39.485             1.573           786.500
       313   09 Jun 2027 07:44:27.510   09 Jun 2027 07:44:50.192            22.682         10468.156
       314   09 Jun 2027 07:46:55.433   09 Jun 2027 07:47:00.082             4.649          1787.250
       315   09 Jun 2027 07:47:20.514   09 Jun 2027 07:47:21.721             1.207           568.750
       316   09 Jun 2027 07:47:53.713   09 Jun 2027 07:47:55.770             2.057           999.750
       317   09 Jun 2027 07:48:09.178   09 Jun 2027 07:48:22.435            13.257           210.313
       318   09 Jun 2027 07:48:24.653   09 Jun 2027 07:48:25.155             0.502            37.625
       319   09 Jun 2027 07:48:53.351   09 Jun 2027 07:48:54.760             1.409           672.937
       320   09 Jun 2027 07:49:37.754   09 Jun 2027 07:49:40.783             3.029           208.938
       321   09 Jun 2027 07:49:50.985   09 Jun 2027 07:49:55.397             4.412           318.812
       322   09 Jun 2027 07:50:06.780   09 Jun 2027 07:50:07.283             0.503           192.719
       323   09 Jun 2027 07:50:45.783   09 Jun 2027 07:50:47.968             2.185           979.750
       324   09 Jun 2027 07:51:01.958   09 Jun 2027 07:51:02.690             0.732           366.000
       325   09 Jun 2027 09:21:47.546   09 Jun 2027 09:22:05.793            18.247          9098.375
       326   09 Jun 2027 09:22:27.905   09 Jun 2027 09:22:29.945             2.040           561.469
       327   09 Jun 2027 09:22:55.950   09 Jun 2027 09:22:59.647             3.697           604.000
       328   09 Jun 2027 09:23:52.228   09 Jun 2027 09:24:03.699            11.471          1535.156
       329   09 Jun 2027 09:24:33.608   09 Jun 2027 09:24:37.656             4.048           885.969
       330   09 Jun 2027 09:25:07.620   09 Jun 2027 09:25:09.269             1.649           777.062
       331   09 Jun 2027 09:25:46.382   09 Jun 2027 09:25:49.272             2.890          1159.781
       332   09 Jun 2027 09:26:05.342   09 Jun 2027 09:26:06.835             1.493           499.375
       333   09 Jun 2027 10:58:12.697   09 Jun 2027 10:58:35.289            22.592          8137.438
       334   09 Jun 2027 10:58:43.355   09 Jun 2027 10:58:43.991             0.636            96.063
       335   09 Jun 2027 10:59:09.709   09 Jun 2027 10:59:13.407             3.698           783.094
       336   09 Jun 2027 10:59:17.815   09 Jun 2027 10:59:18.943             1.128           116.656
       337   09 Jun 2027 10:59:43.808   09 Jun 2027 10:59:47.243             3.435           575.563
       338   09 Jun 2027 11:00:10.736   09 Jun 2027 11:00:16.155             5.419            44.031
       339   09 Jun 2027 11:00:21.401   09 Jun 2027 11:00:22.664             1.263           163.937
       340   09 Jun 2027 11:00:38.145   09 Jun 2027 11:00:40.611             2.466           451.594
       341   09 Jun 2027 11:00:45.631   09 Jun 2027 11:00:46.630             0.999            78.000
       342   09 Jun 2027 11:01:10.225   09 Jun 2027 11:01:12.108             1.883           727.719
       343   09 Jun 2027 11:01:49.204   09 Jun 2027 11:01:54.007             4.803          1072.000
       344   09 Jun 2027 11:02:31.865   09 Jun 2027 11:02:33.756             1.891           874.531
       345   10 Jun 2027 03:09:03.260   10 Jun 2027 03:09:53.587            50.327         25163.500
       346   10 Jun 2027 03:10:35.850   10 Jun 2027 03:10:41.424             5.574          2787.000
       347   10 Jun 2027 03:12:01.606   10 Jun 2027 03:12:06.415             4.809          2404.500
       348   10 Jun 2027 04:46:21.115   10 Jun 2027 04:49:10.006           168.891         84445.500
       349   10 Jun 2027 06:20:42.530   10 Jun 2027 06:21:53.937            71.407         34887.625
       350   10 Jun 2027 06:22:44.803   10 Jun 2027 06:22:49.087             4.284          1139.063
       351   10 Jun 2027 06:22:54.033   10 Jun 2027 06:22:54.646             0.613           141.188
       352   10 Jun 2027 06:23:07.566   10 Jun 2027 06:23:08.900             1.334           393.594
       353   10 Jun 2027 06:23:38.272   10 Jun 2027 06:23:41.483             3.211           911.656
       354   10 Jun 2027 06:25:17.500   10 Jun 2027 06:25:23.625             6.125          2900.313
       355   10 Jun 2027 06:26:29.690   10 Jun 2027 06:26:34.237             4.547          1802.031
       356   10 Jun 2027 06:26:45.016   10 Jun 2027 06:26:45.662             0.646           269.719
       357   10 Jun 2027 06:27:11.881   10 Jun 2027 06:27:16.975             5.094           663.969
       358   10 Jun 2027 07:57:01.284   10 Jun 2027 07:57:23.173            21.889         10185.188
       359   10 Jun 2027 07:58:42.725   10 Jun 2027 07:58:46.539             3.814          1829.969
       360   10 Jun 2027 07:59:18.953   10 Jun 2027 07:59:23.080             4.127           921.406
       361   10 Jun 2027 08:00:35.255   10 Jun 2027 08:00:39.267             4.012          1894.437
       362   10 Jun 2027 08:01:33.336   10 Jun 2027 08:01:33.336             0.000             0.000
       363   10 Jun 2027 08:02:22.866   10 Jun 2027 08:02:29.498             6.632          2836.531
       364   10 Jun 2027 08:02:57.957   10 Jun 2027 08:03:01.023             3.066           545.562
       365   10 Jun 2027 08:03:11.610   10 Jun 2027 08:03:12.573             0.963           330.844
       366   10 Jun 2027 09:34:24.386   10 Jun 2027 09:34:43.758            19.372          9686.000
       367   10 Jun 2027 09:35:00.492   10 Jun 2027 09:35:04.452             3.960          1651.375
       368   10 Jun 2027 09:35:42.784   10 Jun 2027 09:35:45.724             2.940          1081.563
       369   10 Jun 2027 09:36:04.295   10 Jun 2027 09:36:05.981             1.686           555.250
       370   10 Jun 2027 09:36:44.009   10 Jun 2027 09:36:48.211             4.202          1008.844
       371   10 Jun 2027 09:37:52.303   10 Jun 2027 09:37:56.347             4.044          1883.750
       372   10 Jun 2027 09:38:33.589   10 Jun 2027 09:38:37.057             3.468           955.156
       373   10 Jun 2027 11:10:35.144   10 Jun 2027 11:10:50.263            15.119          7028.031
       374   10 Jun 2027 11:11:24.133   10 Jun 2027 11:11:27.655             3.522           811.000
       375   10 Jun 2027 11:12:09.607   10 Jun 2027 11:12:13.689             4.082          1311.000
       376   10 Jun 2027 11:13:07.357   10 Jun 2027 11:13:14.313             6.956          1677.125
       377   10 Jun 2027 11:13:52.851   10 Jun 2027 11:13:55.610             2.759           957.375
       378   10 Jun 2027 11:14:03.259   10 Jun 2027 11:14:03.259             0.000             0.000
       379   10 Jun 2027 11:14:20.792   10 Jun 2027 11:14:23.254             2.462           786.937
       380   11 Jun 2027 03:21:04.157   11 Jun 2027 03:21:25.270            21.113         10556.500
       381   11 Jun 2027 03:21:44.139   11 Jun 2027 03:21:53.549             9.410          4705.000
       382   11 Jun 2027 03:22:09.715   11 Jun 2027 03:22:25.675            15.960          7980.000
       383   11 Jun 2027 03:23:36.163   11 Jun 2027 03:23:40.168             4.005          2002.500
       384   11 Jun 2027 04:57:31.532   11 Jun 2027 05:01:01.546           210.014        105007.000
       385   11 Jun 2027 06:32:44.544   11 Jun 2027 06:33:35.585            51.041         25438.031
       386   11 Jun 2027 06:34:18.051   11 Jun 2027 06:34:21.279             3.228          1006.594
       387   11 Jun 2027 06:34:51.607   11 Jun 2027 06:34:53.672             2.065           814.531
       388   11 Jun 2027 06:35:06.094   11 Jun 2027 06:35:07.027             0.933           165.281
       389   11 Jun 2027 06:35:20.928   11 Jun 2027 06:35:22.697             1.769           294.375
       390   11 Jun 2027 06:36:27.319   11 Jun 2027 06:36:34.876             7.557          1839.312
       391   11 Jun 2027 06:37:13.136   11 Jun 2027 06:37:16.061             2.925           847.844
       392   11 Jun 2027 06:37:35.069   11 Jun 2027 06:37:40.172             5.103           537.844
       393   11 Jun 2027 06:37:53.066   11 Jun 2027 06:37:53.510             0.444            85.625
       394   11 Jun 2027 06:38:26.699   11 Jun 2027 06:38:28.568             1.869           582.094
       395   11 Jun 2027 06:38:47.052   11 Jun 2027 06:38:50.120             3.068           577.625
       396   11 Jun 2027 06:39:20.014   11 Jun 2027 06:39:21.669             1.655           807.469
       397   11 Jun 2027 08:08:39.937   11 Jun 2027 08:09:03.745            23.808         11460.156
       398   11 Jun 2027 08:09:36.922   11 Jun 2027 08:09:45.598             8.676           865.469
       399   11 Jun 2027 08:10:40.659   11 Jun 2027 08:10:46.228             5.569          1706.781
       400   11 Jun 2027 08:11:16.015   11 Jun 2027 08:11:17.572             1.557           152.125
       401   11 Jun 2027 08:12:59.192   11 Jun 2027 08:13:13.346            14.154          2948.062
       402   11 Jun 2027 08:14:17.824   11 Jun 2027 08:14:21.329             3.505          1599.719
       403   11 Jun 2027 09:46:38.876   11 Jun 2027 09:46:54.397            15.521          7760.500
       404   11 Jun 2027 09:47:26.153   11 Jun 2027 09:47:30.798             4.645          1359.031
       405   11 Jun 2027 09:47:35.952   11 Jun 2027 09:47:42.260             6.308           156.937
       406   11 Jun 2027 09:47:51.600   11 Jun 2027 09:47:54.458             2.858           290.500
       407   11 Jun 2027 09:48:25.121   11 Jun 2027 09:48:29.136             4.015           920.906
       408   11 Jun 2027 09:48:42.336   11 Jun 2027 09:48:43.688             1.352           412.500
       409   11 Jun 2027 09:49:04.407   11 Jun 2027 09:49:07.272             2.865           572.281
       410   11 Jun 2027 09:49:27.134   11 Jun 2027 09:49:27.494             0.360           173.500
       411   11 Jun 2027 09:49:54.858   11 Jun 2027 09:49:59.428             4.570           855.125
       412   11 Jun 2027 09:50:05.337   11 Jun 2027 09:50:05.412             0.075            15.062
       413   11 Jun 2027 09:50:33.227   11 Jun 2027 09:50:33.733             0.506           183.000
       414   11 Jun 2027 09:50:47.218   11 Jun 2027 09:50:50.382             3.164           197.281
       415   11 Jun 2027 11:22:30.413   11 Jun 2027 11:22:43.202            12.789          6359.250
       416   11 Jun 2027 11:22:50.071   11 Jun 2027 11:22:50.071             0.000             0.000
       417   11 Jun 2027 11:22:53.128   11 Jun 2027 11:22:55.605             2.477           310.187
       418   11 Jun 2027 11:23:20.977   11 Jun 2027 11:23:26.582             5.605           380.781
       419   11 Jun 2027 11:24:19.527   11 Jun 2027 11:24:23.730             4.203          1654.531
       420   11 Jun 2027 11:24:40.600   11 Jun 2027 11:24:43.998             3.398           490.906
       421   11 Jun 2027 11:24:48.564   11 Jun 2027 11:24:52.204             3.640            53.250
       422   11 Jun 2027 11:25:34.489   11 Jun 2027 11:25:37.935             3.446          1200.281
       423   11 Jun 2027 11:26:09.100   11 Jun 2027 11:26:10.333             1.233           616.500
       424   11 Jun 2027 11:26:20.001   11 Jun 2027 11:26:20.876             0.875           437.500
       425   11 Jun 2027 11:27:18.219   11 Jun 2027 11:27:24.863             6.644          1908.563
       426   12 Jun 2027 03:33:30.275   12 Jun 2027 03:34:27.575            57.300         28650.000
       427   12 Jun 2027 03:34:50.884   12 Jun 2027 03:34:50.884             0.000             0.000
       428   12 Jun 2027 03:35:23.614   12 Jun 2027 03:35:23.614             0.000             0.000
       429   12 Jun 2027 03:35:25.023   12 Jun 2027 03:35:27.750             2.727          1363.500
       430   12 Jun 2027 03:35:42.839   12 Jun 2027 03:36:02.672            19.833          9916.500
       431   12 Jun 2027 05:09:15.922   12 Jun 2027 05:12:18.488           182.566         91283.000
       432   12 Jun 2027 05:13:35.654   12 Jun 2027 05:13:37.506             1.852           926.000
       433   12 Jun 2027 06:43:59.747   12 Jun 2027 06:44:45.635            45.888         22944.000
       434   12 Jun 2027 06:45:30.922   12 Jun 2027 06:45:41.618            10.696          1824.312
       435   12 Jun 2027 06:46:17.986   12 Jun 2027 06:46:20.622             2.636           904.531
       436   12 Jun 2027 06:46:47.493   12 Jun 2027 06:46:49.316             1.823           839.719
       437   12 Jun 2027 06:47:14.673   12 Jun 2027 06:47:16.071             1.398           483.781
       438   12 Jun 2027 06:47:34.660   12 Jun 2027 06:47:38.185             3.525           578.219
       439   12 Jun 2027 06:49:17.381   12 Jun 2027 06:49:21.593             4.212          2106.000
       440   12 Jun 2027 06:49:28.592   12 Jun 2027 06:49:33.117             4.525          1189.531
       441   12 Jun 2027 06:50:08.357   12 Jun 2027 06:50:11.156             2.799           948.063
       442   12 Jun 2027 06:50:52.933   12 Jun 2027 06:50:58.962             6.029          1042.219
       443   12 Jun 2027 08:20:49.464   12 Jun 2027 08:21:19.674            30.210         13689.281
       444   12 Jun 2027 08:22:11.521   12 Jun 2027 08:22:15.869             4.348           740.875
       445   12 Jun 2027 08:22:36.202   12 Jun 2027 08:22:37.333             1.131           353.156
       446   12 Jun 2027 08:22:52.427   12 Jun 2027 08:22:53.334             0.907           417.094
       447   12 Jun 2027 08:23:47.229   12 Jun 2027 08:23:53.674             6.445           669.594
       448   12 Jun 2027 08:24:07.769   12 Jun 2027 08:24:11.230             3.461           440.469
       449   12 Jun 2027 08:25:20.346   12 Jun 2027 08:25:25.487             5.141          2159.875
       450   12 Jun 2027 08:25:46.445   12 Jun 2027 08:25:46.591             0.146            73.000
       451   12 Jun 2027 08:26:14.162   12 Jun 2027 08:26:20.740             6.578          1246.406
       452   12 Jun 2027 08:26:32.572   12 Jun 2027 08:26:34.699             2.127           369.750
       453   12 Jun 2027 08:26:42.983   12 Jun 2027 08:26:43.832             0.849           248.750
       454   12 Jun 2027 09:59:01.421   12 Jun 2027 09:59:21.656            20.235          7947.875
       455   12 Jun 2027 09:59:50.261   12 Jun 2027 10:00:00.262            10.001           893.906
       456   12 Jun 2027 10:00:33.843   12 Jun 2027 10:00:35.274             1.431           124.406
       457   12 Jun 2027 10:01:19.150   12 Jun 2027 10:01:24.480             5.330           838.437
       458   12 Jun 2027 10:01:51.684   12 Jun 2027 10:01:56.513             4.829           486.656
       459   12 Jun 2027 10:02:11.171   12 Jun 2027 10:02:11.775             0.604           231.531
       460   12 Jun 2027 10:02:20.924   12 Jun 2027 10:02:23.833             2.909           172.500
       461   12 Jun 2027 10:02:29.073   12 Jun 2027 10:02:31.558             2.485           163.750
       462   12 Jun 2027 10:02:53.948   12 Jun 2027 10:02:57.758             3.810           560.594
       463   12 Jun 2027 11:32:19.207   12 Jun 2027 11:32:41.842            22.635          7221.094
       464   12 Jun 2027 11:33:48.919   12 Jun 2027 11:33:51.446             2.527          1263.500
       465   12 Jun 2027 11:33:53.008   12 Jun 2027 11:33:54.922             1.914           330.125
       466   12 Jun 2027 11:34:21.469   12 Jun 2027 11:34:22.640             1.171           123.813
       467   12 Jun 2027 11:34:38.765   12 Jun 2027 11:34:38.799             0.034            17.000
       468   12 Jun 2027 11:34:55.343   12 Jun 2027 11:35:00.063             4.720           987.000
       469   12 Jun 2027 11:35:20.842   12 Jun 2027 11:35:22.635             1.793           588.281
       470   12 Jun 2027 11:35:28.468   12 Jun 2027 11:35:28.468             0.000             0.000
       471   12 Jun 2027 11:36:22.843   12 Jun 2027 11:36:26.846             4.003          1881.500
       472   12 Jun 2027 11:37:10.473   12 Jun 2027 11:37:16.127             5.654          1306.500
       473   12 Jun 2027 11:38:00.547   12 Jun 2027 11:38:03.093             2.546          1273.000
       474   12 Jun 2027 11:38:58.713   12 Jun 2027 11:39:02.727             4.014          1366.438
       475   12 Jun 2027 11:40:02.150   12 Jun 2027 11:40:03.970             1.820           910.000
       476   13 Jun 2027 03:44:05.395   13 Jun 2027 03:45:06.636            61.241         30620.500
       477   13 Jun 2027 03:46:19.246   13 Jun 2027 03:47:26.732            67.486         33743.000
       478   13 Jun 2027 03:47:33.540   13 Jun 2027 03:48:01.415            27.875         13937.500
       479   13 Jun 2027 03:48:30.257   13 Jun 2027 03:48:35.881             5.624          2812.000
       480   13 Jun 2027 05:19:08.913   13 Jun 2027 05:20:28.072            79.159         39579.500
       481   13 Jun 2027 05:20:59.641   13 Jun 2027 05:21:09.377             9.736          4868.000
       482   13 Jun 2027 05:21:17.987   13 Jun 2027 05:21:43.380            25.393         12696.500
       483   13 Jun 2027 05:23:37.092   13 Jun 2027 05:23:59.246            22.154         11077.000
       484   13 Jun 2027 06:56:07.741   13 Jun 2027 06:56:53.425            45.684         21596.969
       485   13 Jun 2027 06:57:13.264   13 Jun 2027 06:57:13.409             0.145            72.500
       486   13 Jun 2027 06:57:35.272   13 Jun 2027 06:57:38.450             3.178           772.063
       487   13 Jun 2027 06:58:41.924   13 Jun 2027 06:58:43.908             1.984           956.156
       488   13 Jun 2027 06:58:50.431   13 Jun 2027 06:58:51.773             1.342            44.125
       489   13 Jun 2027 06:59:09.758   13 Jun 2027 06:59:10.981             1.223           562.031
       490   13 Jun 2027 06:59:17.697   13 Jun 2027 06:59:18.951             1.254            25.469
       491   13 Jun 2027 06:59:51.206   13 Jun 2027 06:59:53.550             2.344           485.656
       492   13 Jun 2027 07:01:16.241   13 Jun 2027 07:01:21.994             5.753          2222.813
       493   13 Jun 2027 07:01:41.981   13 Jun 2027 07:01:45.255             3.274           624.594
       494   13 Jun 2027 07:02:34.292   13 Jun 2027 07:02:37.267             2.975          1434.750
       495   13 Jun 2027 07:03:15.773   13 Jun 2027 07:03:15.773             0.000             0.000
       496   13 Jun 2027 08:33:05.789   13 Jun 2027 08:33:36.511            30.722         15165.969
       497   13 Jun 2027 08:34:14.080   13 Jun 2027 08:34:16.681             2.601           345.594
       498   13 Jun 2027 08:34:37.544   13 Jun 2027 08:34:37.959             0.415           149.125
       499   13 Jun 2027 08:34:54.104   13 Jun 2027 08:34:57.534             3.430           504.531
       500   13 Jun 2027 08:35:52.990   13 Jun 2027 08:35:56.066             3.076           983.781
       501   13 Jun 2027 08:36:35.507   13 Jun 2027 08:36:41.005             5.498          1193.437
       502   13 Jun 2027 08:37:39.721   13 Jun 2027 08:37:45.870             6.149          1704.750
       503   13 Jun 2027 08:38:24.735   13 Jun 2027 08:38:27.053             2.318          1159.000
       504   13 Jun 2027 10:11:01.530   13 Jun 2027 10:11:17.332            15.802          7363.250
       505   13 Jun 2027 10:12:21.305   13 Jun 2027 10:12:23.607             2.302          1151.000
       506   13 Jun 2027 10:12:33.462   13 Jun 2027 10:12:37.070             3.608           837.938
       507   13 Jun 2027 10:12:52.093   13 Jun 2027 10:12:53.414             1.321           469.469
       508   13 Jun 2027 10:13:12.206   13 Jun 2027 10:13:16.548             4.342           433.594
       509   13 Jun 2027 10:14:26.014   13 Jun 2027 10:14:29.305             3.291          1387.000
       510   13 Jun 2027 10:14:35.043   13 Jun 2027 10:14:36.108             1.065           179.313
       511   13 Jun 2027 10:14:38.275   13 Jun 2027 10:14:39.142             0.867            67.719
       512   13 Jun 2027 10:14:40.808   13 Jun 2027 10:14:41.728             0.920            52.063
       513   13 Jun 2027 10:14:52.559   13 Jun 2027 10:14:54.070             1.511           233.125
       514   13 Jun 2027 11:44:21.340   13 Jun 2027 11:44:33.402            12.062          5937.562
       515   13 Jun 2027 11:45:16.971   13 Jun 2027 11:45:19.494             2.523           516.500
       516   13 Jun 2027 11:46:06.088   13 Jun 2027 11:46:06.088             0.000             0.000
       517   13 Jun 2027 11:46:12.448   13 Jun 2027 11:46:15.756             3.308           651.094
       518   13 Jun 2027 11:46:45.447   13 Jun 2027 11:46:48.293             2.846           788.094
       519   13 Jun 2027 11:47:14.719   13 Jun 2027 11:47:24.302             9.583           573.781
       520   13 Jun 2027 11:48:07.301   13 Jun 2027 11:48:18.921            11.620          1343.719
       521   13 Jun 2027 11:49:24.894   13 Jun 2027 11:49:31.742             6.848          2007.375
       522   13 Jun 2027 11:50:42.567   13 Jun 2027 11:50:44.114             1.547           773.500
       523   13 Jun 2027 11:51:16.365   13 Jun 2027 11:51:19.544             3.179          1589.500
       524   13 Jun 2027 11:51:56.164   13 Jun 2027 11:52:01.094             4.930          1385.563
