uniorb/output/strategy_2/Camera/Camera_KinoSat_111403.txt

KinoSat_111403
-------------------------
    Access    *     Start Time (UTCG)     *     Stop Time (UTCG)  *   Duration (s) *   Data (Mbytes)
         1   01 Jun 2027 03:42:41.616   01 Jun 2027 03:44:16.417            94.801         47400.500
         2   01 Jun 2027 03:44:29.659   01 Jun 2027 03:45:10.244            40.585         20292.500
         3   01 Jun 2027 03:45:59.288   01 Jun 2027 03:46:15.674            16.386          8193.000
         4   01 Jun 2027 03:46:47.696   01 Jun 2027 03:46:54.789             7.093          3546.500
         5   01 Jun 2027 03:47:10.008   01 Jun 2027 03:48:04.921            54.913         27456.500
         6   01 Jun 2027 03:48:38.007   01 Jun 2027 03:49:09.215            31.208         15604.000
         7   01 Jun 2027 03:49:34.466   01 Jun 2027 03:49:48.225            13.759          6879.500
         8   01 Jun 2027 05:07:03.284   01 Jun 2027 05:07:43.445            40.161         20080.500
         9   01 Jun 2027 05:09:13.991   01 Jun 2027 05:09:16.588             2.597          1298.500
        10   01 Jun 2027 05:19:16.949   01 Jun 2027 05:19:48.665            31.716         15858.000
        11   01 Jun 2027 06:41:13.105   01 Jun 2027 06:42:27.961            74.856         37428.000
        12   01 Jun 2027 06:43:15.845   01 Jun 2027 06:43:56.273            40.428         20214.000
        13   01 Jun 2027 06:46:08.845   01 Jun 2027 06:46:27.301            18.456          9228.000
        14   01 Jun 2027 08:16:01.282   01 Jun 2027 08:18:48.736           167.454         83727.000
        15   01 Jun 2027 08:20:03.534   01 Jun 2027 08:20:03.534             0.000             0.000
        16   01 Jun 2027 08:22:45.857   01 Jun 2027 08:22:47.912             2.055          1027.500
        17   01 Jun 2027 08:23:52.741   01 Jun 2027 08:23:57.436             4.695          2347.500
        18   01 Jun 2027 08:24:52.797   01 Jun 2027 08:24:55.760             2.963          1481.500
        19   01 Jun 2027 09:53:50.244   01 Jun 2027 09:55:28.922            98.678         49339.000
        20   01 Jun 2027 09:56:57.180   01 Jun 2027 09:57:49.004            51.824         25912.000
        21   01 Jun 2027 09:59:50.202   01 Jun 2027 10:00:22.682            32.480         16240.000
        22   01 Jun 2027 11:30:34.639   01 Jun 2027 11:31:22.737            48.098         24049.000
        23   01 Jun 2027 11:32:17.024   01 Jun 2027 11:33:04.289            47.265         23632.500
        24   01 Jun 2027 11:34:49.133   01 Jun 2027 11:34:54.609             5.476          2738.000
        25   01 Jun 2027 11:35:07.448   01 Jun 2027 11:35:16.014             8.566          4283.000
        26   01 Jun 2027 11:36:10.082   01 Jun 2027 11:36:15.149             5.067          2533.500
        27   01 Jun 2027 11:36:17.587   01 Jun 2027 11:36:20.154             2.567          1283.500
        28   02 Jun 2027 03:55:00.883   02 Jun 2027 03:56:47.380           106.497         53248.500
        29   02 Jun 2027 03:57:53.833   02 Jun 2027 03:58:12.315            18.482          9241.000
        30   02 Jun 2027 03:58:17.475   02 Jun 2027 03:58:48.238            30.763         15381.500
        31   02 Jun 2027 03:59:08.962   02 Jun 2027 03:59:48.439            39.477         19738.500
        32   02 Jun 2027 05:19:02.413   02 Jun 2027 05:20:10.389            67.976         33988.000
        33   02 Jun 2027 06:54:59.212   02 Jun 2027 06:58:05.641           186.429         93214.500
        34   02 Jun 2027 06:58:18.724   02 Jun 2027 06:58:52.879            34.155         17077.500
        35   02 Jun 2027 08:28:49.985   02 Jun 2027 08:30:23.772            93.787         46893.500
        36   02 Jun 2027 08:30:27.471   02 Jun 2027 08:30:31.461             3.990           827.439
        37   02 Jun 2027 08:30:43.800   02 Jun 2027 08:30:45.665             1.865           250.344
        38   02 Jun 2027 08:30:54.546   02 Jun 2027 08:30:59.632             5.086           198.219
        39   02 Jun 2027 08:31:22.439   02 Jun 2027 08:31:22.439             0.000             0.000
        40   02 Jun 2027 08:33:44.398   02 Jun 2027 08:33:56.179            11.781          5148.937
        41   02 Jun 2027 08:36:37.621   02 Jun 2027 08:36:43.971             6.350          3175.000
        42   02 Jun 2027 10:05:56.850   02 Jun 2027 10:06:14.124            17.274          8284.656
        43   02 Jun 2027 10:06:39.347   02 Jun 2027 10:06:44.271             4.924           228.313
        44   02 Jun 2027 10:06:56.665   02 Jun 2027 10:06:58.470             1.805           387.312
        45   02 Jun 2027 10:07:16.739   02 Jun 2027 10:07:17.794             1.055           372.688
        46   02 Jun 2027 10:07:44.845   02 Jun 2027 10:07:47.278             2.433           456.219
        47   02 Jun 2027 10:09:50.172   02 Jun 2027 10:09:57.931             7.759          3677.094
        48   02 Jun 2027 10:10:43.729   02 Jun 2027 10:10:47.469             3.740          1327.156
        49   02 Jun 2027 10:11:48.773   02 Jun 2027 10:11:55.096             6.323          1915.750
        50   02 Jun 2027 10:12:41.836   02 Jun 2027 10:12:41.836             0.000             0.000
        51   02 Jun 2027 10:12:52.162   02 Jun 2027 10:12:54.985             2.823          1411.500
        52   02 Jun 2027 10:12:57.593   02 Jun 2027 10:13:01.234             3.641           379.656
        53   02 Jun 2027 11:42:59.514   02 Jun 2027 11:43:11.899            12.385          6192.500
        54   02 Jun 2027 11:43:24.512   02 Jun 2027 11:43:27.996             3.484          1510.531
        55   02 Jun 2027 11:44:57.548   02 Jun 2027 11:45:03.272             5.724          2618.031
        56   02 Jun 2027 11:45:58.432   02 Jun 2027 11:46:06.867             8.435          1711.062
        57   02 Jun 2027 11:46:27.165   02 Jun 2027 11:46:28.235             1.070           232.188
        58   02 Jun 2027 11:47:15.693   02 Jun 2027 11:47:21.915             6.222          1483.062
        59   02 Jun 2027 11:48:38.995   02 Jun 2027 11:48:44.227             5.232          2138.406
        60   03 Jun 2027 04:07:35.467   03 Jun 2027 04:09:47.369           131.902         65951.000
        61   03 Jun 2027 04:10:08.186   03 Jun 2027 04:11:01.829            53.643         26821.500
        62   03 Jun 2027 04:11:08.709   03 Jun 2027 04:11:20.609            11.900          5950.000
        63   03 Jun 2027 04:11:37.414   03 Jun 2027 04:11:37.414             0.000             0.000
        64   03 Jun 2027 04:11:42.778   03 Jun 2027 04:12:14.244            31.466         15733.000
        65   03 Jun 2027 05:30:56.811   03 Jun 2027 05:31:53.987            57.176         28588.000
        66   03 Jun 2027 05:33:14.994   03 Jun 2027 05:33:21.365             6.371          3185.500
        67   03 Jun 2027 07:07:21.121   03 Jun 2027 07:07:59.523            38.402         17553.937
        68   03 Jun 2027 07:08:18.423   03 Jun 2027 07:08:22.094             3.671           509.562
        69   03 Jun 2027 07:08:34.568   03 Jun 2027 07:08:35.086             0.518           128.844
        70   03 Jun 2027 07:09:20.315   03 Jun 2027 07:09:24.515             4.200          1208.250
        71   03 Jun 2027 07:09:34.813   03 Jun 2027 07:09:38.411             3.598           265.812
        72   03 Jun 2027 07:09:54.450   03 Jun 2027 07:09:55.509             1.059           286.063
        73   03 Jun 2027 08:41:02.190   03 Jun 2027 08:41:11.635             9.445          4443.156
        74   03 Jun 2027 08:42:14.696   03 Jun 2027 08:42:18.466             3.770          1191.219
        75   03 Jun 2027 08:42:48.110   03 Jun 2027 08:42:48.883             0.773            86.156
        76   03 Jun 2027 08:44:04.235   03 Jun 2027 08:44:12.119             7.884          1957.156
        77   03 Jun 2027 08:45:19.499   03 Jun 2027 08:45:23.591             4.092          1884.250
        78   03 Jun 2027 08:45:36.049   03 Jun 2027 08:45:37.438             1.389            72.375
        79   03 Jun 2027 08:46:36.691   03 Jun 2027 08:46:40.135             3.444          1670.906
        80   03 Jun 2027 08:47:42.031   03 Jun 2027 08:47:46.741             4.710          1201.844
        81   03 Jun 2027 08:48:10.705   03 Jun 2027 08:48:11.843             1.138           557.750
        82   03 Jun 2027 08:48:45.603   03 Jun 2027 08:48:45.603             0.000             0.000
        83   03 Jun 2027 08:49:09.265   03 Jun 2027 08:49:15.564             6.299          1447.969
        84   03 Jun 2027 10:18:23.127   03 Jun 2027 10:18:37.715            14.588          5330.000
        85   03 Jun 2027 10:20:17.465   03 Jun 2027 10:20:18.738             1.273           636.500
        86   03 Jun 2027 10:20:22.619   03 Jun 2027 10:20:24.941             2.322           433.563
        87   03 Jun 2027 10:20:46.100   03 Jun 2027 10:20:52.850             6.750           568.531
        88   03 Jun 2027 10:21:07.097   03 Jun 2027 10:21:08.715             1.618           429.156
        89   03 Jun 2027 10:21:35.539   03 Jun 2027 10:21:37.512             1.973           334.094
        90   03 Jun 2027 10:22:50.213   03 Jun 2027 10:22:59.820             9.607          2132.750
        91   03 Jun 2027 10:24:12.256   03 Jun 2027 10:24:21.166             8.910          2249.344
        92   03 Jun 2027 10:24:59.151   03 Jun 2027 10:25:01.933             2.782           947.750
        93   03 Jun 2027 11:55:20.121   03 Jun 2027 11:55:33.963            13.842          6222.844
        94   03 Jun 2027 11:56:57.179   03 Jun 2027 11:57:03.859             6.680          2156.312
        95   03 Jun 2027 11:57:16.467   03 Jun 2027 11:57:16.529             0.062            31.000
        96   03 Jun 2027 11:57:40.473   03 Jun 2027 11:57:43.571             3.098          1111.250
        97   03 Jun 2027 11:58:41.073   03 Jun 2027 11:58:42.884             1.811           905.500
        98   03 Jun 2027 11:59:14.143   03 Jun 2027 11:59:19.557             5.414          1635.313
        99   03 Jun 2027 11:59:34.544   03 Jun 2027 11:59:35.088             0.544           272.000
       100   04 Jun 2027 04:19:50.151   04 Jun 2027 04:22:06.712           136.561         68280.500
       101   04 Jun 2027 04:22:53.576   04 Jun 2027 04:23:09.068            15.492          7746.000
       102   04 Jun 2027 04:23:21.514   04 Jun 2027 04:23:25.803             4.289          2144.500
       103   04 Jun 2027 04:23:35.169   04 Jun 2027 04:23:50.171            15.002          7501.000
       104   04 Jun 2027 05:42:44.205   04 Jun 2027 05:44:10.866            86.661         43330.500
       105   04 Jun 2027 07:19:23.071   04 Jun 2027 07:20:23.409            60.338         29521.563
       106   04 Jun 2027 07:21:26.723   04 Jun 2027 07:21:31.839             5.116          1978.562
       107   04 Jun 2027 07:21:56.487   04 Jun 2027 07:21:57.155             0.668           244.344
       108   04 Jun 2027 07:22:20.655   04 Jun 2027 07:22:20.655             0.000             0.000
       109   04 Jun 2027 08:54:22.640   04 Jun 2027 08:54:36.337            13.697          4263.656
       110   04 Jun 2027 08:54:57.439   04 Jun 2027 08:54:58.201             0.762           379.719
       111   04 Jun 2027 08:55:24.433   04 Jun 2027 08:55:25.862             1.429           488.406
       112   04 Jun 2027 08:56:50.226   04 Jun 2027 08:56:55.170             4.944          2208.000
       113   04 Jun 2027 08:57:56.308   04 Jun 2027 08:57:56.308             0.000             0.000
       114   04 Jun 2027 08:58:20.266   04 Jun 2027 08:58:23.458             3.192          1308.469
       115   04 Jun 2027 08:58:41.612   04 Jun 2027 08:58:45.762             4.150           567.312
       116   04 Jun 2027 08:59:22.175   04 Jun 2027 08:59:24.767             2.592           685.094
       117   04 Jun 2027 08:59:57.583   04 Jun 2027 09:00:00.419             2.836           843.656
       118   04 Jun 2027 09:00:35.612   04 Jun 2027 09:00:38.554             2.942          1072.719
       119   04 Jun 2027 09:01:01.297   04 Jun 2027 09:01:03.358             2.061           710.719
       120   04 Jun 2027 09:01:05.902   04 Jun 2027 09:01:06.926             1.024            79.500
       121   04 Jun 2027 09:01:15.038   04 Jun 2027 09:01:15.482             0.444           183.406
       122   04 Jun 2027 10:30:30.802   04 Jun 2027 10:30:42.978            12.176          5751.188
       123   04 Jun 2027 10:31:08.401   04 Jun 2027 10:31:10.310             1.909           254.344
       124   04 Jun 2027 10:31:12.680   04 Jun 2027 10:31:13.904             1.224            74.063
       125   04 Jun 2027 10:32:32.404   04 Jun 2027 10:32:40.737             8.333          1946.469
       126   04 Jun 2027 10:32:59.843   04 Jun 2027 10:33:01.062             1.219           597.062
       127   04 Jun 2027 10:33:06.787   04 Jun 2027 10:33:08.432             1.645           142.781
       128   04 Jun 2027 10:33:38.507   04 Jun 2027 10:33:42.519             4.012           933.969
       129   04 Jun 2027 10:34:20.230   04 Jun 2027 10:34:22.814             2.584           479.281
       130   04 Jun 2027 10:34:35.519   04 Jun 2027 10:34:35.519             0.000             0.000
       131   04 Jun 2027 10:34:42.868   04 Jun 2027 10:34:49.233             6.365           607.063
       132   04 Jun 2027 10:35:00.005   04 Jun 2027 10:35:00.498             0.493           122.594
       133   04 Jun 2027 10:35:32.592   04 Jun 2027 10:35:35.689             3.097           971.406
       134   04 Jun 2027 10:36:38.909   04 Jun 2027 10:36:42.973             4.064          1760.156
       135   04 Jun 2027 10:36:53.042   04 Jun 2027 10:36:55.493             2.451           314.656
       136   05 Jun 2027 04:31:36.355   05 Jun 2027 04:32:07.491            31.136         15568.000
       137   05 Jun 2027 04:32:25.911   05 Jun 2027 04:35:27.835           181.924         90962.000
       138   05 Jun 2027 05:54:58.737   05 Jun 2027 05:56:07.812            69.075         34537.500
       139   05 Jun 2027 05:57:47.233   05 Jun 2027 05:57:51.166             3.933          1966.500
       140   05 Jun 2027 07:31:30.525   05 Jun 2027 07:32:00.869            30.344         10507.625
       141   05 Jun 2027 07:32:49.067   05 Jun 2027 07:32:53.732             4.665          1219.375
       142   05 Jun 2027 07:33:13.549   05 Jun 2027 07:33:14.096             0.547           273.500
       143   05 Jun 2027 07:33:15.249   05 Jun 2027 07:33:15.850             0.601           150.344
       144   05 Jun 2027 07:33:52.971   05 Jun 2027 07:33:54.592             1.621           784.906
       145   05 Jun 2027 09:06:40.714   05 Jun 2027 09:06:51.464            10.750          4706.625
       146   05 Jun 2027 09:08:07.354   05 Jun 2027 09:08:10.926             3.572          1786.000
       147   05 Jun 2027 09:09:01.480   05 Jun 2027 09:09:05.802             4.322          1951.625
       148   05 Jun 2027 09:09:32.957   05 Jun 2027 09:09:34.019             1.062           473.250
       149   05 Jun 2027 09:10:01.344   05 Jun 2027 09:10:03.149             1.805           815.281
       150   05 Jun 2027 09:10:07.785   05 Jun 2027 09:10:10.067             2.282           144.875
       151   05 Jun 2027 09:11:03.988   05 Jun 2027 09:11:09.342             5.354          1569.125
       152   05 Jun 2027 09:11:58.873   05 Jun 2027 09:12:04.824             5.951          1343.906
       153   05 Jun 2027 09:12:44.930   05 Jun 2027 09:12:48.989             4.059          1143.125
       154   05 Jun 2027 09:12:57.050   05 Jun 2027 09:12:57.866             0.816           251.906
       155   05 Jun 2027 09:13:08.908   05 Jun 2027 09:13:14.067             5.159           178.188
       156   05 Jun 2027 10:43:04.792   05 Jun 2027 10:43:19.125            14.333          6348.312
       157   05 Jun 2027 10:43:40.544   05 Jun 2027 10:43:41.753             1.209           377.406
       158   05 Jun 2027 10:44:46.380   05 Jun 2027 10:44:50.994             4.614          2019.594
       159   05 Jun 2027 10:45:07.283   05 Jun 2027 10:45:10.662             3.379           373.250
       160   05 Jun 2027 10:45:15.315   05 Jun 2027 10:45:17.476             2.161            52.000
       161   05 Jun 2027 10:45:40.676   05 Jun 2027 10:45:42.165             1.489           148.813
       162   05 Jun 2027 10:46:13.502   05 Jun 2027 10:46:17.633             4.131           717.750
       163   05 Jun 2027 10:47:02.593   05 Jun 2027 10:47:14.720            12.127          1405.000
       164   05 Jun 2027 10:47:45.054   05 Jun 2027 10:47:47.749             2.695           855.156
       165   05 Jun 2027 10:48:36.230   05 Jun 2027 10:48:40.399             4.169          1515.031
       166   05 Jun 2027 10:48:57.139   05 Jun 2027 10:48:57.139             0.000             0.000
       167   06 Jun 2027 03:05:23.398   06 Jun 2027 03:05:30.316             6.918          3459.000
       168   06 Jun 2027 03:06:24.340   06 Jun 2027 03:08:18.928           114.588         57294.000
       169   06 Jun 2027 03:08:25.541   06 Jun 2027 03:08:31.742             6.201          3100.500
       170   06 Jun 2027 03:08:56.656   06 Jun 2027 03:08:57.166             0.510           255.000
       171   06 Jun 2027 03:10:44.385   06 Jun 2027 03:10:58.670            14.285          7142.500
       172   06 Jun 2027 03:13:06.241   06 Jun 2027 03:13:24.253            18.012          9006.000
       173   06 Jun 2027 03:13:24.977   06 Jun 2027 03:13:29.368             4.391          2195.500
       174   06 Jun 2027 04:43:33.202   06 Jun 2027 04:44:12.093            38.891         19445.500
       175   06 Jun 2027 04:44:34.471   06 Jun 2027 04:46:24.729           110.258         55129.000
       176   06 Jun 2027 06:07:28.665   06 Jun 2027 06:07:51.266            22.601         10898.531
       177   06 Jun 2027 07:43:23.434   06 Jun 2027 07:43:34.614            11.180          5103.281
       178   06 Jun 2027 07:44:35.063   06 Jun 2027 07:44:42.033             6.970          1887.000
       179   06 Jun 2027 07:45:03.805   06 Jun 2027 07:45:05.951             2.146           278.625
       180   06 Jun 2027 07:45:56.955   06 Jun 2027 07:45:59.677             2.722          1310.281
       181   06 Jun 2027 09:18:19.424   06 Jun 2027 09:18:31.207            11.783          5184.250
       182   06 Jun 2027 09:20:11.861   06 Jun 2027 09:20:18.508             6.647          2745.938
       183   06 Jun 2027 09:20:58.389   06 Jun 2027 09:21:05.045             6.656           850.125
       184   06 Jun 2027 09:21:17.550   06 Jun 2027 09:21:17.849             0.299            57.750
       185   06 Jun 2027 09:21:31.515   06 Jun 2027 09:21:32.083             0.568           177.594
       186   06 Jun 2027 09:22:01.427   06 Jun 2027 09:22:04.679             3.252           862.156
       187   06 Jun 2027 09:24:57.348   06 Jun 2027 09:25:06.648             9.300          4330.750
       188   06 Jun 2027 09:25:23.815   06 Jun 2027 09:25:25.087             1.272           350.313
       189   06 Jun 2027 10:54:38.635   06 Jun 2027 10:54:55.273            16.638          6869.469
       190   06 Jun 2027 10:56:45.522   06 Jun 2027 10:56:50.430             4.908          1824.625
       191   06 Jun 2027 10:56:52.280   06 Jun 2027 10:56:52.614             0.334            36.125
       192   06 Jun 2027 10:57:07.560   06 Jun 2027 10:57:08.227             0.667           119.406
       193   06 Jun 2027 10:57:33.299   06 Jun 2027 10:57:34.050             0.751           375.500
       194   06 Jun 2027 10:58:55.538   06 Jun 2027 10:59:06.183            10.645          2954.500
       195   06 Jun 2027 10:59:25.631   06 Jun 2027 10:59:32.136             6.505           248.531
       196   06 Jun 2027 11:00:15.025   06 Jun 2027 11:00:18.651             3.626          1340.281
       197   06 Jun 2027 11:00:34.364   06 Jun 2027 11:00:35.364             1.000           276.187
       198   06 Jun 2027 11:01:00.435   06 Jun 2027 11:01:02.011             1.576           783.469
       199   07 Jun 2027 03:18:27.994   07 Jun 2027 03:21:00.736           152.742         76371.000
       200   07 Jun 2027 03:21:05.753   07 Jun 2027 03:21:23.557            17.804          8902.000
       201   07 Jun 2027 03:21:39.101   07 Jun 2027 03:21:39.101             0.000             0.000
       202   07 Jun 2027 03:23:32.964   07 Jun 2027 03:24:00.059            27.095         13547.500
       203   07 Jun 2027 03:24:31.553   07 Jun 2027 03:24:50.051            18.498          9249.000
       204   07 Jun 2027 03:25:26.033   07 Jun 2027 03:25:28.864             2.831          1415.500
       205   07 Jun 2027 03:25:28.920   07 Jun 2027 03:25:37.102             8.182          4091.000
       206   07 Jun 2027 03:26:03.323   07 Jun 2027 03:26:05.123             1.800           900.000
       207   07 Jun 2027 04:44:16.957   07 Jun 2027 04:44:28.136            11.179          5589.500
       208   07 Jun 2027 04:55:29.200   07 Jun 2027 04:56:48.699            79.499         39321.937
       209   07 Jun 2027 04:58:06.867   07 Jun 2027 04:58:11.558             4.691          2187.812
       210   07 Jun 2027 06:18:05.978   07 Jun 2027 06:18:19.384            13.406          5861.094
       211   07 Jun 2027 06:19:20.147   07 Jun 2027 06:19:24.138             3.991          1270.906
       212   07 Jun 2027 06:19:48.093   07 Jun 2027 06:19:51.000             2.907           678.844
       213   07 Jun 2027 06:20:08.260   07 Jun 2027 06:20:09.994             1.734           290.594
       214   07 Jun 2027 06:21:08.377   07 Jun 2027 06:21:13.812             5.435          1707.344
       215   07 Jun 2027 07:53:41.575   07 Jun 2027 07:53:50.764             9.189          4369.375
       216   07 Jun 2027 07:55:24.019   07 Jun 2027 07:55:30.180             6.161          1669.906
       217   07 Jun 2027 07:56:10.780   07 Jun 2027 07:56:15.955             5.175           722.250
       218   07 Jun 2027 07:56:50.656   07 Jun 2027 07:56:53.571             2.915          1084.406
       219   07 Jun 2027 07:57:34.022   07 Jun 2027 07:57:36.203             2.181           291.938
       220   07 Jun 2027 07:58:26.407   07 Jun 2027 07:58:29.126             2.719          1266.687
       221   07 Jun 2027 07:58:50.949   07 Jun 2027 07:58:54.374             3.425           215.719
       222   07 Jun 2027 07:59:12.420   07 Jun 2027 07:59:15.728             3.308           100.156
       223   07 Jun 2027 09:29:52.807   07 Jun 2027 09:30:04.564            11.757          4328.438
       224   07 Jun 2027 09:30:44.693   07 Jun 2027 09:30:49.069             4.376           964.219
       225   07 Jun 2027 09:31:13.335   07 Jun 2027 09:31:18.576             5.241           696.719
       226   07 Jun 2027 09:31:25.020   07 Jun 2027 09:31:26.250             1.230           151.312
       227   07 Jun 2027 09:32:11.057   07 Jun 2027 09:32:12.305             1.248           624.000
       228   07 Jun 2027 09:34:01.647   07 Jun 2027 09:34:15.905            14.258          3764.062
       229   07 Jun 2027 09:35:10.205   07 Jun 2027 09:35:12.345             2.140           987.656
       230   07 Jun 2027 09:35:29.324   07 Jun 2027 09:35:30.203             0.879           369.812
       231   07 Jun 2027 09:35:49.938   07 Jun 2027 09:35:51.589             1.651           457.656
       232   07 Jun 2027 09:36:45.399   07 Jun 2027 09:36:50.097             4.698          1584.781
       233   07 Jun 2027 09:37:25.577   07 Jun 2027 09:37:27.800             2.223          1064.156
       234   07 Jun 2027 11:06:58.613   07 Jun 2027 11:07:11.547            12.934          6467.000
       235   07 Jun 2027 11:07:33.880   07 Jun 2027 11:07:37.116             3.236          1053.750
       236   07 Jun 2027 11:07:46.990   07 Jun 2027 11:07:49.044             2.054           308.563
       237   07 Jun 2027 11:08:49.975   07 Jun 2027 11:08:55.813             5.838          1283.687
       238   07 Jun 2027 11:09:13.579   07 Jun 2027 11:09:18.009             4.430           430.094
       239   07 Jun 2027 11:09:42.440   07 Jun 2027 11:09:45.342             2.902           763.469
       240   07 Jun 2027 11:09:57.447   07 Jun 2027 11:09:59.067             1.620           378.281
       241   07 Jun 2027 11:10:29.684   07 Jun 2027 11:10:31.257             1.573           736.031
       242   07 Jun 2027 11:10:42.065   07 Jun 2027 11:10:43.163             1.098           259.844
       243   07 Jun 2027 11:11:29.307   07 Jun 2027 11:11:36.162             6.855          1351.750
       244   07 Jun 2027 11:12:27.489   07 Jun 2027 11:12:31.669             4.180          1603.969
       245   07 Jun 2027 11:12:43.944   07 Jun 2027 11:12:43.944             0.000             0.000
       246   07 Jun 2027 11:12:44.960   07 Jun 2027 11:12:46.788             1.828           390.094
       247   07 Jun 2027 11:13:00.228   07 Jun 2027 11:13:00.228             0.000             0.000
       248   07 Jun 2027 11:13:16.812   07 Jun 2027 11:13:20.020             3.208           938.250
       249   08 Jun 2027 03:30:57.499   08 Jun 2027 03:32:56.811           119.312         59656.000
       250   08 Jun 2027 03:34:53.112   08 Jun 2027 03:35:29.600            36.488         18244.000
       251   08 Jun 2027 03:36:14.991   08 Jun 2027 03:37:38.392            83.401         41700.500
       252   08 Jun 2027 04:55:48.995   08 Jun 2027 04:56:23.606            34.611         17305.500
       253   08 Jun 2027 05:07:31.795   08 Jun 2027 05:08:18.052            46.257         22119.281
       254   08 Jun 2027 05:08:27.985   08 Jun 2027 05:08:27.985             0.000             0.000
       255   08 Jun 2027 05:08:37.446   08 Jun 2027 05:08:38.341             0.895           377.156
       256   08 Jun 2027 06:29:45.469   08 Jun 2027 06:29:58.622            13.153          6576.500
       257   08 Jun 2027 06:30:20.962   08 Jun 2027 06:30:24.136             3.174           701.750
       258   08 Jun 2027 06:30:41.027   08 Jun 2027 06:30:41.027             0.000             0.000
       259   08 Jun 2027 06:31:45.708   08 Jun 2027 06:31:51.064             5.356          2030.844
       260   08 Jun 2027 06:32:00.899   08 Jun 2027 06:32:02.578             1.679           262.250
       261   08 Jun 2027 06:32:30.885   08 Jun 2027 06:32:30.885             0.000             0.000
       262   08 Jun 2027 06:33:50.263   08 Jun 2027 06:34:00.099             9.836          3085.188
       263   08 Jun 2027 06:34:39.524   08 Jun 2027 06:34:43.595             4.071          1117.344
       264   08 Jun 2027 08:04:47.982   08 Jun 2027 08:04:57.189             9.207          4489.594
       265   08 Jun 2027 08:05:19.156   08 Jun 2027 08:05:20.075             0.919           189.531
       266   08 Jun 2027 08:06:06.165   08 Jun 2027 08:06:10.445             4.280          1162.969
       267   08 Jun 2027 08:06:55.067   08 Jun 2027 08:06:58.359             3.292          1144.625
       268   08 Jun 2027 08:08:36.900   08 Jun 2027 08:08:43.820             6.920          2758.219
       269   08 Jun 2027 08:10:01.332   08 Jun 2027 08:10:08.137             6.805          2249.250
       270   08 Jun 2027 08:10:28.185   08 Jun 2027 08:10:29.255             1.070           237.344
       271   08 Jun 2027 08:11:05.824   08 Jun 2027 08:11:08.203             2.379          1142.781
       272   08 Jun 2027 08:11:27.744   08 Jun 2027 08:11:28.968             1.224           610.656
       273   08 Jun 2027 09:42:12.390   08 Jun 2027 09:42:22.028             9.638          4457.438
       274   08 Jun 2027 09:45:19.968   08 Jun 2027 09:45:30.746            10.778          4815.562
       275   08 Jun 2027 09:45:53.795   08 Jun 2027 09:45:57.972             4.177           400.594
       276   08 Jun 2027 09:46:52.706   08 Jun 2027 09:46:57.470             4.764          1475.063
       277   08 Jun 2027 09:47:10.078   08 Jun 2027 09:47:11.699             1.621            22.937
       278   08 Jun 2027 09:47:12.237   08 Jun 2027 09:47:14.097             1.860            12.938
       279   08 Jun 2027 09:47:23.690   08 Jun 2027 09:47:25.190             1.500           205.688
       280   08 Jun 2027 09:48:06.790   08 Jun 2027 09:48:09.662             2.872          1300.000
       281   08 Jun 2027 09:48:55.962   08 Jun 2027 09:48:59.900             3.938          1409.438
       282   08 Jun 2027 09:49:30.635   08 Jun 2027 09:49:30.874             0.239           119.500
       283   08 Jun 2027 11:19:00.228   08 Jun 2027 11:19:14.964            14.736          7368.000
       284   08 Jun 2027 11:20:10.536   08 Jun 2027 11:20:17.009             6.473          2959.625
       285   08 Jun 2027 11:21:03.091   08 Jun 2027 11:21:07.187             4.096          1372.375
       286   08 Jun 2027 11:21:12.119   08 Jun 2027 11:21:13.346             1.227           112.906
       287   08 Jun 2027 11:21:35.084   08 Jun 2027 11:21:41.873             6.789           679.313
       288   08 Jun 2027 11:22:33.398   08 Jun 2027 11:22:42.435             9.037          1610.156
       289   08 Jun 2027 11:23:09.282   08 Jun 2027 11:23:11.386             2.104           838.969
       290   08 Jun 2027 11:23:50.293   08 Jun 2027 11:23:52.969             2.676          1169.219
       291   08 Jun 2027 11:25:16.526   08 Jun 2027 11:25:24.652             8.126          1753.531
       292   09 Jun 2027 03:42:58.314   09 Jun 2027 03:45:43.110           164.796         82398.000
       293   09 Jun 2027 03:46:07.442   09 Jun 2027 03:46:16.090             8.648          4324.000
       294   09 Jun 2027 03:46:56.804   09 Jun 2027 03:47:04.089             7.285          3642.500
       295   09 Jun 2027 03:47:13.071   09 Jun 2027 03:47:27.612            14.541          7270.500
       296   09 Jun 2027 03:48:33.768   09 Jun 2027 03:49:09.767            35.999         17999.500
       297   09 Jun 2027 03:49:56.738   09 Jun 2027 03:50:03.439             6.701          3350.500
       298   09 Jun 2027 05:07:20.305   09 Jun 2027 05:08:09.948            49.643         24821.500
       299   09 Jun 2027 05:19:33.414   09 Jun 2027 05:20:04.982            31.568         15784.000
       300   09 Jun 2027 06:41:28.402   09 Jun 2027 06:41:45.784            17.382          5760.469
       301   09 Jun 2027 06:43:31.485   09 Jun 2027 06:43:36.013             4.528          1551.937
       302   09 Jun 2027 06:43:43.423   09 Jun 2027 06:43:45.081             1.658           163.156
       303   09 Jun 2027 06:44:12.167   09 Jun 2027 06:44:14.840             2.673           846.438
       304   09 Jun 2027 06:44:21.318   09 Jun 2027 06:44:21.318             0.000             0.000
       305   09 Jun 2027 06:44:37.139   09 Jun 2027 06:44:41.268             4.129           696.844
       306   09 Jun 2027 06:45:15.260   09 Jun 2027 06:45:17.468             2.208           959.719
       307   09 Jun 2027 06:45:57.089   09 Jun 2027 06:46:01.061             3.972           274.156
       308   09 Jun 2027 06:46:06.424   09 Jun 2027 06:46:08.066             1.642            75.562
       309   09 Jun 2027 06:46:46.070   09 Jun 2027 06:46:48.326             2.256           871.531
       310   09 Jun 2027 08:16:16.623   09 Jun 2027 08:16:27.576            10.953          5476.500
       311   09 Jun 2027 08:17:08.145   09 Jun 2027 08:17:11.182             3.037          1350.250
       312   09 Jun 2027 08:18:19.669   09 Jun 2027 08:18:21.939             2.270           425.531
       313   09 Jun 2027 08:19:21.299   09 Jun 2027 08:19:25.942             4.643          1792.156
       314   09 Jun 2027 08:20:05.382   09 Jun 2027 08:20:08.941             3.559           777.531
       315   09 Jun 2027 08:20:50.195   09 Jun 2027 08:20:54.448             4.253           906.844
       316   09 Jun 2027 08:21:35.314   09 Jun 2027 08:21:40.283             4.969           680.938
       317   09 Jun 2027 08:22:59.757   09 Jun 2027 08:23:02.381             2.624          1312.000
       318   09 Jun 2027 08:23:42.753   09 Jun 2027 08:23:48.071             5.318          2005.500
       319   09 Jun 2027 08:24:56.447   09 Jun 2027 08:24:59.633             3.186          1562.406
       320   09 Jun 2027 08:25:11.002   09 Jun 2027 08:25:11.509             0.507           253.500
       321   09 Jun 2027 09:54:06.509   09 Jun 2027 09:54:25.887            19.378          6560.344
       322   09 Jun 2027 09:55:26.066   09 Jun 2027 09:55:29.166             3.100          1182.313
       323   09 Jun 2027 09:56:04.195   09 Jun 2027 09:56:06.259             2.064           293.094
       324   09 Jun 2027 09:57:09.206   09 Jun 2027 09:57:13.252             4.046          1807.250
       325   09 Jun 2027 09:57:42.251   09 Jun 2027 09:57:43.637             1.386           628.031
       326   09 Jun 2027 09:58:22.280   09 Jun 2027 09:58:24.856             2.576          1191.000
       327   09 Jun 2027 09:59:49.586   09 Jun 2027 09:59:54.123             4.537          2268.500
       328   09 Jun 2027 10:00:13.786   09 Jun 2027 10:00:21.022             7.236           993.781
       329   09 Jun 2027 10:00:55.383   09 Jun 2027 10:00:57.711             2.328          1073.781
       330   09 Jun 2027 11:30:51.010   09 Jun 2027 11:31:06.011            15.001          7070.188
       331   09 Jun 2027 11:31:21.874   09 Jun 2027 11:31:27.019             5.145           361.938
       332   09 Jun 2027 11:31:37.656   09 Jun 2027 11:31:41.161             3.505           282.344
       333   09 Jun 2027 11:33:13.161   09 Jun 2027 11:33:19.887             6.726          1924.031
       334   09 Jun 2027 11:33:22.531   09 Jun 2027 11:33:22.531             0.000             0.000
       335   09 Jun 2027 11:33:32.557   09 Jun 2027 11:33:34.975             2.418           395.937
       336   09 Jun 2027 11:34:16.375   09 Jun 2027 11:34:32.761            16.386          1293.750
       337   09 Jun 2027 11:35:05.236   09 Jun 2027 11:35:07.622             2.386           985.969
       338   09 Jun 2027 11:35:45.299   09 Jun 2027 11:35:52.476             7.177          1177.406
       339   09 Jun 2027 11:36:27.559   09 Jun 2027 11:36:30.565             3.006          1096.344
       340   09 Jun 2027 11:36:40.772   09 Jun 2027 11:36:40.772             0.000             0.000
       341   09 Jun 2027 11:36:53.870   09 Jun 2027 11:36:56.313             2.443           727.781
       342   09 Jun 2027 11:37:13.350   09 Jun 2027 11:37:17.637             4.287           532.406
       343   09 Jun 2027 11:37:36.970   09 Jun 2027 11:37:36.970             0.000             0.000
       344   10 Jun 2027 03:55:19.485   10 Jun 2027 03:57:58.672           159.187         79593.500
       345   10 Jun 2027 03:58:58.780   10 Jun 2027 03:59:26.642            27.862         13931.000
       346   10 Jun 2027 04:00:26.579   10 Jun 2027 04:00:30.234             3.655          1827.500
       347   10 Jun 2027 05:19:18.632   10 Jun 2027 05:20:11.801            53.169         26584.500
       348   10 Jun 2027 06:55:15.521   10 Jun 2027 06:56:30.137            74.616         36815.344
       349   10 Jun 2027 06:57:45.424   10 Jun 2027 06:57:49.258             3.834          1854.344
       350   10 Jun 2027 06:58:00.258   10 Jun 2027 06:58:00.258             0.000             0.000
       351   10 Jun 2027 06:58:08.895   10 Jun 2027 06:58:10.770             1.875           613.656
       352   10 Jun 2027 06:58:19.551   10 Jun 2027 06:58:21.246             1.695           120.344
       353   10 Jun 2027 08:29:04.906   10 Jun 2027 08:29:22.988            18.082          4571.969
       354   10 Jun 2027 08:30:29.284   10 Jun 2027 08:30:30.988             1.704           621.031
       355   10 Jun 2027 08:31:16.949   10 Jun 2027 08:31:19.966             3.017          1359.500
       356   10 Jun 2027 08:31:28.509   10 Jun 2027 08:31:29.975             1.466           265.656
       357   10 Jun 2027 08:32:37.197   10 Jun 2027 08:32:44.928             7.731          2054.187
       358   10 Jun 2027 08:34:08.626   10 Jun 2027 08:34:18.027             9.401          2346.156
       359   10 Jun 2027 08:36:18.036   10 Jun 2027 08:36:25.767             7.731          3335.687
       360   10 Jun 2027 08:36:58.825   10 Jun 2027 08:37:00.952             2.127           400.500
       361   10 Jun 2027 08:37:33.355   10 Jun 2027 08:37:36.478             3.123           672.531
       362   10 Jun 2027 10:06:13.705   10 Jun 2027 10:06:28.349            14.644          6854.313
       363   10 Jun 2027 10:08:54.457   10 Jun 2027 10:09:02.323             7.866          3176.437
       364   10 Jun 2027 10:09:48.630   10 Jun 2027 10:09:51.405             2.775          1165.531
       365   10 Jun 2027 10:10:20.067   10 Jun 2027 10:10:28.767             8.700           631.781
       366   10 Jun 2027 10:11:25.117   10 Jun 2027 10:11:29.072             3.955          1202.562
       367   10 Jun 2027 10:11:38.139   10 Jun 2027 10:11:41.661             3.522           283.344
       368   10 Jun 2027 10:12:12.143   10 Jun 2027 10:12:14.878             2.735           952.281
       369   10 Jun 2027 11:43:16.516   10 Jun 2027 11:43:28.157            11.641          5820.500
       370   10 Jun 2027 11:43:41.714   10 Jun 2027 11:43:44.697             2.983          1230.719
       371   10 Jun 2027 11:45:13.525   10 Jun 2027 11:45:19.656             6.131          2086.625
       372   10 Jun 2027 11:45:24.097   10 Jun 2027 11:45:25.279             1.182           109.375
       373   10 Jun 2027 11:45:52.798   10 Jun 2027 11:45:54.159             1.361           487.219
       374   10 Jun 2027 11:46:14.749   10 Jun 2027 11:46:16.299             1.550           376.000
       375   10 Jun 2027 11:46:46.014   10 Jun 2027 11:46:48.145             2.131           354.500
       376   10 Jun 2027 11:47:01.255   10 Jun 2027 11:47:01.837             0.582           291.000
       377   10 Jun 2027 11:47:30.614   10 Jun 2027 11:47:31.917             1.303           651.500
       378   10 Jun 2027 11:48:42.776   10 Jun 2027 11:48:54.057            11.281          2544.718
       379   10 Jun 2027 11:49:18.206   10 Jun 2027 11:49:21.073             2.867           737.781
       380   11 Jun 2027 04:07:51.056   11 Jun 2027 04:10:04.022           132.966         66483.000
       381   11 Jun 2027 04:10:35.592   11 Jun 2027 04:11:51.974            76.382         38191.000
       382   11 Jun 2027 05:31:12.006   11 Jun 2027 05:32:14.119            62.113         31056.500
       383   11 Jun 2027 05:32:45.785   11 Jun 2027 05:32:51.649             5.864          2932.000
       384   11 Jun 2027 07:07:37.065   11 Jun 2027 07:08:19.910            42.845         21025.375
       385   11 Jun 2027 07:08:35.697   11 Jun 2027 07:08:39.824             4.127           493.344
       386   11 Jun 2027 07:09:33.174   11 Jun 2027 07:09:36.598             3.424          1407.469
       387   11 Jun 2027 07:09:41.365   11 Jun 2027 07:09:44.261             2.896           148.969
       388   11 Jun 2027 07:10:03.552   11 Jun 2027 07:10:04.594             1.042           410.844
       389   11 Jun 2027 08:41:25.314   11 Jun 2027 08:41:36.478            11.164          5213.813
       390   11 Jun 2027 08:43:05.270   11 Jun 2027 08:43:08.107             2.837          1389.500
       391   11 Jun 2027 08:44:22.123   11 Jun 2027 08:44:24.493             2.370          1185.000
       392   11 Jun 2027 08:44:36.538   11 Jun 2027 08:44:39.548             3.010          1173.875
       393   11 Jun 2027 08:45:15.179   11 Jun 2027 08:45:17.866             2.687           923.594
       394   11 Jun 2027 08:48:01.702   11 Jun 2027 08:48:11.539             9.837          4577.031
       395   11 Jun 2027 08:48:28.370   11 Jun 2027 08:48:28.370             0.000             0.000
       396   11 Jun 2027 08:49:05.932   11 Jun 2027 08:49:12.431             6.499          1665.594
       397   11 Jun 2027 08:49:25.568   11 Jun 2027 08:49:32.462             6.894           410.531
       398   11 Jun 2027 10:18:40.187   11 Jun 2027 10:18:55.426            15.239          7175.406
       399   11 Jun 2027 10:19:10.998   11 Jun 2027 10:19:12.580             1.582             4.563
       400   11 Jun 2027 10:20:42.473   11 Jun 2027 10:20:46.656             4.183          1744.687
       401   11 Jun 2027 10:21:08.393   11 Jun 2027 10:21:14.521             6.128           268.625
       402   11 Jun 2027 10:21:27.257   11 Jun 2027 10:21:29.202             1.945           394.188
       403   11 Jun 2027 10:22:42.927   11 Jun 2027 10:22:48.215             5.288          2076.500
       404   11 Jun 2027 10:23:09.496   11 Jun 2027 10:23:15.477             5.981           665.031
       405   11 Jun 2027 10:24:27.594   11 Jun 2027 10:24:35.906             8.312          2253.656
       406   11 Jun 2027 10:25:14.000   11 Jun 2027 10:25:17.122             3.122           910.031
       407   11 Jun 2027 11:55:40.840   11 Jun 2027 11:55:56.463            15.623          6921.281
       408   11 Jun 2027 11:57:13.115   11 Jun 2027 11:57:17.811             4.696          2137.656
       409   11 Jun 2027 11:57:47.915   11 Jun 2027 11:57:51.062             3.147           940.750
       410   11 Jun 2027 11:58:45.034   11 Jun 2027 11:58:47.858             2.824          1412.000
       411   11 Jun 2027 11:59:03.242   11 Jun 2027 11:59:06.515             3.273           564.500
       412   11 Jun 2027 11:59:51.691   11 Jun 2027 11:59:54.019             2.328           906.281
       413   12 Jun 2027 04:20:06.398   12 Jun 2027 04:21:56.564           110.166         55083.000
       414   12 Jun 2027 04:22:19.257   12 Jun 2027 04:23:40.049            80.792         40396.000
       415   12 Jun 2027 04:23:40.355   12 Jun 2027 04:23:40.355             0.000             0.000
       416   12 Jun 2027 05:43:00.214   12 Jun 2027 05:44:07.957            67.743         33871.500
       417   12 Jun 2027 07:19:38.925   12 Jun 2027 07:20:45.122            66.197         32858.344
       418   12 Jun 2027 07:21:37.751   12 Jun 2027 07:21:42.499             4.748          1499.062
       419   12 Jun 2027 07:22:25.554   12 Jun 2027 07:22:25.554             0.000             0.000
       420   12 Jun 2027 07:22:38.748   12 Jun 2027 07:22:40.232             1.484           742.000
       421   12 Jun 2027 08:54:39.835   12 Jun 2027 08:54:52.826            12.991          4268.312
       422   12 Jun 2027 08:55:24.335   12 Jun 2027 08:55:31.380             7.045           414.156
       423   12 Jun 2027 08:55:52.726   12 Jun 2027 08:55:56.005             3.279           553.437
       424   12 Jun 2027 08:56:27.136   12 Jun 2027 08:56:34.317             7.181           926.563
       425   12 Jun 2027 08:56:54.841   12 Jun 2027 08:56:58.038             3.197           580.063
       426   12 Jun 2027 08:57:57.604   12 Jun 2027 08:58:03.325             5.721          1545.812
       427   12 Jun 2027 09:00:13.290   12 Jun 2027 09:00:25.048            11.758          3712.750
       428   12 Jun 2027 09:00:50.646   12 Jun 2027 09:00:54.537             3.891           539.188
       429   12 Jun 2027 09:01:16.162   12 Jun 2027 09:01:21.382             5.220           675.781
       430   12 Jun 2027 09:01:28.707   12 Jun 2027 09:01:31.024             2.317           228.906
       431   12 Jun 2027 10:30:49.692   12 Jun 2027 10:31:04.763            15.071          6434.594
       432   12 Jun 2027 10:31:27.479   12 Jun 2027 10:31:29.310             1.831           261.844
       433   12 Jun 2027 10:31:49.665   12 Jun 2027 10:31:51.113             1.448            57.687
       434   12 Jun 2027 10:32:49.659   12 Jun 2027 10:32:57.237             7.578          1214.469
       435   12 Jun 2027 10:33:16.261   12 Jun 2027 10:33:17.592             1.331           502.438
       436   12 Jun 2027 10:33:21.493   12 Jun 2027 10:33:23.335             1.842            97.719
       437   12 Jun 2027 10:33:55.240   12 Jun 2027 10:33:58.895             3.655           954.781
       438   12 Jun 2027 10:34:52.274   12 Jun 2027 10:34:55.036             2.762           413.563
       439   12 Jun 2027 10:34:57.863   12 Jun 2027 10:35:05.093             7.230            88.344
       440   12 Jun 2027 10:35:35.467   12 Jun 2027 10:35:38.187             2.720           796.000
       441   12 Jun 2027 10:35:48.508   12 Jun 2027 10:35:51.111             2.603           322.531
       442   12 Jun 2027 10:36:41.132   12 Jun 2027 10:36:45.097             3.965          1558.625
       443   12 Jun 2027 10:37:15.350   12 Jun 2027 10:37:18.414             3.064           898.281
       444   12 Jun 2027 10:37:21.673   12 Jun 2027 10:37:23.307             1.634           101.844
       445   13 Jun 2027 04:31:52.515   13 Jun 2027 04:32:24.490            31.975         15987.500
       446   13 Jun 2027 04:32:41.941   13 Jun 2027 04:35:09.429           147.488         73744.000
       447   13 Jun 2027 04:35:43.015   13 Jun 2027 04:35:43.522             0.507           253.500
       448   13 Jun 2027 05:55:14.538   13 Jun 2027 05:56:47.444            92.906         46453.000
       449   13 Jun 2027 05:56:54.674   13 Jun 2027 05:56:54.879             0.205           102.500
       450   13 Jun 2027 05:58:06.220   13 Jun 2027 05:58:07.046             0.826           413.000
       451   13 Jun 2027 05:58:11.819   13 Jun 2027 05:58:13.854             2.035          1017.500
       452   13 Jun 2027 07:31:47.019   13 Jun 2027 07:32:15.822            28.803         13966.937
       453   13 Jun 2027 07:33:04.997   13 Jun 2027 07:33:08.316             3.319          1163.937
       454   13 Jun 2027 07:33:28.498   13 Jun 2027 07:33:30.555             2.057           335.813
       455   13 Jun 2027 07:33:31.462   13 Jun 2027 07:33:31.551             0.089            28.344
       456   13 Jun 2027 07:35:17.015   13 Jun 2027 07:35:18.431             1.416           708.000
       457   13 Jun 2027 09:06:57.525   13 Jun 2027 09:07:05.755             8.230          4115.000
       458   13 Jun 2027 09:07:13.683   13 Jun 2027 09:07:18.093             4.410           377.969
       459   13 Jun 2027 09:07:54.616   13 Jun 2027 09:07:55.976             1.360           656.125
       460   13 Jun 2027 09:08:28.451   13 Jun 2027 09:08:29.138             0.687           216.281
       461   13 Jun 2027 09:08:48.803   13 Jun 2027 09:08:53.726             4.923           614.531
       462   13 Jun 2027 09:09:54.484   13 Jun 2027 09:09:54.484             0.000             0.000
       463   13 Jun 2027 09:10:10.989   13 Jun 2027 09:10:17.133             6.144          1605.625
       464   13 Jun 2027 09:10:53.577   13 Jun 2027 09:11:00.963             7.386          1138.875
       465   13 Jun 2027 09:11:14.275   13 Jun 2027 09:11:15.489             1.214           416.000
       466   13 Jun 2027 09:11:21.763   13 Jun 2027 09:11:26.484             4.721           106.219
       467   13 Jun 2027 09:11:31.244   13 Jun 2027 09:11:33.332             2.088            23.344
       468   13 Jun 2027 09:12:06.915   13 Jun 2027 09:12:09.180             2.265          1049.469
       469   13 Jun 2027 09:12:38.563   13 Jun 2027 09:12:42.440             3.877           918.219
       470   13 Jun 2027 09:13:19.750   13 Jun 2027 09:13:24.492             4.742          1165.937
       471   13 Jun 2027 10:43:19.528   13 Jun 2027 10:43:34.409            14.881          5917.937
       472   13 Jun 2027 10:45:02.741   13 Jun 2027 10:45:07.578             4.837          2011.094
       473   13 Jun 2027 10:45:23.929   13 Jun 2027 10:45:24.803             0.874           378.375
       474   13 Jun 2027 10:45:32.901   13 Jun 2027 10:45:33.277             0.376            95.187
       475   13 Jun 2027 10:45:52.113   13 Jun 2027 10:45:55.045             2.932           311.937
       476   13 Jun 2027 10:46:07.262   13 Jun 2027 10:46:08.376             1.114           309.562
       477   13 Jun 2027 10:47:14.055   13 Jun 2027 10:47:18.037             3.982          1654.344
       478   13 Jun 2027 10:47:56.530   13 Jun 2027 10:47:59.642             3.112          1202.906
       479   13 Jun 2027 10:48:23.698   13 Jun 2027 10:48:25.926             2.228           751.750
