uniorb/output/strategy_2/Camera/Camera_KinoSat_112007.txt

KinoSat_112007
-------------------------
    Access    *     Start Time (UTCG)     *     Stop Time (UTCG)  *   Duration (s) *   Data (Mbytes)
         1   01 Jun 2027 04:14:12.963   01 Jun 2027 04:15:56.668           103.705         51852.500
         2   01 Jun 2027 04:16:22.093   01 Jun 2027 04:16:28.153             6.060          3030.000
         3   01 Jun 2027 04:16:51.538   01 Jun 2027 04:17:24.485            32.947         16473.500
         4   01 Jun 2027 04:17:39.918   01 Jun 2027 04:17:58.971            19.053          9526.500
         5   01 Jun 2027 04:18:04.840   01 Jun 2027 04:18:31.298            26.458         13229.000
         6   01 Jun 2027 04:18:46.545   01 Jun 2027 04:19:19.460            32.915         16457.500
         7   01 Jun 2027 04:19:50.768   01 Jun 2027 04:19:51.033             0.265           132.500
         8   01 Jun 2027 05:52:57.998   01 Jun 2027 05:54:10.985            72.987         36493.500
         9   01 Jun 2027 05:55:33.385   01 Jun 2027 05:56:05.441            32.056         16028.000
        10   01 Jun 2027 05:56:27.973   01 Jun 2027 05:56:49.776            21.803         10901.500
        11   01 Jun 2027 05:57:20.233   01 Jun 2027 05:57:36.402            16.169          8084.500
        12   01 Jun 2027 05:58:14.480   01 Jun 2027 05:58:50.997            36.517         18258.500
        13   01 Jun 2027 05:59:57.933   01 Jun 2027 06:00:32.165            34.232         17116.000
        14   01 Jun 2027 07:18:37.307   01 Jun 2027 07:19:37.044            59.737         29868.500
        15   01 Jun 2027 07:29:54.208   01 Jun 2027 07:31:02.566            68.358         34179.000
        16   01 Jun 2027 08:52:29.497   01 Jun 2027 08:53:34.294            64.797         32398.500
        17   01 Jun 2027 08:53:47.870   01 Jun 2027 08:54:49.795            61.925         30962.500
        18   02 Jun 2027 04:26:20.126   02 Jun 2027 04:26:26.780             6.654          3327.000
        19   02 Jun 2027 04:26:33.567   02 Jun 2027 04:31:36.160           302.593        151296.500
        20   02 Jun 2027 06:05:24.187   02 Jun 2027 06:07:43.907           139.720         69860.000
        21   02 Jun 2027 06:07:50.108   02 Jun 2027 06:07:50.399             0.291           145.500
        22   02 Jun 2027 06:09:12.636   02 Jun 2027 06:09:24.602            11.966          5983.000
        23   02 Jun 2027 06:09:38.504   02 Jun 2027 06:09:38.504             0.000             0.000
        24   02 Jun 2027 06:10:03.703   02 Jun 2027 06:10:20.005            16.302          8151.000
        25   02 Jun 2027 06:12:20.812   02 Jun 2027 06:12:31.844            11.032          5516.000
        26   02 Jun 2027 07:30:13.941   02 Jun 2027 07:31:48.275            94.334         47167.000
        27   02 Jun 2027 07:41:53.736   02 Jun 2027 07:42:54.088            60.352         30176.000
        28   02 Jun 2027 09:04:12.930   02 Jun 2027 09:05:11.241            58.311         29155.500
        29   02 Jun 2027 10:39:10.066   02 Jun 2027 10:40:01.938            51.872         25936.000
        30   03 Jun 2027 03:01:44.364   03 Jun 2027 03:02:22.100            37.736         18868.000
        31   03 Jun 2027 03:02:33.027   03 Jun 2027 03:02:58.425            25.398         12699.000
        32   03 Jun 2027 03:03:23.236   03 Jun 2027 03:03:23.236             0.000             0.000
        33   03 Jun 2027 03:03:58.853   03 Jun 2027 03:04:12.312            13.459          6729.500
        34   03 Jun 2027 03:04:48.165   03 Jun 2027 03:05:07.086            18.921          9460.500
        35   03 Jun 2027 03:05:31.429   03 Jun 2027 03:05:31.780             0.351           175.500
        36   03 Jun 2027 03:05:33.492   03 Jun 2027 03:05:37.213             3.721          1860.500
        37   03 Jun 2027 03:06:31.326   03 Jun 2027 03:06:46.507            15.181          7590.500
        38   03 Jun 2027 03:07:34.279   03 Jun 2027 03:07:38.975             4.696          2348.000
        39   03 Jun 2027 03:07:53.687   03 Jun 2027 03:08:09.562            15.875          7937.500
        40   03 Jun 2027 03:08:19.872   03 Jun 2027 03:08:41.354            21.482         10741.000
        41   03 Jun 2027 04:39:29.774   03 Jun 2027 04:39:43.087            13.313          6656.500
        42   03 Jun 2027 04:39:48.229   03 Jun 2027 04:40:42.295            54.066         27033.000
        43   03 Jun 2027 04:40:44.589   03 Jun 2027 04:41:43.944            59.355         29677.500
        44   03 Jun 2027 04:41:59.509   03 Jun 2027 04:42:01.228             1.719           859.500
        45   03 Jun 2027 04:42:09.656   03 Jun 2027 04:42:20.713            11.057          5528.500
        46   03 Jun 2027 04:43:39.765   03 Jun 2027 04:43:44.014             4.249          2124.500
        47   03 Jun 2027 04:44:34.477   03 Jun 2027 04:44:36.594             2.117          1058.500
        48   03 Jun 2027 06:18:37.669   03 Jun 2027 06:19:43.094            65.425         32712.500
        49   03 Jun 2027 06:20:09.859   03 Jun 2027 06:20:14.790             4.931          2012.594
        50   03 Jun 2027 06:20:46.520   03 Jun 2027 06:20:46.520             0.000             0.000
        51   03 Jun 2027 06:21:29.794   03 Jun 2027 06:21:35.096             5.302          1975.531
        52   03 Jun 2027 06:22:55.710   03 Jun 2027 06:22:57.120             1.410           705.000
        53   03 Jun 2027 06:23:17.038   03 Jun 2027 06:23:22.173             5.135          1805.531
        54   03 Jun 2027 07:41:47.380   03 Jun 2027 07:42:05.069            17.689          8201.094
        55   03 Jun 2027 07:42:33.970   03 Jun 2027 07:42:34.797             0.827           295.781
        56   03 Jun 2027 07:42:55.255   03 Jun 2027 07:42:56.328             1.073           536.500
        57   03 Jun 2027 07:43:31.173   03 Jun 2027 07:43:35.141             3.968          1164.313
        58   03 Jun 2027 07:54:08.181   03 Jun 2027 07:54:13.935             5.754          2639.688
        59   03 Jun 2027 09:15:45.373   03 Jun 2027 09:16:25.431            40.058         19937.094
        60   03 Jun 2027 09:18:48.400   03 Jun 2027 09:18:57.973             9.573          4350.125
        61   03 Jun 2027 09:20:58.469   03 Jun 2027 09:21:06.925             8.456          3045.750
        62   03 Jun 2027 10:51:41.628   03 Jun 2027 10:51:58.902            17.274          6480.563
        63   03 Jun 2027 10:52:45.604   03 Jun 2027 10:52:48.951             3.347           686.469
        64   03 Jun 2027 10:59:36.736   03 Jun 2027 10:59:44.765             8.029          4014.500
        65   04 Jun 2027 03:13:42.515   04 Jun 2027 03:15:00.640            78.125         39062.500
        66   04 Jun 2027 03:15:58.504   04 Jun 2027 03:15:58.504             0.000             0.000
        67   04 Jun 2027 03:16:00.065   04 Jun 2027 03:16:42.064            41.999         20999.500
        68   04 Jun 2027 03:17:07.915   04 Jun 2027 03:18:40.717            92.802         46401.000
        69   04 Jun 2027 03:19:16.852   04 Jun 2027 03:19:23.601             6.749          3374.500
        70   04 Jun 2027 03:20:26.626   04 Jun 2027 03:20:48.520            21.894         10947.000
        71   04 Jun 2027 03:20:52.130   04 Jun 2027 03:21:01.324             9.194          4597.000
        72   04 Jun 2027 04:51:23.597   04 Jun 2027 04:51:36.623            13.026          6513.000
        73   04 Jun 2027 04:51:46.602   04 Jun 2027 04:52:47.394            60.792         30396.000
        74   04 Jun 2027 04:52:56.478   04 Jun 2027 04:53:20.830            24.352         12176.000
        75   04 Jun 2027 04:53:46.025   04 Jun 2027 04:53:57.963            11.938          5473.469
        76   04 Jun 2027 04:55:13.251   04 Jun 2027 04:55:21.827             8.576          2152.500
        77   04 Jun 2027 04:55:27.296   04 Jun 2027 04:55:29.311             2.015           170.906
        78   04 Jun 2027 04:56:29.097   04 Jun 2027 04:56:33.385             4.288          1799.406
        79   04 Jun 2027 04:56:51.742   04 Jun 2027 04:56:51.742             0.000             0.000
        80   04 Jun 2027 06:29:54.801   04 Jun 2027 06:30:32.541            37.740         18160.906
        81   04 Jun 2027 06:30:48.091   04 Jun 2027 06:30:52.158             4.067           251.781
        82   04 Jun 2027 06:31:07.714   04 Jun 2027 06:31:09.182             1.468           330.531
        83   04 Jun 2027 06:31:38.470   04 Jun 2027 06:31:43.701             5.231           772.125
        84   04 Jun 2027 06:32:10.150   04 Jun 2027 06:32:10.811             0.661           330.500
        85   04 Jun 2027 06:32:59.682   04 Jun 2027 06:33:01.796             2.114          1057.000
        86   04 Jun 2027 06:33:23.181   04 Jun 2027 06:33:28.860             5.679          1590.750
        87   04 Jun 2027 06:34:22.074   04 Jun 2027 06:34:30.553             8.479          1662.937
        88   04 Jun 2027 07:53:43.681   04 Jun 2027 07:54:00.874            17.193          7907.125
        89   04 Jun 2027 07:55:03.233   04 Jun 2027 07:55:10.787             7.554          1370.344
        90   04 Jun 2027 09:29:44.601   04 Jun 2027 09:30:21.093            36.492         17928.031
        91   04 Jun 2027 09:30:35.947   04 Jun 2027 09:30:35.947             0.000             0.000
        92   04 Jun 2027 09:30:40.467   04 Jun 2027 09:30:43.047             2.580           166.656
        93   04 Jun 2027 09:32:29.851   04 Jun 2027 09:32:36.793             6.942          3228.219
        94   04 Jun 2027 11:05:22.129   04 Jun 2027 11:05:43.260            21.131         10565.500
        95   04 Jun 2027 11:05:46.143   04 Jun 2027 11:05:48.087             1.944           616.000
        96   04 Jun 2027 11:11:17.591   04 Jun 2027 11:11:38.076            20.485         10242.500
        97   05 Jun 2027 03:25:44.245   05 Jun 2027 03:26:49.519            65.274         32637.000
        98   05 Jun 2027 03:27:02.667   05 Jun 2027 03:29:42.508           159.841         79920.500
        99   05 Jun 2027 03:29:55.345   05 Jun 2027 03:30:33.269            37.924         18962.000
       100   05 Jun 2027 03:30:37.070   05 Jun 2027 03:30:41.981             4.911          2455.500
       101   05 Jun 2027 03:30:44.041   05 Jun 2027 03:30:53.059             9.018          4509.000
       102   05 Jun 2027 03:31:54.461   05 Jun 2027 03:32:09.031            14.570          7285.000
       103   05 Jun 2027 03:32:34.646   05 Jun 2027 03:32:44.784            10.138          4459.438
       104   05 Jun 2027 05:05:21.384   05 Jun 2027 05:06:27.316            65.932         32966.000
       105   05 Jun 2027 05:06:45.706   05 Jun 2027 05:06:57.730            12.024          5984.875
       106   05 Jun 2027 05:07:55.176   05 Jun 2027 05:08:00.241             5.065          1733.969
       107   05 Jun 2027 05:08:09.698   05 Jun 2027 05:08:09.722             0.024            12.000
       108   05 Jun 2027 05:08:29.941   05 Jun 2027 05:08:40.356            10.415           837.187
       109   05 Jun 2027 05:09:10.080   05 Jun 2027 05:09:12.556             2.476           309.000
       110   05 Jun 2027 05:09:15.755   05 Jun 2027 05:09:16.480             0.725            99.969
       111   05 Jun 2027 05:09:33.643   05 Jun 2027 05:09:36.403             2.760           370.156
       112   05 Jun 2027 06:42:13.905   05 Jun 2027 06:42:42.996            29.091         13958.000
       113   05 Jun 2027 06:43:46.997   05 Jun 2027 06:43:51.294             4.297          1946.031
       114   05 Jun 2027 06:44:27.991   05 Jun 2027 06:44:31.087             3.096          1063.187
       115   05 Jun 2027 06:44:58.646   05 Jun 2027 06:45:01.983             3.337           602.312
       116   05 Jun 2027 06:46:18.799   05 Jun 2027 06:46:24.096             5.297          2281.969
       117   05 Jun 2027 06:46:41.498   05 Jun 2027 06:46:45.551             4.053           305.375
       118   05 Jun 2027 08:05:36.937   05 Jun 2027 08:05:50.799            13.862          6280.375
       119   05 Jun 2027 08:07:47.103   05 Jun 2027 08:07:54.499             7.396          2964.219
       120   05 Jun 2027 09:41:57.678   05 Jun 2027 09:42:27.753            30.075         12636.406
       121   05 Jun 2027 11:15:59.684   05 Jun 2027 11:16:25.510            25.826         11052.250
       122   05 Jun 2027 11:22:42.225   05 Jun 2027 11:23:00.204            17.979          8989.500
       123   05 Jun 2027 11:23:01.251   05 Jun 2027 11:23:04.890             3.639            63.938
       124   05 Jun 2027 11:23:39.452   05 Jun 2027 11:23:45.250             5.798          1062.219
       125   05 Jun 2027 11:23:59.678   05 Jun 2027 11:23:59.678             0.000             0.000
       126   06 Jun 2027 03:37:50.422   06 Jun 2027 03:39:04.473            74.051         37025.500
       127   06 Jun 2027 03:39:14.070   06 Jun 2027 03:41:35.932           141.862         70931.000
       128   06 Jun 2027 03:41:51.758   06 Jun 2027 03:42:04.666            12.908          6454.000
       129   06 Jun 2027 03:42:18.505   06 Jun 2027 03:42:20.323             1.818           909.000
       130   06 Jun 2027 03:44:35.522   06 Jun 2027 03:45:02.414            26.892         13446.000
       131   06 Jun 2027 05:16:04.498   06 Jun 2027 05:17:05.948            61.450         30725.000
       132   06 Jun 2027 05:17:11.567   06 Jun 2027 05:17:50.147            38.580         16479.688
       133   06 Jun 2027 05:18:13.209   06 Jun 2027 05:18:15.330             2.121           720.688
       134   06 Jun 2027 05:19:03.821   06 Jun 2027 05:19:10.524             6.703          1515.344
       135   06 Jun 2027 05:20:15.143   06 Jun 2027 05:20:21.060             5.917          1702.750
       136   06 Jun 2027 05:21:03.173   06 Jun 2027 05:21:03.531             0.358           179.000
       137   06 Jun 2027 05:21:06.913   06 Jun 2027 05:21:09.257             2.344          1049.250
       138   06 Jun 2027 05:21:37.857   06 Jun 2027 05:21:40.606             2.749           893.750
       139   06 Jun 2027 06:55:06.502   06 Jun 2027 06:55:16.898            10.396          5198.000
       140   06 Jun 2027 06:55:32.684   06 Jun 2027 06:55:38.373             5.689          2158.750
       141   06 Jun 2027 06:56:11.533   06 Jun 2027 06:56:20.312             8.779           712.031
       142   06 Jun 2027 06:56:39.942   06 Jun 2027 06:56:41.044             1.102           419.344
       143   06 Jun 2027 06:58:08.256   06 Jun 2027 06:58:16.031             7.775          2719.500
       144   06 Jun 2027 08:17:33.426   06 Jun 2027 08:17:46.270            12.844          6032.031
       145   06 Jun 2027 08:19:05.871   06 Jun 2027 08:19:13.556             7.685          1987.000
       146   06 Jun 2027 08:19:24.699   06 Jun 2027 08:19:25.081             0.382            36.531
       147   06 Jun 2027 09:54:07.588   06 Jun 2027 09:54:28.203            20.615          9952.719
       148   06 Jun 2027 09:56:02.861   06 Jun 2027 09:56:02.861             0.000             0.000
       149   06 Jun 2027 11:30:36.166   06 Jun 2027 11:31:07.582            31.416         13439.437
       150   06 Jun 2027 11:31:39.693   06 Jun 2027 11:31:40.912             1.219           416.594
       151   06 Jun 2027 11:33:11.301   06 Jun 2027 11:33:17.229             5.928          2204.313
       152   06 Jun 2027 11:33:31.189   06 Jun 2027 11:33:32.462             1.273           411.094
       153   06 Jun 2027 11:35:03.022   06 Jun 2027 11:35:09.083             6.061          2119.063
       154   06 Jun 2027 11:35:19.743   06 Jun 2027 11:35:21.394             1.651           245.313
       155   07 Jun 2027 03:49:48.860   07 Jun 2027 03:52:52.468           183.608         91804.000
       156   07 Jun 2027 03:53:01.546   07 Jun 2027 03:53:05.922             4.376          2188.000
       157   07 Jun 2027 03:53:53.313   07 Jun 2027 03:53:57.846             4.533          2266.500
       158   07 Jun 2027 03:54:13.880   07 Jun 2027 03:54:23.557             9.677          4838.500
       159   07 Jun 2027 03:54:52.465   07 Jun 2027 03:54:59.184             6.719          3359.500
       160   07 Jun 2027 03:55:34.324   07 Jun 2027 03:55:56.609            22.285         11142.500
       161   07 Jun 2027 03:56:05.216   07 Jun 2027 03:56:22.991            17.775          8887.500
       162   07 Jun 2027 05:28:02.309   07 Jun 2027 05:28:50.721            48.412         24206.000
       163   07 Jun 2027 05:29:08.810   07 Jun 2027 05:29:52.136            43.326         21663.000
       164   07 Jun 2027 05:29:58.579   07 Jun 2027 05:30:22.974            24.395         11926.063
       165   07 Jun 2027 05:30:35.880   07 Jun 2027 05:30:38.730             2.850           177.938
       166   07 Jun 2027 05:31:38.195   07 Jun 2027 05:31:44.818             6.623          1259.531
       167   07 Jun 2027 05:32:06.862   07 Jun 2027 05:32:13.171             6.309           587.781
       168   07 Jun 2027 05:32:53.414   07 Jun 2027 05:32:56.481             3.067          1257.594
       169   07 Jun 2027 05:33:11.962   07 Jun 2027 05:33:11.962             0.000             0.000
       170   07 Jun 2027 07:06:16.316   07 Jun 2027 07:06:30.053            13.737          6868.500
       171   07 Jun 2027 07:07:14.043   07 Jun 2027 07:07:15.666             1.623           811.500
       172   07 Jun 2027 07:07:53.996   07 Jun 2027 07:08:07.172            13.176          3539.031
       173   07 Jun 2027 07:09:26.351   07 Jun 2027 07:09:30.083             3.732          1866.000
       174   07 Jun 2027 08:29:38.729   07 Jun 2027 08:29:55.020            16.291          7843.531
       175   07 Jun 2027 08:30:47.796   07 Jun 2027 08:30:50.824             3.028           807.781
       176   07 Jun 2027 08:32:37.003   07 Jun 2027 08:32:43.821             6.818          2819.281
       177   07 Jun 2027 10:09:12.963   07 Jun 2027 10:09:43.467            30.504         15252.000
       178   07 Jun 2027 11:43:22.929   07 Jun 2027 11:43:35.021            12.092          6046.000
       179   07 Jun 2027 11:47:48.437   07 Jun 2027 11:48:00.554            12.117          6058.500
       180   08 Jun 2027 04:01:50.396   08 Jun 2027 04:02:13.446            23.050         11525.000
       181   08 Jun 2027 04:02:13.830   08 Jun 2027 04:05:16.897           183.067         91533.500
       182   08 Jun 2027 04:06:03.955   08 Jun 2027 04:06:57.572            53.617         26808.500
       183   08 Jun 2027 05:41:07.835   08 Jun 2027 05:42:24.198            76.363         38181.500
       184   08 Jun 2027 05:42:45.134   08 Jun 2027 05:42:58.402            13.268          6634.000
       185   08 Jun 2027 05:43:36.661   08 Jun 2027 05:43:38.971             2.310          1155.000
       186   08 Jun 2027 05:44:25.723   08 Jun 2027 05:44:32.452             6.729          2597.188
       187   08 Jun 2027 05:44:41.704   08 Jun 2027 05:44:43.586             1.882           176.406
       188   08 Jun 2027 05:45:41.476   08 Jun 2027 05:45:46.246             4.770          1809.062
       189   08 Jun 2027 05:47:25.741   08 Jun 2027 05:47:29.048             3.307          1449.531
       190   08 Jun 2027 05:48:00.761   08 Jun 2027 05:48:04.889             4.128           542.656
       191   08 Jun 2027 05:48:50.755   08 Jun 2027 05:48:53.798             3.043          1433.312
       192   08 Jun 2027 07:18:13.790   08 Jun 2027 07:18:32.619            18.829          9082.312
       193   08 Jun 2027 07:19:01.614   08 Jun 2027 07:19:05.891             4.277           734.719
       194   08 Jun 2027 07:19:51.722   08 Jun 2027 07:19:51.722             0.000             0.000
       195   08 Jun 2027 07:20:13.773   08 Jun 2027 07:20:18.452             4.679          2121.313
       196   08 Jun 2027 07:20:35.742   08 Jun 2027 07:20:37.781             2.039           540.313
       197   08 Jun 2027 07:21:04.361   08 Jun 2027 07:21:04.361             0.000             0.000
       198   08 Jun 2027 07:21:48.129   08 Jun 2027 07:21:50.592             2.463          1231.500
       199   08 Jun 2027 08:42:13.133   08 Jun 2027 08:42:34.840            21.707         10661.281
       200   08 Jun 2027 08:42:50.417   08 Jun 2027 08:42:51.287             0.870           180.031
       201   08 Jun 2027 08:44:31.765   08 Jun 2027 08:44:38.065             6.300          2638.187
       202   08 Jun 2027 10:19:29.771   08 Jun 2027 10:19:29.771             0.000             0.000
       203   08 Jun 2027 11:53:29.985   08 Jun 2027 11:53:29.985             0.000             0.000
       204   08 Jun 2027 11:59:39.250   08 Jun 2027 12:00:00.000            20.750         10375.000
       205   09 Jun 2027 04:14:30.965   09 Jun 2027 04:17:39.954           188.989         94494.500
       206   09 Jun 2027 04:17:56.942   09 Jun 2027 04:18:46.141            49.199         24599.500
       207   09 Jun 2027 04:19:24.462   09 Jun 2027 04:19:33.627             9.165          4582.500
       208   09 Jun 2027 04:20:37.018   09 Jun 2027 04:20:56.912            19.894          9947.000
       209   09 Jun 2027 05:53:17.816   09 Jun 2027 05:54:59.171           101.355         50677.500
       210   09 Jun 2027 05:55:38.730   09 Jun 2027 05:55:46.744             8.014          1363.281
       211   09 Jun 2027 05:56:30.686   09 Jun 2027 05:56:32.333             1.647           823.500
       212   09 Jun 2027 05:56:38.000   09 Jun 2027 05:56:39.426             1.426           713.000
       213   09 Jun 2027 05:56:50.623   09 Jun 2027 05:56:51.646             1.023           363.688
       214   09 Jun 2027 05:57:13.234   09 Jun 2027 05:57:16.555             3.321           674.625
       215   09 Jun 2027 05:58:01.277   09 Jun 2027 05:58:01.277             0.000             0.000
       216   09 Jun 2027 05:58:26.803   09 Jun 2027 05:58:28.167             1.364           682.000
       217   09 Jun 2027 05:58:51.409   09 Jun 2027 05:58:56.757             5.348          2217.031
       218   09 Jun 2027 05:59:16.379   09 Jun 2027 05:59:16.856             0.477           219.469
       219   09 Jun 2027 05:59:54.716   09 Jun 2027 05:59:58.522             3.806          1046.094
       220   09 Jun 2027 06:00:17.286   09 Jun 2027 06:00:18.791             1.505           519.562
       221   09 Jun 2027 07:18:50.677   09 Jun 2027 07:19:04.839            14.162          6734.906
       222   09 Jun 2027 07:30:12.384   09 Jun 2027 07:30:21.272             8.888          3334.313
       223   09 Jun 2027 07:31:02.515   09 Jun 2027 07:31:05.508             2.993           541.031
       224   09 Jun 2027 08:52:48.489   09 Jun 2027 08:53:06.827            18.338          8281.719
       225   09 Jun 2027 08:56:24.436   09 Jun 2027 08:56:37.703            13.267          6128.156
       226   09 Jun 2027 10:28:16.293   09 Jun 2027 10:28:19.263             2.970          1485.000
       227   09 Jun 2027 10:28:25.139   09 Jun 2027 10:28:36.251            11.112          4378.750
       228   10 Jun 2027 04:26:39.089   10 Jun 2027 04:26:45.966             6.877          3438.500
       229   10 Jun 2027 04:26:59.400   10 Jun 2027 04:28:13.197            73.797         36898.500
       230   10 Jun 2027 04:28:14.102   10 Jun 2027 04:28:37.314            23.212         11606.000
       231   10 Jun 2027 04:28:50.228   10 Jun 2027 04:30:25.462            95.234         47617.000
       232   10 Jun 2027 04:30:58.578   10 Jun 2027 04:31:25.971            27.393         13696.500
       233   10 Jun 2027 06:05:43.703   10 Jun 2027 06:07:25.505           101.802         50901.000
       234   10 Jun 2027 06:07:38.969   10 Jun 2027 06:07:51.693            12.724          5259.313
       235   10 Jun 2027 06:08:26.413   10 Jun 2027 06:08:28.939             2.526          1085.000
       236   10 Jun 2027 06:09:17.662   10 Jun 2027 06:09:21.223             3.561          1039.188
       237   10 Jun 2027 06:10:40.699   10 Jun 2027 06:10:45.847             5.148          2291.375
       238   10 Jun 2027 06:10:55.944   10 Jun 2027 06:10:55.944             0.000             0.000
       239   10 Jun 2027 06:11:12.789   10 Jun 2027 06:11:14.712             1.923           776.844
       240   10 Jun 2027 07:30:31.825   10 Jun 2027 07:30:50.380            18.555          7800.719
       241   10 Jun 2027 07:31:29.106   10 Jun 2027 07:31:32.327             3.221          1210.188
       242   10 Jun 2027 07:42:11.819   10 Jun 2027 07:42:21.794             9.975          4027.281
       243   10 Jun 2027 09:04:29.652   10 Jun 2027 09:04:56.261            26.609         13304.500
       244   10 Jun 2027 09:05:35.559   10 Jun 2027 09:05:36.075             0.516           258.000
       245   10 Jun 2027 09:06:23.665   10 Jun 2027 09:06:30.738             7.073          2260.531
       246   10 Jun 2027 09:06:54.952   10 Jun 2027 09:06:56.976             2.024           698.969
       247   10 Jun 2027 09:08:14.121   10 Jun 2027 09:08:14.121             0.000             0.000
       248   10 Jun 2027 10:40:47.054   10 Jun 2027 10:40:59.315            12.261          6130.500
       249   11 Jun 2027 03:02:02.394   11 Jun 2027 03:02:26.786            24.392         12196.000
       250   11 Jun 2027 03:02:33.115   11 Jun 2027 03:02:38.798             5.683          2841.500
       251   11 Jun 2027 03:03:38.940   11 Jun 2027 03:03:49.892            10.952          5476.000
       252   11 Jun 2027 03:04:01.310   11 Jun 2027 03:04:15.165            13.855          6927.500
       253   11 Jun 2027 03:05:06.566   11 Jun 2027 03:06:23.105            76.539         38269.500
       254   11 Jun 2027 03:07:54.938   11 Jun 2027 03:08:08.614            13.676          6838.000
       255   11 Jun 2027 03:09:06.897   11 Jun 2027 03:09:23.352            16.455          8227.500
       256   11 Jun 2027 04:39:06.088   11 Jun 2027 04:39:23.053            16.965          8482.500
       257   11 Jun 2027 04:39:31.910   11 Jun 2027 04:40:01.099            29.189         14594.500
       258   11 Jun 2027 04:40:05.866   11 Jun 2027 04:40:59.959            54.093         27046.500
       259   11 Jun 2027 04:41:02.152   11 Jun 2027 04:41:29.082            26.930         13465.000
       260   11 Jun 2027 04:41:41.193   11 Jun 2027 04:42:24.458            43.265         21632.500
       261   11 Jun 2027 06:17:48.960   11 Jun 2027 06:18:22.688            33.728         16559.532
       262   11 Jun 2027 06:19:18.481   11 Jun 2027 06:19:21.483             3.002           971.344
       263   11 Jun 2027 06:19:30.477   11 Jun 2027 06:19:32.451             1.974           194.875
       264   11 Jun 2027 06:19:50.031   11 Jun 2027 06:19:53.348             3.317           538.562
       265   11 Jun 2027 06:19:59.104   11 Jun 2027 06:20:00.446             1.342            23.250
       266   11 Jun 2027 06:20:16.600   11 Jun 2027 06:20:17.348             0.748           374.000
       267   11 Jun 2027 06:20:39.472   11 Jun 2027 06:20:41.241             1.769           822.187
       268   11 Jun 2027 06:21:42.168   11 Jun 2027 06:21:45.540             3.372          1686.000
       269   11 Jun 2027 06:21:47.925   11 Jun 2027 06:21:50.288             2.363           292.500
       270   11 Jun 2027 06:22:38.026   11 Jun 2027 06:22:38.026             0.000             0.000
       271   11 Jun 2027 06:22:43.341   11 Jun 2027 06:22:47.364             4.023          1014.469
       272   11 Jun 2027 06:23:49.090   11 Jun 2027 06:23:54.739             5.649          1180.031
       273   11 Jun 2027 07:42:05.633   11 Jun 2027 07:42:27.085            21.452          7960.969
       274   11 Jun 2027 07:42:52.154   11 Jun 2027 07:42:53.667             1.513           363.719
       275   11 Jun 2027 07:43:11.692   11 Jun 2027 07:43:13.464             1.772           563.281
       276   11 Jun 2027 07:43:19.446   11 Jun 2027 07:43:19.446             0.000             0.000
       277   11 Jun 2027 07:54:28.122   11 Jun 2027 07:54:36.130             8.008          3043.219
       278   11 Jun 2027 09:16:01.451   11 Jun 2027 09:16:41.670            40.219         19322.875
       279   11 Jun 2027 09:19:05.934   11 Jun 2027 09:19:19.570            13.636          4380.750
       280   11 Jun 2027 09:19:55.273   11 Jun 2027 09:19:59.181             3.908           501.969
       281   11 Jun 2027 09:21:08.904   11 Jun 2027 09:21:13.578             4.674          2178.844
       282   11 Jun 2027 10:50:54.454   11 Jun 2027 10:51:08.786            14.332          6910.188
       283   11 Jun 2027 10:51:16.846   11 Jun 2027 10:51:17.522             0.676            79.969
       284   11 Jun 2027 10:53:12.750   11 Jun 2027 10:53:14.256             1.506           753.000
       285   11 Jun 2027 10:59:53.123   11 Jun 2027 11:00:18.010            24.887         12443.500
       286   12 Jun 2027 03:14:00.275   12 Jun 2027 03:15:15.391            75.116         37558.000
       287   12 Jun 2027 03:15:20.050   12 Jun 2027 03:15:20.607             0.557           278.500
       288   12 Jun 2027 03:16:14.714   12 Jun 2027 03:17:01.365            46.651         23325.500
       289   12 Jun 2027 03:17:34.518   12 Jun 2027 03:18:17.689            43.171         21585.500
       290   12 Jun 2027 03:18:27.901   12 Jun 2027 03:18:58.892            30.991         15495.500
       291   12 Jun 2027 03:19:33.404   12 Jun 2027 03:19:40.106             6.702          3351.000
       292   12 Jun 2027 03:21:17.220   12 Jun 2027 03:21:18.984             1.764           882.000
       293   12 Jun 2027 04:51:42.644   12 Jun 2027 04:51:53.980            11.336          5668.000
       294   12 Jun 2027 04:52:05.423   12 Jun 2027 04:53:06.268            60.845         30422.500
       295   12 Jun 2027 04:53:13.176   12 Jun 2027 04:53:43.498            30.322         15161.000
       296   12 Jun 2027 04:53:50.953   12 Jun 2027 04:53:59.901             8.948          4474.000
       297   12 Jun 2027 04:54:39.076   12 Jun 2027 04:54:50.344            11.268          5634.000
       298   12 Jun 2027 04:56:03.058   12 Jun 2027 04:56:09.451             6.393          3196.500
       299   12 Jun 2027 04:56:23.324   12 Jun 2027 04:56:36.150            12.826          5389.812
       300   12 Jun 2027 04:56:51.310   12 Jun 2027 04:56:57.419             6.109           430.625
       301   12 Jun 2027 06:30:12.723   12 Jun 2027 06:30:47.188            34.465         17214.250
       302   12 Jun 2027 06:31:53.112   12 Jun 2027 06:31:58.425             5.313          2055.031
       303   12 Jun 2027 06:32:25.139   12 Jun 2027 06:32:28.918             3.779           701.188
       304   12 Jun 2027 06:33:14.605   12 Jun 2027 06:33:16.810             2.205          1102.500
       305   12 Jun 2027 06:33:38.008   12 Jun 2027 06:33:38.792             0.784           392.000
       306   12 Jun 2027 06:33:50.194   12 Jun 2027 06:33:50.194             0.000             0.000
       307   12 Jun 2027 06:34:01.519   12 Jun 2027 06:34:07.322             5.803          1199.343
       308   12 Jun 2027 07:54:01.554   12 Jun 2027 07:54:14.378            12.824          5681.875
       309   12 Jun 2027 07:55:21.046   12 Jun 2027 07:55:25.441             4.395          1429.750
       310   12 Jun 2027 09:30:01.293   12 Jun 2027 09:30:37.945            36.652         17596.531
       311   12 Jun 2027 09:30:58.265   12 Jun 2027 09:31:00.474             2.209           138.281
       312   12 Jun 2027 09:31:35.914   12 Jun 2027 09:31:35.914             0.000             0.000
       313   12 Jun 2027 09:32:44.321   12 Jun 2027 09:32:51.494             7.173          3135.156
       314   12 Jun 2027 11:03:48.578   12 Jun 2027 11:04:06.345            17.767          8050.438
       315   12 Jun 2027 11:10:36.139   12 Jun 2027 11:10:57.745            21.606          9171.750
       316   13 Jun 2027 03:26:03.334   13 Jun 2027 03:26:52.592            49.258         24629.000
       317   13 Jun 2027 03:27:05.921   13 Jun 2027 03:27:17.414            11.493          5746.500
       318   13 Jun 2027 03:28:01.294   13 Jun 2027 03:29:56.776           115.482         57741.000
       319   13 Jun 2027 03:30:10.110   13 Jun 2027 03:30:26.712            16.602          8301.000
       320   13 Jun 2027 03:30:31.924   13 Jun 2027 03:30:48.277            16.353          8176.500
       321   13 Jun 2027 03:30:53.558   13 Jun 2027 03:31:29.814            36.256         18128.000
       322   13 Jun 2027 03:31:32.972   13 Jun 2027 03:31:45.152            12.180          6090.000
       323   13 Jun 2027 03:31:58.365   13 Jun 2027 03:32:09.520            11.155          5577.500
       324   13 Jun 2027 05:04:14.509   13 Jun 2027 05:04:40.930            26.421         13210.500
       325   13 Jun 2027 05:04:48.224   13 Jun 2027 05:05:56.610            68.386         32358.281
       326   13 Jun 2027 05:06:13.558   13 Jun 2027 05:06:13.558             0.000             0.000
       327   13 Jun 2027 05:07:44.052   13 Jun 2027 05:07:51.504             7.452          3091.719
       328   13 Jun 2027 05:08:00.909   13 Jun 2027 05:08:03.390             2.481            54.281
       329   13 Jun 2027 05:08:37.791   13 Jun 2027 05:08:37.791             0.000             0.000
       330   13 Jun 2027 05:08:45.679   13 Jun 2027 05:08:47.583             1.904           952.000
       331   13 Jun 2027 05:09:17.871   13 Jun 2027 05:09:22.153             4.282          1250.625
       332   13 Jun 2027 05:09:36.429   13 Jun 2027 05:09:39.249             2.820           366.969
       333   13 Jun 2027 06:42:31.519   13 Jun 2027 06:43:04.234            32.715         15443.062
       334   13 Jun 2027 06:43:31.790   13 Jun 2027 06:43:37.138             5.348           104.188
       335   13 Jun 2027 06:44:04.578   13 Jun 2027 06:44:04.578             0.000             0.000
       336   13 Jun 2027 06:44:25.716   13 Jun 2027 06:44:29.112             3.396          1387.688
       337   13 Jun 2027 06:44:54.011   13 Jun 2027 06:44:58.007             3.996           698.062
       338   13 Jun 2027 06:46:36.067   13 Jun 2027 06:46:42.174             6.107          2878.469
       339   13 Jun 2027 06:46:55.153   13 Jun 2027 06:46:56.030             0.877           251.094
       340   13 Jun 2027 08:05:53.831   13 Jun 2027 08:06:04.868            11.037          5174.844
       341   13 Jun 2027 08:08:05.939   13 Jun 2027 08:08:12.680             6.741          3059.781
       342   13 Jun 2027 09:42:15.528   13 Jun 2027 09:42:42.402            26.874         12695.875
       343   13 Jun 2027 11:14:33.486   13 Jun 2027 11:14:46.320            12.834          6417.000
       344   13 Jun 2027 11:18:07.144   13 Jun 2027 11:18:23.679            16.535          8267.500
       345   13 Jun 2027 11:21:42.180   13 Jun 2027 11:21:45.413             3.233          1616.500
       346   13 Jun 2027 11:22:57.667   13 Jun 2027 11:23:17.531            19.864          8757.281
       347   13 Jun 2027 11:23:54.189   13 Jun 2027 11:23:57.066             2.877          1034.062
       348   13 Jun 2027 11:24:17.582   13 Jun 2027 11:24:20.068             2.486           641.125
