uniorb/output/strategy_2/Camera/Camera_KinoSat_111707.txt

KinoSat_111707
-------------------------
    Access    *     Start Time (UTCG)     *     Stop Time (UTCG)  *   Duration (s) *   Data (Mbytes)
         1   01 Jun 2027 04:28:32.452   01 Jun 2027 04:31:58.620           206.168        103084.000
         2   01 Jun 2027 04:32:11.206   01 Jun 2027 04:32:19.012             7.806          3903.000
         3   01 Jun 2027 04:32:54.356   01 Jun 2027 04:32:54.356             0.000             0.000
         4   01 Jun 2027 04:35:29.865   01 Jun 2027 04:36:06.208            36.343         18171.500
         5   01 Jun 2027 05:54:36.955   01 Jun 2027 05:55:08.079            31.124         15562.000
         6   01 Jun 2027 06:05:34.822   01 Jun 2027 06:06:58.719            83.897         41948.500
         7   01 Jun 2027 06:07:01.314   01 Jun 2027 06:07:14.644            13.330          6665.000
         8   01 Jun 2027 06:07:39.704   01 Jun 2027 06:07:53.337            13.633          6816.500
         9   01 Jun 2027 06:08:17.642   01 Jun 2027 06:08:30.796            13.154          6577.000
        10   01 Jun 2027 06:08:31.813   01 Jun 2027 06:08:54.529            22.716         11358.000
        11   01 Jun 2027 07:28:54.170   01 Jun 2027 07:29:49.996            55.826         27913.000
        12   01 Jun 2027 07:30:04.234   01 Jun 2027 07:30:20.219            15.985          7992.500
        13   01 Jun 2027 07:30:53.077   01 Jun 2027 07:30:53.077             0.000             0.000
        14   01 Jun 2027 07:32:24.966   01 Jun 2027 07:32:29.735             4.769          2384.500
        15   01 Jun 2027 09:05:16.457   01 Jun 2027 09:05:34.825            18.368          9184.000
        16   01 Jun 2027 09:07:35.025   01 Jun 2027 09:08:07.106            32.081         16040.500
        17   01 Jun 2027 09:08:32.210   01 Jun 2027 09:09:07.707            35.497         17748.500
        18   01 Jun 2027 10:40:02.184   01 Jun 2027 10:42:34.793           152.609         76304.500
        19   01 Jun 2027 10:46:55.714   01 Jun 2027 10:47:34.833            39.119         19559.500
        20   02 Jun 2027 03:01:54.786   02 Jun 2027 03:03:02.802            68.016         34008.000
        21   02 Jun 2027 03:03:04.934   02 Jun 2027 03:03:24.233            19.299          9649.500
        22   02 Jun 2027 03:03:41.146   02 Jun 2027 03:03:41.650             0.504           252.000
        23   02 Jun 2027 03:04:31.450   02 Jun 2027 03:04:45.170            13.720          6860.000
        24   02 Jun 2027 03:05:28.201   02 Jun 2027 03:05:41.652            13.451          6725.500
        25   02 Jun 2027 03:06:49.360   02 Jun 2027 03:06:57.881             8.521          4260.500
        26   02 Jun 2027 03:07:11.807   02 Jun 2027 03:07:31.902            20.095         10047.500
        27   02 Jun 2027 04:40:56.388   02 Jun 2027 04:43:08.684           132.296         66148.000
        28   02 Jun 2027 04:45:45.269   02 Jun 2027 04:45:45.269             0.000             0.000
        29   02 Jun 2027 04:46:49.146   02 Jun 2027 04:46:53.953             4.807          2403.500
        30   02 Jun 2027 04:47:02.204   02 Jun 2027 04:47:14.829            12.625          6312.500
        31   02 Jun 2027 04:47:45.439   02 Jun 2027 04:48:10.863            25.424         12712.000
        32   02 Jun 2027 06:05:56.120   02 Jun 2027 06:06:32.467            36.347         18173.500
        33   02 Jun 2027 06:06:43.960   02 Jun 2027 06:06:43.960             0.000             0.000
        34   02 Jun 2027 06:17:36.719   02 Jun 2027 06:18:34.464            57.745         28872.500
        35   02 Jun 2027 07:39:52.065   02 Jun 2027 07:41:07.953            75.888         37944.000
        36   02 Jun 2027 07:41:49.539   02 Jun 2027 07:42:06.419            16.880          8440.000
        37   02 Jun 2027 07:42:32.928   02 Jun 2027 07:42:54.733            21.805         10902.500
        38   02 Jun 2027 09:15:04.267   02 Jun 2027 09:16:22.906            78.639         39319.500
        39   02 Jun 2027 09:17:21.407   02 Jun 2027 09:17:21.407             0.000             0.000
        40   02 Jun 2027 09:20:59.638   02 Jun 2027 09:21:45.714            46.076         20007.968
        41   02 Jun 2027 10:55:27.577   02 Jun 2027 10:55:54.527            26.950         13108.031
        42   02 Jun 2027 10:56:39.924   02 Jun 2027 10:56:43.164             3.240          1019.938
        43   02 Jun 2027 10:57:25.622   02 Jun 2027 10:57:29.996             4.374           861.500
        44   02 Jun 2027 10:58:47.381   02 Jun 2027 10:58:57.748            10.367          2302.562
        45   02 Jun 2027 10:59:17.929   02 Jun 2027 10:59:24.752             6.823           267.500
        46   03 Jun 2027 03:14:12.715   03 Jun 2027 03:17:07.762           175.047         87523.500
        47   03 Jun 2027 03:17:34.804   03 Jun 2027 03:17:46.525            11.721          5860.500
        48   03 Jun 2027 03:18:12.388   03 Jun 2027 03:18:23.599            11.211          5605.500
        49   03 Jun 2027 03:19:07.351   03 Jun 2027 03:19:14.181             6.830          3415.000
        50   03 Jun 2027 03:19:20.819   03 Jun 2027 03:19:42.522            21.703         10851.500
        51   03 Jun 2027 04:53:15.076   03 Jun 2027 04:54:50.954            95.878         46841.781
        52   03 Jun 2027 04:56:01.362   03 Jun 2027 04:56:07.088             5.726          2121.781
        53   03 Jun 2027 04:57:08.797   03 Jun 2027 04:57:13.358             4.561          1219.281
        54   03 Jun 2027 04:58:22.803   03 Jun 2027 04:58:22.803             0.000             0.000
        55   03 Jun 2027 04:58:50.897   03 Jun 2027 04:58:50.897             0.000             0.000
        56   03 Jun 2027 04:59:09.431   03 Jun 2027 04:59:16.093             6.662          2878.969
        57   03 Jun 2027 06:17:19.887   03 Jun 2027 06:17:34.124            14.237          6025.063
        58   03 Jun 2027 06:18:30.986   03 Jun 2027 06:18:37.541             6.555          1650.188
        59   03 Jun 2027 06:19:18.444   03 Jun 2027 06:19:21.195             2.751           538.219
        60   03 Jun 2027 06:29:33.712   03 Jun 2027 06:29:39.835             6.123          3055.875
        61   03 Jun 2027 07:51:35.185   03 Jun 2027 07:51:53.946            18.761          6264.937
        62   03 Jun 2027 07:52:12.457   03 Jun 2027 07:52:15.626             3.169           400.875
        63   03 Jun 2027 07:53:41.462   03 Jun 2027 07:53:48.209             6.747          2010.156
        64   03 Jun 2027 07:55:03.032   03 Jun 2027 07:55:07.449             4.417          1709.031
        65   03 Jun 2027 07:56:27.386   03 Jun 2027 07:56:32.346             4.960          2220.094
        66   03 Jun 2027 07:56:43.274   03 Jun 2027 07:56:44.947             1.673            25.250
        67   03 Jun 2027 09:26:30.918   03 Jun 2027 09:26:42.462            11.544          4124.906
        68   03 Jun 2027 09:28:00.366   03 Jun 2027 09:28:04.100             3.734          1480.969
        69   03 Jun 2027 09:28:21.246   03 Jun 2027 09:28:22.199             0.953           447.469
        70   03 Jun 2027 09:31:59.153   03 Jun 2027 09:32:22.799            23.646          5565.156
        71   03 Jun 2027 09:34:06.992   03 Jun 2027 09:34:14.839             7.847          3059.750
        72   03 Jun 2027 11:07:16.458   03 Jun 2027 11:07:16.458             0.000             0.000
        73   03 Jun 2027 11:07:45.130   03 Jun 2027 11:08:08.990            23.860         11919.844
        74   03 Jun 2027 11:10:20.034   03 Jun 2027 11:10:28.788             8.754          4095.125
        75   03 Jun 2027 11:10:38.424   03 Jun 2027 11:10:39.135             0.711           301.125
        76   03 Jun 2027 11:11:10.684   03 Jun 2027 11:11:21.262            10.578           717.844
        77   04 Jun 2027 03:26:58.686   04 Jun 2027 03:27:23.960            25.274         12637.000
        78   04 Jun 2027 03:27:26.289   04 Jun 2027 03:30:22.066           175.777         87888.500
        79   04 Jun 2027 03:30:44.350   04 Jun 2027 03:31:00.821            16.471          8235.500
        80   04 Jun 2027 05:05:20.928   04 Jun 2027 05:06:49.120            88.192         43478.750
        81   04 Jun 2027 05:07:07.597   04 Jun 2027 05:07:08.146             0.549           274.500
        82   04 Jun 2027 05:07:28.198   04 Jun 2027 05:07:33.464             5.266           627.000
        83   04 Jun 2027 05:08:18.136   04 Jun 2027 05:08:20.033             1.897           708.969
        84   04 Jun 2027 05:08:27.346   04 Jun 2027 05:08:27.346             0.000             0.000
        85   04 Jun 2027 05:08:48.315   04 Jun 2027 05:08:48.315             0.000             0.000
        86   04 Jun 2027 05:09:28.399   04 Jun 2027 05:09:33.527             5.128          2136.437
        87   04 Jun 2027 05:10:50.115   04 Jun 2027 05:10:53.937             3.822          1775.875
        88   04 Jun 2027 06:29:25.927   04 Jun 2027 06:29:41.046            15.119          7026.562
        89   04 Jun 2027 06:30:17.939   04 Jun 2027 06:30:21.365             3.426           841.906
        90   04 Jun 2027 08:03:13.337   04 Jun 2027 08:03:34.556            21.219          9084.594
        91   04 Jun 2027 08:04:15.592   04 Jun 2027 08:04:16.706             1.114           506.719
        92   04 Jun 2027 08:05:15.572   04 Jun 2027 08:05:19.617             4.045          1154.844
        93   04 Jun 2027 08:05:34.120   04 Jun 2027 08:05:34.120             0.000             0.000
        94   04 Jun 2027 08:06:09.953   04 Jun 2027 08:06:16.336             6.383          1161.125
        95   04 Jun 2027 08:07:01.105   04 Jun 2027 08:07:04.084             2.979          1349.344
        96   04 Jun 2027 08:08:28.164   04 Jun 2027 08:08:36.816             8.652          2627.500
        97   04 Jun 2027 09:38:05.209   04 Jun 2027 09:38:11.548             6.339          3169.500
        98   04 Jun 2027 09:39:00.343   04 Jun 2027 09:39:00.343             0.000             0.000
        99   04 Jun 2027 09:40:15.618   04 Jun 2027 09:40:25.093             9.475          4423.656
       100   04 Jun 2027 09:41:45.671   04 Jun 2027 09:41:51.197             5.526          2317.406
       101   04 Jun 2027 09:44:54.651   04 Jun 2027 09:45:07.397            12.746          5732.938
       102   04 Jun 2027 09:45:44.366   04 Jun 2027 09:45:51.200             6.834          1012.281
       103   04 Jun 2027 09:47:20.517   04 Jun 2027 09:47:26.089             5.572          2626.500
       104   04 Jun 2027 11:16:14.559   04 Jun 2027 11:16:44.248            29.689          6917.750
       105   04 Jun 2027 11:17:17.319   04 Jun 2027 11:17:19.408             2.089           879.531
       106   04 Jun 2027 11:17:44.895   04 Jun 2027 11:17:49.523             4.628           558.500
       107   04 Jun 2027 11:18:30.542   04 Jun 2027 11:18:35.138             4.596          1192.469
       108   04 Jun 2027 11:19:03.926   04 Jun 2027 11:19:07.147             3.221           646.406
       109   04 Jun 2027 11:20:02.672   04 Jun 2027 11:20:09.669             6.997          1735.156
       110   04 Jun 2027 11:20:11.159   04 Jun 2027 11:20:11.882             0.723            41.094
       111   04 Jun 2027 11:20:43.761   04 Jun 2027 11:20:52.523             8.762           841.344
       112   04 Jun 2027 11:21:04.497   04 Jun 2027 11:21:06.443             1.946           347.000
       113   04 Jun 2027 11:21:36.493   04 Jun 2027 11:21:41.843             5.350           744.094
       114   04 Jun 2027 11:22:14.142   04 Jun 2027 11:22:18.754             4.612          1009.344
       115   04 Jun 2027 11:22:25.652   04 Jun 2027 11:22:25.844             0.192            96.000
       116   04 Jun 2027 11:22:46.479   04 Jun 2027 11:22:48.429             1.950           764.407
       117   04 Jun 2027 11:23:13.434   04 Jun 2027 11:23:17.755             4.321           756.875
       118   04 Jun 2027 11:23:38.403   04 Jun 2027 11:23:40.481             2.078           645.250
       119   05 Jun 2027 03:39:31.332   05 Jun 2027 03:40:23.427            52.095         26047.500
       120   05 Jun 2027 03:40:33.402   05 Jun 2027 03:41:15.342            41.940         20970.000
       121   05 Jun 2027 03:41:15.891   05 Jun 2027 03:43:35.688           139.797         69898.500
       122   05 Jun 2027 03:44:07.598   05 Jun 2027 03:44:12.110             4.512          2256.000
       123   05 Jun 2027 03:44:24.537   05 Jun 2027 03:44:45.530            20.993         10496.500
       124   05 Jun 2027 05:17:55.590   05 Jun 2027 05:18:59.756            64.166         31693.187
       125   05 Jun 2027 05:20:07.023   05 Jun 2027 05:20:11.517             4.494          1799.563
       126   05 Jun 2027 05:20:50.912   05 Jun 2027 05:20:50.912             0.000             0.000
       127   05 Jun 2027 06:41:21.142   05 Jun 2027 06:41:38.389            17.247          6649.063
       128   05 Jun 2027 06:42:33.956   05 Jun 2027 06:42:33.956             0.000             0.000
       129   05 Jun 2027 06:42:41.789   05 Jun 2027 06:42:46.731             4.942          1768.906
       130   05 Jun 2027 08:17:36.463   05 Jun 2027 08:17:45.199             8.736          4368.000
       131   05 Jun 2027 08:18:14.625   05 Jun 2027 08:18:22.874             8.249          2542.406
       132   05 Jun 2027 08:19:11.922   05 Jun 2027 08:19:11.922             0.000             0.000
       133   05 Jun 2027 08:20:28.570   05 Jun 2027 08:20:38.467             9.897          3473.437
       134   05 Jun 2027 09:51:08.979   05 Jun 2027 09:51:15.756             6.777          3388.500
       135   05 Jun 2027 09:51:48.616   05 Jun 2027 09:51:51.555             2.939          1111.937
       136   05 Jun 2027 09:52:18.991   05 Jun 2027 09:52:21.227             2.236           452.281
       137   05 Jun 2027 09:54:40.851   05 Jun 2027 09:54:53.562            12.711          3643.656
       138   05 Jun 2027 09:55:09.977   05 Jun 2027 09:55:11.466             1.489           432.562
       139   05 Jun 2027 09:55:32.974   05 Jun 2027 09:55:36.329             3.355           653.969
       140   05 Jun 2027 09:57:05.216   05 Jun 2027 09:57:11.492             6.276          2758.187
       141   05 Jun 2027 09:58:16.978   05 Jun 2027 09:58:24.488             7.510          1671.219
       142   05 Jun 2027 09:59:20.013   05 Jun 2027 09:59:24.098             4.085          1480.750
       143   05 Jun 2027 11:28:41.460   05 Jun 2027 11:28:55.942            14.482          5215.781
       144   05 Jun 2027 11:29:19.804   05 Jun 2027 11:29:22.411             2.607           602.469
       145   05 Jun 2027 11:30:45.313   05 Jun 2027 11:30:45.633             0.320           159.875
       146   05 Jun 2027 11:32:32.282   05 Jun 2027 11:32:40.213             7.931          3305.969
       147   05 Jun 2027 11:32:54.144   05 Jun 2027 11:32:58.719             4.575           259.781
       148   05 Jun 2027 11:33:15.162   05 Jun 2027 11:33:16.487             1.325           440.906
       149   05 Jun 2027 11:33:52.513   05 Jun 2027 11:33:56.008             3.495           943.656
       150   05 Jun 2027 11:34:36.866   05 Jun 2027 11:34:43.358             6.492          1056.063
       151   05 Jun 2027 11:35:07.133   05 Jun 2027 11:35:08.185             1.052           507.344
       152   05 Jun 2027 11:35:24.909   05 Jun 2027 11:35:25.809             0.900           450.000
       153   06 Jun 2027 03:51:31.255   06 Jun 2027 03:51:39.245             7.990          3995.000
       154   06 Jun 2027 03:51:46.202   06 Jun 2027 03:55:24.784           218.582        109291.000
       155   06 Jun 2027 03:57:25.134   06 Jun 2027 03:57:45.802            20.668         10334.000
       156   06 Jun 2027 05:29:34.456   06 Jun 2027 05:29:38.240             3.784          1892.000
       157   06 Jun 2027 05:30:00.467   06 Jun 2027 05:31:18.020            77.553         38297.781
       158   06 Jun 2027 05:32:08.186   06 Jun 2027 05:32:13.786             5.600           753.406
       159   06 Jun 2027 05:32:22.322   06 Jun 2027 05:32:23.117             0.795           266.750
       160   06 Jun 2027 05:32:40.289   06 Jun 2027 05:32:45.849             5.560           133.469
       161   06 Jun 2027 06:53:13.131   06 Jun 2027 06:53:24.260            11.129          5541.531
       162   06 Jun 2027 06:55:08.767   06 Jun 2027 06:55:15.360             6.593          2862.594
       163   06 Jun 2027 08:29:40.678   06 Jun 2027 08:29:50.972            10.294          5147.000
       164   06 Jun 2027 08:30:35.184   06 Jun 2027 08:30:40.020             4.836          2164.844
       165   06 Jun 2027 08:31:11.115   06 Jun 2027 08:31:11.115             0.000             0.000
       166   06 Jun 2027 08:31:11.252   06 Jun 2027 08:31:12.140             0.888            92.563
       167   06 Jun 2027 08:32:14.638   06 Jun 2027 08:32:19.800             5.162          1705.250
       168   06 Jun 2027 10:03:48.687   06 Jun 2027 10:03:58.962            10.275          3754.219
       169   06 Jun 2027 10:05:34.120   06 Jun 2027 10:05:34.120             0.000             0.000
       170   06 Jun 2027 10:05:51.696   06 Jun 2027 10:06:01.058             9.362          2971.906
       171   06 Jun 2027 10:06:47.230   06 Jun 2027 10:06:47.556             0.326           163.000
       172   06 Jun 2027 10:08:01.134   06 Jun 2027 10:08:01.134             0.000             0.000
       173   06 Jun 2027 10:08:46.716   06 Jun 2027 10:08:58.980            12.264          3807.438
       174   06 Jun 2027 10:09:30.347   06 Jun 2027 10:09:40.097             9.750           511.500
       175   06 Jun 2027 10:09:52.053   06 Jun 2027 10:09:55.947             3.894           369.969
       176   06 Jun 2027 10:10:08.785   06 Jun 2027 10:10:11.971             3.186           381.937
       177   06 Jun 2027 10:10:30.539   06 Jun 2027 10:10:33.475             2.936           580.250
       178   06 Jun 2027 10:11:07.145   06 Jun 2027 10:11:08.390             1.245           622.500
       179   06 Jun 2027 10:11:33.536   06 Jun 2027 10:11:36.468             2.932          1108.406
       180   06 Jun 2027 11:40:47.312   06 Jun 2027 11:41:02.304            14.992          6852.969
       181   06 Jun 2027 11:41:41.778   06 Jun 2027 11:41:47.420             5.642           880.875
       182   06 Jun 2027 11:42:36.561   06 Jun 2027 11:42:44.307             7.746          1359.563
       183   06 Jun 2027 11:42:59.448   06 Jun 2027 11:43:02.296             2.848           368.375
       184   06 Jun 2027 11:43:23.732   06 Jun 2027 11:43:27.443             3.711           658.094
       185   06 Jun 2027 11:43:48.866   06 Jun 2027 11:43:52.761             3.895           543.406
       186   06 Jun 2027 11:44:28.166   06 Jun 2027 11:44:34.558             6.392           992.344
       187   06 Jun 2027 11:44:54.458   06 Jun 2027 11:44:55.671             1.213           202.813
       188   06 Jun 2027 11:45:38.540   06 Jun 2027 11:45:41.834             3.294          1044.938
       189   06 Jun 2027 11:46:40.968   06 Jun 2027 11:46:45.784             4.816          1733.000
       190   06 Jun 2027 11:47:23.429   06 Jun 2027 11:47:30.028             6.599           958.625
       191   07 Jun 2027 04:03:39.588   07 Jun 2027 04:04:39.718            60.130         30065.000
       192   07 Jun 2027 04:04:48.664   07 Jun 2027 04:07:14.354           145.690         72845.000
       193   07 Jun 2027 04:07:45.140   07 Jun 2027 04:08:14.791            29.651         14825.500
       194   07 Jun 2027 04:08:56.378   07 Jun 2027 04:08:58.186             1.808           904.000
       195   07 Jun 2027 05:41:59.518   07 Jun 2027 05:42:26.457            26.939         13469.500
       196   07 Jun 2027 05:42:47.741   07 Jun 2027 05:43:53.179            65.438         32559.187
       197   07 Jun 2027 05:45:27.648   07 Jun 2027 05:45:31.250             3.602          1801.000
       198   07 Jun 2027 07:05:21.651   07 Jun 2027 07:05:40.873            19.222          8771.094
       199   07 Jun 2027 07:06:48.073   07 Jun 2027 07:06:52.973             4.900          1774.844
       200   07 Jun 2027 07:07:56.857   07 Jun 2027 07:07:59.634             2.777          1388.500
       201   07 Jun 2027 08:41:51.552   07 Jun 2027 08:42:01.198             9.646          3073.781
       202   07 Jun 2027 08:42:32.346   07 Jun 2027 08:42:34.087             1.741           782.125
       203   07 Jun 2027 08:44:27.872   07 Jun 2027 08:44:37.158             9.286          2868.313
       204   07 Jun 2027 10:17:24.525   07 Jun 2027 10:17:24.525             0.000             0.000
       205   07 Jun 2027 10:18:14.507   07 Jun 2027 10:18:32.882            18.375          8704.656
       206   07 Jun 2027 10:18:48.985   07 Jun 2027 10:18:49.872             0.887           419.188
       207   07 Jun 2027 10:19:19.174   07 Jun 2027 10:19:22.442             3.268           821.344
       208   07 Jun 2027 10:19:38.658   07 Jun 2027 10:19:39.096             0.438           162.250
       209   07 Jun 2027 10:19:59.299   07 Jun 2027 10:20:03.625             4.326           552.375
       210   07 Jun 2027 10:21:59.850   07 Jun 2027 10:22:07.951             8.101          2934.594
       211   07 Jun 2027 10:23:19.044   07 Jun 2027 10:23:25.483             6.439          2095.844
       212   07 Jun 2027 10:23:30.888   07 Jun 2027 10:23:32.723             1.835           168.906
       213   07 Jun 2027 11:53:23.302   07 Jun 2027 11:53:40.739            17.437          7184.688
       214   07 Jun 2027 11:55:20.114   07 Jun 2027 11:55:22.493             2.379          1189.500
       215   07 Jun 2027 11:55:27.284   07 Jun 2027 11:55:35.263             7.979          1718.750
       216   07 Jun 2027 11:56:50.150   07 Jun 2027 11:56:54.209             4.059          2029.500
       217   07 Jun 2027 11:57:36.915   07 Jun 2027 11:57:42.034             5.119          1645.281
       218   07 Jun 2027 11:58:37.518   07 Jun 2027 11:58:40.129             2.611          1305.500
       219   07 Jun 2027 11:58:54.737   07 Jun 2027 11:58:56.513             1.776           672.750
       220   08 Jun 2027 04:15:44.388   08 Jun 2027 04:15:58.273            13.885          6942.500
       221   08 Jun 2027 04:16:46.767   08 Jun 2027 04:19:58.573           191.806         95903.000
       222   08 Jun 2027 04:21:20.266   08 Jun 2027 04:21:28.465             8.199          4099.500
       223   08 Jun 2027 04:23:57.254   08 Jun 2027 04:24:17.779            20.525         10262.500
       224   08 Jun 2027 05:53:55.507   08 Jun 2027 05:54:33.451            37.944         18972.000
       225   08 Jun 2027 05:55:03.029   08 Jun 2027 05:55:57.729            54.700         22892.500
       226   08 Jun 2027 05:56:35.321   08 Jun 2027 05:56:41.703             6.382          1022.406
       227   08 Jun 2027 07:18:04.651   08 Jun 2027 07:18:25.557            20.906          9950.344
       228   08 Jun 2027 07:20:13.391   08 Jun 2027 07:20:24.789            11.398          3018.406
       229   08 Jun 2027 08:54:00.476   08 Jun 2027 08:54:11.712            11.236          5258.938
       230   08 Jun 2027 08:55:02.436   08 Jun 2027 08:55:05.939             3.503          1571.687
       231   08 Jun 2027 08:55:33.339   08 Jun 2027 08:55:34.508             1.169           523.969
       232   08 Jun 2027 10:28:45.212   08 Jun 2027 10:28:57.813            12.601          5610.250
       233   08 Jun 2027 10:30:41.193   08 Jun 2027 10:30:41.193             0.000             0.000
       234   08 Jun 2027 10:31:08.352   08 Jun 2027 10:31:16.138             7.786          3653.438
       235   08 Jun 2027 10:31:39.943   08 Jun 2027 10:31:42.057             2.114           615.375
       236   08 Jun 2027 10:32:39.784   08 Jun 2027 10:32:50.466            10.682          1803.969
       237   08 Jun 2027 10:33:08.052   08 Jun 2027 10:33:09.609             1.557           450.313
       238   08 Jun 2027 10:33:14.142   08 Jun 2027 10:33:15.823             1.681           120.281
       239   08 Jun 2027 10:33:46.875   08 Jun 2027 10:33:51.123             4.248           944.406
       240   08 Jun 2027 10:35:22.829   08 Jun 2027 10:35:28.088             5.259          2588.875
       241   09 Jun 2027 04:28:49.843   09 Jun 2027 04:32:35.110           225.267        112633.500
       242   09 Jun 2027 04:33:01.086   09 Jun 2027 04:33:22.110            21.024         10512.000
       243   09 Jun 2027 04:35:48.256   09 Jun 2027 04:36:22.068            33.812         16906.000
       244   09 Jun 2027 05:54:50.914   09 Jun 2027 05:55:26.685            35.771         17885.500
       245   09 Jun 2027 06:05:51.763   09 Jun 2027 06:06:19.648            27.885         12021.406
       246   09 Jun 2027 06:06:40.702   09 Jun 2027 06:06:43.977             3.275           657.938
       247   09 Jun 2027 06:07:29.167   09 Jun 2027 06:07:31.915             2.748          1161.125
       248   09 Jun 2027 06:08:32.264   09 Jun 2027 06:08:37.416             5.152          1670.531
       249   09 Jun 2027 06:08:57.051   09 Jun 2027 06:08:57.927             0.876           360.562
       250   09 Jun 2027 07:28:52.016   09 Jun 2027 07:29:03.154            11.138          5278.719
       251   09 Jun 2027 07:29:45.707   09 Jun 2027 07:29:49.276             3.569          1195.719
       252   09 Jun 2027 07:30:03.839   09 Jun 2027 07:30:07.673             3.834           455.094
       253   09 Jun 2027 07:30:46.732   09 Jun 2027 07:30:53.558             6.826           795.625
       254   09 Jun 2027 07:31:50.123   09 Jun 2027 07:31:52.881             2.758          1220.719
       255   09 Jun 2027 07:32:18.901   09 Jun 2027 07:32:22.980             4.079           670.750
       256   09 Jun 2027 09:05:33.365   09 Jun 2027 09:05:47.769            14.404          7147.281
       257   09 Jun 2027 09:06:09.415   09 Jun 2027 09:06:11.043             1.628           638.438
       258   09 Jun 2027 09:06:57.003   09 Jun 2027 09:07:01.408             4.405          1429.937
       259   09 Jun 2027 09:08:19.690   09 Jun 2027 09:08:24.292             4.602          2301.000
       260   09 Jun 2027 09:09:26.002   09 Jun 2027 09:09:26.002             0.000             0.000
       261   09 Jun 2027 10:40:18.873   09 Jun 2027 10:40:31.921            13.048          6161.313
       262   09 Jun 2027 10:41:22.498   09 Jun 2027 10:41:31.849             9.351          1580.531
       263   09 Jun 2027 10:43:12.200   09 Jun 2027 10:43:12.200             0.000             0.000
       264   09 Jun 2027 10:44:08.282   09 Jun 2027 10:44:12.766             4.484          2242.000
       265   09 Jun 2027 10:45:59.470   09 Jun 2027 10:46:12.697            13.227          5867.094
       266   09 Jun 2027 10:46:18.702   09 Jun 2027 10:46:20.348             1.646           163.375
       267   09 Jun 2027 10:46:31.260   09 Jun 2027 10:46:35.166             3.906           331.469
       268   09 Jun 2027 10:47:02.329   09 Jun 2027 10:47:06.481             4.152           556.813
       269   10 Jun 2027 03:02:12.921   10 Jun 2027 03:03:28.672            75.751         37875.500
       270   10 Jun 2027 03:04:17.744   10 Jun 2027 03:04:29.512            11.768          5884.000
       271   10 Jun 2027 03:05:04.050   10 Jun 2027 03:05:11.750             7.700          3850.000
       272   10 Jun 2027 03:06:32.896   10 Jun 2027 03:07:03.568            30.672         15336.000
       273   10 Jun 2027 03:07:16.188   10 Jun 2027 03:07:27.165            10.977          5488.500
       274   10 Jun 2027 03:07:50.119   10 Jun 2027 03:07:52.983             2.864          1432.000
       275   10 Jun 2027 04:41:16.064   10 Jun 2027 04:43:37.178           141.114         70557.000
       276   10 Jun 2027 04:44:36.851   10 Jun 2027 04:44:56.361            19.510          9755.000
       277   10 Jun 2027 04:48:03.680   10 Jun 2027 04:48:26.369            22.689         11344.500
       278   10 Jun 2027 06:06:12.332   10 Jun 2027 06:06:41.779            29.447         14699.781
       279   10 Jun 2027 06:07:19.646   10 Jun 2027 06:07:22.946             3.300          1041.750
       280   10 Jun 2027 06:17:54.377   10 Jun 2027 06:18:08.485            14.108          5608.531
       281   10 Jun 2027 06:18:51.252   10 Jun 2027 06:18:55.682             4.430          1090.375
       282   10 Jun 2027 07:40:08.147   10 Jun 2027 07:40:23.384            15.237          6718.469
       283   10 Jun 2027 07:40:39.998   10 Jun 2027 07:40:41.605             1.607           399.438
       284   10 Jun 2027 07:40:53.326   10 Jun 2027 07:40:55.730             2.404           277.375
       285   10 Jun 2027 07:42:36.892   10 Jun 2027 07:42:43.079             6.187          2288.063
       286   10 Jun 2027 07:43:56.875   10 Jun 2027 07:44:02.106             5.231          2097.281
       287   10 Jun 2027 07:44:37.013   10 Jun 2027 07:44:42.546             5.533           471.812
       288   10 Jun 2027 09:15:15.534   10 Jun 2027 09:15:24.313             8.779          3500.906
       289   10 Jun 2027 09:16:00.890   10 Jun 2027 09:16:02.843             1.953           711.813
       290   10 Jun 2027 09:17:17.094   10 Jun 2027 09:17:21.616             4.522          1277.969
       291   10 Jun 2027 09:19:55.009   10 Jun 2027 09:19:55.009             0.000             0.000
       292   10 Jun 2027 09:20:28.692   10 Jun 2027 09:20:40.385            11.693          5362.250
       293   10 Jun 2027 09:21:07.680   10 Jun 2027 09:21:13.531             5.851           852.969
       294   10 Jun 2027 10:52:27.212   10 Jun 2027 10:52:35.487             8.275          4137.500
       295   10 Jun 2027 10:55:43.229   10 Jun 2027 10:55:56.111            12.882          6441.000
       296   10 Jun 2027 10:56:53.789   10 Jun 2027 10:56:58.896             5.107          1899.531
       297   10 Jun 2027 10:57:16.275   10 Jun 2027 10:57:18.315             2.040           465.125
       298   10 Jun 2027 10:57:59.923   10 Jun 2027 10:58:04.354             4.431           441.063
       299   10 Jun 2027 10:58:24.346   10 Jun 2027 10:58:26.268             1.922           181.719
       300   10 Jun 2027 10:58:47.867   10 Jun 2027 10:58:49.492             1.625           672.344
       301   10 Jun 2027 10:59:27.455   10 Jun 2027 10:59:32.620             5.165          1186.344
       302   10 Jun 2027 10:59:48.858   10 Jun 2027 10:59:52.018             3.160           485.156
       303   11 Jun 2027 03:14:30.465   11 Jun 2027 03:15:03.472            33.007         16503.500
       304   11 Jun 2027 03:15:03.692   11 Jun 2027 03:17:07.789           124.097         62048.500
       305   11 Jun 2027 03:17:16.547   11 Jun 2027 03:17:41.946            25.399         12699.500
       306   11 Jun 2027 03:19:53.461   11 Jun 2027 03:20:01.503             8.042          4021.000
       307   11 Jun 2027 04:53:29.964   11 Jun 2027 04:53:34.943             4.979          2489.500
       308   11 Jun 2027 04:54:13.835   11 Jun 2027 04:55:57.879           104.044         52022.000
       309   11 Jun 2027 04:56:21.782   11 Jun 2027 04:56:29.156             7.374          2562.062
       310   11 Jun 2027 04:56:44.258   11 Jun 2027 04:56:45.622             1.364           223.406
       311   11 Jun 2027 04:57:06.280   11 Jun 2027 04:57:07.814             1.534           148.031
       312   11 Jun 2027 04:57:48.447   11 Jun 2027 04:57:51.148             2.701          1101.844
       313   11 Jun 2027 04:58:55.751   11 Jun 2027 04:58:55.751             0.000             0.000
       314   11 Jun 2027 04:59:21.567   11 Jun 2027 04:59:24.161             2.594          1297.000
       315   11 Jun 2027 04:59:32.464   11 Jun 2027 04:59:36.918             4.454          1752.344
       316   11 Jun 2027 05:00:17.135   11 Jun 2027 05:00:18.327             1.192            45.281
       317   11 Jun 2027 06:17:38.491   11 Jun 2027 06:17:52.611            14.120          6441.781
       318   11 Jun 2027 06:18:47.967   11 Jun 2027 06:18:54.066             6.099          1665.188
       319   11 Jun 2027 06:19:16.609   11 Jun 2027 06:19:17.886             1.277           146.937
       320   11 Jun 2027 06:29:56.051   11 Jun 2027 06:30:06.668            10.617          3023.844
       321   11 Jun 2027 07:51:53.079   11 Jun 2027 07:52:07.968            14.889          7385.937
       322   11 Jun 2027 07:52:30.438   11 Jun 2027 07:52:37.151             6.713           454.406
       323   11 Jun 2027 07:53:07.861   11 Jun 2027 07:53:09.964             2.103           403.313
       324   11 Jun 2027 07:53:56.536   11 Jun 2027 07:53:58.377             1.841           513.437
       325   11 Jun 2027 07:54:36.130   11 Jun 2027 07:54:36.130             0.000             0.000
       326   11 Jun 2027 07:55:16.739   11 Jun 2027 07:55:23.626             6.887          2396.063
       327   11 Jun 2027 07:56:44.885   11 Jun 2027 07:56:49.918             5.033          2287.375
       328   11 Jun 2027 07:56:59.417   11 Jun 2027 07:57:01.498             2.081            43.219
       329   11 Jun 2027 09:26:45.177   11 Jun 2027 09:26:57.178            12.001          3880.063
       330   11 Jun 2027 09:28:18.991   11 Jun 2027 09:28:23.001             4.010          1573.563
       331   11 Jun 2027 09:30:06.860   11 Jun 2027 09:30:15.609             8.749          3224.500
       332   11 Jun 2027 09:32:16.088   11 Jun 2027 09:32:16.088             0.000             0.000
       333   11 Jun 2027 09:33:55.349   11 Jun 2027 09:34:11.313            15.964          6639.375
       334   11 Jun 2027 11:04:29.099   11 Jun 2027 11:04:41.993            12.894          4995.719
       335   11 Jun 2027 11:05:37.959   11 Jun 2027 11:05:42.883             4.924           420.688
       336   11 Jun 2027 11:06:43.533   11 Jun 2027 11:06:51.396             7.863          1336.188
       337   11 Jun 2027 11:07:29.007   11 Jun 2027 11:07:31.834             2.827           423.563
       338   11 Jun 2027 11:10:35.186   11 Jun 2027 11:10:48.545            13.359          5694.781
       339   11 Jun 2027 11:11:04.687   11 Jun 2027 11:11:06.672             1.985           504.437
       340   11 Jun 2027 11:11:25.393   11 Jun 2027 11:11:26.520             1.127           202.969
       341   11 Jun 2027 11:11:43.427   11 Jun 2027 11:11:54.050            10.623           501.312
       342   12 Jun 2027 03:27:16.430   12 Jun 2027 03:27:40.890            24.460         12230.000
       343   12 Jun 2027 03:27:43.702   12 Jun 2027 03:29:01.181            77.479         38739.500
       344   12 Jun 2027 03:29:04.197   12 Jun 2027 03:30:43.286            99.089         49544.500
       345   12 Jun 2027 03:31:11.682   12 Jun 2027 03:31:15.626             3.944          1972.000
       346   12 Jun 2027 03:31:18.418   12 Jun 2027 03:31:18.730             0.312           156.000
       347   12 Jun 2027 03:32:23.943   12 Jun 2027 03:32:37.140            13.197          6598.500
       348   12 Jun 2027 05:05:39.408   12 Jun 2027 05:07:01.162            81.754         40877.000
       349   12 Jun 2027 05:07:10.485   12 Jun 2027 05:07:13.433             2.948          1382.719
       350   12 Jun 2027 05:07:28.394   12 Jun 2027 05:07:28.970             0.576           128.250
       351   12 Jun 2027 05:08:32.620   12 Jun 2027 05:08:32.620             0.000             0.000
       352   12 Jun 2027 05:08:35.933   12 Jun 2027 05:08:39.979             4.046           681.344
       353   12 Jun 2027 05:09:28.246   12 Jun 2027 05:09:31.117             2.871          1272.125
       354   12 Jun 2027 05:10:10.161   12 Jun 2027 05:10:12.429             2.268           936.219
       355   12 Jun 2027 05:11:24.493   12 Jun 2027 05:11:29.452             4.959          1443.594
       356   12 Jun 2027 06:29:42.849   12 Jun 2027 06:30:00.063            17.214          6690.688
       357   12 Jun 2027 06:30:29.281   12 Jun 2027 06:30:29.281             0.000             0.000
       358   12 Jun 2027 06:30:34.953   12 Jun 2027 06:30:38.180             3.227           897.250
       359   12 Jun 2027 06:31:40.100   12 Jun 2027 06:31:40.100             0.000             0.000
       360   12 Jun 2027 08:03:28.712   12 Jun 2027 08:03:44.466            15.754          7838.531
       361   12 Jun 2027 08:05:21.564   12 Jun 2027 08:05:26.265             4.701          1500.031
       362   12 Jun 2027 08:05:49.549   12 Jun 2027 08:05:51.093             1.544           713.937
       363   12 Jun 2027 08:06:26.922   12 Jun 2027 08:06:32.853             5.931          1119.656
       364   12 Jun 2027 08:07:22.637   12 Jun 2027 08:07:25.824             3.187          1499.719
       365   12 Jun 2027 08:08:27.489   12 Jun 2027 08:08:29.750             2.261          1061.844
       366   12 Jun 2027 09:39:29.651   12 Jun 2027 09:39:39.023             9.372          4561.375
       367   12 Jun 2027 09:40:50.338   12 Jun 2027 09:40:52.821             2.483           529.812
       368   12 Jun 2027 09:41:59.744   12 Jun 2027 09:42:02.999             3.255          1627.500
       369   12 Jun 2027 09:44:20.869   12 Jun 2027 09:44:36.934            16.065          4324.250
       370   12 Jun 2027 09:45:05.211   12 Jun 2027 09:45:08.438             3.227           883.656
       371   12 Jun 2027 09:45:32.352   12 Jun 2027 09:45:38.103             5.751           638.438
       372   12 Jun 2027 09:46:14.536   12 Jun 2027 09:46:16.866             2.330           751.219
       373   12 Jun 2027 09:47:21.892   12 Jun 2027 09:47:25.843             3.951          1890.719
       374   12 Jun 2027 09:47:33.993   12 Jun 2027 09:47:35.658             1.665            77.125
       375   12 Jun 2027 11:16:32.700   12 Jun 2027 11:16:46.610            13.910          4897.188
       376   12 Jun 2027 11:17:33.741   12 Jun 2027 11:17:38.009             4.268           930.813
       377   12 Jun 2027 11:18:09.340   12 Jun 2027 11:18:10.892             1.552           616.781
       378   12 Jun 2027 11:18:59.007   12 Jun 2027 11:19:02.048             3.041           908.250
       379   12 Jun 2027 11:19:32.360   12 Jun 2027 11:19:39.010             6.650           537.688
       380   12 Jun 2027 11:19:45.155   12 Jun 2027 11:19:48.495             3.340           185.344
       381   12 Jun 2027 11:20:18.407   12 Jun 2027 11:20:19.867             1.460           366.563
       382   12 Jun 2027 11:21:00.139   12 Jun 2027 11:21:08.391             8.252          1258.500
       383   12 Jun 2027 11:21:20.138   12 Jun 2027 11:21:22.192             2.054            81.438
       384   12 Jun 2027 11:21:43.295   12 Jun 2027 11:21:50.122             6.827           659.469
       385   12 Jun 2027 11:22:40.948   12 Jun 2027 11:22:49.942             8.994          1588.313
       386   12 Jun 2027 11:23:17.315   12 Jun 2027 11:23:17.315             0.000             0.000
       387   12 Jun 2027 11:23:34.096   12 Jun 2027 11:23:37.408             3.312          1379.813
       388   13 Jun 2027 03:39:50.838   13 Jun 2027 03:40:39.788            48.950         24475.000
       389   13 Jun 2027 03:40:49.627   13 Jun 2027 03:41:32.368            42.741         21370.500
       390   13 Jun 2027 03:41:33.088   13 Jun 2027 03:43:50.199           137.111         68555.500
       391   13 Jun 2027 03:44:33.669   13 Jun 2027 03:44:43.305             9.636          4818.000
       392   13 Jun 2027 05:18:13.320   13 Jun 2027 05:19:24.156            70.836         34816.469
       393   13 Jun 2027 05:19:29.810   13 Jun 2027 05:19:31.535             1.725           115.312
       394   13 Jun 2027 05:20:46.543   13 Jun 2027 05:20:51.539             4.996          1848.812
       395   13 Jun 2027 05:21:54.977   13 Jun 2027 05:22:02.050             7.073          1801.687
       396   13 Jun 2027 05:22:27.153   13 Jun 2027 05:22:28.529             1.376           577.844
       397   13 Jun 2027 06:41:37.842   13 Jun 2027 06:41:53.179            15.337          5644.531
       398   13 Jun 2027 06:42:58.942   13 Jun 2027 06:43:04.234             5.292          1830.656
       399   13 Jun 2027 06:43:53.818   13 Jun 2027 06:43:58.795             4.977          1421.094
       400   13 Jun 2027 08:17:57.415   13 Jun 2027 08:18:14.625            17.210          8605.000
       401   13 Jun 2027 08:18:28.137   13 Jun 2027 08:18:32.272             4.135          1952.281
       402   13 Jun 2027 08:19:30.678   13 Jun 2027 08:19:38.483             7.805          1825.188
       403   13 Jun 2027 08:20:12.499   13 Jun 2027 08:20:16.340             3.841           739.313
       404   13 Jun 2027 08:20:58.856   13 Jun 2027 08:21:01.702             2.846           902.000
       405   13 Jun 2027 09:51:27.944   13 Jun 2027 09:51:38.937            10.993          4923.281
       406   13 Jun 2027 09:52:14.888   13 Jun 2027 09:52:17.278             2.390           301.000
       407   13 Jun 2027 09:52:54.892   13 Jun 2027 09:52:54.892             0.000             0.000
       408   13 Jun 2027 09:53:21.323   13 Jun 2027 09:53:29.555             8.232          1476.000
       409   13 Jun 2027 09:53:57.650   13 Jun 2027 09:53:57.650             0.000             0.000
       410   13 Jun 2027 09:56:20.034   13 Jun 2027 09:56:28.983             8.949          4474.500
       411   13 Jun 2027 09:57:05.865   13 Jun 2027 09:57:09.984             4.119          1325.969
       412   13 Jun 2027 09:57:30.123   13 Jun 2027 09:57:37.801             7.678           564.219
       413   13 Jun 2027 09:58:55.601   13 Jun 2027 09:59:01.526             5.925          2228.156
       414   13 Jun 2027 09:59:11.356   13 Jun 2027 09:59:13.234             1.878           188.594
       415   13 Jun 2027 09:59:58.016   13 Jun 2027 09:59:59.323             1.307           653.500
       416   13 Jun 2027 11:28:58.751   13 Jun 2027 11:29:14.934            16.183          7098.969
       417   13 Jun 2027 11:29:36.197   13 Jun 2027 11:29:37.424             1.227           537.219
       418   13 Jun 2027 11:30:55.639   13 Jun 2027 11:31:00.497             4.858          2043.156
       419   13 Jun 2027 11:31:50.392   13 Jun 2027 11:31:55.525             5.133          1127.094
       420   13 Jun 2027 11:32:10.775   13 Jun 2027 11:32:16.847             6.072           427.313
       421   13 Jun 2027 11:33:44.281   13 Jun 2027 11:33:48.398             4.117          1918.875
       422   13 Jun 2027 11:34:23.818   13 Jun 2027 11:34:39.880            16.062          1106.875
       423   13 Jun 2027 11:35:13.282   13 Jun 2027 11:35:15.576             2.294          1006.937
