uniorb/output/strategy_2/Camera/Camera_KinoSat_110109.txt

KinoSat_110109
-------------------------
    Access    *     Start Time (UTCG)     *     Stop Time (UTCG)  *   Duration (s) *   Data (Mbytes)
         1   01 Jun 2027 03:28:05.142   01 Jun 2027 03:28:08.066             2.924          1462.000
         2   01 Jun 2027 03:28:50.518   01 Jun 2027 03:28:50.716             0.198            99.000
         3   01 Jun 2027 03:29:01.990   01 Jun 2027 03:29:11.923             9.933          4966.500
         4   01 Jun 2027 03:30:07.414   01 Jun 2027 03:30:09.600             2.186          1093.000
         5   01 Jun 2027 03:30:45.359   01 Jun 2027 03:31:06.538            21.179         10589.500
         6   01 Jun 2027 03:32:50.591   01 Jun 2027 03:33:09.957            19.366          9683.000
         7   01 Jun 2027 03:34:47.752   01 Jun 2027 03:34:48.067             0.315           157.500
         8   01 Jun 2027 05:05:36.239   01 Jun 2027 05:05:36.765             0.526           263.000
         9   01 Jun 2027 05:06:13.351   01 Jun 2027 05:06:18.025             4.674          2337.000
        10   01 Jun 2027 05:06:51.453   01 Jun 2027 05:06:53.263             1.810           905.000
        11   01 Jun 2027 05:07:20.972   01 Jun 2027 05:07:39.051            18.079          9039.500
        12   01 Jun 2027 05:08:51.497   01 Jun 2027 05:08:52.352             0.855           427.500
        13   01 Jun 2027 05:09:04.734   01 Jun 2027 05:09:08.480             3.746          1873.000
        14   01 Jun 2027 05:09:28.886   01 Jun 2027 05:09:36.043             7.157          3578.500
        15   01 Jun 2027 06:41:54.590   01 Jun 2027 06:42:02.990             8.400          4200.000
        16   01 Jun 2027 06:42:50.734   01 Jun 2027 06:42:59.617             8.883          4441.500
        17   01 Jun 2027 06:43:46.745   01 Jun 2027 06:44:03.227            16.482          8241.000
        18   01 Jun 2027 06:45:10.952   01 Jun 2027 06:45:24.125            13.173          6586.500
        19   01 Jun 2027 06:46:28.817   01 Jun 2027 06:46:41.431            12.614          6307.000
        20   01 Jun 2027 08:20:08.886   01 Jun 2027 08:20:31.159            22.273         11136.500
        21   02 Jun 2027 03:40:39.707   02 Jun 2027 03:40:47.927             8.220          4110.000
        22   02 Jun 2027 03:41:33.157   02 Jun 2027 03:41:52.072            18.915          9457.500
        23   02 Jun 2027 03:42:52.791   02 Jun 2027 03:42:55.811             3.020          1510.000
        24   02 Jun 2027 03:43:27.845   02 Jun 2027 03:43:38.491            10.646          5323.000
        25   02 Jun 2027 03:44:38.595   02 Jun 2027 03:44:46.431             7.836          3918.000
        26   02 Jun 2027 03:45:19.477   02 Jun 2027 03:45:26.024             6.547          3273.500
        27   02 Jun 2027 03:45:57.759   02 Jun 2027 03:46:12.850            15.091          7545.500
        28   02 Jun 2027 05:18:02.567   02 Jun 2027 05:18:03.577             1.010           505.000
        29   02 Jun 2027 05:18:40.770   02 Jun 2027 05:18:45.266             4.496          2248.000
        30   02 Jun 2027 05:19:06.742   02 Jun 2027 05:19:11.894             5.152          2576.000
        31   02 Jun 2027 05:20:07.608   02 Jun 2027 05:20:19.561            11.953          5976.500
        32   02 Jun 2027 05:21:12.605   02 Jun 2027 05:21:23.644            11.039          5519.500
        33   02 Jun 2027 06:54:11.957   02 Jun 2027 06:54:13.934             1.977           988.500
        34   02 Jun 2027 06:55:15.866   02 Jun 2027 06:55:25.438             9.572          4786.000
        35   02 Jun 2027 06:56:33.841   02 Jun 2027 06:56:40.710             6.869          3434.500
        36   02 Jun 2027 06:57:17.240   02 Jun 2027 06:57:27.516            10.276          5138.000
        37   02 Jun 2027 06:58:45.374   02 Jun 2027 06:58:49.416             4.042          2021.000
        38   03 Jun 2027 03:52:16.757   03 Jun 2027 03:52:43.111            26.354         13177.000
        39   03 Jun 2027 03:54:05.349   03 Jun 2027 03:54:05.474             0.125            62.500
        40   03 Jun 2027 03:54:19.396   03 Jun 2027 03:54:21.130             1.734           867.000
        41   03 Jun 2027 03:55:55.587   03 Jun 2027 03:56:00.847             5.260          2630.000
        42   03 Jun 2027 03:56:50.949   03 Jun 2027 03:56:50.962             0.013             6.500
        43   03 Jun 2027 03:57:03.364   03 Jun 2027 03:57:10.727             7.363          3681.500
        44   03 Jun 2027 03:57:47.599   03 Jun 2027 03:58:12.039            24.440         12220.000
        45   03 Jun 2027 05:30:15.385   03 Jun 2027 05:30:19.166             3.781          1890.500
        46   03 Jun 2027 05:31:44.329   03 Jun 2027 05:31:52.098             7.769          3884.500
        47   03 Jun 2027 05:32:38.310   03 Jun 2027 05:32:45.595             7.285          3642.500
        48   03 Jun 2027 05:33:21.544   03 Jun 2027 05:33:25.863             4.319          2159.500
        49   03 Jun 2027 05:33:43.702   03 Jun 2027 05:34:03.283            19.581          9790.500
        50   03 Jun 2027 07:06:06.412   03 Jun 2027 07:06:11.680             5.268          2634.000
        51   03 Jun 2027 07:06:57.308   03 Jun 2027 07:06:58.044             0.736           368.000
        52   03 Jun 2027 07:07:08.624   03 Jun 2027 07:07:11.374             2.750          1375.000
        53   03 Jun 2027 07:07:45.553   03 Jun 2027 07:07:50.972             5.419          2709.500
        54   03 Jun 2027 07:08:22.094   03 Jun 2027 07:08:27.309             5.215          2607.500
        55   03 Jun 2027 07:09:16.232   03 Jun 2027 07:09:18.084             1.852           926.000
        56   03 Jun 2027 07:09:29.719   03 Jun 2027 07:09:29.764             0.045            22.500
        57   03 Jun 2027 07:09:45.627   03 Jun 2027 07:09:53.016             7.389          3694.500
        58   03 Jun 2027 07:10:11.070   03 Jun 2027 07:10:14.460             3.390          1695.000
        59   03 Jun 2027 07:10:54.000   03 Jun 2027 07:10:59.262             5.262          2631.000
        60   04 Jun 2027 04:04:27.247   04 Jun 2027 04:04:40.610            13.363          6681.500
        61   04 Jun 2027 04:05:35.140   04 Jun 2027 04:05:56.514            21.374         10687.000
        62   04 Jun 2027 04:08:05.103   04 Jun 2027 04:08:06.056             0.953           476.500
        63   04 Jun 2027 04:08:13.156   04 Jun 2027 04:08:22.780             9.624          4812.000
        64   04 Jun 2027 04:09:33.235   04 Jun 2027 04:09:45.129            11.894          5947.000
        65   04 Jun 2027 04:10:45.552   04 Jun 2027 04:10:46.204             0.652           326.000
        66   04 Jun 2027 05:42:37.596   04 Jun 2027 05:42:51.089            13.493          6746.500
        67   04 Jun 2027 05:43:52.903   04 Jun 2027 05:44:00.021             7.118          3559.000
        68   04 Jun 2027 05:44:46.789   04 Jun 2027 05:44:50.845             4.056          2028.000
        69   04 Jun 2027 05:45:00.830   04 Jun 2027 05:45:02.522             1.692           846.000
        70   04 Jun 2027 05:45:31.144   04 Jun 2027 05:45:32.419             1.275           637.500
        71   04 Jun 2027 05:46:03.002   04 Jun 2027 05:46:15.109            12.107          6053.500
        72   04 Jun 2027 07:15:54.796   04 Jun 2027 07:16:13.693            18.897          9448.500
        73   04 Jun 2027 07:16:35.646   04 Jun 2027 07:16:45.443             9.797          4898.500
        74   04 Jun 2027 07:18:47.234   04 Jun 2027 07:18:50.750             3.516          1758.000
        75   04 Jun 2027 07:19:10.915   04 Jun 2027 07:19:12.979             2.064          1032.000
        76   04 Jun 2027 07:20:06.269   04 Jun 2027 07:20:11.103             4.834          2417.000
        77   04 Jun 2027 07:20:53.832   04 Jun 2027 07:20:53.998             0.166            83.000
        78   04 Jun 2027 07:21:05.520   04 Jun 2027 07:21:13.238             7.718          3859.000
        79   04 Jun 2027 07:21:45.222   04 Jun 2027 07:21:49.453             4.231          2115.500
        80   04 Jun 2027 07:22:11.644   04 Jun 2027 07:22:16.582             4.938          2469.000
        81   04 Jun 2027 07:22:18.730   04 Jun 2027 07:22:20.835             2.105          1052.500
        82   04 Jun 2027 07:22:52.461   04 Jun 2027 07:22:52.461             0.000             0.000
        83   04 Jun 2027 07:22:56.954   04 Jun 2027 07:22:59.762             2.808          1404.000
        84   04 Jun 2027 07:23:10.517   04 Jun 2027 07:23:21.033            10.516          5258.000
        85   04 Jun 2027 07:23:38.478   04 Jun 2027 07:23:40.796             2.318          1159.000
        86   05 Jun 2027 04:16:42.603   05 Jun 2027 04:16:51.155             8.552          4276.000
        87   05 Jun 2027 04:17:41.361   05 Jun 2027 04:18:04.940            23.579         11789.500
        88   05 Jun 2027 04:19:58.089   05 Jun 2027 04:19:59.140             1.051           525.500
        89   05 Jun 2027 04:20:24.308   05 Jun 2027 04:20:28.491             4.183          2091.500
        90   05 Jun 2027 04:20:36.481   05 Jun 2027 04:20:49.228            12.747          6373.500
        91   05 Jun 2027 04:21:51.009   05 Jun 2027 04:22:05.921            14.912          7456.000
        92   05 Jun 2027 05:54:38.875   05 Jun 2027 05:54:48.355             9.480          4740.000
        93   05 Jun 2027 05:55:40.540   05 Jun 2027 05:55:41.521             0.981           490.500
        94   05 Jun 2027 05:56:11.813   05 Jun 2027 05:56:12.807             0.994           497.000
        95   05 Jun 2027 05:56:17.728   05 Jun 2027 05:56:23.373             5.645          2822.500
        96   05 Jun 2027 05:57:01.232   05 Jun 2027 05:57:04.663             3.431          1715.500
        97   05 Jun 2027 05:57:44.312   05 Jun 2027 05:57:53.491             9.179          4589.500
        98   05 Jun 2027 07:28:00.618   05 Jun 2027 07:28:19.614            18.996          9498.000
        99   05 Jun 2027 07:28:38.149   05 Jun 2027 07:28:46.078             7.929          3964.500
       100   05 Jun 2027 07:30:37.855   05 Jun 2027 07:30:46.263             8.408          4204.000
       101   05 Jun 2027 07:31:33.252   05 Jun 2027 07:31:44.122            10.870          5435.000
       102   05 Jun 2027 07:32:41.482   05 Jun 2027 07:32:44.737             3.255          1627.500
       103   05 Jun 2027 07:32:58.439   05 Jun 2027 07:33:02.090             3.651          1825.500
       104   05 Jun 2027 07:33:14.167   05 Jun 2027 07:33:16.208             2.041          1020.500
       105   05 Jun 2027 07:33:33.850   05 Jun 2027 07:33:37.111             3.261          1630.500
       106   05 Jun 2027 07:34:21.540   05 Jun 2027 07:34:27.528             5.988          2994.000
       107   05 Jun 2027 07:34:53.335   05 Jun 2027 07:34:56.898             3.563          1781.500
       108   06 Jun 2027 04:28:33.558   06 Jun 2027 04:28:34.428             0.870           435.000
       109   06 Jun 2027 04:28:43.236   06 Jun 2027 04:28:56.666            13.430          6715.000
       110   06 Jun 2027 04:29:35.912   06 Jun 2027 04:29:46.228            10.316          5158.000
       111   06 Jun 2027 04:30:53.245   06 Jun 2027 04:30:55.878             2.633          1316.500
       112   06 Jun 2027 04:31:32.858   06 Jun 2027 04:31:46.301            13.443          6721.500
       113   06 Jun 2027 04:32:46.310   06 Jun 2027 04:32:47.860             1.550           775.000
       114   06 Jun 2027 04:33:25.249   06 Jun 2027 04:33:36.091            10.842          5421.000
       115   06 Jun 2027 04:34:53.147   06 Jun 2027 04:34:55.389             2.242          1121.000
       116   06 Jun 2027 04:34:56.453   06 Jun 2027 04:35:16.697            20.244         10122.000
       117   06 Jun 2027 06:06:35.906   06 Jun 2027 06:06:45.394             9.488          4744.000
       118   06 Jun 2027 06:07:28.246   06 Jun 2027 06:07:32.372             4.126          2063.000
       119   06 Jun 2027 06:08:07.321   06 Jun 2027 06:08:10.587             3.266          1633.000
       120   06 Jun 2027 06:08:37.080   06 Jun 2027 06:08:46.055             8.975          4487.500
       121   06 Jun 2027 06:09:24.831   06 Jun 2027 06:09:32.921             8.090          4045.000
       122   06 Jun 2027 06:10:11.519   06 Jun 2027 06:10:14.014             2.495          1247.500
       123   06 Jun 2027 06:10:38.161   06 Jun 2027 06:10:40.603             2.442          1221.000
       124   06 Jun 2027 07:40:26.919   06 Jun 2027 07:40:48.209            21.290         10645.000
       125   06 Jun 2027 07:42:29.202   06 Jun 2027 07:42:50.613            21.411         10705.500
       126   06 Jun 2027 07:44:28.843   06 Jun 2027 07:44:45.938            17.095          8547.500
       127   06 Jun 2027 07:46:04.484   06 Jun 2027 07:46:15.091            10.607          5303.500
       128   07 Jun 2027 03:03:48.832   07 Jun 2027 03:03:49.076             0.244           122.000
       129   07 Jun 2027 03:03:49.439   07 Jun 2027 03:03:55.294             5.855          2927.500
       130   07 Jun 2027 03:04:36.219   07 Jun 2027 03:04:36.793             0.574           287.000
       131   07 Jun 2027 03:05:14.007   07 Jun 2027 03:05:30.167            16.160          8080.000
       132   07 Jun 2027 03:06:36.730   07 Jun 2027 03:06:38.824             2.094          1047.000
       133   07 Jun 2027 03:06:49.561   07 Jun 2027 03:06:54.827             5.266          2633.000
       134   07 Jun 2027 03:07:25.172   07 Jun 2027 03:07:25.581             0.409           204.500
       135   07 Jun 2027 03:07:27.094   07 Jun 2027 03:07:32.845             5.751          2875.500
       136   07 Jun 2027 03:08:01.150   07 Jun 2027 03:08:13.710            12.560          6280.000
       137   07 Jun 2027 03:09:06.544   07 Jun 2027 03:09:07.034             0.490           245.000
       138   07 Jun 2027 03:09:33.032   07 Jun 2027 03:09:33.703             0.671           335.500
       139   07 Jun 2027 03:09:40.311   07 Jun 2027 03:09:40.547             0.236           118.000
       140   07 Jun 2027 03:09:52.019   07 Jun 2027 03:10:00.244             8.225          4112.500
       141   07 Jun 2027 03:10:53.218   07 Jun 2027 03:11:01.042             7.824          3912.000
       142   07 Jun 2027 04:40:43.938   07 Jun 2027 04:40:53.965            10.027          5013.500
       143   07 Jun 2027 04:41:51.614   07 Jun 2027 04:42:09.069            17.455          8727.500
       144   07 Jun 2027 04:43:50.515   07 Jun 2027 04:43:50.619             0.104            52.000
       145   07 Jun 2027 04:44:20.678   07 Jun 2027 04:44:22.821             2.143          1071.500
       146   07 Jun 2027 04:44:58.261   07 Jun 2027 04:45:06.484             8.223          4111.500
       147   07 Jun 2027 04:46:08.728   07 Jun 2027 04:46:14.418             5.690          2845.000
       148   07 Jun 2027 04:46:50.919   07 Jun 2027 04:46:54.614             3.695          1847.500
       149   07 Jun 2027 06:17:50.892   07 Jun 2027 06:17:51.743             0.851           425.500
       150   07 Jun 2027 06:18:28.369   07 Jun 2027 06:18:39.430            11.061          5530.500
       151   07 Jun 2027 06:19:51.900   07 Jun 2027 06:19:52.919             1.019           509.500
       152   07 Jun 2027 06:20:08.409   07 Jun 2027 06:20:09.994             1.585           792.500
       153   07 Jun 2027 06:20:31.135   07 Jun 2027 06:20:33.908             2.773          1386.500
       154   07 Jun 2027 06:20:54.059   07 Jun 2027 06:20:59.942             5.883          2941.500
       155   07 Jun 2027 06:21:23.782   07 Jun 2027 06:21:28.331             4.549          2274.500
       156   07 Jun 2027 06:22:02.635   07 Jun 2027 06:22:03.086             0.451           225.500
       157   07 Jun 2027 06:22:29.067   07 Jun 2027 06:22:29.171             0.104            52.000
       158   07 Jun 2027 06:22:32.506   07 Jun 2027 06:22:35.901             3.395          1697.500
       159   07 Jun 2027 07:52:45.898   07 Jun 2027 07:52:51.890             5.992          2996.000
       160   07 Jun 2027 07:53:21.114   07 Jun 2027 07:53:32.817            11.703          5851.500
       161   07 Jun 2027 07:55:20.083   07 Jun 2027 07:55:26.768             6.685          3342.500
       162   07 Jun 2027 07:56:20.444   07 Jun 2027 07:56:42.450            22.006         11003.000
       163   08 Jun 2027 03:16:15.731   08 Jun 2027 03:16:16.614             0.883           441.500
       164   08 Jun 2027 03:16:22.970   08 Jun 2027 03:16:23.719             0.749           374.500
       165   08 Jun 2027 03:16:59.652   08 Jun 2027 03:17:14.564            14.912          7456.000
       166   08 Jun 2027 03:18:20.453   08 Jun 2027 03:18:21.036             0.583           291.500
       167   08 Jun 2027 03:19:25.534   08 Jun 2027 03:19:27.086             1.552           776.000
       168   08 Jun 2027 03:19:51.440   08 Jun 2027 03:19:59.971             8.531          4265.500
       169   08 Jun 2027 03:21:18.131   08 Jun 2027 03:21:24.311             6.180          3090.000
       170   08 Jun 2027 03:22:05.192   08 Jun 2027 03:22:17.632            12.440          6220.000
       171   08 Jun 2027 04:53:10.322   08 Jun 2027 04:53:40.879            30.557         15278.500
       172   08 Jun 2027 04:55:46.156   08 Jun 2027 04:55:53.539             7.383          3691.500
       173   08 Jun 2027 04:56:33.527   08 Jun 2027 04:56:36.723             3.196          1598.000
       174   08 Jun 2027 04:57:00.492   08 Jun 2027 04:57:05.471             4.979          2489.500
       175   08 Jun 2027 04:57:48.105   08 Jun 2027 04:57:50.091             1.986           993.000
       176   08 Jun 2027 04:58:01.587   08 Jun 2027 04:58:04.334             2.747          1373.500
       177   08 Jun 2027 04:58:10.736   08 Jun 2027 04:58:17.772             7.036          3518.000
       178   08 Jun 2027 04:58:54.608   08 Jun 2027 04:58:55.168             0.560           280.000
       179   08 Jun 2027 06:30:03.227   08 Jun 2027 06:30:05.768             2.541          1270.500
       180   08 Jun 2027 06:30:35.516   08 Jun 2027 06:30:36.012             0.496           248.000
       181   08 Jun 2027 06:30:47.431   08 Jun 2027 06:31:00.175            12.744          6372.000
       182   08 Jun 2027 06:32:16.340   08 Jun 2027 06:32:17.644             1.304           652.000
       183   08 Jun 2027 06:32:31.307   08 Jun 2027 06:32:47.440            16.133          8066.500
       184   08 Jun 2027 06:34:20.806   08 Jun 2027 06:34:21.629             0.823           411.500
       185   08 Jun 2027 08:07:13.904   08 Jun 2027 08:07:31.900            17.996          8998.000
       186   08 Jun 2027 08:08:47.031   08 Jun 2027 08:09:21.904            34.873         17436.500
       187   08 Jun 2027 08:09:26.265   08 Jun 2027 08:09:40.602            14.337          7168.500
       188   09 Jun 2027 03:28:20.445   09 Jun 2027 03:28:24.241             3.796          1898.000
       189   09 Jun 2027 03:29:09.115   09 Jun 2027 03:29:19.876            10.761          5380.500
       190   09 Jun 2027 03:29:49.346   09 Jun 2027 03:29:49.643             0.297           148.500
       191   09 Jun 2027 03:30:02.726   09 Jun 2027 03:30:02.962             0.236           118.000
       192   09 Jun 2027 03:30:23.136   09 Jun 2027 03:30:24.484             1.348           674.000
       193   09 Jun 2027 03:31:00.752   09 Jun 2027 03:31:22.057            21.305         10652.500
       194   09 Jun 2027 03:32:42.411   09 Jun 2027 03:32:58.898            16.487          8243.500
       195   09 Jun 2027 03:34:09.780   09 Jun 2027 03:34:10.072             0.292           146.000
       196   09 Jun 2027 03:34:39.564   09 Jun 2027 03:34:49.876            10.312          5156.000
       197   09 Jun 2027 05:05:53.254   09 Jun 2027 05:06:04.100            10.846          5423.000
       198   09 Jun 2027 05:06:55.675   09 Jun 2027 05:07:04.971             9.296          4648.000
       199   09 Jun 2027 05:08:01.347   09 Jun 2027 05:08:02.770             1.423           711.500
       200   09 Jun 2027 05:08:17.359   09 Jun 2027 05:08:18.586             1.227           613.500
       201   09 Jun 2027 05:08:31.883   09 Jun 2027 05:08:38.215             6.332          3166.000
       202   09 Jun 2027 05:09:08.884   09 Jun 2027 05:09:09.370             0.486           243.000
       203   09 Jun 2027 05:09:20.379   09 Jun 2027 05:09:23.028             2.649          1324.500
       204   09 Jun 2027 05:09:48.401   09 Jun 2027 05:09:51.743             3.342          1671.000
       205   09 Jun 2027 06:42:10.649   09 Jun 2027 06:42:17.435             6.786          3393.000
       206   09 Jun 2027 06:43:04.883   09 Jun 2027 06:43:17.567            12.684          6342.000
       207   09 Jun 2027 06:44:35.401   09 Jun 2027 06:44:46.693            11.292          5646.000
       208   09 Jun 2027 06:45:40.020   09 Jun 2027 06:45:40.517             0.497           248.500
       209   09 Jun 2027 06:46:13.089   09 Jun 2027 06:46:13.502             0.413           206.500
       210   09 Jun 2027 08:20:46.372   09 Jun 2027 08:20:54.448             8.076          4038.000
       211   10 Jun 2027 03:40:55.096   10 Jun 2027 03:40:58.260             3.164          1582.000
       212   10 Jun 2027 03:41:03.611   10 Jun 2027 03:41:03.756             0.145            72.500
       213   10 Jun 2027 03:41:17.453   10 Jun 2027 03:41:21.334             3.881          1940.500
       214   10 Jun 2027 03:41:50.694   10 Jun 2027 03:42:08.028            17.334          8667.000
       215   10 Jun 2027 03:43:17.527   10 Jun 2027 03:43:23.879             6.352          3176.000
       216   10 Jun 2027 03:44:12.632   10 Jun 2027 03:44:15.461             2.829          1414.500
       217   10 Jun 2027 03:44:50.476   10 Jun 2027 03:45:01.058            10.582          5291.000
       218   10 Jun 2027 03:45:16.177   10 Jun 2027 03:45:24.799             8.622          4311.000
       219   10 Jun 2027 03:46:37.976   10 Jun 2027 03:46:47.726             9.750          4875.000
       220   10 Jun 2027 05:18:16.751   10 Jun 2027 05:18:22.836             6.085          3042.500
       221   10 Jun 2027 05:18:55.265   10 Jun 2027 05:18:56.029             0.764           382.000
       222   10 Jun 2027 05:18:59.997   10 Jun 2027 05:19:02.334             2.337          1168.500
       223   10 Jun 2027 05:19:21.871   10 Jun 2027 05:19:29.417             7.546          3773.000
       224   10 Jun 2027 05:20:22.682   10 Jun 2027 05:20:34.936            12.254          6127.000
       225   10 Jun 2027 05:21:28.277   10 Jun 2027 05:21:39.203            10.926          5463.000
       226   10 Jun 2027 06:54:27.327   10 Jun 2027 06:54:36.698             9.371          4685.500
       227   10 Jun 2027 06:55:35.902   10 Jun 2027 06:55:39.930             4.028          2014.000
       228   10 Jun 2027 06:55:50.620   10 Jun 2027 06:55:52.062             1.442           721.000
       229   10 Jun 2027 06:56:33.908   10 Jun 2027 06:56:36.118             2.210          1105.000
       230   10 Jun 2027 06:56:47.271   10 Jun 2027 06:56:48.625             1.354           677.000
       231   10 Jun 2027 06:57:18.727   10 Jun 2027 06:57:20.211             1.484           742.000
       232   10 Jun 2027 06:57:32.729   10 Jun 2027 06:57:34.944             2.215          1107.500
       233   10 Jun 2027 06:57:45.640   10 Jun 2027 06:57:45.672             0.032            16.000
       234   10 Jun 2027 06:58:15.864   10 Jun 2027 06:58:17.270             1.406           703.000
       235   11 Jun 2027 03:52:31.372   11 Jun 2027 03:52:57.465            26.093         13046.500
       236   11 Jun 2027 03:56:09.287   11 Jun 2027 03:56:10.037             0.750           375.000
       237   11 Jun 2027 03:56:33.229   11 Jun 2027 03:56:38.582             5.353          2676.500
       238   11 Jun 2027 03:57:06.416   11 Jun 2027 03:57:18.202            11.786          5893.000
       239   11 Jun 2027 03:58:26.584   11 Jun 2027 03:58:37.031            10.447          5223.500
       240   11 Jun 2027 05:30:30.553   11 Jun 2027 05:30:33.252             2.699          1349.500
       241   11 Jun 2027 05:31:59.171   11 Jun 2027 05:32:00.926             1.755           877.500
       242   11 Jun 2027 05:32:14.016   11 Jun 2027 05:32:14.990             0.974           487.000
       243   11 Jun 2027 05:32:23.248   11 Jun 2027 05:32:25.664             2.416          1208.000
       244   11 Jun 2027 05:32:52.541   11 Jun 2027 05:33:01.231             8.690          4345.000
       245   11 Jun 2027 05:33:37.247   11 Jun 2027 05:33:40.486             3.239          1619.500
       246   11 Jun 2027 05:33:53.266   11 Jun 2027 05:34:21.067            27.801         13900.500
       247   11 Jun 2027 07:06:21.172   11 Jun 2027 07:06:26.718             5.546          2773.000
       248   11 Jun 2027 07:07:11.979   11 Jun 2027 07:07:16.581             4.602          2301.000
       249   11 Jun 2027 07:07:59.110   11 Jun 2027 07:08:00.804             1.694           847.000
       250   11 Jun 2027 07:08:44.638   11 Jun 2027 07:08:45.236             0.598           299.000
       251   11 Jun 2027 07:08:50.183   11 Jun 2027 07:08:51.121             0.938           469.000
       252   11 Jun 2027 07:09:15.600   11 Jun 2027 07:09:17.699             2.099          1049.500
       253   11 Jun 2027 07:09:59.670   11 Jun 2027 07:10:00.362             0.692           346.000
       254   11 Jun 2027 07:10:51.291   11 Jun 2027 07:10:52.356             1.065           532.500
       255   11 Jun 2027 07:11:16.566   11 Jun 2027 07:11:20.212             3.646          1823.000
       256   11 Jun 2027 07:11:22.903   11 Jun 2027 07:11:24.069             1.166           583.000
       257   11 Jun 2027 07:11:33.819   11 Jun 2027 07:11:36.961             3.142          1571.000
       258   12 Jun 2027 04:04:42.941   12 Jun 2027 04:04:56.381            13.440          6720.000
       259   12 Jun 2027 04:05:52.627   12 Jun 2027 04:05:55.030             2.403          1201.500
       260   12 Jun 2027 04:06:34.577   12 Jun 2027 04:06:45.106            10.529          5264.500
       261   12 Jun 2027 04:07:20.861   12 Jun 2027 04:07:30.733             9.872          4936.000
       262   12 Jun 2027 04:08:39.529   12 Jun 2027 04:08:48.456             8.927          4463.500
       263   12 Jun 2027 04:09:37.032   12 Jun 2027 04:09:39.621             2.589          1294.500
       264   12 Jun 2027 04:10:02.912   12 Jun 2027 04:10:15.759            12.847          6423.500
       265   12 Jun 2027 05:42:52.626   12 Jun 2027 05:42:54.583             1.957           978.500
       266   12 Jun 2027 05:43:09.843   12 Jun 2027 05:43:11.150             1.307           653.500
       267   12 Jun 2027 05:43:42.757   12 Jun 2027 05:43:44.420             1.663           831.500
       268   12 Jun 2027 05:44:44.552   12 Jun 2027 05:44:49.200             4.648          2324.000
       269   12 Jun 2027 05:45:17.939   12 Jun 2027 05:45:19.047             1.108           554.000
       270   12 Jun 2027 05:45:23.921   12 Jun 2027 05:45:35.439            11.518          5759.000
       271   12 Jun 2027 05:46:15.517   12 Jun 2027 05:46:17.513             1.996           998.000
       272   12 Jun 2027 05:46:41.065   12 Jun 2027 05:46:49.766             8.701          4350.500
       273   12 Jun 2027 07:16:09.370   12 Jun 2027 07:16:28.485            19.115          9557.500
       274   12 Jun 2027 07:17:47.699   12 Jun 2027 07:17:51.430             3.731          1865.500
       275   12 Jun 2027 07:18:17.581   12 Jun 2027 07:18:27.838            10.257          5128.500
       276   12 Jun 2027 07:19:28.987   12 Jun 2027 07:19:30.706             1.719           859.500
       277   12 Jun 2027 07:20:00.488   12 Jun 2027 07:20:05.262             4.774          2387.000
       278   12 Jun 2027 07:20:45.122   12 Jun 2027 07:20:58.339            13.217          6608.500
       279   12 Jun 2027 07:21:53.974   12 Jun 2027 07:21:55.507             1.533           766.500
       280   12 Jun 2027 07:22:52.282   12 Jun 2027 07:22:52.846             0.564           282.000
       281   12 Jun 2027 07:23:09.631   12 Jun 2027 07:23:14.149             4.518          2259.000
       282   12 Jun 2027 07:23:46.523   12 Jun 2027 07:23:55.215             8.692          4346.000
       283   13 Jun 2027 04:16:57.543   13 Jun 2027 04:17:02.377             4.834          2417.000
       284   13 Jun 2027 04:17:31.586   13 Jun 2027 04:17:53.154            21.568         10784.000
       285   13 Jun 2027 04:19:23.665   13 Jun 2027 04:19:31.825             8.160          4080.000
       286   13 Jun 2027 04:20:07.276   13 Jun 2027 04:20:08.643             1.367           683.500
       287   13 Jun 2027 04:20:43.145   13 Jun 2027 04:20:44.700             1.555           777.500
       288   13 Jun 2027 04:22:20.235   13 Jun 2027 04:22:29.362             9.127          4563.500
       289   13 Jun 2027 05:54:51.484   13 Jun 2027 05:55:02.083            10.599          5299.500
       290   13 Jun 2027 05:55:54.845   13 Jun 2027 05:55:56.532             1.687           843.500
       291   13 Jun 2027 05:56:26.829   13 Jun 2027 05:56:29.181             2.352          1176.000
       292   13 Jun 2027 05:56:50.690   13 Jun 2027 05:56:52.829             2.139          1069.500
       293   13 Jun 2027 05:57:21.801   13 Jun 2027 05:57:25.749             3.948          1974.000
       294   13 Jun 2027 05:57:48.395   13 Jun 2027 05:57:52.591             4.196          2098.000
       295   13 Jun 2027 05:58:34.638   13 Jun 2027 05:58:41.810             7.172          3586.000
       296   13 Jun 2027 07:28:15.999   13 Jun 2027 07:28:16.065             0.066            33.000
       297   13 Jun 2027 07:28:18.376   13 Jun 2027 07:28:34.400            16.024          8012.000
       298   13 Jun 2027 07:28:53.175   13 Jun 2027 07:29:01.091             7.916          3958.000
       299   13 Jun 2027 07:30:52.550   13 Jun 2027 07:30:54.165             1.615           807.500
       300   13 Jun 2027 07:31:00.851   13 Jun 2027 07:31:18.969            18.118          9059.000
       301   13 Jun 2027 07:31:48.857   13 Jun 2027 07:31:53.475             4.618          2309.000
       302   13 Jun 2027 07:33:11.413   13 Jun 2027 07:33:13.277             1.864           932.000
       303   13 Jun 2027 07:33:48.939   13 Jun 2027 07:33:51.887             2.948          1474.000
       304   13 Jun 2027 07:34:36.170   13 Jun 2027 07:34:56.617            20.447         10223.500
