uniorb/output/strategy_2/Camera/Camera_KinoSat_111102.txt

KinoSat_111102
-------------------------
    Access    *     Start Time (UTCG)     *     Stop Time (UTCG)  *   Duration (s) *   Data (Mbytes)
         1   01 Jun 2027 03:52:07.671   01 Jun 2027 03:53:12.813            65.142         32571.000
         2   01 Jun 2027 03:53:35.042   01 Jun 2027 03:54:12.533            37.491         18745.500
         3   01 Jun 2027 04:04:20.320   01 Jun 2027 04:04:51.998            31.678         15839.000
         4   01 Jun 2027 05:26:14.612   01 Jun 2027 05:27:28.185            73.573         36786.500
         5   01 Jun 2027 05:28:17.728   01 Jun 2027 05:28:58.808            41.080         20540.000
         6   01 Jun 2027 05:29:44.999   01 Jun 2027 05:30:23.870            38.871         19435.500
         7   01 Jun 2027 07:01:03.107   01 Jun 2027 07:03:38.348           155.241         77620.500
         8   01 Jun 2027 07:04:19.687   01 Jun 2027 07:04:37.057            17.370          8685.000
         9   01 Jun 2027 07:05:02.222   01 Jun 2027 07:05:18.145            15.923          7961.500
        10   01 Jun 2027 07:09:56.324   01 Jun 2027 07:10:06.720            10.396          5198.000
        11   01 Jun 2027 08:38:53.545   01 Jun 2027 08:41:47.053           173.508         86754.000
        12   01 Jun 2027 08:44:49.833   01 Jun 2027 08:45:25.257            35.424         17712.000
        13   01 Jun 2027 10:15:38.265   01 Jun 2027 10:16:08.878            30.613         15306.500
        14   01 Jun 2027 10:16:09.511   01 Jun 2027 10:18:06.293           116.782         58391.000
        15   01 Jun 2027 10:18:52.428   01 Jun 2027 10:18:57.645             5.217          2608.500
        16   01 Jun 2027 10:21:37.526   01 Jun 2027 10:21:50.723            13.197          6598.500
        17   01 Jun 2027 11:53:46.844   01 Jun 2027 11:55:46.371           119.527         59763.500
        18   01 Jun 2027 11:57:52.107   01 Jun 2027 11:57:52.376             0.269           134.500
        19   02 Jun 2027 04:04:05.414   02 Jun 2027 04:05:21.155            75.741         37870.500
        20   02 Jun 2027 05:40:02.682   02 Jun 2027 05:43:05.994           183.312         91656.000
        21   02 Jun 2027 07:13:51.293   02 Jun 2027 07:16:27.910           156.617         78308.500
        22   02 Jun 2027 07:16:40.335   02 Jun 2027 07:17:17.961            37.626         18813.000
        23   02 Jun 2027 07:18:03.627   02 Jun 2027 07:18:27.124            23.497         11748.500
        24   02 Jun 2027 07:21:37.403   02 Jun 2027 07:22:05.053            27.650         13825.000
        25   02 Jun 2027 07:22:17.934   02 Jun 2027 07:22:23.377             5.443          2721.500
        26   02 Jun 2027 08:51:00.749   02 Jun 2027 08:52:43.897           103.148         51574.000
        27   02 Jun 2027 08:52:59.313   02 Jun 2027 08:53:03.545             4.232           749.343
        28   02 Jun 2027 08:56:05.296   02 Jun 2027 08:56:14.934             9.638          4819.000
        29   02 Jun 2027 08:56:35.412   02 Jun 2027 08:56:38.976             3.564          1500.656
        30   02 Jun 2027 08:57:40.268   02 Jun 2027 08:57:47.640             7.372          1915.375
        31   02 Jun 2027 08:58:10.884   02 Jun 2027 08:58:11.670             0.786           393.000
        32   02 Jun 2027 10:28:03.632   02 Jun 2027 10:28:07.581             3.949          1974.500
        33   02 Jun 2027 10:28:29.024   02 Jun 2027 10:28:48.019            18.995          8590.312
        34   02 Jun 2027 10:30:02.413   02 Jun 2027 10:30:07.837             5.424          2324.812
        35   02 Jun 2027 10:31:31.175   02 Jun 2027 10:31:36.704             5.529          2562.594
        36   02 Jun 2027 10:31:58.752   02 Jun 2027 10:32:00.402             1.650           689.000
        37   02 Jun 2027 10:33:37.685   02 Jun 2027 10:33:44.428             6.743          3040.094
        38   02 Jun 2027 10:34:07.217   02 Jun 2027 10:34:09.432             2.215           712.156
        39   03 Jun 2027 04:15:58.073   03 Jun 2027 04:17:29.007            90.934         45467.000
        40   03 Jun 2027 04:17:47.450   03 Jun 2027 04:17:48.408             0.958           479.000
        41   03 Jun 2027 05:52:20.455   03 Jun 2027 05:55:06.297           165.842         82921.000
        42   03 Jun 2027 07:26:12.211   03 Jun 2027 07:27:13.250            61.039         27817.313
        43   03 Jun 2027 07:28:06.469   03 Jun 2027 07:28:09.426             2.957          1478.500
        44   03 Jun 2027 07:28:12.962   03 Jun 2027 07:28:13.469             0.507           169.656
        45   03 Jun 2027 07:28:49.447   03 Jun 2027 07:28:54.337             4.890          1124.312
        46   03 Jun 2027 07:29:39.626   03 Jun 2027 07:29:44.373             4.747          1415.281
        47   03 Jun 2027 07:29:55.050   03 Jun 2027 07:29:55.825             0.775           227.156
        48   03 Jun 2027 07:30:02.175   03 Jun 2027 07:30:03.457             1.282           198.438
        49   03 Jun 2027 07:30:09.233   03 Jun 2027 07:30:11.907             2.674           155.469
        50   03 Jun 2027 07:31:28.638   03 Jun 2027 07:31:35.061             6.423          2257.219
        51   03 Jun 2027 07:31:50.450   03 Jun 2027 07:31:50.450             0.000             0.000
        52   03 Jun 2027 07:32:50.171   03 Jun 2027 07:32:53.125             2.954          1477.000
        53   03 Jun 2027 07:33:05.194   03 Jun 2027 07:33:08.033             2.839          1039.406
        54   03 Jun 2027 07:34:20.158   03 Jun 2027 07:34:22.317             2.159          1079.500
        55   03 Jun 2027 09:03:27.359   03 Jun 2027 09:03:43.326            15.967          6977.187
        56   03 Jun 2027 09:04:42.194   03 Jun 2027 09:04:43.821             1.627           604.594
        57   03 Jun 2027 09:05:08.253   03 Jun 2027 09:05:12.417             4.164           682.594
        58   03 Jun 2027 09:05:29.185   03 Jun 2027 09:05:32.781             3.596           524.000
        59   03 Jun 2027 09:06:11.488   03 Jun 2027 09:06:16.369             4.881           624.406
        60   03 Jun 2027 09:06:50.818   03 Jun 2027 09:06:53.552             2.734           452.938
        61   03 Jun 2027 09:07:53.870   03 Jun 2027 09:07:57.336             3.466          1475.500
        62   03 Jun 2027 09:08:22.995   03 Jun 2027 09:08:22.995             0.000             0.000
        63   03 Jun 2027 09:08:43.423   03 Jun 2027 09:08:45.936             2.513          1256.500
        64   03 Jun 2027 09:09:40.955   03 Jun 2027 09:09:43.237             2.282          1141.000
        65   03 Jun 2027 09:10:06.042   03 Jun 2027 09:10:07.924             1.882           941.000
        66   03 Jun 2027 10:40:28.379   03 Jun 2027 10:40:42.961            14.582          7070.593
        67   03 Jun 2027 10:41:24.001   03 Jun 2027 10:41:24.834             0.833           258.656
        68   03 Jun 2027 10:42:07.948   03 Jun 2027 10:42:09.066             1.118           559.000
        69   03 Jun 2027 10:42:23.343   03 Jun 2027 10:42:26.762             3.419          1077.625
        70   03 Jun 2027 10:42:55.129   03 Jun 2027 10:42:58.022             2.893           886.469
        71   03 Jun 2027 10:43:32.477   03 Jun 2027 10:43:37.290             4.813           480.125
        72   03 Jun 2027 10:43:43.398   03 Jun 2027 10:43:45.144             1.746           190.875
        73   03 Jun 2027 10:43:53.175   03 Jun 2027 10:43:56.172             2.997           219.156
        74   03 Jun 2027 10:44:38.501   03 Jun 2027 10:44:41.128             2.627          1105.500
        75   03 Jun 2027 10:44:55.142   03 Jun 2027 10:44:55.142             0.000             0.000
        76   03 Jun 2027 10:45:04.115   03 Jun 2027 10:45:08.160             4.045           650.719
        77   03 Jun 2027 10:45:19.697   03 Jun 2027 10:45:21.145             1.448           267.750
        78   03 Jun 2027 10:45:52.264   03 Jun 2027 10:45:53.480             1.216           608.000
        79   04 Jun 2027 03:04:16.636   04 Jun 2027 03:06:00.573           103.937         51968.500
        80   04 Jun 2027 03:06:01.708   04 Jun 2027 03:06:06.759             5.051          2525.500
        81   04 Jun 2027 03:06:15.673   04 Jun 2027 03:06:31.600            15.927          7963.500
        82   04 Jun 2027 03:06:36.099   04 Jun 2027 03:06:36.363             0.264           132.000
        83   04 Jun 2027 03:07:11.407   04 Jun 2027 03:07:19.044             7.637          3818.500
        84   04 Jun 2027 03:08:34.056   04 Jun 2027 03:08:52.359            18.303          9151.500
        85   04 Jun 2027 04:27:46.799   04 Jun 2027 04:28:15.947            29.148         14574.000
        86   04 Jun 2027 04:29:13.881   04 Jun 2027 04:29:13.881             0.000             0.000
        87   04 Jun 2027 04:29:24.190   04 Jun 2027 04:29:30.783             6.593          3296.500
        88   04 Jun 2027 04:29:34.216   04 Jun 2027 04:29:51.678            17.462          8731.000
        89   04 Jun 2027 04:29:52.474   04 Jun 2027 04:29:52.474             0.000             0.000
        90   04 Jun 2027 06:04:23.925   04 Jun 2027 06:06:36.148           132.223         66111.500
        91   04 Jun 2027 07:39:29.844   04 Jun 2027 07:39:43.493            13.649          6815.187
        92   04 Jun 2027 07:40:39.289   04 Jun 2027 07:40:43.335             4.046          1743.625
        93   04 Jun 2027 07:41:43.764   04 Jun 2027 07:41:47.286             3.522          1290.125
        94   04 Jun 2027 07:42:04.494   04 Jun 2027 07:42:05.529             1.035           514.031
        95   04 Jun 2027 07:43:16.613   04 Jun 2027 07:43:25.366             8.753          2218.281
        96   04 Jun 2027 07:44:26.483   04 Jun 2027 07:44:34.227             7.744          1899.281
        97   04 Jun 2027 07:44:46.865   04 Jun 2027 07:44:49.210             2.345            24.531
        98   04 Jun 2027 07:45:02.124   04 Jun 2027 07:45:03.196             1.072           354.969
        99   04 Jun 2027 07:45:51.078   04 Jun 2027 07:45:51.078             0.000             0.000
       100   04 Jun 2027 07:46:11.933   04 Jun 2027 07:46:18.399             6.466          2148.031
       101   04 Jun 2027 09:15:50.629   04 Jun 2027 09:16:08.015            17.386          8367.969
       102   04 Jun 2027 09:16:41.196   04 Jun 2027 09:16:42.109             0.913           308.000
       103   04 Jun 2027 09:17:30.008   04 Jun 2027 09:17:33.251             3.243          1369.219
       104   04 Jun 2027 09:18:03.889   04 Jun 2027 09:18:04.774             0.885           238.031
       105   04 Jun 2027 09:18:24.393   04 Jun 2027 09:18:24.820             0.427            68.094
       106   04 Jun 2027 09:19:10.181   04 Jun 2027 09:19:14.335             4.154          1083.156
       107   04 Jun 2027 09:20:00.783   04 Jun 2027 09:20:05.012             4.229          1451.500
       108   04 Jun 2027 09:20:21.743   04 Jun 2027 09:20:26.561             4.818           385.625
       109   04 Jun 2027 09:21:20.368   04 Jun 2027 09:21:27.870             7.502          1641.813
       110   04 Jun 2027 09:22:01.602   04 Jun 2027 09:22:03.962             2.360           947.125
       111   04 Jun 2027 10:53:20.322   04 Jun 2027 10:53:35.528            15.206          7059.375
       112   04 Jun 2027 10:53:52.552   04 Jun 2027 10:54:01.042             8.490            47.094
       113   04 Jun 2027 10:54:10.034   04 Jun 2027 10:54:12.953             2.919           217.906
       114   04 Jun 2027 10:55:09.491   04 Jun 2027 10:55:12.749             3.258          1629.000
       115   04 Jun 2027 10:55:43.814   04 Jun 2027 10:55:49.635             5.821          1108.594
       116   04 Jun 2027 10:56:07.170   04 Jun 2027 10:56:07.170             0.000             0.000
       117   04 Jun 2027 10:56:42.589   04 Jun 2027 10:56:44.724             2.135          1067.500
       118   04 Jun 2027 10:56:54.285   04 Jun 2027 10:56:58.063             3.778           766.875
       119   05 Jun 2027 03:17:45.575   05 Jun 2027 03:20:30.369           164.794         82397.000
       120   05 Jun 2027 04:40:00.629   05 Jun 2027 04:41:13.608            72.979         36489.500
       121   05 Jun 2027 04:41:24.689   05 Jun 2027 04:41:35.665            10.976          5488.000
       122   05 Jun 2027 04:42:03.093   05 Jun 2027 04:42:03.093             0.000             0.000
       123   05 Jun 2027 06:16:33.859   05 Jun 2027 06:16:38.485             4.626          2313.000
       124   05 Jun 2027 06:16:47.098   05 Jun 2027 06:17:40.975            53.877         26860.000
       125   05 Jun 2027 06:18:29.337   05 Jun 2027 06:18:33.276             3.939          1454.656
       126   05 Jun 2027 06:19:37.049   05 Jun 2027 06:19:44.023             6.974          1992.906
       127   05 Jun 2027 07:51:44.107   05 Jun 2027 07:51:55.842            11.735          4908.688
       128   05 Jun 2027 07:52:12.379   05 Jun 2027 07:52:15.239             2.860           293.094
       129   05 Jun 2027 07:52:44.891   05 Jun 2027 07:52:48.312             3.421           360.469
       130   05 Jun 2027 07:53:54.459   05 Jun 2027 07:54:00.056             5.597          1750.344
       131   05 Jun 2027 07:54:59.257   05 Jun 2027 07:54:59.257             0.000             0.000
       132   05 Jun 2027 07:55:13.693   05 Jun 2027 07:55:23.744            10.051          1209.094
       133   05 Jun 2027 07:55:35.934   05 Jun 2027 07:55:39.545             3.611           377.594
       134   05 Jun 2027 07:56:50.855   05 Jun 2027 07:56:55.146             4.291          2145.500
       135   05 Jun 2027 07:57:42.173   05 Jun 2027 07:57:45.683             3.510          1520.437
       136   05 Jun 2027 07:58:19.329   05 Jun 2027 07:58:19.925             0.596           298.000
       137   05 Jun 2027 09:28:05.622   05 Jun 2027 09:28:19.280            13.658          5908.219
       138   05 Jun 2027 09:29:31.106   05 Jun 2027 09:29:35.187             4.081          1626.313
       139   05 Jun 2027 09:29:56.478   05 Jun 2027 09:29:57.710             1.232           478.938
       140   05 Jun 2027 09:30:22.762   05 Jun 2027 09:30:23.629             0.867            78.563
       141   05 Jun 2027 09:31:10.190   05 Jun 2027 09:31:12.516             2.326          1163.000
       142   05 Jun 2027 09:31:33.426   05 Jun 2027 09:31:33.426             0.000             0.000
       143   05 Jun 2027 09:31:47.471   05 Jun 2027 09:31:54.467             6.996          1292.937
       144   05 Jun 2027 09:32:00.710   05 Jun 2027 09:32:04.179             3.469           186.281
       145   05 Jun 2027 09:32:53.053   05 Jun 2027 09:33:06.504            13.451          1323.844
       146   05 Jun 2027 09:33:34.552   05 Jun 2027 09:33:37.417             2.865           807.312
       147   05 Jun 2027 09:34:05.503   05 Jun 2027 09:34:11.511             6.008           877.687
       148   05 Jun 2027 11:05:23.993   05 Jun 2027 11:05:39.963            15.970          6953.688
       149   05 Jun 2027 11:05:59.117   05 Jun 2027 11:06:04.064             4.947           598.562
       150   05 Jun 2027 11:06:26.990   05 Jun 2027 11:06:38.997            12.007           710.375
       151   05 Jun 2027 11:07:22.547   05 Jun 2027 11:07:25.535             2.988          1271.563
       152   05 Jun 2027 11:08:28.030   05 Jun 2027 11:08:32.443             4.413          1764.250
       153   05 Jun 2027 11:09:44.439   05 Jun 2027 11:09:48.715             4.276          1933.406
       154   06 Jun 2027 03:28:36.038   06 Jun 2027 03:29:14.897            38.859         19429.500
       155   06 Jun 2027 03:29:37.053   06 Jun 2027 03:32:08.680           151.627         75813.500
       156   06 Jun 2027 04:52:30.265   06 Jun 2027 04:53:08.930            38.665         19332.500
       157   06 Jun 2027 04:53:12.620   06 Jun 2027 04:53:24.844            12.224          6112.000
       158   06 Jun 2027 06:28:25.036   06 Jun 2027 06:29:32.046            67.010         29479.156
       159   06 Jun 2027 06:29:36.891   06 Jun 2027 06:29:36.896             0.005             2.500
       160   06 Jun 2027 06:30:31.636   06 Jun 2027 06:30:31.636             0.000             0.000
       161   06 Jun 2027 06:30:38.550   06 Jun 2027 06:30:43.279             4.729          2048.844
       162   06 Jun 2027 06:31:38.825   06 Jun 2027 06:31:42.421             3.596          1553.406
       163   06 Jun 2027 08:03:18.803   06 Jun 2027 08:03:26.070             7.267          3633.500
       164   06 Jun 2027 08:03:49.553   06 Jun 2027 08:03:52.896             3.343          1127.719
       165   06 Jun 2027 08:05:11.797   06 Jun 2027 08:05:14.460             2.663           752.219
       166   06 Jun 2027 08:05:57.437   06 Jun 2027 08:05:59.601             2.164           990.219
       167   06 Jun 2027 08:06:46.588   06 Jun 2027 08:06:52.380             5.792           749.187
       168   06 Jun 2027 08:07:12.867   06 Jun 2027 08:07:15.166             2.299           393.375
       169   06 Jun 2027 08:07:43.712   06 Jun 2027 08:07:51.198             7.486           868.562
       170   06 Jun 2027 08:07:52.765   06 Jun 2027 08:07:57.584             4.819            48.969
       171   06 Jun 2027 08:08:08.019   06 Jun 2027 08:08:11.047             3.028            61.313
       172   06 Jun 2027 08:09:04.400   06 Jun 2027 08:09:08.406             4.006          1460.469
       173   06 Jun 2027 08:09:53.774   06 Jun 2027 08:09:58.623             4.849          1417.750
       174   06 Jun 2027 08:10:12.593   06 Jun 2027 08:10:14.276             1.683           226.125
       175   06 Jun 2027 09:39:41.659   06 Jun 2027 09:40:02.150            20.491          9337.563
       176   06 Jun 2027 09:40:45.763   06 Jun 2027 09:40:51.111             5.348          1209.812
       177   06 Jun 2027 09:42:08.415   06 Jun 2027 09:42:13.937             5.522           840.969
       178   06 Jun 2027 09:42:19.057   06 Jun 2027 09:42:19.965             0.908           104.344
       179   06 Jun 2027 09:44:13.079   06 Jun 2027 09:44:22.399             9.320          2945.750
       180   06 Jun 2027 09:44:51.759   06 Jun 2027 09:44:53.283             1.524           437.250
       181   06 Jun 2027 09:45:45.230   06 Jun 2027 09:45:49.792             4.562          1623.344
       182   06 Jun 2027 11:17:58.379   06 Jun 2027 11:18:15.878            17.499          7452.000
       183   06 Jun 2027 11:19:40.641   06 Jun 2027 11:19:46.448             5.807          2523.781
       184   06 Jun 2027 11:20:05.704   06 Jun 2027 11:20:07.017             1.313           601.750
       185   06 Jun 2027 11:20:11.758   06 Jun 2027 11:20:13.215             1.457            69.875
       186   06 Jun 2027 11:20:18.384   06 Jun 2027 11:20:19.725             1.341           161.531
       187   06 Jun 2027 11:20:47.854   06 Jun 2027 11:20:50.201             2.347           330.500
       188   07 Jun 2027 03:29:15.339   07 Jun 2027 03:29:33.782            18.443          9221.500
       189   07 Jun 2027 03:29:46.782   07 Jun 2027 03:30:07.672            20.890         10445.000
       190   07 Jun 2027 03:40:31.898   07 Jun 2027 03:42:12.606           100.708         50354.000
       191   07 Jun 2027 03:43:10.168   07 Jun 2027 03:43:39.101            28.933         14466.500
       192   07 Jun 2027 05:03:07.751   07 Jun 2027 05:04:38.303            90.552         45276.000
       193   07 Jun 2027 06:38:42.428   07 Jun 2027 06:39:15.841            33.413         16706.500
       194   07 Jun 2027 06:40:08.864   07 Jun 2027 06:40:25.009            16.145          8072.500
       195   07 Jun 2027 06:40:28.742   07 Jun 2027 06:40:30.487             1.745           872.500
       196   07 Jun 2027 06:41:40.835   07 Jun 2027 06:41:45.960             5.125          2535.468
       197   07 Jun 2027 06:42:02.714   07 Jun 2027 06:42:09.033             6.319           523.562
       198   07 Jun 2027 06:42:57.360   07 Jun 2027 06:42:59.892             2.532          1224.562
       199   07 Jun 2027 06:43:03.085   07 Jun 2027 06:43:04.186             1.101            99.781
       200   07 Jun 2027 06:43:40.539   07 Jun 2027 06:43:42.845             2.306          1031.219
       201   07 Jun 2027 06:44:22.894   07 Jun 2027 06:44:27.184             4.290          1192.875
       202   07 Jun 2027 08:14:55.152   07 Jun 2027 08:15:04.440             9.288          4047.250
       203   07 Jun 2027 08:15:47.148   07 Jun 2027 08:15:49.021             1.873           809.719
       204   07 Jun 2027 08:17:10.141   07 Jun 2027 08:17:15.040             4.899          2250.875
       205   07 Jun 2027 08:17:48.158   07 Jun 2027 08:17:51.705             3.547           655.219
       206   07 Jun 2027 08:18:16.716   07 Jun 2027 08:18:18.457             1.741           601.281
       207   07 Jun 2027 08:19:17.878   07 Jun 2027 08:19:25.616             7.738          1662.312
       208   07 Jun 2027 08:19:49.432   07 Jun 2027 08:19:54.984             5.552           467.062
       209   07 Jun 2027 08:20:03.789   07 Jun 2027 08:20:05.708             1.919           245.625
       210   07 Jun 2027 08:20:19.188   07 Jun 2027 08:20:20.528             1.340           418.344
       211   07 Jun 2027 08:21:13.999   07 Jun 2027 08:21:16.759             2.760          1161.687
       212   07 Jun 2027 08:21:27.258   07 Jun 2027 08:21:30.935             3.677           182.531
       213   07 Jun 2027 08:21:51.394   07 Jun 2027 08:21:55.777             4.383           639.344
       214   07 Jun 2027 08:22:29.528   07 Jun 2027 08:22:29.657             0.129            64.500
       215   07 Jun 2027 09:52:01.529   07 Jun 2027 09:52:19.513            17.984          7259.344
       216   07 Jun 2027 09:54:15.543   07 Jun 2027 09:54:17.844             2.301           488.031
       217   07 Jun 2027 09:55:03.300   07 Jun 2027 09:55:07.919             4.619          1281.937
       218   07 Jun 2027 09:55:28.787   07 Jun 2027 09:55:31.323             2.536           620.969
       219   07 Jun 2027 09:56:03.838   07 Jun 2027 09:56:06.664             2.826           935.906
       220   07 Jun 2027 09:56:40.271   07 Jun 2027 09:56:42.383             2.112          1032.937
       221   07 Jun 2027 09:56:52.709   07 Jun 2027 09:56:53.791             1.082           268.000
       222   07 Jun 2027 09:57:17.222   07 Jun 2027 09:57:21.021             3.799           732.219
       223   07 Jun 2027 09:57:54.812   07 Jun 2027 09:57:56.123             1.311           388.813
       224   07 Jun 2027 09:58:19.873   07 Jun 2027 09:58:21.050             1.177           588.500
       225   07 Jun 2027 11:29:59.479   07 Jun 2027 11:30:10.700            11.221          5610.500
       226   07 Jun 2027 11:30:35.151   07 Jun 2027 11:30:38.908             3.757          1358.875
       227   07 Jun 2027 11:31:35.150   07 Jun 2027 11:31:39.739             4.589          1280.156
       228   07 Jun 2027 11:31:50.745   07 Jun 2027 11:31:53.708             2.963           343.937
       229   07 Jun 2027 11:33:11.389   07 Jun 2027 11:33:24.299            12.910          2427.531
       230   07 Jun 2027 11:33:29.446   07 Jun 2027 11:33:30.397             0.951           160.844
       231   07 Jun 2027 11:33:55.596   07 Jun 2027 11:33:56.205             0.609           304.500
       232   08 Jun 2027 03:40:50.863   08 Jun 2027 03:41:09.080            18.217          9108.500
       233   08 Jun 2027 03:41:59.680   08 Jun 2027 03:42:24.909            25.229         12614.500
       234   08 Jun 2027 03:52:34.412   08 Jun 2027 03:53:40.948            66.536         33268.000
       235   08 Jun 2027 05:14:49.895   08 Jun 2027 05:15:56.363            66.468         33234.000
       236   08 Jun 2027 05:16:46.922   08 Jun 2027 05:17:58.576            71.654         35827.000
       237   08 Jun 2027 05:19:00.512   08 Jun 2027 05:19:21.020            20.508         10254.000
       238   08 Jun 2027 06:49:49.160   08 Jun 2027 06:50:33.850            44.690         20922.906
       239   08 Jun 2027 06:50:36.003   08 Jun 2027 06:50:36.212             0.209            48.687
       240   08 Jun 2027 06:50:59.874   08 Jun 2027 06:51:00.833             0.959           444.875
       241   08 Jun 2027 06:51:54.132   08 Jun 2027 06:52:04.386            10.254          1599.969
       242   08 Jun 2027 06:53:34.462   08 Jun 2027 06:53:42.581             8.119          2547.062
       243   08 Jun 2027 06:54:55.842   08 Jun 2027 06:54:57.842             2.000          1000.000
       244   08 Jun 2027 06:55:17.109   08 Jun 2027 06:55:21.494             4.385          1891.500
       245   08 Jun 2027 06:55:42.138   08 Jun 2027 06:55:46.663             4.525           420.094
       246   08 Jun 2027 06:56:08.506   08 Jun 2027 06:56:10.104             1.598           422.687
       247   08 Jun 2027 06:56:17.148   08 Jun 2027 06:56:18.667             1.519           220.125
       248   08 Jun 2027 06:56:38.293   08 Jun 2027 06:56:42.598             4.305           484.375
       249   08 Jun 2027 06:58:00.763   08 Jun 2027 06:58:06.082             5.319          2407.750
       250   08 Jun 2027 08:27:15.113   08 Jun 2027 08:27:24.133             9.020          4460.750
       251   08 Jun 2027 08:29:15.738   08 Jun 2027 08:29:21.386             5.648          2353.813
       252   08 Jun 2027 08:29:39.982   08 Jun 2027 08:29:41.601             1.619           217.406
       253   08 Jun 2027 08:29:51.681   08 Jun 2027 08:29:52.658             0.977           315.000
       254   08 Jun 2027 08:30:34.337   08 Jun 2027 08:30:35.439             1.102           550.406
       255   08 Jun 2027 08:31:09.815   08 Jun 2027 08:31:14.007             4.192          1074.250
       256   08 Jun 2027 08:31:16.647   08 Jun 2027 08:31:19.520             2.873            81.187
       257   08 Jun 2027 08:31:57.839   08 Jun 2027 08:32:00.821             2.982          1197.469
       258   08 Jun 2027 08:32:10.951   08 Jun 2027 08:32:14.054             3.103           316.562
       259   08 Jun 2027 08:32:52.913   08 Jun 2027 08:32:55.984             3.071          1201.625
       260   08 Jun 2027 08:33:10.586   08 Jun 2027 08:33:11.844             1.258           207.969
       261   08 Jun 2027 08:33:37.345   08 Jun 2027 08:33:42.713             5.368           796.906
       262   08 Jun 2027 08:33:52.286   08 Jun 2027 08:34:00.288             8.002            83.594
       263   08 Jun 2027 10:04:01.992   08 Jun 2027 10:04:23.343            21.351          9067.875
       264   08 Jun 2027 10:05:29.695   08 Jun 2027 10:05:31.565             1.870           660.281
       265   08 Jun 2027 10:06:23.625   08 Jun 2027 10:06:24.799             1.174           532.969
       266   08 Jun 2027 10:06:55.364   08 Jun 2027 10:06:58.222             2.858           667.563
       267   08 Jun 2027 10:08:05.221   08 Jun 2027 10:08:10.888             5.667          1505.844
       268   08 Jun 2027 10:08:23.008   08 Jun 2027 10:08:27.699             4.691           378.750
       269   08 Jun 2027 10:09:29.566   08 Jun 2027 10:09:43.416            13.850          1865.875
       270   08 Jun 2027 10:09:52.610   08 Jun 2027 10:09:54.607             1.997            85.594
       271   08 Jun 2027 10:10:25.007   08 Jun 2027 10:10:30.340             5.333           801.188
       272   08 Jun 2027 11:42:00.060   08 Jun 2027 11:42:16.721            16.661          8221.531
       273   08 Jun 2027 11:42:27.048   08 Jun 2027 11:42:28.007             0.959           322.719
       274   08 Jun 2027 11:42:54.698   08 Jun 2027 11:42:56.930             2.232           834.094
       275   08 Jun 2027 11:43:35.059   08 Jun 2027 11:43:38.321             3.262           912.375
       276   08 Jun 2027 11:44:24.364   08 Jun 2027 11:44:24.818             0.454           227.000
       277   08 Jun 2027 11:45:08.256   08 Jun 2027 11:45:17.428             9.172          2540.500
       278   09 Jun 2027 03:52:23.246   09 Jun 2027 03:53:11.854            48.608         24304.000
       279   09 Jun 2027 03:54:27.219   09 Jun 2027 03:54:29.925             2.706          1353.000
       280   09 Jun 2027 04:04:35.866   09 Jun 2027 04:05:07.455            31.589         15794.500
       281   09 Jun 2027 05:26:29.731   09 Jun 2027 05:27:42.848            73.117         36558.500
       282   09 Jun 2027 05:28:32.556   09 Jun 2027 05:30:00.086            87.530         43765.000
       283   09 Jun 2027 05:31:00.767   09 Jun 2027 05:31:21.686            20.919         10459.500
       284   09 Jun 2027 07:01:17.670   09 Jun 2027 07:02:11.242            53.572         25902.187
       285   09 Jun 2027 07:02:30.992   09 Jun 2027 07:02:33.973             2.981           457.750
       286   09 Jun 2027 07:03:24.215   09 Jun 2027 07:03:24.987             0.772           340.406
       287   09 Jun 2027 07:04:01.569   09 Jun 2027 07:04:04.407             2.838          1031.187
       288   09 Jun 2027 07:04:21.983   09 Jun 2027 07:04:26.452             4.469           234.750
       289   09 Jun 2027 07:05:10.943   09 Jun 2027 07:05:16.621             5.678          1199.594
       290   09 Jun 2027 07:06:21.504   09 Jun 2027 07:06:25.683             4.179          1966.844
       291   09 Jun 2027 07:07:20.176   09 Jun 2027 07:07:21.838             1.662           698.625
       292   09 Jun 2027 07:07:39.926   09 Jun 2027 07:07:41.153             1.227           138.094
       293   09 Jun 2027 07:07:52.777   09 Jun 2027 07:07:57.179             4.402           286.937
       294   09 Jun 2027 07:08:27.363   09 Jun 2027 07:08:27.698             0.335           167.500
       295   09 Jun 2027 07:08:32.515   09 Jun 2027 07:08:37.797             5.282           799.219
       296   09 Jun 2027 07:09:16.640   09 Jun 2027 07:09:17.951             1.311           655.500
       297   09 Jun 2027 08:39:09.252   09 Jun 2027 08:39:23.119            13.867          6714.813
       298   09 Jun 2027 08:40:05.269   09 Jun 2027 08:40:08.305             3.036          1003.312
       299   09 Jun 2027 08:41:15.843   09 Jun 2027 08:41:17.739             1.896           255.156
       300   09 Jun 2027 08:42:04.388   09 Jun 2027 08:42:06.049             1.661           830.500
       301   09 Jun 2027 08:43:08.492   09 Jun 2027 08:43:14.463             5.971          2545.219
       302   09 Jun 2027 08:43:25.264   09 Jun 2027 08:43:30.792             5.528           152.375
       303   09 Jun 2027 08:45:08.020   09 Jun 2027 08:45:13.768             5.748          2240.531
       304   09 Jun 2027 08:45:40.138   09 Jun 2027 08:45:43.578             3.440           824.063
       305   09 Jun 2027 08:46:13.247   09 Jun 2027 08:46:15.769             2.522           711.719
       306   09 Jun 2027 08:46:27.502   09 Jun 2027 08:46:28.128             0.626            88.813
       307   09 Jun 2027 10:15:53.699   09 Jun 2027 10:16:14.492            20.793          7386.187
       308   09 Jun 2027 10:16:25.685   09 Jun 2027 10:16:31.314             5.629            85.813
       309   09 Jun 2027 10:16:59.579   09 Jun 2027 10:17:00.000             0.421            86.375
       310   09 Jun 2027 10:18:36.757   09 Jun 2027 10:18:43.091             6.334          2133.750
       311   09 Jun 2027 10:19:08.291   09 Jun 2027 10:19:12.273             3.982           787.500
       312   09 Jun 2027 10:19:36.086   09 Jun 2027 10:19:43.197             7.111           690.344
       313   09 Jun 2027 10:21:52.851   09 Jun 2027 10:22:02.456             9.605          3720.187
       314   09 Jun 2027 10:22:19.499   09 Jun 2027 10:22:22.305             2.806           388.469
       315   09 Jun 2027 10:22:34.628   09 Jun 2027 10:22:35.436             0.808           344.344
       316   09 Jun 2027 11:54:02.888   09 Jun 2027 11:54:27.523            24.635          7346.656
       317   09 Jun 2027 11:54:43.509   09 Jun 2027 11:54:44.762             1.253           448.438
       318   09 Jun 2027 11:55:39.102   09 Jun 2027 11:55:43.460             4.358          1428.594
       319   09 Jun 2027 11:55:45.814   09 Jun 2027 11:55:47.330             1.516            58.781
       320   09 Jun 2027 11:55:59.030   09 Jun 2027 11:56:01.836             2.806           196.312
       321   09 Jun 2027 11:56:29.380   09 Jun 2027 11:56:31.133             1.753           857.281
       322   09 Jun 2027 11:57:45.737   09 Jun 2027 11:57:52.979             7.242          2165.750
       323   09 Jun 2027 11:58:05.223   09 Jun 2027 11:58:07.239             2.016           269.531
       324   10 Jun 2027 04:04:20.617   10 Jun 2027 04:05:35.646            75.029         37514.500
       325   10 Jun 2027 05:40:18.679   10 Jun 2027 05:43:22.030           183.351         91675.500
       326   10 Jun 2027 07:14:06.800   10 Jun 2027 07:15:14.037            67.237         33390.281
       327   10 Jun 2027 07:15:52.596   10 Jun 2027 07:15:55.652             3.056           649.469
       328   10 Jun 2027 07:16:38.749   10 Jun 2027 07:16:41.394             2.645           739.188
       329   10 Jun 2027 07:16:54.029   10 Jun 2027 07:16:57.489             3.460           334.875
       330   10 Jun 2027 07:17:14.559   10 Jun 2027 07:17:17.571             3.012           299.594
       331   10 Jun 2027 07:17:31.804   10 Jun 2027 07:17:33.229             1.425           337.125
       332   10 Jun 2027 07:18:42.430   10 Jun 2027 07:18:51.226             8.796          2123.094
       333   10 Jun 2027 07:20:02.368   10 Jun 2027 07:20:09.854             7.486          2036.531
       334   10 Jun 2027 07:21:13.507   10 Jun 2027 07:21:16.787             3.280          1640.000
       335   10 Jun 2027 07:21:38.549   10 Jun 2027 07:21:42.038             3.489           641.531
       336   10 Jun 2027 07:21:52.006   10 Jun 2027 07:21:53.890             1.884           311.500
       337   10 Jun 2027 08:51:16.332   10 Jun 2027 08:51:29.457            13.125          6476.625
       338   10 Jun 2027 08:53:21.730   10 Jun 2027 08:53:26.071             4.341          1892.000
       339   10 Jun 2027 08:54:00.077   10 Jun 2027 08:54:01.709             1.632           581.938
       340   10 Jun 2027 08:55:21.646   10 Jun 2027 08:55:27.962             6.316          2498.031
       341   10 Jun 2027 08:56:08.774   10 Jun 2027 08:56:08.774             0.000             0.000
       342   10 Jun 2027 08:56:22.437   10 Jun 2027 08:56:27.152             4.715          1448.000
       343   10 Jun 2027 08:56:50.354   10 Jun 2027 08:56:52.490             2.136           585.188
       344   10 Jun 2027 08:57:54.420   10 Jun 2027 08:58:04.446            10.026          1935.313
       345   10 Jun 2027 08:58:33.598   10 Jun 2027 08:58:34.826             1.228           614.000
       346   10 Jun 2027 10:28:20.343   10 Jun 2027 10:28:27.130             6.787          3393.500
       347   10 Jun 2027 10:28:45.011   10 Jun 2027 10:29:00.095            15.084          5822.375
       348   10 Jun 2027 10:30:19.364   10 Jun 2027 10:30:24.356             4.992          2368.625
       349   10 Jun 2027 10:31:46.563   10 Jun 2027 10:31:52.996             6.433          2568.969
       350   10 Jun 2027 10:32:13.828   10 Jun 2027 10:32:15.916             2.088           651.000
       351   10 Jun 2027 10:32:41.192   10 Jun 2027 10:32:46.230             5.038           763.937
       352   10 Jun 2027 10:32:49.423   10 Jun 2027 10:32:49.769             0.346            99.781
       353   10 Jun 2027 10:33:47.396   10 Jun 2027 10:33:52.312             4.916          1585.687
       354   11 Jun 2027 04:16:13.256   11 Jun 2027 04:17:43.917            90.661         45330.500
       355   11 Jun 2027 05:52:35.666   11 Jun 2027 05:55:38.659           182.993         91496.500
       356   11 Jun 2027 07:26:28.531   11 Jun 2027 07:27:09.265            40.734         18078.781
       357   11 Jun 2027 07:27:34.974   11 Jun 2027 07:27:36.345             1.371           646.812
       358   11 Jun 2027 07:28:26.516   11 Jun 2027 07:28:27.449             0.933           325.156
       359   11 Jun 2027 07:28:31.708   11 Jun 2027 07:28:33.923             2.215            68.781
       360   11 Jun 2027 07:29:17.312   11 Jun 2027 07:29:19.807             2.495          1144.000
       361   11 Jun 2027 07:29:52.472   11 Jun 2027 07:29:54.338             1.866           923.312
       362   11 Jun 2027 07:30:29.866   11 Jun 2027 07:30:31.556             1.690           845.000
       363   11 Jun 2027 07:31:45.853   11 Jun 2027 07:31:51.650             5.797          2563.219
       364   11 Jun 2027 07:32:05.052   11 Jun 2027 07:32:07.443             2.391           208.094
       365   11 Jun 2027 07:33:49.542   11 Jun 2027 07:33:51.908             2.366          1183.000
       366   11 Jun 2027 07:34:22.157   11 Jun 2027 07:34:26.996             4.839          1358.687
       367   11 Jun 2027 07:34:35.098   11 Jun 2027 07:34:35.640             0.542           218.688
       368   11 Jun 2027 09:03:42.660   11 Jun 2027 09:03:57.352            14.692          6776.500
       369   11 Jun 2027 09:04:57.378   11 Jun 2027 09:04:58.518             1.140           543.094
       370   11 Jun 2027 09:05:43.746   11 Jun 2027 09:05:46.288             2.542           443.062
       371   11 Jun 2027 09:06:34.620   11 Jun 2027 09:06:37.593             2.973          1016.969
       372   11 Jun 2027 09:06:48.500   11 Jun 2027 09:06:49.827             1.327           337.844
       373   11 Jun 2027 09:06:51.139   11 Jun 2027 09:06:51.553             0.414            41.000
       374   11 Jun 2027 09:07:42.080   11 Jun 2027 09:07:44.771             2.691          1132.156
       375   11 Jun 2027 09:08:40.577   11 Jun 2027 09:08:47.266             6.689          1504.125
       376   11 Jun 2027 09:09:04.113   11 Jun 2027 09:09:06.713             2.600           526.469
       377   11 Jun 2027 09:09:59.749   11 Jun 2027 09:10:05.807             6.058          1611.375
       378   11 Jun 2027 09:10:17.378   11 Jun 2027 09:10:18.712             1.334           361.594
       379   11 Jun 2027 10:40:44.666   11 Jun 2027 10:41:00.629            15.963          7890.625
       380   11 Jun 2027 10:42:23.998   11 Jun 2027 10:42:29.234             5.236          1504.469
       381   11 Jun 2027 10:44:37.430   11 Jun 2027 10:44:48.232            10.802          4006.125
       382   11 Jun 2027 10:45:21.253   11 Jun 2027 10:45:24.738             3.485          1031.906
       383   11 Jun 2027 10:45:35.215   11 Jun 2027 10:45:37.395             2.180           154.844
       384   12 Jun 2027 03:05:08.561   12 Jun 2027 03:06:52.242           103.681         51840.500
       385   12 Jun 2027 03:07:26.494   12 Jun 2027 03:07:31.122             4.628          2314.000
       386   12 Jun 2027 03:08:12.250   12 Jun 2027 03:08:14.510             2.260          1130.000
       387   12 Jun 2027 03:08:30.460   12 Jun 2027 03:08:49.077            18.617          9308.500
       388   12 Jun 2027 03:09:05.997   12 Jun 2027 03:09:09.161             3.164          1582.000
       389   12 Jun 2027 04:28:02.719   12 Jun 2027 04:28:46.910            44.191         22095.500
       390   12 Jun 2027 04:29:30.051   12 Jun 2027 04:29:46.955            16.904          8452.000
       391   12 Jun 2027 04:30:16.929   12 Jun 2027 04:30:16.929             0.000             0.000
       392   12 Jun 2027 04:30:22.121   12 Jun 2027 04:30:48.264            26.143         13071.500
       393   12 Jun 2027 06:04:38.983   12 Jun 2027 06:06:05.730            86.747         43373.500
       394   12 Jun 2027 06:06:24.246   12 Jun 2027 06:06:47.815            23.569         11784.500
       395   12 Jun 2027 06:06:56.340   12 Jun 2027 06:07:02.012             5.672          1785.750
       396   12 Jun 2027 06:07:34.901   12 Jun 2027 06:07:37.575             2.674           799.688
       397   12 Jun 2027 07:39:46.219   12 Jun 2027 07:39:58.163            11.944          5817.375
       398   12 Jun 2027 07:40:22.489   12 Jun 2027 07:40:26.820             4.331           652.687
       399   12 Jun 2027 07:40:51.626   12 Jun 2027 07:40:54.218             2.592           614.250
       400   12 Jun 2027 07:41:53.752   12 Jun 2027 07:41:58.800             5.048          1823.219
       401   12 Jun 2027 07:42:53.711   12 Jun 2027 07:43:02.944             9.233          1661.781
       402   12 Jun 2027 07:43:28.595   12 Jun 2027 07:43:31.067             2.472           639.000
       403   12 Jun 2027 07:44:41.269   12 Jun 2027 07:44:48.787             7.518          1902.156
       404   12 Jun 2027 07:45:01.936   12 Jun 2027 07:45:05.201             3.265           126.594
       405   12 Jun 2027 07:45:20.114   12 Jun 2027 07:45:21.296             1.182           408.219
       406   12 Jun 2027 07:45:50.543   12 Jun 2027 07:46:02.994            12.451           821.906
       407   12 Jun 2027 07:46:09.182   12 Jun 2027 07:46:10.172             0.990           113.656
       408   12 Jun 2027 09:16:06.655   12 Jun 2027 09:16:23.248            16.593          7968.000
       409   12 Jun 2027 09:17:28.174   12 Jun 2027 09:17:33.537             5.363           994.531
       410   12 Jun 2027 09:18:18.813   12 Jun 2027 09:18:21.089             2.276           982.562
       411   12 Jun 2027 09:19:07.314   12 Jun 2027 09:19:09.825             2.511           931.344
       412   12 Jun 2027 09:19:31.318   12 Jun 2027 09:19:35.086             3.768           519.719
       413   12 Jun 2027 09:20:24.057   12 Jun 2027 09:20:28.256             4.199          1372.656
       414   12 Jun 2027 09:20:31.893   12 Jun 2027 09:20:38.435             6.542           113.656
       415   12 Jun 2027 09:21:35.986   12 Jun 2027 09:21:40.108             4.122          1605.031
       416   12 Jun 2027 09:22:16.172   12 Jun 2027 09:22:18.584             2.412           940.438
       417   12 Jun 2027 10:53:37.118   12 Jun 2027 10:53:52.225            15.107          6378.031
       418   12 Jun 2027 10:54:20.015   12 Jun 2027 10:54:21.902             1.887           551.250
       419   12 Jun 2027 10:54:29.831   12 Jun 2027 10:54:42.708            12.877           247.781
       420   12 Jun 2027 10:55:06.821   12 Jun 2027 10:55:12.094             5.273           751.000
       421   12 Jun 2027 10:55:42.277   12 Jun 2027 10:55:43.026             0.749           374.500
       422   12 Jun 2027 10:55:48.551   12 Jun 2027 10:55:49.776             1.225           423.469
       423   12 Jun 2027 10:56:08.287   12 Jun 2027 10:56:10.936             2.649           284.000
       424   12 Jun 2027 10:56:30.344   12 Jun 2027 10:56:31.858             1.514           308.000
       425   12 Jun 2027 10:57:57.882   12 Jun 2027 10:58:00.675             2.793          1396.500
       426   13 Jun 2027 03:17:44.026   13 Jun 2027 03:20:45.455           181.429         90714.500
       427   13 Jun 2027 04:40:15.622   13 Jun 2027 04:41:02.957            47.335         23667.500
       428   13 Jun 2027 04:41:17.827   13 Jun 2027 04:41:29.788            11.961          5980.500
       429   13 Jun 2027 06:16:50.074   13 Jun 2027 06:17:42.686            52.612         26306.000
       430   13 Jun 2027 06:17:57.508   13 Jun 2027 06:18:17.674            20.166          8260.312
       431   13 Jun 2027 06:18:46.498   13 Jun 2027 06:18:49.463             2.965           736.281
       432   13 Jun 2027 06:19:29.129   13 Jun 2027 06:19:32.419             3.290          1239.562
       433   13 Jun 2027 06:20:08.457   13 Jun 2027 06:20:12.619             4.162           810.281
       434   13 Jun 2027 07:51:59.444   13 Jun 2027 07:52:08.392             8.948          3976.500
       435   13 Jun 2027 07:52:20.251   13 Jun 2027 07:52:26.356             6.105            78.094
       436   13 Jun 2027 07:53:09.804   13 Jun 2027 07:53:15.134             5.330           587.469
       437   13 Jun 2027 07:53:24.128   13 Jun 2027 07:53:25.656             1.528           281.062
       438   13 Jun 2027 07:53:48.989   13 Jun 2027 07:53:50.169             1.180           590.000
       439   13 Jun 2027 07:53:55.113   13 Jun 2027 07:53:58.673             3.560           293.657
       440   13 Jun 2027 07:54:50.533   13 Jun 2027 07:54:50.533             0.000             0.000
       441   13 Jun 2027 07:54:54.512   13 Jun 2027 07:54:57.338             2.826          1347.781
       442   13 Jun 2027 07:55:22.590   13 Jun 2027 07:55:25.659             3.069           698.688
       443   13 Jun 2027 07:56:25.554   13 Jun 2027 07:56:31.150             5.596          1871.719
       444   13 Jun 2027 07:57:14.179   13 Jun 2027 07:57:23.293             9.114          1344.656
       445   13 Jun 2027 07:58:16.877   13 Jun 2027 07:58:21.024             4.147          1674.500
       446   13 Jun 2027 09:28:20.783   13 Jun 2027 09:28:38.815            18.032          7954.250
       447   13 Jun 2027 09:29:45.280   13 Jun 2027 09:29:50.569             5.289          1596.844
       448   13 Jun 2027 09:30:37.042   13 Jun 2027 09:30:40.939             3.897          1009.344
       449   13 Jun 2027 09:31:24.838   13 Jun 2027 09:31:27.523             2.685          1342.063
       450   13 Jun 2027 09:31:49.657   13 Jun 2027 09:31:52.798             3.141           691.688
       451   13 Jun 2027 09:32:09.383   13 Jun 2027 09:32:09.383             0.000             0.000
       452   13 Jun 2027 09:32:25.347   13 Jun 2027 09:32:28.951             3.604           692.500
       453   13 Jun 2027 09:33:03.634   13 Jun 2027 09:33:07.700             4.066          1083.844
       454   13 Jun 2027 09:33:52.224   13 Jun 2027 09:33:55.670             3.446          1391.375
       455   13 Jun 2027 11:05:38.501   13 Jun 2027 11:05:55.996            17.495          7500.969
       456   13 Jun 2027 11:06:05.999   13 Jun 2027 11:06:08.234             2.235           226.438
       457   13 Jun 2027 11:07:01.562   13 Jun 2027 11:07:11.811            10.249          1473.438
       458   13 Jun 2027 11:08:42.567   13 Jun 2027 11:08:46.945             4.378          1737.344
       459   13 Jun 2027 11:09:19.549   13 Jun 2027 11:09:22.623             3.074          1018.875
       460   13 Jun 2027 11:10:00.034   13 Jun 2027 11:10:00.066             0.032            16.000
