uniorb/output/strategy_2/Camera/Camera_KinoSat_111406.txt

KinoSat_111406
-------------------------
    Access    *     Start Time (UTCG)     *     Stop Time (UTCG)  *   Duration (s) *   Data (Mbytes)
         1   01 Jun 2027 03:13:26.374   01 Jun 2027 03:16:23.561           177.187         88593.500
         2   01 Jun 2027 03:17:31.578   01 Jun 2027 03:17:31.578             0.000             0.000
         3   01 Jun 2027 03:18:34.697   01 Jun 2027 03:18:48.579            13.882          6941.000
         4   01 Jun 2027 03:19:50.757   01 Jun 2027 03:20:15.707            24.950         12475.000
         5   01 Jun 2027 03:20:32.304   01 Jun 2027 03:20:35.519             3.215          1607.500
         6   01 Jun 2027 03:20:51.323   01 Jun 2027 03:21:13.625            22.302         11151.000
         7   01 Jun 2027 04:39:36.088   01 Jun 2027 04:39:47.935            11.847          5923.500
         8   01 Jun 2027 04:50:30.951   01 Jun 2027 04:52:49.608           138.657         69328.500
         9   01 Jun 2027 04:52:50.778   01 Jun 2027 04:53:26.358            35.580         17790.000
        10   01 Jun 2027 06:14:28.283   01 Jun 2027 06:15:03.252            34.969         17484.500
        11   01 Jun 2027 06:15:06.552   01 Jun 2027 06:15:14.614             8.062          4031.000
        12   01 Jun 2027 06:16:07.617   01 Jun 2027 06:16:07.617             0.000             0.000
        13   01 Jun 2027 06:16:43.561   01 Jun 2027 06:16:49.682             6.121          3060.500
        14   01 Jun 2027 07:50:13.141   01 Jun 2027 07:52:50.104           156.963         78481.500
        15   01 Jun 2027 07:53:00.706   01 Jun 2027 07:53:05.277             4.571          2285.500
        16   01 Jun 2027 09:24:56.984   01 Jun 2027 09:26:39.292           102.308         51154.000
        17   01 Jun 2027 09:26:52.104   01 Jun 2027 09:27:10.010            17.906          8953.000
        18   01 Jun 2027 09:27:52.892   01 Jun 2027 09:27:57.246             4.354          2177.000
        19   01 Jun 2027 09:28:52.342   01 Jun 2027 09:29:02.093             9.751          4875.500
        20   01 Jun 2027 09:30:55.302   01 Jun 2027 09:31:25.306            30.004         15002.000
        21   01 Jun 2027 09:32:03.362   01 Jun 2027 09:32:03.362             0.000             0.000
        22   01 Jun 2027 11:01:45.281   01 Jun 2027 11:03:33.471           108.190         54095.000
        23   01 Jun 2027 11:03:43.110   01 Jun 2027 11:03:47.594             4.484          2242.000
        24   01 Jun 2027 11:06:47.803   01 Jun 2027 11:06:56.543             8.740          4370.000
        25   01 Jun 2027 11:07:57.876   01 Jun 2027 11:07:59.115             1.239           619.500
        26   02 Jun 2027 03:25:47.605   02 Jun 2027 03:28:29.548           161.943         80971.500
        27   02 Jun 2027 03:28:56.284   02 Jun 2027 03:29:03.902             7.618          3809.000
        28   02 Jun 2027 03:29:11.660   02 Jun 2027 03:29:26.954            15.294          7647.000
        29   02 Jun 2027 03:32:07.890   02 Jun 2027 03:32:43.849            35.959         17979.500
        30   02 Jun 2027 04:50:51.892   02 Jun 2027 04:51:12.421            20.529         10264.500
        31   02 Jun 2027 05:02:31.711   02 Jun 2027 05:03:56.933            85.222         42611.000
        32   02 Jun 2027 06:25:03.799   02 Jun 2027 06:26:04.487            60.688         30344.000
        33   02 Jun 2027 06:26:45.141   02 Jun 2027 06:26:57.183            12.042          6021.000
        34   02 Jun 2027 06:27:00.903   02 Jun 2027 06:27:09.802             8.899          4449.500
        35   02 Jun 2027 06:28:52.195   02 Jun 2027 06:28:52.235             0.040            20.000
        36   02 Jun 2027 06:29:02.935   02 Jun 2027 06:29:24.595            21.660         10830.000
        37   02 Jun 2027 08:00:06.967   02 Jun 2027 08:01:25.553            78.586         39293.000
        38   02 Jun 2027 08:01:57.600   02 Jun 2027 08:03:09.542            71.942         35406.593
        39   02 Jun 2027 08:04:41.292   02 Jun 2027 08:04:43.045             1.753           876.500
        40   02 Jun 2027 09:37:05.338   02 Jun 2027 09:37:26.985            21.647          8951.625
        41   02 Jun 2027 09:38:12.880   02 Jun 2027 09:38:16.478             3.598          1112.719
        42   02 Jun 2027 09:40:24.061   02 Jun 2027 09:40:24.204             0.143            71.500
        43   02 Jun 2027 09:40:43.961   02 Jun 2027 09:40:50.950             6.989          2794.344
        44   02 Jun 2027 09:41:48.140   02 Jun 2027 09:41:48.140             0.000             0.000
        45   02 Jun 2027 09:42:53.695   02 Jun 2027 09:43:02.381             8.686          3423.906
        46   02 Jun 2027 09:43:41.076   02 Jun 2027 09:43:45.493             4.417          1159.937
        47   02 Jun 2027 11:14:03.475   02 Jun 2027 11:14:17.996            14.521          7220.781
        48   02 Jun 2027 11:14:55.407   02 Jun 2027 11:14:59.636             4.229          1147.000
        49   02 Jun 2027 11:15:54.427   02 Jun 2027 11:15:59.176             4.749           857.750
        50   02 Jun 2027 11:16:13.013   02 Jun 2027 11:16:14.138             1.125           344.281
        51   02 Jun 2027 11:16:42.653   02 Jun 2027 11:16:45.056             2.403           631.344
        52   02 Jun 2027 11:17:01.489   02 Jun 2027 11:17:01.489             0.000             0.000
        53   02 Jun 2027 11:17:16.189   02 Jun 2027 11:17:16.736             0.547           273.500
        54   02 Jun 2027 11:17:38.372   02 Jun 2027 11:17:40.280             1.908           954.000
        55   02 Jun 2027 11:17:47.452   02 Jun 2027 11:17:50.478             3.026           486.562
        56   02 Jun 2027 11:18:13.054   02 Jun 2027 11:18:16.640             3.586           640.000
        57   02 Jun 2027 11:18:49.014   02 Jun 2027 11:18:56.310             7.296           916.375
        58   03 Jun 2027 03:38:04.049   03 Jun 2027 03:39:32.284            88.235         44117.500
        59   03 Jun 2027 03:39:37.006   03 Jun 2027 03:40:27.369            50.363         25181.500
        60   03 Jun 2027 03:41:18.225   03 Jun 2027 03:41:23.035             4.810          2405.000
        61   03 Jun 2027 03:42:03.846   03 Jun 2027 03:43:19.051            75.205         37602.500
        62   03 Jun 2027 03:43:54.047   03 Jun 2027 03:43:54.047             0.000             0.000
        63   03 Jun 2027 03:44:51.938   03 Jun 2027 03:44:57.725             5.787          2893.500
        64   03 Jun 2027 05:02:13.026   03 Jun 2027 05:02:59.107            46.081         23040.500
        65   03 Jun 2027 05:04:16.556   03 Jun 2027 05:04:16.556             0.000             0.000
        66   03 Jun 2027 05:14:29.037   03 Jun 2027 05:15:23.652            54.615         27047.687
        67   03 Jun 2027 06:36:28.068   03 Jun 2027 06:36:44.855            16.787          5964.000
        68   03 Jun 2027 06:37:40.469   03 Jun 2027 06:37:43.559             3.090          1367.906
        69   03 Jun 2027 06:38:36.196   03 Jun 2027 06:38:39.140             2.944          1472.000
        70   03 Jun 2027 06:39:13.548   03 Jun 2027 06:39:18.206             4.658          1146.625
        71   03 Jun 2027 06:40:50.601   03 Jun 2027 06:40:50.601             0.000             0.000
        72   03 Jun 2027 06:41:11.340   03 Jun 2027 06:41:18.353             7.013          3005.906
        73   03 Jun 2027 08:11:31.708   03 Jun 2027 08:11:43.994            12.286          4788.063
        74   03 Jun 2027 08:12:14.420   03 Jun 2027 08:12:15.183             0.763           139.031
        75   03 Jun 2027 08:13:06.682   03 Jun 2027 08:13:07.656             0.974           325.344
        76   03 Jun 2027 08:13:25.325   03 Jun 2027 08:13:29.728             4.403           310.813
        77   03 Jun 2027 08:13:35.090   03 Jun 2027 08:13:37.986             2.896           106.844
        78   03 Jun 2027 08:15:36.969   03 Jun 2027 08:15:44.681             7.712          3111.938
        79   03 Jun 2027 08:17:01.854   03 Jun 2027 08:17:08.317             6.463          2261.313
        80   03 Jun 2027 08:17:42.214   03 Jun 2027 08:17:42.214             0.000             0.000
        81   03 Jun 2027 08:17:50.795   03 Jun 2027 08:17:54.294             3.499           695.125
        82   03 Jun 2027 08:19:08.838   03 Jun 2027 08:19:09.567             0.729           364.500
        83   03 Jun 2027 09:49:07.645   03 Jun 2027 09:49:17.568             9.923          4669.062
        84   03 Jun 2027 09:50:07.399   03 Jun 2027 09:50:09.327             1.928           698.750
        85   03 Jun 2027 09:50:17.685   03 Jun 2027 09:50:21.180             3.495           170.344
        86   03 Jun 2027 09:50:44.983   03 Jun 2027 09:50:46.514             1.531           660.750
        87   03 Jun 2027 09:50:52.643   03 Jun 2027 09:50:55.996             3.353           102.344
        88   03 Jun 2027 09:52:04.361   03 Jun 2027 09:52:12.079             7.718          2126.406
        89   03 Jun 2027 09:53:04.938   03 Jun 2027 09:53:04.938             0.000             0.000
        90   03 Jun 2027 09:53:05.836   03 Jun 2027 09:53:09.639             3.803          1595.000
        91   03 Jun 2027 09:53:33.525   03 Jun 2027 09:53:35.137             1.612           232.906
        92   03 Jun 2027 09:53:55.609   03 Jun 2027 09:53:57.282             1.673           157.969
        93   03 Jun 2027 09:54:51.119   03 Jun 2027 09:54:55.333             4.214          1661.469
        94   03 Jun 2027 09:55:18.608   03 Jun 2027 09:55:19.606             0.998           499.000
        95   03 Jun 2027 09:55:59.285   03 Jun 2027 09:56:06.039             6.754          1328.844
        96   03 Jun 2027 09:56:09.230   03 Jun 2027 09:56:09.230             0.000             0.000
        97   03 Jun 2027 11:25:53.226   03 Jun 2027 11:26:06.963            13.737          6868.500
        98   03 Jun 2027 11:27:34.118   03 Jun 2027 11:27:42.160             8.042          3284.813
        99   03 Jun 2027 11:28:12.988   03 Jun 2027 11:28:13.605             0.617           308.500
       100   03 Jun 2027 11:28:19.686   03 Jun 2027 11:28:20.174             0.488           197.125
       101   03 Jun 2027 11:28:37.699   03 Jun 2027 11:28:39.538             1.839           365.188
       102   03 Jun 2027 11:29:25.323   03 Jun 2027 11:29:29.850             4.527          1370.063
       103   03 Jun 2027 11:30:08.354   03 Jun 2027 11:30:12.988             4.634          1203.250
       104   03 Jun 2027 11:30:51.571   03 Jun 2027 11:31:00.427             8.856          1205.719
       105   03 Jun 2027 11:32:03.226   03 Jun 2027 11:32:10.949             7.723          1222.219
       106   04 Jun 2027 03:50:10.535   04 Jun 2027 03:52:03.497           112.962         56481.000
       107   04 Jun 2027 03:53:13.169   04 Jun 2027 03:53:52.666            39.497         19748.500
       108   04 Jun 2027 03:54:26.566   04 Jun 2027 03:55:09.029            42.463         21231.500
       109   04 Jun 2027 03:55:24.417   04 Jun 2027 03:55:55.521            31.104         15552.000
       110   04 Jun 2027 05:14:20.788   04 Jun 2027 05:15:08.914            48.126         24063.000
       111   04 Jun 2027 05:26:53.918   04 Jun 2027 05:26:55.636             1.718           859.000
       112   04 Jun 2027 06:48:10.273   04 Jun 2027 06:49:01.981            51.708         23989.563
       113   04 Jun 2027 06:49:20.934   04 Jun 2027 06:49:22.738             1.804           592.281
       114   04 Jun 2027 06:50:25.989   04 Jun 2027 06:50:28.884             2.895          1333.313
       115   04 Jun 2027 06:50:51.972   04 Jun 2027 06:50:53.468             1.496           426.031
       116   04 Jun 2027 06:51:12.052   04 Jun 2027 06:51:12.052             0.000             0.000
       117   04 Jun 2027 06:51:45.338   04 Jun 2027 06:51:48.621             3.283          1599.813
       118   04 Jun 2027 06:52:55.665   04 Jun 2027 06:53:03.115             7.450          2086.906
       119   04 Jun 2027 08:23:02.629   04 Jun 2027 08:23:16.298            13.669          6168.469
       120   04 Jun 2027 08:24:19.242   04 Jun 2027 08:24:23.026             3.784          1590.219
       121   04 Jun 2027 08:25:07.123   04 Jun 2027 08:25:10.899             3.776           593.125
       122   04 Jun 2027 08:25:54.870   04 Jun 2027 08:25:59.529             4.659          1030.062
       123   04 Jun 2027 08:26:33.292   04 Jun 2027 08:26:40.113             6.821           607.219
       124   04 Jun 2027 08:26:43.402   04 Jun 2027 08:26:43.402             0.000             0.000
       125   04 Jun 2027 08:27:22.232   04 Jun 2027 08:27:26.295             4.063          1287.312
       126   04 Jun 2027 08:28:50.380   04 Jun 2027 08:28:50.380             0.000             0.000
       127   04 Jun 2027 08:30:17.219   04 Jun 2027 08:30:27.475            10.256          5003.438
       128   04 Jun 2027 08:31:02.514   04 Jun 2027 08:31:05.762             3.248          1094.969
       129   04 Jun 2027 08:31:09.315   04 Jun 2027 08:31:10.882             1.567           111.031
       130   04 Jun 2027 10:01:08.175   04 Jun 2027 10:01:24.206            16.031          6811.406
       131   04 Jun 2027 10:01:52.836   04 Jun 2027 10:01:55.193             2.357           515.000
       132   04 Jun 2027 10:02:28.830   04 Jun 2027 10:02:31.036             2.206          1044.344
       133   04 Jun 2027 10:03:04.531   04 Jun 2027 10:03:05.675             1.144           559.438
       134   04 Jun 2027 10:04:02.010   04 Jun 2027 10:04:02.010             0.000             0.000
       135   04 Jun 2027 10:05:07.158   04 Jun 2027 10:05:15.175             8.017          3648.344
       136   04 Jun 2027 10:06:30.681   04 Jun 2027 10:06:41.267            10.586          2157.781
       137   04 Jun 2027 10:07:09.122   04 Jun 2027 10:07:13.523             4.401           684.031
       138   04 Jun 2027 10:07:33.107   04 Jun 2027 10:07:36.943             3.836           277.313
       139   04 Jun 2027 10:07:50.677   04 Jun 2027 10:07:52.275             1.598           349.531
       140   04 Jun 2027 10:08:08.186   04 Jun 2027 10:08:10.321             2.135           497.219
       141   04 Jun 2027 10:08:13.384   04 Jun 2027 10:08:14.942             1.558            95.719
       142   04 Jun 2027 11:38:01.974   04 Jun 2027 11:38:26.011            24.037          6444.750
       143   04 Jun 2027 11:38:31.118   04 Jun 2027 11:38:31.760             0.642            11.969
       144   04 Jun 2027 11:39:55.126   04 Jun 2027 11:40:02.070             6.944          2379.938
       145   04 Jun 2027 11:40:13.323   04 Jun 2027 11:40:14.274             0.951           310.344
       146   04 Jun 2027 11:40:18.628   04 Jun 2027 11:40:19.558             0.930           136.062
       147   04 Jun 2027 11:40:43.447   04 Jun 2027 11:40:45.059             1.612           571.969
       148   04 Jun 2027 11:41:39.317   04 Jun 2027 11:41:40.731             1.414           707.000
       149   04 Jun 2027 11:41:45.062   04 Jun 2027 11:41:48.708             3.646          1028.906
       150   04 Jun 2027 11:42:32.578   04 Jun 2027 11:42:37.140             4.562          1225.750
       151   04 Jun 2027 11:44:08.342   04 Jun 2027 11:44:16.046             7.704          2019.656
       152   05 Jun 2027 04:02:47.871   05 Jun 2027 04:05:06.888           139.017         69508.500
       153   05 Jun 2027 04:05:28.276   05 Jun 2027 04:05:36.069             7.793          3896.500
       154   05 Jun 2027 04:05:40.965   05 Jun 2027 04:06:26.149            45.184         22592.000
       155   05 Jun 2027 04:06:58.269   05 Jun 2027 04:07:27.693            29.424         14712.000
       156   05 Jun 2027 05:26:17.259   05 Jun 2027 05:27:04.875            47.616         23808.000
       157   05 Jun 2027 07:02:29.607   05 Jun 2027 07:03:21.124            51.517         25507.500
       158   05 Jun 2027 07:03:47.138   05 Jun 2027 07:03:48.319             1.181           300.187
       159   05 Jun 2027 07:04:38.119   05 Jun 2027 07:04:42.054             3.935          1394.813
       160   05 Jun 2027 07:04:44.595   05 Jun 2027 07:04:46.284             1.689            79.406
       161   05 Jun 2027 08:36:02.951   05 Jun 2027 08:36:14.105            11.154          4943.781
       162   05 Jun 2027 08:38:09.427   05 Jun 2027 08:38:12.597             3.170          1211.969
       163   05 Jun 2027 08:38:53.628   05 Jun 2027 08:38:55.947             2.319           974.250
       164   05 Jun 2027 08:39:56.456   05 Jun 2027 08:40:00.170             3.714          1002.969
       165   05 Jun 2027 08:43:08.460   05 Jun 2027 08:43:23.395            14.935          4608.375
       166   05 Jun 2027 08:43:42.539   05 Jun 2027 08:43:49.048             6.509           458.781
       167   05 Jun 2027 08:44:15.167   05 Jun 2027 08:44:17.179             2.012           604.969
       168   05 Jun 2027 08:44:32.951   05 Jun 2027 08:44:35.755             2.804            66.531
       169   05 Jun 2027 10:13:33.162   05 Jun 2027 10:13:46.937            13.775          6769.719
       170   05 Jun 2027 10:13:59.928   05 Jun 2027 10:14:01.120             1.192           394.875
       171   05 Jun 2027 10:14:21.747   05 Jun 2027 10:14:22.773             1.026           469.937
       172   05 Jun 2027 10:15:21.243   05 Jun 2027 10:15:24.368             3.125          1350.531
       173   05 Jun 2027 10:16:13.695   05 Jun 2027 10:16:16.890             3.195          1405.594
       174   05 Jun 2027 10:18:04.792   05 Jun 2027 10:18:08.763             3.971          1923.969
       175   05 Jun 2027 10:18:09.831   05 Jun 2027 10:18:09.831             0.000             0.000
       176   05 Jun 2027 10:18:34.948   05 Jun 2027 10:18:34.948             0.000             0.000
       177   05 Jun 2027 10:19:00.360   05 Jun 2027 10:19:04.960             4.600          1612.406
       178   05 Jun 2027 10:19:44.988   05 Jun 2027 10:19:50.525             5.537          1250.875
       179   05 Jun 2027 10:20:06.284   05 Jun 2027 10:20:08.395             2.111           353.625
       180   05 Jun 2027 11:50:30.090   05 Jun 2027 11:50:44.923            14.833          6541.125
       181   05 Jun 2027 11:52:14.210   05 Jun 2027 11:52:18.158             3.948          1974.000
       182   05 Jun 2027 11:53:08.316   05 Jun 2027 11:53:15.649             7.333          1735.625
       183   05 Jun 2027 11:54:10.031   05 Jun 2027 11:54:20.018             9.987          1699.438
       184   05 Jun 2027 11:54:49.876   05 Jun 2027 11:54:54.154             4.278           866.500
       185   05 Jun 2027 11:55:05.977   05 Jun 2027 11:55:06.623             0.646           270.438
       186   05 Jun 2027 11:55:31.378   05 Jun 2027 11:55:31.378             0.000             0.000
       187   05 Jun 2027 11:55:36.552   05 Jun 2027 11:55:37.393             0.841           420.500
       188   05 Jun 2027 11:56:03.937   05 Jun 2027 11:56:05.949             2.012          1006.000
       189   06 Jun 2027 04:14:28.930   06 Jun 2027 04:17:00.026           151.096         75548.000
       190   06 Jun 2027 04:17:29.935   06 Jun 2027 04:18:26.188            56.253         28126.500
       191   06 Jun 2027 05:38:08.082   06 Jun 2027 05:39:29.026            80.944         40472.000
       192   06 Jun 2027 07:14:34.965   06 Jun 2027 07:15:18.915            43.950         19972.344
       193   06 Jun 2027 07:15:48.841   06 Jun 2027 07:15:52.833             3.992           528.813
       194   06 Jun 2027 07:16:30.559   06 Jun 2027 07:16:33.935             3.376           737.781
       195   06 Jun 2027 07:17:04.790   06 Jun 2027 07:17:07.172             2.382           866.969
       196   06 Jun 2027 07:17:42.976   06 Jun 2027 07:17:46.939             3.963           945.688
       197   06 Jun 2027 07:18:06.003   06 Jun 2027 07:18:06.985             0.982           478.719
       198   06 Jun 2027 08:46:43.712   06 Jun 2027 08:46:54.131            10.419          3256.250
       199   06 Jun 2027 08:48:41.979   06 Jun 2027 08:48:49.699             7.720          1488.156
       200   06 Jun 2027 08:50:13.809   06 Jun 2027 08:50:18.637             4.828          1652.188
       201   06 Jun 2027 08:50:28.887   06 Jun 2027 08:50:28.887             0.000             0.000
       202   06 Jun 2027 08:50:48.426   06 Jun 2027 08:50:51.057             2.631           688.781
       203   06 Jun 2027 08:51:08.165   06 Jun 2027 08:51:13.522             5.357           205.531
       204   06 Jun 2027 08:52:03.871   06 Jun 2027 08:52:07.217             3.346          1177.094
       205   06 Jun 2027 08:53:32.531   06 Jun 2027 08:53:39.548             7.017          2239.875
       206   06 Jun 2027 08:55:13.044   06 Jun 2027 08:55:19.520             6.476          2782.406
       207   06 Jun 2027 08:56:19.015   06 Jun 2027 08:56:23.283             4.268          1813.000
       208   06 Jun 2027 10:25:40.778   06 Jun 2027 10:25:52.826            12.048          5939.656
       209   06 Jun 2027 10:26:14.570   06 Jun 2027 10:26:17.041             2.471           586.625
       210   06 Jun 2027 10:27:51.884   06 Jun 2027 10:27:58.551             6.667          2019.906
       211   06 Jun 2027 10:28:31.524   06 Jun 2027 10:28:34.919             3.395          1006.625
       212   06 Jun 2027 10:29:32.722   06 Jun 2027 10:29:37.252             4.530          1806.344
       213   06 Jun 2027 10:29:50.569   06 Jun 2027 10:29:53.497             2.928           309.844
       214   06 Jun 2027 10:29:59.727   06 Jun 2027 10:30:01.378             1.651            68.344
       215   06 Jun 2027 10:30:36.822   06 Jun 2027 10:30:39.897             3.075           840.750
       216   06 Jun 2027 10:30:50.180   06 Jun 2027 10:30:50.563             0.383            50.188
       217   06 Jun 2027 10:31:04.135   06 Jun 2027 10:31:08.084             3.949           408.063
       218   06 Jun 2027 10:31:41.044   06 Jun 2027 10:31:44.849             3.805            67.938
       219   06 Jun 2027 10:32:18.062   06 Jun 2027 10:32:22.687             4.625          1037.906
       220   07 Jun 2027 04:27:42.367   07 Jun 2027 04:30:11.646           149.279         74639.500
       221   07 Jun 2027 04:30:34.957   07 Jun 2027 04:31:15.112            40.155         20077.500
       222   07 Jun 2027 05:50:16.415   07 Jun 2027 05:51:17.622            61.207         30603.500
       223   07 Jun 2027 05:51:45.163   07 Jun 2027 05:51:53.908             8.745          4372.500
       224   07 Jun 2027 05:52:59.701   07 Jun 2027 05:52:59.701             0.000             0.000
       225   07 Jun 2027 07:26:44.829   07 Jun 2027 07:27:35.974            51.145         25487.031
       226   07 Jun 2027 07:27:50.417   07 Jun 2027 07:27:55.005             4.588           187.281
       227   07 Jun 2027 07:28:52.229   07 Jun 2027 07:28:56.348             4.119          1788.250
       228   07 Jun 2027 09:01:55.968   07 Jun 2027 09:02:07.417            11.449          5134.812
       229   07 Jun 2027 09:02:19.525   07 Jun 2027 09:02:23.016             3.491           378.375
       230   07 Jun 2027 09:03:10.819   07 Jun 2027 09:03:12.851             2.032           127.344
       231   07 Jun 2027 09:04:14.043   07 Jun 2027 09:04:14.043             0.000             0.000
       232   07 Jun 2027 09:04:56.416   07 Jun 2027 09:05:02.541             6.125          2772.406
       233   07 Jun 2027 09:07:13.425   07 Jun 2027 09:07:21.938             8.513          3688.813
       234   07 Jun 2027 09:08:04.765   07 Jun 2027 09:08:04.765             0.000             0.000
       235   07 Jun 2027 09:08:15.593   07 Jun 2027 09:08:18.548             2.955          1463.906
       236   07 Jun 2027 10:38:14.603   07 Jun 2027 10:38:29.366            14.763          6826.000
       237   07 Jun 2027 10:39:55.721   07 Jun 2027 10:40:02.642             6.921          1164.094
       238   07 Jun 2027 10:40:14.951   07 Jun 2027 10:40:17.247             2.296           229.063
       239   07 Jun 2027 10:40:45.856   07 Jun 2027 10:40:49.749             3.893           894.031
       240   07 Jun 2027 10:41:23.340   07 Jun 2027 10:41:27.469             4.129          1049.719
       241   07 Jun 2027 10:42:03.779   07 Jun 2027 10:42:06.957             3.178          1134.688
       242   07 Jun 2027 10:42:35.015   07 Jun 2027 10:42:41.694             6.679           763.250
       243   07 Jun 2027 10:42:55.375   07 Jun 2027 10:42:56.202             0.827            39.281
       244   07 Jun 2027 10:43:14.850   07 Jun 2027 10:43:17.013             2.163           388.094
       245   07 Jun 2027 10:43:48.464   07 Jun 2027 10:43:50.586             2.122           922.125
       246   07 Jun 2027 10:44:00.598   07 Jun 2027 10:44:00.598             0.000             0.000
       247   07 Jun 2027 10:44:12.883   07 Jun 2027 10:44:17.661             4.778           594.844
       248   07 Jun 2027 10:44:17.901   07 Jun 2027 10:44:18.916             1.015             7.500
       249   08 Jun 2027 03:00:38.307   08 Jun 2027 03:01:13.763            35.456         17728.000
       250   08 Jun 2027 03:01:48.400   08 Jun 2027 03:02:19.016            30.616         15308.000
       251   08 Jun 2027 03:02:30.973   08 Jun 2027 03:02:45.697            14.724          7362.000
       252   08 Jun 2027 03:02:55.605   08 Jun 2027 03:02:59.773             4.168          2084.000
       253   08 Jun 2027 03:03:56.394   08 Jun 2027 03:04:41.300            44.906         22453.000
       254   08 Jun 2027 03:09:00.304   08 Jun 2027 03:09:17.108            16.804          8402.000
       255   08 Jun 2027 04:38:51.375   08 Jun 2027 04:39:27.761            36.386         18193.000
       256   08 Jun 2027 04:39:56.361   08 Jun 2027 04:41:38.878           102.517         51258.500
       257   08 Jun 2027 06:02:17.465   08 Jun 2027 06:03:01.810            44.345         22172.500
       258   08 Jun 2027 06:03:12.684   08 Jun 2027 06:03:17.254             4.570          2192.968
       259   08 Jun 2027 06:05:04.791   08 Jun 2027 06:05:05.707             0.916           458.000
       260   08 Jun 2027 06:05:08.505   08 Jun 2027 06:05:13.890             5.385          2692.500
       261   08 Jun 2027 07:38:44.691   08 Jun 2027 07:38:54.702            10.011          3434.437
       262   08 Jun 2027 07:39:51.821   08 Jun 2027 07:39:56.569             4.748          1784.969
       263   08 Jun 2027 07:40:24.519   08 Jun 2027 07:40:25.996             1.477           324.625
       264   08 Jun 2027 07:40:55.793   08 Jun 2027 07:41:01.137             5.344           388.656
       265   08 Jun 2027 07:41:23.996   08 Jun 2027 07:41:25.393             1.397           511.313
       266   08 Jun 2027 07:41:46.456   08 Jun 2027 07:41:50.862             4.406           509.125
       267   08 Jun 2027 09:13:57.595   08 Jun 2027 09:14:06.857             9.262          4595.719
       268   08 Jun 2027 09:15:28.793   08 Jun 2027 09:15:34.211             5.418          2560.500
       269   08 Jun 2027 09:16:27.124   08 Jun 2027 09:16:30.958             3.834          1564.906
       270   08 Jun 2027 09:17:21.573   08 Jun 2027 09:17:26.020             4.447          1024.969
       271   08 Jun 2027 09:17:36.576   08 Jun 2027 09:17:38.692             2.116           329.875
       272   08 Jun 2027 09:18:08.925   08 Jun 2027 09:18:11.351             2.426           944.781
       273   08 Jun 2027 09:18:22.529   08 Jun 2027 09:18:27.905             5.376           349.313
       274   08 Jun 2027 09:18:43.419   08 Jun 2027 09:18:46.866             3.447           484.813
       275   08 Jun 2027 09:19:54.257   08 Jun 2027 09:19:57.894             3.637          1539.469
       276   08 Jun 2027 09:20:16.730   08 Jun 2027 09:20:17.925             1.195           320.750
       277   08 Jun 2027 09:20:24.088   08 Jun 2027 09:20:24.626             0.538           101.969
       278   08 Jun 2027 10:49:53.382   08 Jun 2027 10:50:08.363            14.981          6276.594
       279   08 Jun 2027 10:51:32.022   08 Jun 2027 10:51:41.716             9.694          2000.969
       280   08 Jun 2027 10:52:06.014   08 Jun 2027 10:52:06.081             0.067            33.500
       281   08 Jun 2027 10:52:20.631   08 Jun 2027 10:52:24.023             3.392           847.156
       282   08 Jun 2027 10:52:53.689   08 Jun 2027 10:52:58.140             4.451           927.062
       283   08 Jun 2027 10:54:14.337   08 Jun 2027 10:54:21.089             6.752          2381.156
       284   08 Jun 2027 10:55:17.384   08 Jun 2027 10:55:20.390             3.006          1503.000
       285   08 Jun 2027 10:55:51.507   08 Jun 2027 10:55:58.113             6.606          1219.125
       286   09 Jun 2027 03:13:42.870   09 Jun 2027 03:17:16.403           213.533        106766.500
       287   09 Jun 2027 03:18:36.118   09 Jun 2027 03:18:49.255            13.137          6568.500
       288   09 Jun 2027 04:39:50.165   09 Jun 2027 04:40:19.342            29.177         14588.500
       289   09 Jun 2027 04:50:47.018   09 Jun 2027 04:51:58.151            71.133         34445.906
       290   09 Jun 2027 04:52:11.763   09 Jun 2027 04:52:14.705             2.942           425.375
       291   09 Jun 2027 04:54:09.967   09 Jun 2027 04:54:13.850             3.883          1941.500
       292   09 Jun 2027 06:14:43.710   09 Jun 2027 06:14:56.210            12.500          5274.031
       293   09 Jun 2027 06:16:24.879   09 Jun 2027 06:16:31.523             6.644          2418.188
       294   09 Jun 2027 07:50:29.435   09 Jun 2027 07:50:41.827            12.392          3852.094
       295   09 Jun 2027 07:51:52.995   09 Jun 2027 07:52:01.134             8.139          2113.688
       296   09 Jun 2027 07:52:12.850   09 Jun 2027 07:52:18.379             5.529           110.688
       297   09 Jun 2027 07:53:21.653   09 Jun 2027 07:53:25.605             3.952           969.188
       298   09 Jun 2027 07:53:43.088   09 Jun 2027 07:53:44.133             1.045           522.500
       299   09 Jun 2027 07:54:31.185   09 Jun 2027 07:54:37.158             5.973          1494.219
       300   09 Jun 2027 07:54:46.229   09 Jun 2027 07:54:46.919             0.690           108.125
       301   09 Jun 2027 09:25:13.354   09 Jun 2027 09:25:23.345             9.991          3429.875
       302   09 Jun 2027 09:25:49.272   09 Jun 2027 09:25:49.272             0.000             0.000
       303   09 Jun 2027 09:27:29.429   09 Jun 2027 09:27:42.328            12.899          3821.000
       304   09 Jun 2027 09:28:52.110   09 Jun 2027 09:28:56.476             4.366          2009.594
       305   09 Jun 2027 09:29:59.281   09 Jun 2027 09:29:59.281             0.000             0.000
       306   09 Jun 2027 09:32:07.297   09 Jun 2027 09:32:18.018            10.721          5221.563
       307   09 Jun 2027 09:32:28.722   09 Jun 2027 09:32:30.741             2.019           334.500
       308   09 Jun 2027 11:02:03.069   09 Jun 2027 11:02:25.346            22.277          7729.719
       309   09 Jun 2027 11:02:42.972   09 Jun 2027 11:02:44.737             1.765            98.313
       310   09 Jun 2027 11:03:58.018   09 Jun 2027 11:04:02.863             4.845          1561.875
       311   09 Jun 2027 11:04:31.681   09 Jun 2027 11:04:35.631             3.950           900.563
       312   09 Jun 2027 11:05:20.020   09 Jun 2027 11:05:22.797             2.777           720.250
       313   09 Jun 2027 11:05:34.754   09 Jun 2027 11:05:34.754             0.000             0.000
       314   09 Jun 2027 11:05:44.037   09 Jun 2027 11:05:47.330             3.293           537.344
       315   09 Jun 2027 11:06:06.767   09 Jun 2027 11:06:11.615             4.848           571.656
       316   09 Jun 2027 11:06:35.324   09 Jun 2027 11:06:46.386            11.062           705.656
       317   09 Jun 2027 11:07:49.254   09 Jun 2027 11:07:53.385             4.131          1964.625
       318   09 Jun 2027 11:08:09.312   09 Jun 2027 11:08:13.285             3.973           497.719
       319   10 Jun 2027 03:26:04.781   10 Jun 2027 03:28:57.087           172.306         86153.000
       320   10 Jun 2027 03:30:47.993   10 Jun 2027 03:31:28.984            40.991         20495.500
       321   10 Jun 2027 03:32:24.876   10 Jun 2027 03:32:35.796            10.920          5460.000
       322   10 Jun 2027 03:32:41.086   10 Jun 2027 03:32:58.678            17.592          8796.000
       323   10 Jun 2027 04:51:08.105   10 Jun 2027 04:51:27.831            19.726          9863.000
       324   10 Jun 2027 05:02:48.107   10 Jun 2027 05:03:52.301            64.194         31767.750
       325   10 Jun 2027 06:25:04.933   10 Jun 2027 06:25:14.460             9.527          4705.156
       326   10 Jun 2027 06:25:23.625   10 Jun 2027 06:25:24.754             1.129           205.156
       327   10 Jun 2027 06:25:57.513   10 Jun 2027 06:25:59.726             2.213           709.938
       328   10 Jun 2027 06:27:30.294   10 Jun 2027 06:27:33.990             3.696          1661.375
       329   10 Jun 2027 06:29:07.355   10 Jun 2027 06:29:12.791             5.436          2546.281
       330   10 Jun 2027 06:29:44.777   10 Jun 2027 06:29:46.828             2.051           783.938
       331   10 Jun 2027 08:00:19.685   10 Jun 2027 08:00:27.963             8.278          3512.531
       332   10 Jun 2027 08:00:53.876   10 Jun 2027 08:00:57.954             4.078           795.281
       333   10 Jun 2027 08:03:03.291   10 Jun 2027 08:03:10.985             7.694          2542.906
       334   10 Jun 2027 08:03:34.903   10 Jun 2027 08:03:36.179             1.276           535.875
       335   10 Jun 2027 08:04:06.822   10 Jun 2027 08:04:19.431            12.609           957.594
       336   10 Jun 2027 08:04:39.532   10 Jun 2027 08:04:41.714             2.182           587.813
       337   10 Jun 2027 08:05:23.819   10 Jun 2027 08:05:27.273             3.454           885.594
       338   10 Jun 2027 08:06:03.695   10 Jun 2027 08:06:07.319             3.624           922.531
       339   10 Jun 2027 08:06:34.621   10 Jun 2027 08:06:38.360             3.739           562.250
       340   10 Jun 2027 09:37:21.197   10 Jun 2027 09:37:29.716             8.519          3888.750
       341   10 Jun 2027 09:38:28.614   10 Jun 2027 09:38:30.944             2.330          1097.000
       342   10 Jun 2027 09:38:58.643   10 Jun 2027 09:39:00.936             2.293           654.750
       343   10 Jun 2027 09:39:52.580   10 Jun 2027 09:39:58.658             6.078           728.562
       344   10 Jun 2027 09:40:41.330   10 Jun 2027 09:40:42.949             1.619           718.938
       345   10 Jun 2027 09:41:02.711   10 Jun 2027 09:41:02.711             0.000             0.000
       346   10 Jun 2027 09:41:22.210   10 Jun 2027 09:41:25.844             3.634          1226.906
       347   10 Jun 2027 09:42:15.903   10 Jun 2027 09:42:21.359             5.456           828.125
       348   10 Jun 2027 09:42:27.263   10 Jun 2027 09:42:27.984             0.721           126.844
       349   10 Jun 2027 09:43:11.815   10 Jun 2027 09:43:18.606             6.791           990.656
       350   10 Jun 2027 09:43:57.107   10 Jun 2027 09:44:01.244             4.137          1203.156
       351   10 Jun 2027 09:44:19.440   10 Jun 2027 09:44:19.440             0.000             0.000
       352   10 Jun 2027 09:44:30.033   10 Jun 2027 09:44:34.247             4.214           633.844
       353   10 Jun 2027 11:14:19.176   10 Jun 2027 11:14:34.309            15.133          5591.000
       354   10 Jun 2027 11:15:13.253   10 Jun 2027 11:15:17.204             3.951          1215.031
       355   10 Jun 2027 11:15:35.022   10 Jun 2027 11:15:36.739             1.717           518.312
       356   10 Jun 2027 11:15:53.062   10 Jun 2027 11:15:54.251             1.189           510.094
       357   10 Jun 2027 11:16:17.000   10 Jun 2027 11:16:21.801             4.801           279.250
       358   10 Jun 2027 11:16:28.341   10 Jun 2027 11:16:29.437             1.096           167.938
       359   10 Jun 2027 11:16:48.297   10 Jun 2027 11:16:54.179             5.882           550.031
       360   10 Jun 2027 11:17:16.604   10 Jun 2027 11:17:21.336             4.732           696.250
       361   10 Jun 2027 11:17:36.057   10 Jun 2027 11:17:37.424             1.367           426.938
       362   10 Jun 2027 11:18:27.906   10 Jun 2027 11:18:31.240             3.334          1497.719
       363   10 Jun 2027 11:18:47.947   10 Jun 2027 11:18:50.248             2.301           324.563
       364   10 Jun 2027 11:19:04.558   10 Jun 2027 11:19:06.404             1.846           447.188
       365   10 Jun 2027 11:19:35.663   10 Jun 2027 11:19:39.198             3.535           914.344
       366   10 Jun 2027 11:19:56.289   10 Jun 2027 11:19:56.289             0.000             0.000
       367   10 Jun 2027 11:19:59.799   10 Jun 2027 11:20:02.520             2.721           357.875
       368   11 Jun 2027 03:38:22.381   11 Jun 2027 03:40:41.983           139.602         69801.000
       369   11 Jun 2027 03:41:35.056   11 Jun 2027 03:42:20.236            45.180         22590.000
       370   11 Jun 2027 03:42:33.961   11 Jun 2027 03:43:33.634            59.673         29836.500
       371   11 Jun 2027 03:45:08.879   11 Jun 2027 03:45:17.373             8.494          4247.000
       372   11 Jun 2027 05:02:29.254   11 Jun 2027 05:03:15.244            45.990         22995.000
       373   11 Jun 2027 05:03:26.663   11 Jun 2027 05:03:26.663             0.000             0.000
       374   11 Jun 2027 05:14:45.329   11 Jun 2027 05:15:22.896            37.567         18472.031
       375   11 Jun 2027 06:36:44.161   11 Jun 2027 06:36:52.523             8.362          3940.000
       376   11 Jun 2027 06:37:57.565   11 Jun 2027 06:37:58.977             1.412           706.000
       377   11 Jun 2027 06:38:00.786   11 Jun 2027 06:38:08.072             7.286           777.437
       378   11 Jun 2027 06:38:56.561   11 Jun 2027 06:38:56.561             0.000             0.000
       379   11 Jun 2027 06:40:01.082   11 Jun 2027 06:40:07.613             6.531          2829.750
       380   11 Jun 2027 06:40:28.542   11 Jun 2027 06:40:30.237             1.695           632.281
       381   11 Jun 2027 08:11:44.674   11 Jun 2027 08:11:58.729            14.055          4934.156
       382   11 Jun 2027 08:13:13.346   11 Jun 2027 08:13:14.523             1.177           588.500
       383   11 Jun 2027 08:13:34.312   11 Jun 2027 08:13:38.082             3.770          1477.250
       384   11 Jun 2027 08:14:12.157   11 Jun 2027 08:14:12.157             0.000             0.000
       385   11 Jun 2027 08:14:35.464   11 Jun 2027 08:14:41.854             6.390          1670.562
       386   11 Jun 2027 08:15:33.971   11 Jun 2027 08:15:37.487             3.516          1042.437
       387   11 Jun 2027 08:17:18.424   11 Jun 2027 08:17:21.657             3.233          1616.500
       388   11 Jun 2027 08:18:05.992   11 Jun 2027 08:18:09.845             3.853          1926.500
       389   11 Jun 2027 08:19:55.371   11 Jun 2027 08:20:03.686             8.315          3732.782
       390   11 Jun 2027 08:20:12.249   11 Jun 2027 08:20:13.133             0.884           267.594
       391   11 Jun 2027 09:49:23.251   11 Jun 2027 09:49:35.432            12.181          5290.563
       392   11 Jun 2027 09:50:27.371   11 Jun 2027 09:50:29.506             2.135           688.563
       393   11 Jun 2027 09:50:39.671   11 Jun 2027 09:50:40.905             1.234           185.563
       394   11 Jun 2027 09:53:23.883   11 Jun 2027 09:53:31.173             7.290          3590.563
       395   11 Jun 2027 09:53:48.764   11 Jun 2027 09:53:49.726             0.962           210.344
       396   11 Jun 2027 09:54:22.827   11 Jun 2027 09:54:24.758             1.931           479.219
       397   11 Jun 2027 09:55:10.850   11 Jun 2027 09:55:16.040             5.190          1279.719
       398   11 Jun 2027 09:55:34.393   11 Jun 2027 09:55:37.959             3.566           573.531
       399   11 Jun 2027 09:56:15.146   11 Jun 2027 09:56:20.964             5.818          1162.094
       400   11 Jun 2027 11:26:09.537   11 Jun 2027 11:26:24.919            15.382          7026.406
       401   11 Jun 2027 11:27:14.042   11 Jun 2027 11:27:17.675             3.633          1535.094
       402   11 Jun 2027 11:27:51.258   11 Jun 2027 11:27:56.197             4.939          1049.469
       403   11 Jun 2027 11:28:30.702   11 Jun 2027 11:28:32.115             1.413           400.594
       404   11 Jun 2027 11:29:48.918   11 Jun 2027 11:29:57.642             8.724          2290.344
       405   11 Jun 2027 11:30:18.139   11 Jun 2027 11:30:18.139             0.000             0.000
       406   11 Jun 2027 11:30:42.564   11 Jun 2027 11:30:47.944             5.380          1352.188
       407   11 Jun 2027 11:32:20.553   11 Jun 2027 11:32:28.536             7.983          2222.937
       408   12 Jun 2027 03:50:28.629   12 Jun 2027 03:52:40.285           131.656         65828.000
       409   12 Jun 2027 03:53:45.105   12 Jun 2027 03:53:47.931             2.826          1413.000
       410   12 Jun 2027 03:54:07.353   12 Jun 2027 03:54:13.384             6.031          3015.500
       411   12 Jun 2027 03:54:44.216   12 Jun 2027 03:55:23.600            39.384         19692.000
       412   12 Jun 2027 03:55:40.269   12 Jun 2027 03:56:11.000            30.731         15365.500
       413   12 Jun 2027 05:14:37.117   12 Jun 2027 05:15:18.161            41.044         20522.000
       414   12 Jun 2027 06:48:26.273   12 Jun 2027 06:49:33.117            66.844         32760.875
       415   12 Jun 2027 06:50:23.376   12 Jun 2027 06:50:27.481             4.105           722.094
       416   12 Jun 2027 06:51:11.717   12 Jun 2027 06:51:14.130             2.413           900.500
       417   12 Jun 2027 06:51:58.994   12 Jun 2027 06:52:02.690             3.696          1211.719
       418   12 Jun 2027 06:52:37.944   12 Jun 2027 06:52:41.254             3.310          1094.406
       419   12 Jun 2027 08:23:18.296   12 Jun 2027 08:23:28.292             9.996          4290.719
       420   12 Jun 2027 08:24:16.198   12 Jun 2027 08:24:18.537             2.339           922.188
       421   12 Jun 2027 08:25:37.287   12 Jun 2027 08:25:42.071             4.784          2301.187
       422   12 Jun 2027 08:26:44.790   12 Jun 2027 08:26:48.292             3.502          1173.125
       423   12 Jun 2027 08:26:56.791   12 Jun 2027 08:26:57.232             0.441           209.469
       424   12 Jun 2027 08:27:39.853   12 Jun 2027 08:27:42.880             3.027          1331.906
       425   12 Jun 2027 08:29:06.425   12 Jun 2027 08:29:06.425             0.000             0.000
       426   12 Jun 2027 08:30:36.512   12 Jun 2027 08:30:53.569            17.057          5062.375
       427   12 Jun 2027 08:31:28.154   12 Jun 2027 08:31:34.664             6.510          1080.781
       428   12 Jun 2027 08:32:17.498   12 Jun 2027 08:32:22.012             4.514          1298.500
       429   12 Jun 2027 10:01:24.480   12 Jun 2027 10:01:39.495            15.015          6886.687
       430   12 Jun 2027 10:02:03.762   12 Jun 2027 10:02:10.452             6.690           663.625
       431   12 Jun 2027 10:02:45.929   12 Jun 2027 10:02:50.039             4.110          1086.188
       432   12 Jun 2027 10:03:10.374   12 Jun 2027 10:03:12.604             2.230           513.312
       433   12 Jun 2027 10:03:47.477   12 Jun 2027 10:03:49.697             2.220          1089.781
       434   12 Jun 2027 10:04:22.231   12 Jun 2027 10:04:25.485             3.254           222.000
       435   12 Jun 2027 10:04:49.213   12 Jun 2027 10:04:52.636             3.423           741.500
       436   12 Jun 2027 10:05:25.074   12 Jun 2027 10:05:25.164             0.090            45.000
       437   12 Jun 2027 10:06:12.985   12 Jun 2027 10:06:17.568             4.583          1709.000
       438   12 Jun 2027 10:06:38.565   12 Jun 2027 10:06:41.458             2.893           442.625
       439   12 Jun 2027 10:07:03.495   12 Jun 2027 10:07:07.066             3.571           687.188
       440   12 Jun 2027 10:07:31.986   12 Jun 2027 10:07:38.575             6.589           220.063
       441   12 Jun 2027 10:07:51.237   12 Jun 2027 10:07:52.736             1.499           369.688
       442   12 Jun 2027 10:08:06.762   12 Jun 2027 10:08:10.765             4.003           395.906
       443   12 Jun 2027 10:08:24.062   12 Jun 2027 10:08:26.147             2.085           397.250
       444   12 Jun 2027 10:08:28.238   12 Jun 2027 10:08:30.222             1.984            65.344
       445   12 Jun 2027 10:08:40.747   12 Jun 2027 10:08:41.814             1.067           316.562
       446   12 Jun 2027 11:38:19.380   12 Jun 2027 11:38:31.976            12.596          6298.000
       447   12 Jun 2027 11:38:51.651   12 Jun 2027 11:38:53.773             2.122           985.407
       448   12 Jun 2027 11:39:21.321   12 Jun 2027 11:39:23.554             2.233           833.875
       449   12 Jun 2027 11:40:30.262   12 Jun 2027 11:40:34.999             4.737          2031.781
       450   12 Jun 2027 11:41:05.904   12 Jun 2027 11:41:08.361             2.457           915.906
       451   12 Jun 2027 11:41:54.746   12 Jun 2027 11:41:59.755             5.009          1410.562
       452   12 Jun 2027 11:42:19.956   12 Jun 2027 11:42:23.469             3.513           621.000
       453   12 Jun 2027 11:43:02.887   12 Jun 2027 11:43:05.124             2.237           828.375
       454   12 Jun 2027 11:43:10.564   12 Jun 2027 11:43:13.951             3.387            86.438
       455   12 Jun 2027 11:43:46.959   12 Jun 2027 11:43:50.826             3.867          1031.500
       456   12 Jun 2027 11:44:24.214   12 Jun 2027 11:44:31.891             7.677          1043.375
       457   13 Jun 2027 04:03:05.097   13 Jun 2027 04:05:43.386           158.289         79144.500
       458   13 Jun 2027 04:06:10.658   13 Jun 2027 04:06:26.774            16.116          8058.000
       459   13 Jun 2027 04:06:29.722   13 Jun 2027 04:06:43.754            14.032          7016.000
       460   13 Jun 2027 04:06:46.606   13 Jun 2027 04:07:12.832            26.226         13113.000
       461   13 Jun 2027 04:07:17.111   13 Jun 2027 04:07:43.485            26.374         13187.000
       462   13 Jun 2027 05:26:33.171   13 Jun 2027 05:27:20.997            47.826         23913.000
       463   13 Jun 2027 05:28:10.464   13 Jun 2027 05:28:10.464             0.000             0.000
       464   13 Jun 2027 07:02:46.308   13 Jun 2027 07:03:20.907            34.599         17269.969
       465   13 Jun 2027 07:03:32.167   13 Jun 2027 07:03:32.167             0.000             0.000
       466   13 Jun 2027 07:03:37.433   13 Jun 2027 07:03:43.333             5.900           503.250
       467   13 Jun 2027 07:04:46.509   13 Jun 2027 07:04:51.141             4.632          1714.781
       468   13 Jun 2027 07:04:58.273   13 Jun 2027 07:04:58.902             0.629           222.875
       469   13 Jun 2027 07:05:16.985   13 Jun 2027 07:05:16.985             0.000             0.000
       470   13 Jun 2027 07:05:19.696   13 Jun 2027 07:05:23.917             4.221           625.938
       471   13 Jun 2027 08:36:19.384   13 Jun 2027 08:36:31.598            12.214          4649.781
       472   13 Jun 2027 08:38:39.451   13 Jun 2027 08:38:47.073             7.622          1926.437
       473   13 Jun 2027 08:39:41.961   13 Jun 2027 08:39:48.763             6.802          1712.906
       474   13 Jun 2027 08:40:56.832   13 Jun 2027 08:41:02.283             5.451          1960.813
       475   13 Jun 2027 08:41:21.832   13 Jun 2027 08:41:23.651             1.819           553.500
       476   13 Jun 2027 08:42:13.061   13 Jun 2027 08:42:16.767             3.706          1411.094
       477   13 Jun 2027 08:43:52.887   13 Jun 2027 08:43:58.271             5.384          2154.563
       478   13 Jun 2027 08:44:30.031   13 Jun 2027 08:44:32.024             1.993           570.562
       479   13 Jun 2027 10:13:51.781   13 Jun 2027 10:14:03.454            11.673          5836.500
       480   13 Jun 2027 10:14:15.152   13 Jun 2027 10:14:19.195             4.043           430.593
       481   13 Jun 2027 10:14:36.108   13 Jun 2027 10:14:37.570             1.462           372.656
       482   13 Jun 2027 10:14:39.142   13 Jun 2027 10:14:40.808             1.666            27.094
       483   13 Jun 2027 10:15:16.639   13 Jun 2027 10:15:21.244             4.605          1119.719
       484   13 Jun 2027 10:15:59.389   13 Jun 2027 10:15:59.389             0.000             0.000
       485   13 Jun 2027 10:17:26.003   13 Jun 2027 10:17:33.617             7.614          3201.188
       486   13 Jun 2027 10:18:26.451   13 Jun 2027 10:18:26.621             0.170            85.000
       487   13 Jun 2027 10:18:51.232   13 Jun 2027 10:18:56.212             4.980          1345.594
       488   13 Jun 2027 10:19:07.564   13 Jun 2027 10:19:08.462             0.898           354.750
       489   13 Jun 2027 10:19:23.671   13 Jun 2027 10:19:26.321             2.650           232.844
       490   13 Jun 2027 10:19:39.790   13 Jun 2027 10:19:43.475             3.685           193.406
       491   13 Jun 2027 10:20:29.854   13 Jun 2027 10:20:31.676             1.822           900.438
       492   13 Jun 2027 11:50:47.160   13 Jun 2027 11:51:08.047            20.887          7202.000
       493   13 Jun 2027 11:52:30.159   13 Jun 2027 11:52:32.360             2.201          1100.500
       494   13 Jun 2027 11:52:45.281   13 Jun 2027 11:52:50.003             4.722          1429.344
       495   13 Jun 2027 11:54:01.952   13 Jun 2027 11:54:03.906             1.954           977.000
       496   13 Jun 2027 11:54:19.531   13 Jun 2027 11:54:24.495             4.964          1759.687
       497   13 Jun 2027 11:55:06.412   13 Jun 2027 11:55:09.347             2.935           861.000
       498   13 Jun 2027 11:56:03.848   13 Jun 2027 11:56:08.638             4.790          1640.937
