uniorb/output/strategy_2/Camera/Camera_KinoSat_110401.txt

KinoSat_110401
-------------------------
    Access    *     Start Time (UTCG)     *     Stop Time (UTCG)  *   Duration (s) *   Data (Mbytes)
         1   01 Jun 2027 04:29:57.825   01 Jun 2027 04:29:58.866             1.041           520.500
         2   01 Jun 2027 04:30:22.127   01 Jun 2027 04:30:34.400            12.273          6136.500
         3   01 Jun 2027 04:31:37.406   01 Jun 2027 04:31:38.672             1.266           633.000
         4   01 Jun 2027 04:32:06.345   01 Jun 2027 04:32:09.041             2.696          1348.000
         5   01 Jun 2027 04:32:50.922   01 Jun 2027 04:33:07.653            16.731          8365.500
         6   01 Jun 2027 04:34:33.048   01 Jun 2027 04:34:43.279            10.231          5115.500
         7   01 Jun 2027 04:36:48.528   01 Jun 2027 04:36:48.698             0.170            85.000
         8   01 Jun 2027 06:06:58.699   01 Jun 2027 06:07:05.911             7.212          3606.000
         9   01 Jun 2027 06:07:42.508   01 Jun 2027 06:08:03.823            21.315         10657.500
        10   01 Jun 2027 06:09:45.724   01 Jun 2027 06:09:49.800             4.076          2038.000
        11   01 Jun 2027 06:10:12.511   01 Jun 2027 06:10:22.152             9.641          4820.500
        12   01 Jun 2027 06:11:11.869   01 Jun 2027 06:11:13.121             1.252           626.000
        13   01 Jun 2027 06:11:53.907   01 Jun 2027 06:11:53.957             0.050            25.000
        14   01 Jun 2027 06:12:02.040   01 Jun 2027 06:12:08.196             6.156          3078.000
        15   01 Jun 2027 06:12:37.228   01 Jun 2027 06:12:41.319             4.091          2045.500
        16   01 Jun 2027 07:44:59.170   01 Jun 2027 07:45:07.742             8.572          4286.000
        17   01 Jun 2027 07:46:29.446   01 Jun 2027 07:46:33.379             3.933          1966.500
        18   01 Jun 2027 07:46:49.681   01 Jun 2027 07:46:50.186             0.505           252.500
        19   01 Jun 2027 07:47:05.440   01 Jun 2027 07:47:06.953             1.513           756.500
        20   01 Jun 2027 07:47:14.586   01 Jun 2027 07:47:16.953             2.367          1183.500
        21   01 Jun 2027 07:48:21.129   01 Jun 2027 07:48:23.584             2.455          1227.500
        22   01 Jun 2027 09:18:13.069   01 Jun 2027 09:18:41.308            28.239         14119.500
        23   01 Jun 2027 09:21:23.291   01 Jun 2027 09:21:27.157             3.866          1933.000
        24   01 Jun 2027 09:22:01.108   01 Jun 2027 09:22:05.337             4.229          2114.500
        25   01 Jun 2027 09:22:31.831   01 Jun 2027 09:22:33.625             1.794           897.000
        26   01 Jun 2027 09:22:57.838   01 Jun 2027 09:23:09.143            11.305          5652.500
        27   01 Jun 2027 09:24:15.985   01 Jun 2027 09:24:16.990             1.005           502.500
        28   01 Jun 2027 09:24:23.545   01 Jun 2027 09:24:26.603             3.058          1529.000
        29   01 Jun 2027 09:24:59.392   01 Jun 2027 09:25:02.399             3.007          1503.500
        30   01 Jun 2027 09:25:16.373   01 Jun 2027 09:25:20.666             4.293          2146.500
        31   02 Jun 2027 03:04:54.319   02 Jun 2027 03:05:00.578             6.259          3129.500
        32   02 Jun 2027 03:05:16.081   02 Jun 2027 03:05:16.081             0.000             0.000
        33   02 Jun 2027 03:05:30.345   02 Jun 2027 03:05:38.710             8.365          4182.500
        34   02 Jun 2027 03:06:01.260   02 Jun 2027 03:06:01.260             0.000             0.000
        35   02 Jun 2027 03:06:55.866   02 Jun 2027 03:06:57.688             1.822           911.000
        36   02 Jun 2027 03:07:34.777   02 Jun 2027 03:07:47.733            12.956          6478.000
        37   02 Jun 2027 03:08:52.326   02 Jun 2027 03:08:53.423             1.097           548.500
        38   02 Jun 2027 03:09:11.273   02 Jun 2027 03:09:16.677             5.404          2702.000
        39   02 Jun 2027 03:09:38.978   02 Jun 2027 03:09:39.908             0.930           465.000
        40   02 Jun 2027 03:09:56.325   02 Jun 2027 03:10:08.825            12.500          6250.000
        41   02 Jun 2027 03:11:04.252   02 Jun 2027 03:11:07.239             2.987          1493.500
        42   02 Jun 2027 03:11:22.358   02 Jun 2027 03:11:28.981             6.623          3311.500
        43   02 Jun 2027 03:11:40.426   02 Jun 2027 03:11:41.120             0.694           347.000
        44   02 Jun 2027 03:12:50.123   02 Jun 2027 03:12:52.482             2.359          1179.500
        45   02 Jun 2027 04:42:06.711   02 Jun 2027 04:42:23.380            16.669          8334.500
        46   02 Jun 2027 04:43:27.059   02 Jun 2027 04:43:32.369             5.310          2655.000
        47   02 Jun 2027 04:43:56.828   02 Jun 2027 04:44:03.046             6.218          3109.000
        48   02 Jun 2027 04:44:49.902   02 Jun 2027 04:44:52.409             2.507          1253.500
        49   02 Jun 2027 04:45:11.657   02 Jun 2027 04:45:14.518             2.861          1430.500
        50   02 Jun 2027 04:45:38.010   02 Jun 2027 04:45:52.096            14.086          7043.000
        51   02 Jun 2027 04:47:10.692   02 Jun 2027 04:47:17.845             7.153          3576.500
        52   02 Jun 2027 04:47:24.876   02 Jun 2027 04:47:25.942             1.066           533.000
        53   02 Jun 2027 04:47:58.251   02 Jun 2027 04:48:03.155             4.904          2452.000
        54   02 Jun 2027 04:48:29.359   02 Jun 2027 04:48:31.737             2.378          1189.000
        55   02 Jun 2027 04:48:53.787   02 Jun 2027 04:49:05.351            11.564          5782.000
        56   02 Jun 2027 04:49:32.077   02 Jun 2027 04:49:32.530             0.453           226.500
        57   02 Jun 2027 06:19:03.888   02 Jun 2027 06:19:31.092            27.204         13602.000
        58   02 Jun 2027 06:21:32.755   02 Jun 2027 06:21:36.893             4.138          2069.000
        59   02 Jun 2027 06:21:57.069   02 Jun 2027 06:22:06.457             9.388          4694.000
        60   02 Jun 2027 06:22:57.295   02 Jun 2027 06:23:00.353             3.058          1529.000
        61   02 Jun 2027 06:23:13.362   02 Jun 2027 06:23:19.817             6.455          3227.500
        62   02 Jun 2027 06:23:49.124   02 Jun 2027 06:24:10.066            20.942         10471.000
        63   02 Jun 2027 07:56:56.928   02 Jun 2027 07:56:58.740             1.812           906.000
        64   02 Jun 2027 07:57:40.333   02 Jun 2027 07:57:41.464             1.131           565.500
        65   02 Jun 2027 07:57:46.908   02 Jun 2027 07:57:56.379             9.471          4735.500
        66   02 Jun 2027 07:58:26.290   02 Jun 2027 07:58:26.833             0.543           271.500
        67   02 Jun 2027 07:59:03.084   02 Jun 2027 07:59:19.873            16.789          8394.500
        68   02 Jun 2027 08:00:44.261   02 Jun 2027 08:00:46.945             2.684          1342.000
        69   02 Jun 2027 09:30:31.297   02 Jun 2027 09:30:39.071             7.774          3887.000
        70   02 Jun 2027 09:31:25.705   02 Jun 2027 09:31:31.869             6.164          3082.000
        71   02 Jun 2027 09:32:10.051   02 Jun 2027 09:32:21.514            11.463          5731.500
        72   02 Jun 2027 09:33:11.399   02 Jun 2027 09:33:13.155             1.756           878.000
        73   02 Jun 2027 09:34:31.490   02 Jun 2027 09:34:32.339             0.849           424.500
        74   02 Jun 2027 09:34:54.144   02 Jun 2027 09:35:03.064             8.920          4460.000
        75   02 Jun 2027 09:35:52.680   02 Jun 2027 09:35:56.913             4.233          2116.500
        76   02 Jun 2027 09:36:16.112   02 Jun 2027 09:36:16.405             0.293           146.500
        77   02 Jun 2027 09:36:45.649   02 Jun 2027 09:36:52.719             7.070          3535.000
        78   02 Jun 2027 09:37:50.856   02 Jun 2027 09:37:52.472             1.616           808.000
        79   03 Jun 2027 03:16:23.899   03 Jun 2027 03:16:28.647             4.748          2374.000
        80   03 Jun 2027 03:16:54.006   03 Jun 2027 03:16:56.639             2.633          1316.500
        81   03 Jun 2027 03:17:26.968   03 Jun 2027 03:17:39.541            12.573          6286.500
        82   03 Jun 2027 03:18:16.351   03 Jun 2027 03:18:16.351             0.000             0.000
        83   03 Jun 2027 03:18:32.517   03 Jun 2027 03:18:38.719             6.202          3101.000
        84   03 Jun 2027 03:19:50.541   03 Jun 2027 03:20:03.649            13.108          6554.000
        85   03 Jun 2027 03:21:08.187   03 Jun 2027 03:21:13.375             5.188          2594.000
        86   03 Jun 2027 03:21:58.126   03 Jun 2027 03:22:03.489             5.363          2681.500
        87   03 Jun 2027 03:23:07.510   03 Jun 2027 03:23:08.419             0.909           454.500
        88   03 Jun 2027 03:23:21.289   03 Jun 2027 03:23:25.097             3.808          1904.000
        89   03 Jun 2027 03:23:41.419   03 Jun 2027 03:23:43.074             1.655           827.500
        90   03 Jun 2027 03:24:00.506   03 Jun 2027 03:24:08.438             7.932          3966.000
        91   03 Jun 2027 03:25:00.389   03 Jun 2027 03:25:17.343            16.954          8477.000
        92   03 Jun 2027 04:54:08.508   03 Jun 2027 04:54:09.994             1.486           743.000
        93   03 Jun 2027 04:54:36.143   03 Jun 2027 04:54:42.052             5.909          2954.500
        94   03 Jun 2027 04:55:17.273   03 Jun 2027 04:55:21.759             4.486          2243.000
        95   03 Jun 2027 04:55:41.020   03 Jun 2027 04:56:05.327            24.307         12153.500
        96   03 Jun 2027 04:57:49.963   03 Jun 2027 04:57:57.005             7.042          3521.000
        97   03 Jun 2027 04:58:44.335   03 Jun 2027 04:59:04.969            20.634         10317.000
        98   03 Jun 2027 05:00:17.596   03 Jun 2027 05:00:19.149             1.553           776.500
        99   03 Jun 2027 05:00:35.774   03 Jun 2027 05:00:53.969            18.195          9097.500
       100   03 Jun 2027 06:30:56.326   03 Jun 2027 06:30:58.227             1.901           950.500
       101   03 Jun 2027 06:31:12.566   03 Jun 2027 06:31:19.840             7.274          3637.000
       102   03 Jun 2027 06:31:48.906   03 Jun 2027 06:32:16.925            28.019         14009.500
       103   03 Jun 2027 06:34:14.417   03 Jun 2027 06:34:16.709             2.292          1146.000
       104   03 Jun 2027 06:34:29.755   03 Jun 2027 06:34:33.402             3.647          1823.500
       105   03 Jun 2027 06:35:02.546   03 Jun 2027 06:35:03.927             1.381           690.500
       106   03 Jun 2027 06:35:46.328   03 Jun 2027 06:35:47.106             0.778           389.000
       107   03 Jun 2027 06:36:29.092   03 Jun 2027 06:36:30.856             1.764           882.000
       108   03 Jun 2027 06:36:57.725   03 Jun 2027 06:36:58.985             1.260           630.000
       109   03 Jun 2027 06:37:27.923   03 Jun 2027 06:37:28.529             0.606           303.000
       110   03 Jun 2027 08:09:00.047   03 Jun 2027 08:09:10.065            10.018          5009.000
       111   03 Jun 2027 08:10:23.886   03 Jun 2027 08:10:24.746             0.860           430.000
       112   03 Jun 2027 08:10:36.015   03 Jun 2027 08:10:38.726             2.711          1355.500
       113   03 Jun 2027 08:10:57.767   03 Jun 2027 08:11:08.655            10.888          5444.000
       114   03 Jun 2027 08:12:20.945   03 Jun 2027 08:12:22.060             1.115           557.500
       115   03 Jun 2027 09:42:50.569   03 Jun 2027 09:43:01.590            11.021          5510.500
       116   03 Jun 2027 09:44:10.764   03 Jun 2027 09:44:12.031             1.267           633.500
       117   03 Jun 2027 09:44:33.983   03 Jun 2027 09:44:40.817             6.834          3417.000
       118   03 Jun 2027 09:45:02.162   03 Jun 2027 09:45:07.504             5.342          2671.000
       119   03 Jun 2027 09:45:35.598   03 Jun 2027 09:45:51.820            16.222          8111.000
       120   03 Jun 2027 09:47:10.061   03 Jun 2027 09:47:11.507             1.446           723.000
       121   03 Jun 2027 09:48:05.068   03 Jun 2027 09:48:09.693             4.625          2312.500
       122   03 Jun 2027 09:48:29.447   03 Jun 2027 09:48:36.661             7.214          3607.000
       123   03 Jun 2027 09:49:11.883   03 Jun 2027 09:49:11.884             0.001             0.500
       124   04 Jun 2027 03:29:08.349   04 Jun 2027 03:29:13.140             4.791          2395.500
       125   04 Jun 2027 03:29:39.267   04 Jun 2027 03:29:56.186            16.919          8459.500
       126   04 Jun 2027 03:30:54.871   04 Jun 2027 03:30:54.871             0.000             0.000
       127   04 Jun 2027 03:31:24.719   04 Jun 2027 03:31:25.789             1.070           535.000
       128   04 Jun 2027 03:31:58.731   04 Jun 2027 03:32:04.159             5.428          2714.000
       129   04 Jun 2027 03:32:40.594   04 Jun 2027 03:32:43.094             2.500          1250.000
       130   04 Jun 2027 03:33:07.059   04 Jun 2027 03:33:09.231             2.172          1086.000
       131   04 Jun 2027 03:33:12.415   04 Jun 2027 03:33:16.561             4.146          2073.000
       132   04 Jun 2027 03:33:42.471   04 Jun 2027 03:33:44.857             2.386          1193.000
       133   04 Jun 2027 03:33:59.747   04 Jun 2027 03:34:02.697             2.950          1475.000
       134   04 Jun 2027 03:34:17.913   04 Jun 2027 03:34:21.778             3.865          1932.500
       135   04 Jun 2027 03:34:44.675   04 Jun 2027 03:34:55.956            11.281          5640.500
       136   04 Jun 2027 03:36:07.010   04 Jun 2027 03:36:07.793             0.783           391.500
       137   04 Jun 2027 03:36:18.626   04 Jun 2027 03:36:21.182             2.556          1278.000
       138   04 Jun 2027 03:36:38.238   04 Jun 2027 03:36:38.855             0.617           308.500
       139   04 Jun 2027 03:36:56.391   04 Jun 2027 03:36:59.801             3.410          1705.000
       140   04 Jun 2027 03:37:35.306   04 Jun 2027 03:37:36.732             1.426           713.000
       141   04 Jun 2027 05:06:11.453   04 Jun 2027 05:06:21.643            10.190          5095.000
       142   04 Jun 2027 05:07:08.646   04 Jun 2027 05:07:24.757            16.111          8055.500
       143   04 Jun 2027 05:09:16.092   04 Jun 2027 05:09:18.490             2.398          1199.000
       144   04 Jun 2027 05:10:22.116   04 Jun 2027 05:10:47.625            25.509         12754.500
       145   04 Jun 2027 05:12:41.983   04 Jun 2027 05:12:51.285             9.302          4651.000
       146   04 Jun 2027 05:13:18.983   04 Jun 2027 05:13:22.607             3.624          1812.000
       147   04 Jun 2027 06:43:05.927   04 Jun 2027 06:43:21.938            16.011          8005.500
       148   04 Jun 2027 06:44:56.401   04 Jun 2027 06:44:56.872             0.471           235.500
       149   04 Jun 2027 06:45:34.661   04 Jun 2027 06:45:40.954             6.293          3146.500
       150   04 Jun 2027 06:46:21.133   04 Jun 2027 06:46:26.744             5.611          2805.500
       151   04 Jun 2027 06:46:45.593   04 Jun 2027 06:46:45.888             0.295           147.500
       152   04 Jun 2027 06:46:54.291   04 Jun 2027 06:46:56.001             1.710           855.000
       153   04 Jun 2027 06:47:16.391   04 Jun 2027 06:47:22.554             6.163          3081.500
       154   04 Jun 2027 06:47:47.850   04 Jun 2027 06:47:47.919             0.069            34.500
       155   04 Jun 2027 06:47:57.858   04 Jun 2027 06:47:58.875             1.017           508.500
       156   04 Jun 2027 06:48:32.272   04 Jun 2027 06:48:33.137             0.865           432.500
       157   04 Jun 2027 06:49:22.738   04 Jun 2027 06:49:26.529             3.791          1895.500
       158   04 Jun 2027 08:20:12.219   04 Jun 2027 08:20:13.967             1.748           874.000
       159   04 Jun 2027 08:20:33.936   04 Jun 2027 08:20:38.344             4.408          2204.000
       160   04 Jun 2027 08:20:49.714   04 Jun 2027 08:20:53.693             3.979          1989.500
       161   04 Jun 2027 08:21:53.026   04 Jun 2027 08:22:10.212            17.186          8593.000
       162   04 Jun 2027 08:23:24.188   04 Jun 2027 08:23:31.679             7.491          3745.500
       163   04 Jun 2027 08:24:10.555   04 Jun 2027 08:24:20.755            10.200          5100.000
       164   04 Jun 2027 09:55:13.603   04 Jun 2027 09:55:13.628             0.025            12.500
       165   04 Jun 2027 09:56:53.453   04 Jun 2027 09:56:56.585             3.132          1566.000
       166   04 Jun 2027 09:57:22.891   04 Jun 2027 09:57:42.232            19.341          9670.500
       167   04 Jun 2027 09:59:12.065   04 Jun 2027 09:59:41.275            29.210         14605.000
       168   04 Jun 2027 09:59:56.472   04 Jun 2027 09:59:58.274             1.802           901.000
       169   05 Jun 2027 03:41:06.292   05 Jun 2027 03:41:21.539            15.247          7623.500
       170   05 Jun 2027 03:42:24.323   05 Jun 2027 03:42:25.740             1.417           708.500
       171   05 Jun 2027 03:42:30.624   05 Jun 2027 03:42:45.354            14.730          7365.000
       172   05 Jun 2027 03:43:29.788   05 Jun 2027 03:43:36.334             6.546          3273.000
       173   05 Jun 2027 03:44:09.969   05 Jun 2027 03:44:11.420             1.451           725.500
       174   05 Jun 2027 03:44:35.502   05 Jun 2027 03:44:43.395             7.893          3946.500
       175   05 Jun 2027 03:45:17.433   05 Jun 2027 03:45:17.553             0.120            60.000
       176   05 Jun 2027 03:45:39.463   05 Jun 2027 03:45:43.860             4.397          2198.500
       177   05 Jun 2027 03:46:04.142   05 Jun 2027 03:46:07.690             3.548          1774.000
       178   05 Jun 2027 03:46:22.684   05 Jun 2027 03:46:25.698             3.014          1507.000
       179   05 Jun 2027 03:47:47.281   05 Jun 2027 03:47:51.918             4.637          2318.500
       180   05 Jun 2027 03:48:19.888   05 Jun 2027 03:48:26.491             6.603          3301.500
       181   05 Jun 2027 03:49:01.264   05 Jun 2027 03:49:04.324             3.060          1530.000
       182   05 Jun 2027 03:49:18.924   05 Jun 2027 03:49:35.273            16.349          8174.500
       183   05 Jun 2027 05:18:37.128   05 Jun 2027 05:18:59.756            22.628         11314.000
       184   05 Jun 2027 05:20:44.041   05 Jun 2027 05:20:47.918             3.877          1938.500
       185   05 Jun 2027 05:21:03.786   05 Jun 2027 05:21:05.243             1.457           728.500
       186   05 Jun 2027 05:21:39.772   05 Jun 2027 05:21:40.462             0.690           345.000
       187   05 Jun 2027 05:22:11.568   05 Jun 2027 05:22:12.739             1.171           585.500
       188   05 Jun 2027 05:22:21.223   05 Jun 2027 05:22:21.233             0.010             5.000
       189   05 Jun 2027 05:23:21.827   05 Jun 2027 05:23:26.895             5.068          2534.000
       190   05 Jun 2027 05:23:37.332   05 Jun 2027 05:23:50.329            12.997          6498.500
       191   05 Jun 2027 05:24:59.945   05 Jun 2027 05:25:11.765            11.820          5910.000
       192   05 Jun 2027 06:55:33.361   05 Jun 2027 06:55:40.670             7.309          3654.500
       193   05 Jun 2027 06:56:07.716   05 Jun 2027 06:56:41.508            33.792         16896.000
       194   05 Jun 2027 06:59:01.551   05 Jun 2027 06:59:01.924             0.373           186.500
       195   05 Jun 2027 06:59:06.713   05 Jun 2027 06:59:10.302             3.589          1794.500
       196   05 Jun 2027 06:59:17.960   05 Jun 2027 06:59:20.714             2.754          1377.000
       197   05 Jun 2027 06:59:47.823   05 Jun 2027 06:59:51.652             3.829          1914.500
       198   05 Jun 2027 07:00:07.613   05 Jun 2027 07:00:10.183             2.570          1285.000
       199   05 Jun 2027 07:00:11.988   05 Jun 2027 07:00:17.544             5.556          2778.000
       200   05 Jun 2027 07:00:53.749   05 Jun 2027 07:00:54.167             0.418           209.000
       201   05 Jun 2027 07:01:10.399   05 Jun 2027 07:01:19.895             9.496          4748.000
       202   05 Jun 2027 08:32:23.780   05 Jun 2027 08:32:29.336             5.556          2778.000
       203   05 Jun 2027 08:32:51.867   05 Jun 2027 08:32:52.366             0.499           249.500
       204   05 Jun 2027 08:33:08.257   05 Jun 2027 08:33:16.163             7.906          3953.000
       205   05 Jun 2027 08:34:12.541   05 Jun 2027 08:34:18.208             5.667          2833.500
       206   05 Jun 2027 08:35:24.929   05 Jun 2027 08:35:25.514             0.585           292.500
       207   05 Jun 2027 08:36:39.826   05 Jun 2027 08:36:40.356             0.530           265.000
       208   05 Jun 2027 08:36:47.800   05 Jun 2027 08:36:48.301             0.501           250.500
       209   05 Jun 2027 10:10:00.862   05 Jun 2027 10:10:17.063            16.201          8100.500
       210   05 Jun 2027 10:11:33.273   05 Jun 2027 10:11:43.660            10.387          5193.500
       211   06 Jun 2027 03:53:55.942   06 Jun 2027 03:53:57.911             1.969           984.500
       212   06 Jun 2027 03:54:10.794   06 Jun 2027 03:54:36.183            25.389         12694.500
       213   06 Jun 2027 03:56:25.098   06 Jun 2027 03:56:25.321             0.223           111.500
       214   06 Jun 2027 03:56:28.506   06 Jun 2027 03:56:28.728             0.222           111.000
       215   06 Jun 2027 03:56:41.177   06 Jun 2027 03:56:43.314             2.137          1068.500
       216   06 Jun 2027 03:56:57.332   06 Jun 2027 03:57:02.184             4.852          2426.000
       217   06 Jun 2027 03:58:02.197   06 Jun 2027 03:58:04.817             2.620          1310.000
       218   06 Jun 2027 03:58:15.865   06 Jun 2027 03:58:17.772             1.907           953.500
       219   06 Jun 2027 03:59:07.531   06 Jun 2027 03:59:12.433             4.902          2451.000
       220   06 Jun 2027 03:59:27.221   06 Jun 2027 03:59:27.221             0.000             0.000
       221   06 Jun 2027 03:59:32.837   06 Jun 2027 03:59:35.611             2.774          1387.000
       222   06 Jun 2027 03:59:49.858   06 Jun 2027 03:59:59.006             9.148          4574.000
       223   06 Jun 2027 04:00:09.248   06 Jun 2027 04:00:19.307            10.059          5029.500
       224   06 Jun 2027 04:01:30.337   06 Jun 2027 04:01:32.375             2.038          1019.000
       225   06 Jun 2027 05:30:43.807   06 Jun 2027 05:30:52.200             8.393          4196.500
       226   06 Jun 2027 05:31:28.525   06 Jun 2027 05:31:48.191            19.666          9833.000
       227   06 Jun 2027 05:33:32.116   06 Jun 2027 05:33:46.752            14.636          7318.000
       228   06 Jun 2027 05:34:54.512   06 Jun 2027 05:34:55.298             0.786           393.000
       229   06 Jun 2027 05:35:09.434   06 Jun 2027 05:35:18.021             8.587          4293.500
       230   06 Jun 2027 05:36:10.561   06 Jun 2027 05:36:12.623             2.062          1031.000
       231   06 Jun 2027 05:36:38.847   06 Jun 2027 05:36:43.154             4.307          2153.500
       232   06 Jun 2027 07:08:24.825   06 Jun 2027 07:08:41.154            16.329          8164.500
       233   06 Jun 2027 07:10:01.885   06 Jun 2027 07:10:05.113             3.228          1614.000
       234   06 Jun 2027 07:10:31.315   06 Jun 2027 07:10:31.815             0.500           250.000
       235   06 Jun 2027 07:11:08.229   06 Jun 2027 07:11:08.638             0.409           204.500
       236   06 Jun 2027 07:11:54.873   06 Jun 2027 07:11:58.411             3.538          1769.000
       237   06 Jun 2027 07:12:16.078   06 Jun 2027 07:12:19.365             3.287          1643.500
       238   06 Jun 2027 07:12:44.529   06 Jun 2027 07:12:44.749             0.220           110.000
       239   06 Jun 2027 08:44:26.283   06 Jun 2027 08:44:30.502             4.219          2109.500
       240   06 Jun 2027 08:45:47.036   06 Jun 2027 08:45:54.180             7.144          3572.000
       241   06 Jun 2027 08:47:26.218   06 Jun 2027 08:47:28.054             1.836           918.000
       242   06 Jun 2027 08:48:31.877   06 Jun 2027 08:48:32.764             0.887           443.500
       243   06 Jun 2027 08:48:37.900   06 Jun 2027 08:48:41.405             3.505          1752.500
       244   07 Jun 2027 04:06:57.101   07 Jun 2027 04:06:58.972             1.871           935.500
       245   07 Jun 2027 04:07:06.625   07 Jun 2027 04:07:16.506             9.881          4940.500
       246   07 Jun 2027 04:08:14.791   07 Jun 2027 04:08:18.596             3.805          1902.500
       247   07 Jun 2027 04:08:34.643   07 Jun 2027 04:08:38.863             4.220          2110.000
       248   07 Jun 2027 04:09:06.270   07 Jun 2027 04:09:12.857             6.587          3293.500
       249   07 Jun 2027 04:10:09.822   07 Jun 2027 04:10:16.370             6.548          3274.000
       250   07 Jun 2027 04:11:27.053   07 Jun 2027 04:11:35.172             8.119          4059.500
       251   07 Jun 2027 04:12:23.231   07 Jun 2027 04:12:39.245            16.014          8007.000
       252   07 Jun 2027 04:12:56.972   07 Jun 2027 04:13:04.770             7.798          3899.000
       253   07 Jun 2027 05:43:19.599   07 Jun 2027 05:43:38.706            19.107          9553.500
       254   07 Jun 2027 05:44:06.052   07 Jun 2027 05:44:06.475             0.423           211.500
       255   07 Jun 2027 05:45:09.681   07 Jun 2027 05:45:20.096            10.415          5207.500
       256   07 Jun 2027 05:46:09.046   07 Jun 2027 05:46:14.559             5.513          2756.500
       257   07 Jun 2027 05:47:29.571   07 Jun 2027 05:47:36.012             6.441          3220.500
       258   07 Jun 2027 05:48:19.975   07 Jun 2027 05:48:25.198             5.223          2611.500
       259   07 Jun 2027 05:48:45.598   07 Jun 2027 05:48:52.338             6.740          3370.000
       260   07 Jun 2027 05:49:26.537   07 Jun 2027 05:49:32.652             6.115          3057.500
       261   07 Jun 2027 07:20:34.911   07 Jun 2027 07:20:36.760             1.849           924.500
       262   07 Jun 2027 07:20:51.865   07 Jun 2027 07:20:52.168             0.303           151.500
       263   07 Jun 2027 07:21:08.636   07 Jun 2027 07:21:17.137             8.501          4250.500
       264   07 Jun 2027 07:22:18.428   07 Jun 2027 07:22:25.706             7.278          3639.000
       265   07 Jun 2027 07:22:57.216   07 Jun 2027 07:23:12.265            15.049          7524.500
       266   07 Jun 2027 07:23:21.811   07 Jun 2027 07:23:24.456             2.645          1322.500
       267   07 Jun 2027 07:25:01.269   07 Jun 2027 07:25:07.625             6.356          3178.000
       268   07 Jun 2027 08:56:49.551   07 Jun 2027 08:56:58.061             8.510          4255.000
       269   07 Jun 2027 08:58:06.961   07 Jun 2027 08:58:09.042             2.081          1040.500
       270   07 Jun 2027 08:58:20.971   07 Jun 2027 08:58:28.888             7.917          3958.500
       271   07 Jun 2027 08:59:23.286   07 Jun 2027 08:59:24.175             0.889           444.500
       272   07 Jun 2027 09:00:12.717   07 Jun 2027 09:00:12.899             0.182            91.000
       273   07 Jun 2027 09:00:28.610   07 Jun 2027 09:00:35.968             7.358          3679.000
       274   07 Jun 2027 09:01:17.369   07 Jun 2027 09:01:27.309             9.940          4970.000
       275   08 Jun 2027 04:18:38.871   08 Jun 2027 04:19:04.423            25.552         12776.000
       276   08 Jun 2027 04:20:15.732   08 Jun 2027 04:20:15.732             0.000             0.000
       277   08 Jun 2027 04:21:03.421   08 Jun 2027 04:21:09.590             6.169          3084.500
       278   08 Jun 2027 04:21:34.854   08 Jun 2027 04:21:35.954             1.100           550.000
       279   08 Jun 2027 04:22:17.579   08 Jun 2027 04:22:20.603             3.024          1512.000
       280   08 Jun 2027 04:23:10.883   08 Jun 2027 04:23:17.579             6.696          3348.000
       281   08 Jun 2027 04:23:37.324   08 Jun 2027 04:23:37.324             0.000             0.000
       282   08 Jun 2027 04:23:38.706   08 Jun 2027 04:23:49.678            10.972          5486.000
       283   08 Jun 2027 04:24:15.452   08 Jun 2027 04:24:19.635             4.183          2091.500
       284   08 Jun 2027 04:24:33.140   08 Jun 2027 04:24:49.473            16.333          8166.500
       285   08 Jun 2027 05:54:51.496   08 Jun 2027 05:55:01.194             9.698          4849.000
       286   08 Jun 2027 05:55:58.232   08 Jun 2027 05:56:10.310            12.078          6039.000
       287   08 Jun 2027 05:56:32.011   08 Jun 2027 05:56:33.912             1.901           950.500
       288   08 Jun 2027 05:57:18.800   08 Jun 2027 05:57:20.200             1.400           700.000
       289   08 Jun 2027 05:57:51.097   08 Jun 2027 05:58:05.525            14.428          7214.000
       290   08 Jun 2027 05:59:35.147   08 Jun 2027 05:59:38.890             3.743          1871.500
       291   08 Jun 2027 06:00:07.246   08 Jun 2027 06:00:15.513             8.267          4133.500
       292   08 Jun 2027 06:00:23.126   08 Jun 2027 06:00:30.184             7.058          3529.000
       293   08 Jun 2027 06:01:07.340   08 Jun 2027 06:01:15.736             8.396          4198.000
       294   08 Jun 2027 07:33:04.057   08 Jun 2027 07:33:12.415             8.358          4179.000
       295   08 Jun 2027 07:33:29.381   08 Jun 2027 07:33:30.958             1.577           788.500
       296   08 Jun 2027 07:33:59.228   08 Jun 2027 07:34:04.755             5.527          2763.500
       297   08 Jun 2027 07:34:31.531   08 Jun 2027 07:34:33.407             1.876           938.000
       298   08 Jun 2027 07:35:25.053   08 Jun 2027 07:35:26.102             1.049           524.500
       299   08 Jun 2027 07:35:39.317   08 Jun 2027 07:35:42.788             3.471          1735.500
       300   08 Jun 2027 07:36:21.604   08 Jun 2027 07:36:23.665             2.061          1030.500
       301   08 Jun 2027 07:36:34.122   08 Jun 2027 07:36:37.531             3.409          1704.500
       302   08 Jun 2027 07:36:54.145   08 Jun 2027 07:36:54.937             0.792           396.000
       303   08 Jun 2027 09:08:32.137   08 Jun 2027 09:08:39.296             7.159          3579.500
       304   08 Jun 2027 09:09:52.856   08 Jun 2027 09:09:58.370             5.514          2757.000
       305   08 Jun 2027 09:10:22.333   08 Jun 2027 09:10:29.924             7.591          3795.500
       306   08 Jun 2027 09:11:14.932   08 Jun 2027 09:11:19.248             4.316          2158.000
       307   08 Jun 2027 09:12:14.416   08 Jun 2027 09:12:16.124             1.708           854.000
       308   08 Jun 2027 09:12:37.793   08 Jun 2027 09:12:48.714            10.921          5460.500
       309   08 Jun 2027 09:13:26.068   08 Jun 2027 09:13:37.871            11.803          5901.500
       310   09 Jun 2027 04:30:12.283   09 Jun 2027 04:30:13.433             1.150           575.000
       311   09 Jun 2027 04:30:50.342   09 Jun 2027 04:30:57.385             7.043          3521.500
       312   09 Jun 2027 04:31:32.968   09 Jun 2027 04:31:38.050             5.082          2541.000
       313   09 Jun 2027 04:32:22.787   09 Jun 2027 04:32:23.976             1.189           594.500
       314   09 Jun 2027 04:32:34.393   09 Jun 2027 04:32:36.426             2.033          1016.500
       315   09 Jun 2027 04:32:49.541   09 Jun 2027 04:32:51.313             1.772           886.000
       316   09 Jun 2027 04:34:03.158   09 Jun 2027 04:34:05.204             2.046          1023.000
       317   09 Jun 2027 04:34:31.683   09 Jun 2027 04:34:31.796             0.113            56.500
       318   09 Jun 2027 04:34:40.093   09 Jun 2027 04:34:40.909             0.816           408.000
       319   09 Jun 2027 04:35:40.527   09 Jun 2027 04:35:45.174             4.647          2323.500
       320   09 Jun 2027 04:36:11.146   09 Jun 2027 04:36:20.502             9.356          4678.000
       321   09 Jun 2027 04:37:08.743   09 Jun 2027 04:37:34.025            25.282         12641.000
       322   09 Jun 2027 04:37:42.788   09 Jun 2027 04:37:46.174             3.386          1693.000
       323   09 Jun 2027 06:07:13.446   09 Jun 2027 06:07:22.950             9.504          4752.000
       324   09 Jun 2027 06:07:58.837   09 Jun 2027 06:08:18.259            19.422          9711.000
       325   09 Jun 2027 06:10:00.601   09 Jun 2027 06:10:04.280             3.679          1839.500
       326   09 Jun 2027 06:10:28.900   09 Jun 2027 06:10:36.823             7.923          3961.500
       327   09 Jun 2027 06:11:26.134   09 Jun 2027 06:11:28.676             2.542          1271.000
       328   09 Jun 2027 06:12:08.471   09 Jun 2027 06:12:08.579             0.108            54.000
       329   09 Jun 2027 06:12:19.106   09 Jun 2027 06:12:29.770            10.664          5332.000
       330   09 Jun 2027 07:45:13.627   09 Jun 2027 07:45:22.783             9.156          4578.000
       331   09 Jun 2027 07:45:42.332   09 Jun 2027 07:45:45.684             3.352          1676.000
       332   09 Jun 2027 07:46:37.753   09 Jun 2027 07:46:39.456             1.703           851.500
       333   09 Jun 2027 07:46:54.463   09 Jun 2027 07:46:55.433             0.970           485.000
       334   09 Jun 2027 07:47:02.314   09 Jun 2027 07:47:13.432            11.118          5559.000
       335   09 Jun 2027 07:48:00.491   09 Jun 2027 07:48:06.748             6.257          3128.500
       336   09 Jun 2027 07:48:31.817   09 Jun 2027 07:48:31.882             0.065            32.500
       337   09 Jun 2027 07:49:02.852   09 Jun 2027 07:49:05.587             2.735          1367.500
       338   09 Jun 2027 09:18:27.262   09 Jun 2027 09:18:56.108            28.846         14423.000
       339   09 Jun 2027 09:21:37.750   09 Jun 2027 09:21:42.932             5.182          2591.000
       340   09 Jun 2027 09:22:14.694   09 Jun 2027 09:22:17.349             2.655          1327.500
       341   09 Jun 2027 09:22:29.945   09 Jun 2027 09:22:32.289             2.344          1172.000
       342   09 Jun 2027 09:22:42.442   09 Jun 2027 09:22:46.697             4.255          2127.500
       343   09 Jun 2027 09:23:14.975   09 Jun 2027 09:23:15.963             0.988           494.000
       344   09 Jun 2027 09:23:26.231   09 Jun 2027 09:23:51.104            24.873         12436.500
       345   09 Jun 2027 09:25:35.258   09 Jun 2027 09:25:46.382            11.124          5562.000
       346   09 Jun 2027 09:26:12.123   09 Jun 2027 09:26:12.123             0.000             0.000
       347   10 Jun 2027 03:05:08.696   10 Jun 2027 03:05:15.516             6.820          3410.000
       348   10 Jun 2027 03:05:44.844   10 Jun 2027 03:05:56.663            11.819          5909.500
       349   10 Jun 2027 03:07:10.338   10 Jun 2027 03:07:13.550             3.212          1606.000
       350   10 Jun 2027 03:07:49.049   10 Jun 2027 03:07:50.119             1.070           535.000
       351   10 Jun 2027 03:08:22.844   10 Jun 2027 03:08:26.155             3.311          1655.500
       352   10 Jun 2027 03:08:45.977   10 Jun 2027 03:08:47.772             1.795           897.500
       353   10 Jun 2027 03:09:08.239   10 Jun 2027 03:09:12.593             4.354          2177.000
       354   10 Jun 2027 03:09:39.632   10 Jun 2027 03:09:46.312             6.680          3340.000
       355   10 Jun 2027 03:10:23.578   10 Jun 2027 03:10:26.696             3.118          1559.000
       356   10 Jun 2027 03:10:39.812   10 Jun 2027 03:10:41.202             1.390           695.000
       357   10 Jun 2027 03:11:07.331   10 Jun 2027 03:11:14.123             6.792          3396.000
       358   10 Jun 2027 03:11:35.524   10 Jun 2027 03:11:37.434             1.910           955.000
       359   10 Jun 2027 03:11:56.052   10 Jun 2027 03:12:01.606             5.554          2777.000
       360   10 Jun 2027 03:13:03.457   10 Jun 2027 03:13:03.864             0.407           203.500
       361   10 Jun 2027 03:13:10.026   10 Jun 2027 03:13:11.180             1.154           577.000
       362   10 Jun 2027 04:42:21.464   10 Jun 2027 04:42:39.304            17.840          8920.000
       363   10 Jun 2027 04:43:55.869   10 Jun 2027 04:44:06.706            10.837          5418.500
       364   10 Jun 2027 04:44:59.717   10 Jun 2027 04:45:02.675             2.958          1479.000
       365   10 Jun 2027 04:45:23.098   10 Jun 2027 04:45:26.368             3.270          1635.000
       366   10 Jun 2027 04:45:46.621   10 Jun 2027 04:46:06.538            19.917          9958.500
       367   10 Jun 2027 04:47:32.368   10 Jun 2027 04:47:36.274             3.906          1953.000
       368   10 Jun 2027 04:48:05.546   10 Jun 2027 04:48:05.760             0.214           107.000
       369   10 Jun 2027 04:48:49.416   10 Jun 2027 04:48:51.453             2.037          1018.500
       370   10 Jun 2027 04:49:10.814   10 Jun 2027 04:49:27.270            16.456          8228.000
       371   10 Jun 2027 06:19:18.225   10 Jun 2027 06:19:47.435            29.210         14605.000
       372   10 Jun 2027 06:21:47.409   10 Jun 2027 06:21:47.824             0.415           207.500
       373   10 Jun 2027 06:21:53.937   10 Jun 2027 06:22:01.510             7.573          3786.500
       374   10 Jun 2027 06:22:54.971   10 Jun 2027 06:22:57.217             2.246          1123.000
       375   10 Jun 2027 06:23:12.129   10 Jun 2027 06:23:18.240             6.111          3055.500
       376   10 Jun 2027 06:23:52.921   10 Jun 2027 06:23:55.877             2.956          1478.000
       377   10 Jun 2027 06:24:41.128   10 Jun 2027 06:24:44.266             3.138          1569.000
       378   10 Jun 2027 06:25:08.363   10 Jun 2027 06:25:17.500             9.137          4568.500
       379   10 Jun 2027 07:57:11.652   10 Jun 2027 07:57:12.566             0.914           457.000
       380   10 Jun 2027 07:57:55.156   10 Jun 2027 07:57:56.137             0.981           490.500
       381   10 Jun 2027 07:58:00.064   10 Jun 2027 07:58:13.564            13.500          6750.000
       382   10 Jun 2027 07:58:39.945   10 Jun 2027 07:58:42.597             2.652          1326.000
       383   10 Jun 2027 07:59:44.689   10 Jun 2027 07:59:48.843             4.154          2077.000
       384   10 Jun 2027 08:00:29.324   10 Jun 2027 08:00:30.442             1.118           559.000
       385   10 Jun 2027 08:00:52.097   10 Jun 2027 08:00:55.295             3.198          1599.000
       386   10 Jun 2027 09:30:45.931   10 Jun 2027 09:30:53.854             7.923          3961.500
       387   10 Jun 2027 09:31:40.418   10 Jun 2027 09:31:46.908             6.490          3245.000
       388   10 Jun 2027 09:32:24.613   10 Jun 2027 09:32:37.853            13.240          6620.000
       389   10 Jun 2027 09:34:47.201   10 Jun 2027 09:34:48.014             0.813           406.500
       390   10 Jun 2027 09:35:11.332   10 Jun 2027 09:35:17.869             6.537          3268.500
       391   10 Jun 2027 09:35:52.095   10 Jun 2027 09:36:07.021            14.926          7463.000
       392   10 Jun 2027 09:37:29.716   10 Jun 2027 09:37:32.698             2.982          1491.000
       393   10 Jun 2027 09:38:10.758   10 Jun 2027 09:38:17.991             7.233          3616.500
       394   11 Jun 2027 03:16:38.213   11 Jun 2027 03:16:43.683             5.470          2735.000
       395   11 Jun 2027 03:17:08.668   11 Jun 2027 03:17:12.376             3.708          1854.000
       396   11 Jun 2027 03:17:41.946   11 Jun 2027 03:17:57.400            15.454          7727.000
       397   11 Jun 2027 03:19:16.485   11 Jun 2027 03:19:20.064             3.579          1789.500
       398   11 Jun 2027 03:20:01.503   11 Jun 2027 03:20:05.782             4.279          2139.500
       399   11 Jun 2027 03:20:48.924   11 Jun 2027 03:21:08.147            19.223          9611.500
       400   11 Jun 2027 03:22:32.351   11 Jun 2027 03:22:37.026             4.675          2337.500
       401   11 Jun 2027 03:24:01.984   11 Jun 2027 03:24:04.803             2.819          1409.500
       402   11 Jun 2027 03:24:54.067   11 Jun 2027 03:24:54.886             0.819           409.500
       403   11 Jun 2027 03:25:00.811   11 Jun 2027 03:25:01.161             0.350           175.000
       404   11 Jun 2027 03:25:04.261   11 Jun 2027 03:25:07.607             3.346          1673.000
       405   11 Jun 2027 03:25:41.443   11 Jun 2027 03:25:48.070             6.627          3313.500
       406   11 Jun 2027 04:54:23.350   11 Jun 2027 04:54:28.002             4.652          2326.000
       407   11 Jun 2027 04:54:49.682   11 Jun 2027 04:54:59.064             9.382          4691.000
       408   11 Jun 2027 04:55:31.793   11 Jun 2027 04:55:37.212             5.419          2709.500
       409   11 Jun 2027 04:56:22.609   11 Jun 2027 04:56:31.814             9.205          4602.500
       410   11 Jun 2027 04:57:13.188   11 Jun 2027 04:57:14.052             0.864           432.000
       411   11 Jun 2027 04:57:29.179   11 Jun 2027 04:57:39.508            10.329          5164.500
       412   11 Jun 2027 04:58:26.632   11 Jun 2027 04:58:26.679             0.047            23.500
       413   11 Jun 2027 04:59:26.403   11 Jun 2027 04:59:32.464             6.061          3030.500
       414   11 Jun 2027 05:00:15.686   11 Jun 2027 05:00:17.135             1.449           724.500
       415   11 Jun 2027 05:00:33.663   11 Jun 2027 05:00:51.872            18.209          9104.500
       416   11 Jun 2027 05:01:16.342   11 Jun 2027 05:01:18.876             2.534          1267.000
       417   11 Jun 2027 06:31:11.039   11 Jun 2027 06:31:17.354             6.315          3157.500
       418   11 Jun 2027 06:31:54.360   11 Jun 2027 06:32:02.191             7.831          3915.500
       419   11 Jun 2027 06:33:12.662   11 Jun 2027 06:33:20.209             7.547          3773.500
       420   11 Jun 2027 06:34:00.163   11 Jun 2027 06:34:05.540             5.377          2688.500
       421   11 Jun 2027 06:35:02.299   11 Jun 2027 06:35:03.640             1.341           670.500
       422   11 Jun 2027 06:35:28.461   11 Jun 2027 06:35:28.677             0.216           108.000
       423   11 Jun 2027 06:35:41.058   11 Jun 2027 06:35:48.858             7.800          3900.000
       424   11 Jun 2027 06:36:34.876   11 Jun 2027 06:36:44.272             9.396          4698.000
       425   11 Jun 2027 06:37:40.172   11 Jun 2027 06:37:44.385             4.213          2106.500
       426   11 Jun 2027 08:09:14.803   11 Jun 2027 08:09:24.584             9.781          4890.500
       427   11 Jun 2027 08:10:38.480   11 Jun 2027 08:10:40.406             1.926           963.000
       428   11 Jun 2027 08:10:52.830   11 Jun 2027 08:10:53.362             0.532           266.000
       429   11 Jun 2027 08:11:15.515   11 Jun 2027 08:11:23.054             7.539          3769.500
       430   11 Jun 2027 08:11:58.729   11 Jun 2027 08:11:58.981             0.252           126.000
       431   11 Jun 2027 08:12:38.277   11 Jun 2027 08:12:39.213             0.936           468.000
       432   11 Jun 2027 08:12:46.600   11 Jun 2027 08:12:50.343             3.743          1871.500
       433   11 Jun 2027 09:43:05.082   11 Jun 2027 09:43:16.249            11.167          5583.500
       434   11 Jun 2027 09:44:24.712   11 Jun 2027 09:44:27.032             2.320          1160.000
       435   11 Jun 2027 09:44:48.834   11 Jun 2027 09:44:55.100             6.266          3133.000
       436   11 Jun 2027 09:45:16.687   11 Jun 2027 09:45:24.438             7.751          3875.500
       437   11 Jun 2027 09:46:08.031   11 Jun 2027 09:46:14.674             6.643          3321.500
       438   11 Jun 2027 09:46:45.207   11 Jun 2027 09:46:54.397             9.190          4595.000
       439   11 Jun 2027 09:47:57.211   11 Jun 2027 09:48:17.676            20.465         10232.500
       440   11 Jun 2027 09:49:41.653   11 Jun 2027 09:49:45.758             4.105          2052.500
       441   12 Jun 2027 03:29:23.029   12 Jun 2027 03:29:28.903             5.874          2937.000
       442   12 Jun 2027 03:29:56.990   12 Jun 2027 03:30:10.869            13.879          6939.500
       443   12 Jun 2027 03:31:09.461   12 Jun 2027 03:31:12.252             2.791          1395.500
       444   12 Jun 2027 03:31:40.011   12 Jun 2027 03:31:41.657             1.646           823.000
       445   12 Jun 2027 03:32:13.496   12 Jun 2027 03:32:13.921             0.425           212.500
       446   12 Jun 2027 03:32:39.058   12 Jun 2027 03:32:39.482             0.424           212.000
       447   12 Jun 2027 03:32:45.456   12 Jun 2027 03:32:47.123             1.667           833.500
       448   12 Jun 2027 03:33:03.701   12 Jun 2027 03:33:04.205             0.504           252.000
       449   12 Jun 2027 03:33:08.368   12 Jun 2027 03:33:16.640             8.272          4136.000
       450   12 Jun 2027 03:34:28.990   12 Jun 2027 03:34:29.184             0.194            97.000
       451   12 Jun 2027 03:34:34.977   12 Jun 2027 03:34:36.767             1.790           895.000
       452   12 Jun 2027 03:34:44.309   12 Jun 2027 03:34:50.884             6.575          3287.500
       453   12 Jun 2027 03:35:23.614   12 Jun 2027 03:35:25.023             1.409           704.500
       454   12 Jun 2027 03:35:42.839   12 Jun 2027 03:35:56.573            13.734          6867.000
       455   12 Jun 2027 03:36:52.870   12 Jun 2027 03:36:54.846             1.976           988.000
       456   12 Jun 2027 03:37:10.765   12 Jun 2027 03:37:16.791             6.026          3013.000
       457   12 Jun 2027 03:37:52.305   12 Jun 2027 03:37:52.492             0.187            93.500
       458   12 Jun 2027 05:06:26.231   12 Jun 2027 05:06:29.273             3.042          1521.000
       459   12 Jun 2027 05:07:16.895   12 Jun 2027 05:07:22.674             5.779          2889.500
       460   12 Jun 2027 05:07:43.089   12 Jun 2027 05:07:44.413             1.324           662.000
       461   12 Jun 2027 05:07:54.126   12 Jun 2027 05:07:56.603             2.477          1238.500
       462   12 Jun 2027 05:08:10.774   12 Jun 2027 05:08:18.074             7.300          3650.000
       463   12 Jun 2027 05:09:03.299   12 Jun 2027 05:09:06.102             2.803          1401.500
       464   12 Jun 2027 05:09:11.099   12 Jun 2027 05:09:14.843             3.744          1872.000
       465   12 Jun 2027 05:10:03.106   12 Jun 2027 05:10:03.254             0.148            74.000
       466   12 Jun 2027 05:10:30.991   12 Jun 2027 05:10:31.369             0.378           189.000
       467   12 Jun 2027 05:11:11.435   12 Jun 2027 05:11:11.718             0.283           141.500
       468   12 Jun 2027 05:11:29.452   12 Jun 2027 05:11:30.475             1.023           511.500
       469   12 Jun 2027 05:11:52.021   12 Jun 2027 05:11:56.544             4.523          2261.500
       470   12 Jun 2027 05:12:51.675   12 Jun 2027 05:13:05.847            14.172          7086.000
       471   12 Jun 2027 06:43:20.609   12 Jun 2027 06:43:38.835            18.226          9113.000
       472   12 Jun 2027 06:44:38.598   12 Jun 2027 06:45:00.032            21.434         10717.000
       473   12 Jun 2027 06:46:42.982   12 Jun 2027 06:46:44.877             1.895           947.500
       474   12 Jun 2027 06:46:57.604   12 Jun 2027 06:47:00.430             2.826          1413.000
       475   12 Jun 2027 06:47:19.949   12 Jun 2027 06:47:22.550             2.601          1300.500
       476   12 Jun 2027 06:48:19.927   12 Jun 2027 06:48:21.054             1.127           563.500
       477   12 Jun 2027 06:48:39.358   12 Jun 2027 06:48:42.943             3.585          1792.500
       478   12 Jun 2027 06:49:18.360   12 Jun 2027 06:49:24.948             6.588          3294.000
       479   12 Jun 2027 08:20:27.001   12 Jun 2027 08:20:32.738             5.737          2868.500
       480   12 Jun 2027 08:21:09.223   12 Jun 2027 08:21:10.635             1.412           706.000
       481   12 Jun 2027 08:21:28.118   12 Jun 2027 08:21:29.383             1.265           632.500
       482   12 Jun 2027 08:22:43.457   12 Jun 2027 08:22:52.143             8.686          4343.000
       483   12 Jun 2027 08:23:38.925   12 Jun 2027 08:23:46.299             7.374          3687.000
       484   12 Jun 2027 08:24:25.721   12 Jun 2027 08:24:33.938             8.217          4108.500
       485   12 Jun 2027 09:55:28.540   12 Jun 2027 09:55:32.386             3.846          1923.000
       486   12 Jun 2027 09:55:49.450   12 Jun 2027 09:56:11.692            22.242         11121.000
       487   12 Jun 2027 09:57:58.023   12 Jun 2027 09:58:04.770             6.747          3373.500
       488   12 Jun 2027 09:58:37.040   12 Jun 2027 09:58:46.745             9.705          4852.500
       489   12 Jun 2027 09:59:26.718   12 Jun 2027 09:59:49.375            22.657         11328.500
       490   13 Jun 2027 03:41:21.000   13 Jun 2027 03:41:37.673            16.673          8336.500
       491   13 Jun 2027 03:42:40.390   13 Jun 2027 03:42:40.390             0.000             0.000
       492   13 Jun 2027 03:42:45.411   13 Jun 2027 03:42:59.873            14.462          7231.000
       493   13 Jun 2027 03:44:12.533   13 Jun 2027 03:44:24.841            12.308          6154.000
       494   13 Jun 2027 03:45:17.150   13 Jun 2027 03:45:18.164             1.014           507.000
       495   13 Jun 2027 03:45:33.572   13 Jun 2027 03:45:33.889             0.317           158.500
       496   13 Jun 2027 03:45:58.719   13 Jun 2027 03:45:59.682             0.963           481.500
       497   13 Jun 2027 03:46:29.216   13 Jun 2027 03:46:29.223             0.007             3.500
       498   13 Jun 2027 03:46:51.304   13 Jun 2027 03:47:01.439            10.135          5067.500
       499   13 Jun 2027 03:47:30.779   13 Jun 2027 03:47:33.540             2.761          1380.500
       500   13 Jun 2027 03:48:01.415   13 Jun 2027 03:48:03.624             2.209          1104.500
       501   13 Jun 2027 03:48:22.529   13 Jun 2027 03:48:23.127             0.598           299.000
       502   13 Jun 2027 03:48:57.550   13 Jun 2027 03:48:59.704             2.154          1077.000
       503   13 Jun 2027 03:49:18.954   13 Jun 2027 03:49:21.580             2.626          1313.000
       504   13 Jun 2027 03:49:35.819   13 Jun 2027 03:49:51.661            15.842          7921.000
       505   13 Jun 2027 05:18:52.030   13 Jun 2027 05:18:54.286             2.256          1128.000
       506   13 Jun 2027 05:19:14.294   13 Jun 2027 05:19:25.915            11.621          5810.500
       507   13 Jun 2027 05:21:03.991   13 Jun 2027 05:21:05.140             1.149           574.500
       508   13 Jun 2027 05:21:15.678   13 Jun 2027 05:21:17.987             2.309          1154.500
       509   13 Jun 2027 05:21:43.380   13 Jun 2027 05:21:44.478             1.098           549.000
       510   13 Jun 2027 05:22:08.170   13 Jun 2027 05:22:26.322            18.152          9076.000
       511   13 Jun 2027 05:23:56.219   13 Jun 2027 05:24:05.798             9.579          4789.500
       512   13 Jun 2027 05:24:59.284   13 Jun 2027 05:25:08.699             9.415          4707.500
       513   13 Jun 2027 05:25:33.573   13 Jun 2027 05:25:36.736             3.163          1581.500
       514   13 Jun 2027 06:55:47.961   13 Jun 2027 06:55:49.771             1.810           905.000
       515   13 Jun 2027 06:55:55.407   13 Jun 2027 06:55:56.630             1.223           611.500
       516   13 Jun 2027 06:57:17.503   13 Jun 2027 06:57:27.447             9.944          4972.000
       517   13 Jun 2027 06:58:32.788   13 Jun 2027 06:58:33.466             0.678           339.000
       518   13 Jun 2027 06:59:00.184   13 Jun 2027 06:59:00.401             0.217           108.500
       519   13 Jun 2027 06:59:17.310   13 Jun 2027 06:59:17.697             0.387           193.500
       520   13 Jun 2027 07:00:25.250   13 Jun 2027 07:00:27.842             2.592          1296.000
       521   13 Jun 2027 07:00:53.584   13 Jun 2027 07:00:56.231             2.647          1323.500
       522   13 Jun 2027 08:32:38.386   13 Jun 2027 08:32:44.101             5.715          2857.500
       523   13 Jun 2027 08:33:07.023   13 Jun 2027 08:33:09.379             2.356          1178.000
       524   13 Jun 2027 08:33:22.762   13 Jun 2027 08:33:23.772             1.010           505.000
       525   13 Jun 2027 08:33:49.816   13 Jun 2027 08:33:59.594             9.778          4889.000
       526   13 Jun 2027 08:35:00.376   13 Jun 2027 08:35:05.884             5.508          2754.000
       527   13 Jun 2027 08:35:29.270   13 Jun 2027 08:35:34.744             5.474          2737.000
       528   13 Jun 2027 08:35:57.317   13 Jun 2027 08:35:59.490             2.173          1086.500
       529   13 Jun 2027 08:36:05.964   13 Jun 2027 08:36:18.356            12.392          6196.000
       530   13 Jun 2027 10:10:15.516   13 Jun 2027 10:10:31.571            16.055          8027.500
       531   13 Jun 2027 10:11:47.944   13 Jun 2027 10:11:58.661            10.717          5358.500
