uniorb/output/strategy_2/Camera/Camera_KinoSat_111905.txt

KinoSat_111905
-------------------------
    Access    *     Start Time (UTCG)     *     Stop Time (UTCG)  *   Duration (s) *   Data (Mbytes)
         1   01 Jun 2027 03:00:45.546   01 Jun 2027 03:00:55.137             9.591          4795.500
         2   01 Jun 2027 03:01:31.758   01 Jun 2027 03:01:41.989            10.231          5115.500
         3   01 Jun 2027 03:02:41.562   01 Jun 2027 03:03:50.189            68.627         34313.500
         4   01 Jun 2027 03:04:28.110   01 Jun 2027 03:04:52.381            24.271         12135.500
         5   01 Jun 2027 03:05:47.471   01 Jun 2027 03:06:06.057            18.586          9293.000
         6   01 Jun 2027 03:06:07.258   01 Jun 2027 03:06:28.006            20.748         10374.000
         7   01 Jun 2027 03:06:28.484   01 Jun 2027 03:06:29.407             0.923           461.500
         8   01 Jun 2027 04:38:53.946   01 Jun 2027 04:39:22.252            28.306         14153.000
         9   01 Jun 2027 04:39:29.081   01 Jun 2027 04:41:29.322           120.241         60120.500
        10   01 Jun 2027 04:41:43.666   01 Jun 2027 04:41:51.288             7.622          3811.000
        11   01 Jun 2027 04:42:12.639   01 Jun 2027 04:42:18.909             6.270          3135.000
        12   01 Jun 2027 04:44:23.145   01 Jun 2027 04:44:23.145             0.000             0.000
        13   01 Jun 2027 06:16:54.539   01 Jun 2027 06:19:00.836           126.297         63148.500
        14   01 Jun 2027 06:19:40.870   01 Jun 2027 06:20:48.874            68.004         34002.000
        15   01 Jun 2027 06:21:03.843   01 Jun 2027 06:21:03.843             0.000             0.000
        16   01 Jun 2027 06:21:15.295   01 Jun 2027 06:21:47.177            31.882         15941.000
        17   01 Jun 2027 07:40:35.460   01 Jun 2027 07:41:37.861            62.401         31200.500
        18   01 Jun 2027 07:41:59.187   01 Jun 2027 07:41:59.187             0.000             0.000
        19   01 Jun 2027 07:42:21.908   01 Jun 2027 07:42:33.051            11.143          5571.500
        20   01 Jun 2027 09:16:57.672   01 Jun 2027 09:19:41.536           163.864         81932.000
        21   01 Jun 2027 10:51:01.720   01 Jun 2027 10:52:52.746           111.026         55513.000
        22   01 Jun 2027 10:53:11.101   01 Jun 2027 10:53:35.064            23.963         11981.500
        23   01 Jun 2027 10:54:13.925   01 Jun 2027 10:54:18.086             4.161          2080.500
        24   01 Jun 2027 10:57:35.877   01 Jun 2027 10:57:42.434             6.557          3278.500
        25   01 Jun 2027 10:58:45.968   01 Jun 2027 10:58:56.372            10.404          5202.000
        26   01 Jun 2027 10:58:58.765   01 Jun 2027 10:59:01.311             2.546          1273.000
        27   02 Jun 2027 03:12:49.644   02 Jun 2027 03:13:31.562            41.918         20959.000
        28   02 Jun 2027 03:13:47.557   02 Jun 2027 03:15:56.897           129.340         64670.000
        29   02 Jun 2027 03:16:18.467   02 Jun 2027 03:16:21.448             2.981          1490.500
        30   02 Jun 2027 03:16:34.520   02 Jun 2027 03:16:35.951             1.431           715.500
        31   02 Jun 2027 03:17:30.304   02 Jun 2027 03:17:47.834            17.530          8765.000
        32   02 Jun 2027 03:20:11.603   02 Jun 2027 03:20:24.615            13.012          6506.000
        33   02 Jun 2027 04:51:00.650   02 Jun 2027 04:52:03.712            63.062         31531.000
        34   02 Jun 2027 04:52:10.274   02 Jun 2027 04:52:29.625            19.351          9675.500
        35   02 Jun 2027 04:52:57.945   02 Jun 2027 04:53:55.596            57.651         28825.500
        36   02 Jun 2027 04:55:55.949   02 Jun 2027 04:55:55.949             0.000             0.000
        37   02 Jun 2027 04:56:18.324   02 Jun 2027 04:56:42.465            24.141         12070.500
        38   02 Jun 2027 06:30:08.065   02 Jun 2027 06:30:35.425            27.360         13680.000
        39   02 Jun 2027 06:30:52.432   02 Jun 2027 06:32:36.322           103.890         51945.000
        40   02 Jun 2027 07:52:39.353   02 Jun 2027 07:54:01.440            82.087         41043.500
        41   02 Jun 2027 09:29:08.576   02 Jun 2027 09:29:34.531            25.955         12977.500
        42   02 Jun 2027 09:29:58.319   02 Jun 2027 09:30:11.901            13.582          6791.000
        43   02 Jun 2027 09:31:41.324   02 Jun 2027 09:32:08.098            26.774         13387.000
        44   02 Jun 2027 11:04:13.587   02 Jun 2027 11:04:35.861            22.274          6802.813
        45   02 Jun 2027 11:05:01.344   02 Jun 2027 11:05:03.284             1.940           759.781
        46   02 Jun 2027 11:05:32.386   02 Jun 2027 11:05:34.078             1.692           733.000
        47   02 Jun 2027 11:10:17.014   02 Jun 2027 11:10:36.195            19.181          8841.750
        48   03 Jun 2027 03:24:48.084   03 Jun 2027 03:28:01.941           193.857         96928.500
        49   03 Jun 2027 03:28:36.934   03 Jun 2027 03:29:18.529            41.595         20797.500
        50   03 Jun 2027 03:31:10.244   03 Jun 2027 03:31:22.886            12.642          6321.000
        51   03 Jun 2027 05:03:03.094   03 Jun 2027 05:03:43.884            40.790         20395.000
        52   03 Jun 2027 05:04:07.930   03 Jun 2027 05:04:41.548            33.618         16809.000
        53   03 Jun 2027 05:05:26.459   03 Jun 2027 05:05:30.532             4.073          2028.843
        54   03 Jun 2027 05:07:04.751   03 Jun 2027 05:07:04.751             0.000             0.000
        55   03 Jun 2027 05:08:01.114   03 Jun 2027 05:08:01.114             0.000             0.000
        56   03 Jun 2027 05:08:05.460   03 Jun 2027 05:08:14.304             8.844          4083.906
        57   03 Jun 2027 05:08:25.688   03 Jun 2027 05:08:26.345             0.657            24.125
        58   03 Jun 2027 05:08:39.902   03 Jun 2027 05:08:40.138             0.236           118.000
        59   03 Jun 2027 06:41:15.202   03 Jun 2027 06:41:31.796            16.594          7014.750
        60   03 Jun 2027 06:42:22.692   03 Jun 2027 06:42:27.090             4.398          1001.219
        61   03 Jun 2027 06:43:33.141   03 Jun 2027 06:43:36.338             3.197          1570.437
        62   03 Jun 2027 06:44:07.498   03 Jun 2027 06:44:11.584             4.086           543.125
        63   03 Jun 2027 06:44:38.468   03 Jun 2027 06:44:40.365             1.897           706.344
        64   03 Jun 2027 08:04:35.873   03 Jun 2027 08:04:56.903            21.030          8360.469
        65   03 Jun 2027 08:06:02.288   03 Jun 2027 08:06:06.052             3.764          1857.094
        66   03 Jun 2027 08:07:26.619   03 Jun 2027 08:07:26.690             0.071            35.500
        67   03 Jun 2027 08:07:38.049   03 Jun 2027 08:07:44.834             6.785          2550.656
        68   03 Jun 2027 09:42:23.243   03 Jun 2027 09:42:48.140            24.897          9892.656
        69   03 Jun 2027 09:43:14.084   03 Jun 2027 09:43:15.915             1.831           810.750
        70   03 Jun 2027 09:44:32.825   03 Jun 2027 09:44:36.998             4.173          1953.688
        71   03 Jun 2027 09:44:37.391   03 Jun 2027 09:44:38.674             1.283            12.281
        72   03 Jun 2027 11:16:23.979   03 Jun 2027 11:16:37.982            14.003          7001.500
        73   03 Jun 2027 11:16:59.590   03 Jun 2027 11:17:02.445             2.855          1194.063
        74   03 Jun 2027 11:18:01.193   03 Jun 2027 11:18:06.830             5.637          1220.062
        75   03 Jun 2027 11:18:24.700   03 Jun 2027 11:18:27.701             3.001           526.187
        76   03 Jun 2027 11:18:38.747   03 Jun 2027 11:18:40.177             1.430           345.187
        77   03 Jun 2027 11:19:08.160   03 Jun 2027 11:19:10.126             1.966           564.281
        78   03 Jun 2027 11:22:46.470   03 Jun 2027 11:23:00.036            13.566          6760.750
        79   04 Jun 2027 03:36:50.192   04 Jun 2027 03:37:12.072            21.880         10940.000
        80   04 Jun 2027 03:37:15.300   04 Jun 2027 03:40:06.881           171.581         85790.500
        81   04 Jun 2027 03:40:21.817   04 Jun 2027 03:41:11.078            49.261         24630.500
        82   04 Jun 2027 03:41:53.933   04 Jun 2027 03:42:06.455            12.522          6261.000
        83   04 Jun 2027 03:42:09.711   04 Jun 2027 03:42:22.121            12.410          6205.000
        84   04 Jun 2027 05:16:07.905   04 Jun 2027 05:17:07.302            59.397         29584.063
        85   04 Jun 2027 05:17:52.574   04 Jun 2027 05:17:57.089             4.515           275.688
        86   04 Jun 2027 05:18:46.884   04 Jun 2027 05:18:52.606             5.722           828.187
        87   04 Jun 2027 05:19:52.541   04 Jun 2027 05:19:52.541             0.000             0.000
        88   04 Jun 2027 05:20:41.192   04 Jun 2027 05:20:41.434             0.242           121.000
        89   04 Jun 2027 05:21:02.888   04 Jun 2027 05:21:14.138            11.250          3863.250
        90   04 Jun 2027 05:22:21.191   04 Jun 2027 05:22:25.319             4.128          1238.656
        91   04 Jun 2027 05:22:48.402   04 Jun 2027 05:22:48.402             0.000             0.000
        92   04 Jun 2027 05:23:02.492   04 Jun 2027 05:23:05.158             2.666           895.219
        93   04 Jun 2027 06:42:26.423   04 Jun 2027 06:42:38.424            12.001          5883.531
        94   04 Jun 2027 06:53:12.916   04 Jun 2027 06:53:20.916             8.000          2502.312
        95   04 Jun 2027 06:53:26.915   04 Jun 2027 06:53:27.508             0.593            89.188
        96   04 Jun 2027 06:54:16.564   04 Jun 2027 06:54:17.404             0.840           420.000
        97   04 Jun 2027 06:55:26.057   04 Jun 2027 06:55:33.500             7.443          2773.219
        98   04 Jun 2027 06:55:58.130   04 Jun 2027 06:55:58.130             0.000             0.000
        99   04 Jun 2027 06:56:37.055   04 Jun 2027 06:56:40.530             3.475          1330.781
       100   04 Jun 2027 08:17:12.129   04 Jun 2027 08:17:36.387            24.258         10371.750
       101   04 Jun 2027 08:17:46.104   04 Jun 2027 08:17:46.104             0.000             0.000
       102   04 Jun 2027 08:18:15.460   04 Jun 2027 08:18:25.140             9.680          1132.875
       103   04 Jun 2027 09:55:38.277   04 Jun 2027 09:55:38.845             0.568           284.000
       104   04 Jun 2027 11:27:48.251   04 Jun 2027 11:28:24.201            35.950         17975.000
       105   04 Jun 2027 11:30:58.091   04 Jun 2027 11:30:58.091             0.000             0.000
       106   04 Jun 2027 11:31:18.173   04 Jun 2027 11:31:35.988            17.815          7155.219
       107   04 Jun 2027 11:32:38.016   04 Jun 2027 11:32:42.922             4.906          1586.594
       108   04 Jun 2027 11:33:17.716   04 Jun 2027 11:33:24.284             6.568           906.375
       109   04 Jun 2027 11:34:36.819   04 Jun 2027 11:34:39.008             2.189          1094.500
       110   04 Jun 2027 11:35:05.810   04 Jun 2027 11:35:09.570             3.760          1427.156
       111   05 Jun 2027 03:49:30.774   05 Jun 2027 03:52:26.979           176.205         88102.500
       112   05 Jun 2027 05:28:28.904   05 Jun 2027 05:31:01.873           152.969         73672.000
       113   05 Jun 2027 05:32:02.249   05 Jun 2027 05:32:05.754             3.505          1218.937
       114   05 Jun 2027 05:32:32.425   05 Jun 2027 05:32:32.425             0.000             0.000
       115   05 Jun 2027 05:33:19.565   05 Jun 2027 05:33:25.138             5.573          2278.312
       116   05 Jun 2027 05:35:14.796   05 Jun 2027 05:35:14.796             0.000             0.000
       117   05 Jun 2027 05:35:18.703   05 Jun 2027 05:35:27.849             9.146          3432.625
       118   05 Jun 2027 06:53:42.579   05 Jun 2027 06:53:55.124            12.545          6116.062
       119   05 Jun 2027 06:54:23.896   05 Jun 2027 06:54:26.633             2.737           420.937
       120   05 Jun 2027 07:05:16.390   05 Jun 2027 07:05:23.267             6.877          3119.937
       121   05 Jun 2027 07:06:17.008   05 Jun 2027 07:06:19.878             2.870           642.344
       122   05 Jun 2027 08:27:51.094   05 Jun 2027 08:28:04.927            13.833          6916.500
       123   05 Jun 2027 08:29:48.439   05 Jun 2027 08:29:59.510            11.071          3173.031
       124   05 Jun 2027 08:31:56.200   05 Jun 2027 08:32:03.920             7.720          3543.187
       125   05 Jun 2027 08:32:17.630   05 Jun 2027 08:32:20.014             2.384           325.187
       126   05 Jun 2027 10:03:04.293   05 Jun 2027 10:03:06.840             2.547          1273.500
       127   05 Jun 2027 10:05:07.244   05 Jun 2027 10:05:07.244             0.000             0.000
       128   05 Jun 2027 10:07:23.039   05 Jun 2027 10:07:36.229            13.190          6595.000
       129   05 Jun 2027 11:39:42.911   05 Jun 2027 11:39:59.635            16.724          8362.000
       130   05 Jun 2027 11:42:41.167   05 Jun 2027 11:42:59.940            18.773          9386.500
       131   05 Jun 2027 11:44:31.974   05 Jun 2027 11:44:39.866             7.892          3177.437
       132   05 Jun 2027 11:45:12.588   05 Jun 2027 11:45:14.706             2.118           835.469
       133   05 Jun 2027 11:45:50.630   05 Jun 2027 11:45:56.182             5.552          1122.625
       134   05 Jun 2027 11:46:05.447   05 Jun 2027 11:46:06.539             1.092           263.625
       135   05 Jun 2027 11:46:27.508   05 Jun 2027 11:46:30.798             3.290           587.500
       136   05 Jun 2027 11:46:41.296   05 Jun 2027 11:46:41.296             0.000             0.000
       137   05 Jun 2027 11:46:58.209   05 Jun 2027 11:47:09.643            11.434           856.594
       138   06 Jun 2027 04:01:46.704   06 Jun 2027 04:03:09.646            82.942         41471.000
       139   06 Jun 2027 04:03:13.388   06 Jun 2027 04:04:16.202            62.814         31407.000
       140   06 Jun 2027 04:04:40.676   06 Jun 2027 04:05:56.309            75.633         37816.500
       141   06 Jun 2027 04:05:57.222   06 Jun 2027 04:06:00.132             2.910          1455.000
       142   06 Jun 2027 04:06:32.287   06 Jun 2027 04:06:37.523             5.236          2618.000
       143   06 Jun 2027 04:06:49.671   06 Jun 2027 04:06:52.564             2.893          1446.500
       144   06 Jun 2027 05:40:45.100   06 Jun 2027 05:42:18.704            93.604         45762.125
       145   06 Jun 2027 05:44:07.153   06 Jun 2027 05:44:07.153             0.000             0.000
       146   06 Jun 2027 05:44:45.362   06 Jun 2027 05:44:45.362             0.000             0.000
       147   06 Jun 2027 05:45:12.088   06 Jun 2027 05:45:21.402             9.314          4657.000
       148   06 Jun 2027 05:46:28.649   06 Jun 2027 05:46:32.720             4.071          2035.500
       149   06 Jun 2027 07:04:58.836   06 Jun 2027 07:05:17.932            19.096          6437.719
       150   06 Jun 2027 07:05:47.181   06 Jun 2027 07:05:47.181             0.000             0.000
       151   06 Jun 2027 07:06:21.560   06 Jun 2027 07:06:34.143            12.583          1577.094
       152   06 Jun 2027 07:07:05.208   06 Jun 2027 07:07:07.634             2.426           970.781
       153   06 Jun 2027 07:17:11.262   06 Jun 2027 07:17:17.787             6.525          2630.844
       154   06 Jun 2027 08:39:26.950   06 Jun 2027 08:39:42.781            15.831          7915.500
       155   06 Jun 2027 08:39:51.357   06 Jun 2027 08:39:56.419             5.062          1014.187
       156   06 Jun 2027 08:41:22.533   06 Jun 2027 08:41:27.244             4.711          1359.844
       157   06 Jun 2027 08:41:50.514   06 Jun 2027 08:41:51.700             1.186           548.156
       158   06 Jun 2027 08:43:04.276   06 Jun 2027 08:43:04.276             0.000             0.000
       159   06 Jun 2027 08:43:57.494   06 Jun 2027 08:44:05.942             8.448          3599.313
       160   06 Jun 2027 08:44:21.437   06 Jun 2027 08:44:21.437             0.000             0.000
       161   06 Jun 2027 10:15:43.706   06 Jun 2027 10:16:01.886            18.180          7429.000
       162   06 Jun 2027 10:16:20.119   06 Jun 2027 10:16:21.507             1.388           266.719
       163   06 Jun 2027 10:19:33.959   06 Jun 2027 10:19:34.160             0.201           100.500
       164   06 Jun 2027 11:58:04.889   06 Jun 2027 11:58:56.220            51.331         25418.094
       165   07 Jun 2027 04:14:05.981   07 Jun 2027 04:14:19.249            13.268          6634.000
       166   07 Jun 2027 04:14:33.207   07 Jun 2027 04:18:18.347           225.140        112570.000
       167   07 Jun 2027 05:52:51.711   07 Jun 2027 05:54:38.966           107.255         50864.938
       168   07 Jun 2027 05:56:05.876   07 Jun 2027 05:56:06.208             0.332           166.000
       169   07 Jun 2027 05:56:27.097   07 Jun 2027 05:56:27.097             0.000             0.000
       170   07 Jun 2027 05:57:44.336   07 Jun 2027 05:57:56.291            11.955          5236.656
       171   07 Jun 2027 05:59:39.620   07 Jun 2027 05:59:40.278             0.658           329.000
       172   07 Jun 2027 07:17:04.635   07 Jun 2027 07:17:21.125            16.490          8208.000
       173   07 Jun 2027 07:17:40.452   07 Jun 2027 07:17:42.177             1.725           295.469
       174   07 Jun 2027 07:18:16.386   07 Jun 2027 07:18:19.041             2.655           844.344
       175   07 Jun 2027 07:18:57.946   07 Jun 2027 07:18:58.489             0.543           271.500
       176   07 Jun 2027 07:29:35.139   07 Jun 2027 07:29:38.619             3.480          1740.000
       177   07 Jun 2027 08:50:55.484   07 Jun 2027 08:51:20.196            24.712         11115.500
       178   07 Jun 2027 08:52:57.538   07 Jun 2027 08:52:59.757             2.219          1109.500
       179   07 Jun 2027 08:53:20.038   07 Jun 2027 08:53:25.412             5.374          1937.531
       180   07 Jun 2027 08:54:31.468   07 Jun 2027 08:54:36.848             5.380          1224.344
       181   07 Jun 2027 08:55:16.069   07 Jun 2027 08:55:18.364             2.295           822.187
       182   07 Jun 2027 08:56:05.994   07 Jun 2027 08:56:08.725             2.731          1304.563
       183   07 Jun 2027 10:25:49.553   07 Jun 2027 10:26:01.020            11.467          5702.438
       184   07 Jun 2027 10:26:37.246   07 Jun 2027 10:26:43.461             6.215           955.000
       185   07 Jun 2027 10:28:09.551   07 Jun 2027 10:28:15.796             6.245          2522.875
       186   07 Jun 2027 10:34:49.711   07 Jun 2027 10:35:15.039            25.328         12134.313
       187   08 Jun 2027 04:26:43.793   08 Jun 2027 04:26:51.418             7.625          3812.500
       188   08 Jun 2027 04:27:05.324   08 Jun 2027 04:27:14.046             8.722          4361.000
       189   08 Jun 2027 04:27:15.400   08 Jun 2027 04:28:06.914            51.514         25757.000
       190   08 Jun 2027 04:28:11.867   08 Jun 2027 04:28:50.843            38.976         19488.000
       191   08 Jun 2027 04:28:51.001   08 Jun 2027 04:30:08.967            77.966         38983.000
       192   08 Jun 2027 04:30:45.905   08 Jun 2027 04:31:00.613            14.708          7354.000
       193   08 Jun 2027 06:05:17.010   08 Jun 2027 06:07:09.549           112.539         56012.094
       194   08 Jun 2027 06:07:36.225   08 Jun 2027 06:07:40.491             4.266           833.625
       195   08 Jun 2027 06:08:10.492   08 Jun 2027 06:08:11.912             1.420           494.000
       196   08 Jun 2027 06:08:23.382   08 Jun 2027 06:08:24.226             0.844           219.000
       197   08 Jun 2027 06:08:32.097   08 Jun 2027 06:08:32.097             0.000             0.000
       198   08 Jun 2027 06:08:49.787   08 Jun 2027 06:08:49.787             0.000             0.000
       199   08 Jun 2027 06:09:08.707   08 Jun 2027 06:09:18.696             9.989          1358.750
       200   08 Jun 2027 07:29:00.632   08 Jun 2027 07:29:20.850            20.218          9158.437
       201   08 Jun 2027 07:30:16.472   08 Jun 2027 07:30:16.472             0.000             0.000
       202   08 Jun 2027 07:30:18.105   08 Jun 2027 07:30:22.105             4.000          1634.094
       203   08 Jun 2027 09:05:12.953   08 Jun 2027 09:05:36.816            23.863         11931.500
       204   08 Jun 2027 09:05:51.053   08 Jun 2027 09:05:53.702             2.649           667.437
       205   08 Jun 2027 09:06:42.231   08 Jun 2027 09:06:42.231             0.000             0.000
       206   08 Jun 2027 09:07:21.397   08 Jun 2027 09:07:29.262             7.865          2740.469
       207   08 Jun 2027 10:39:36.991   08 Jun 2027 10:40:01.699            24.708          7082.313
       208   08 Jun 2027 10:40:05.176   08 Jun 2027 10:40:10.414             5.238           107.062
       209   08 Jun 2027 10:43:33.846   08 Jun 2027 10:43:45.647            11.801          5444.719
       210   08 Jun 2027 10:44:15.467   08 Jun 2027 10:44:18.555             3.088           652.344
       211   08 Jun 2027 10:44:36.450   08 Jun 2027 10:44:41.261             4.811           559.219
       212   08 Jun 2027 10:45:51.128   08 Jun 2027 10:45:56.925             5.797          2124.781
       213   08 Jun 2027 10:47:19.862   08 Jun 2027 10:47:20.018             0.156            78.000
       214   09 Jun 2027 03:01:03.858   09 Jun 2027 03:01:25.255            21.397         10698.500
       215   09 Jun 2027 03:01:26.839   09 Jun 2027 03:01:46.295            19.456          9728.000
       216   09 Jun 2027 03:02:56.493   09 Jun 2027 03:03:27.197            30.704         15352.000
       217   09 Jun 2027 03:04:05.862   09 Jun 2027 03:04:42.643            36.781         18390.500
       218   09 Jun 2027 03:05:24.338   09 Jun 2027 03:05:43.535            19.197          9598.500
       219   09 Jun 2027 03:05:58.598   09 Jun 2027 03:06:17.654            19.056          9528.000
       220   09 Jun 2027 03:06:58.010   09 Jun 2027 03:07:02.826             4.816          2408.000
       221   09 Jun 2027 04:39:10.824   09 Jun 2027 04:39:38.930            28.106         14053.000
       222   09 Jun 2027 04:39:42.804   09 Jun 2027 04:41:35.549           112.745         56372.500
       223   09 Jun 2027 04:42:06.143   09 Jun 2027 04:42:11.023             4.880          2440.000
       224   09 Jun 2027 04:42:33.381   09 Jun 2027 04:42:34.086             0.705           352.500
       225   09 Jun 2027 04:42:40.225   09 Jun 2027 04:42:41.473             1.248           624.000
       226   09 Jun 2027 04:43:45.573   09 Jun 2027 04:43:58.107            12.534          6267.000
       227   09 Jun 2027 04:44:22.047   09 Jun 2027 04:44:33.057            11.010          5505.000
       228   09 Jun 2027 04:44:41.947   09 Jun 2027 04:44:45.562             3.615          1807.500
       229   09 Jun 2027 06:17:11.542   09 Jun 2027 06:17:48.159            36.617         18229.657
       230   09 Jun 2027 06:17:50.961   09 Jun 2027 06:17:51.123             0.162            51.312
       231   09 Jun 2027 06:18:12.860   09 Jun 2027 06:18:14.436             1.576           645.656
       232   09 Jun 2027 06:19:28.500   09 Jun 2027 06:19:29.944             1.444           722.000
       233   09 Jun 2027 06:19:54.620   09 Jun 2027 06:20:00.253             5.633          2163.375
       234   09 Jun 2027 06:21:03.451   09 Jun 2027 06:21:07.684             4.233          1974.938
       235   09 Jun 2027 07:40:52.425   09 Jun 2027 07:41:10.613            18.188          7875.656
       236   09 Jun 2027 07:42:52.605   09 Jun 2027 07:42:59.158             6.553          2936.750
       237   09 Jun 2027 09:17:16.211   09 Jun 2027 09:17:37.264            21.053          8897.219
       238   09 Jun 2027 09:19:59.430   09 Jun 2027 09:20:08.317             8.887          4190.969
       239   09 Jun 2027 10:53:13.271   09 Jun 2027 10:53:41.196            27.925         13149.125
       240   09 Jun 2027 10:54:51.859   09 Jun 2027 10:54:57.449             5.590           687.219
       241   09 Jun 2027 10:55:49.288   09 Jun 2027 10:55:54.435             5.147          1619.969
       242   09 Jun 2027 10:57:48.333   09 Jun 2027 10:57:56.828             8.495          3559.312
       243   09 Jun 2027 10:59:04.386   09 Jun 2027 10:59:09.280             4.894          2037.375
       244   09 Jun 2027 10:59:16.036   09 Jun 2027 10:59:17.815             1.779           194.750
       245   10 Jun 2027 03:13:07.070   10 Jun 2027 03:16:12.520           185.450         92725.000
       246   10 Jun 2027 03:17:38.459   10 Jun 2027 03:17:38.459             0.000             0.000
       247   10 Jun 2027 03:18:15.715   10 Jun 2027 03:18:15.715             0.000             0.000
       248   10 Jun 2027 03:18:23.552   10 Jun 2027 03:18:33.969            10.417          5208.500
       249   10 Jun 2027 04:51:16.920   10 Jun 2027 04:52:20.411            63.491         31745.500
       250   10 Jun 2027 04:52:27.751   10 Jun 2027 04:52:56.308            28.557         14278.500
       251   10 Jun 2027 04:53:01.349   10 Jun 2027 04:53:08.248             6.899          3449.500
       252   10 Jun 2027 04:53:24.951   10 Jun 2027 04:53:28.499             3.548          1774.000
       253   10 Jun 2027 04:54:11.573   10 Jun 2027 04:54:29.109            17.536          8736.281
       254   10 Jun 2027 04:55:42.440   10 Jun 2027 04:55:48.490             6.050          2153.500
       255   10 Jun 2027 04:56:36.732   10 Jun 2027 04:56:38.369             1.637           818.500
       256   10 Jun 2027 06:30:25.364   10 Jun 2027 06:30:43.878            18.514          8922.187
       257   10 Jun 2027 06:31:14.302   10 Jun 2027 06:31:19.427             5.125           814.969
       258   10 Jun 2027 06:32:22.871   10 Jun 2027 06:32:25.607             2.736           859.094
       259   10 Jun 2027 06:33:15.406   10 Jun 2027 06:33:18.885             3.479          1462.687
       260   10 Jun 2027 07:52:57.794   10 Jun 2027 07:53:13.048            15.254          7614.625
       261   10 Jun 2027 07:53:56.759   10 Jun 2027 07:53:58.463             1.704           825.563
       262   10 Jun 2027 07:54:34.314   10 Jun 2027 07:54:37.414             3.100          1120.344
       263   10 Jun 2027 09:29:26.951   10 Jun 2027 09:29:42.171            15.220          6517.813
       264   10 Jun 2027 09:31:55.868   10 Jun 2027 09:32:05.608             9.740          3886.531
       265   10 Jun 2027 11:04:34.463   10 Jun 2027 11:04:50.962            16.499          5484.781
       266   10 Jun 2027 11:05:16.022   10 Jun 2027 11:05:20.066             4.044           679.750
       267   10 Jun 2027 11:05:48.302   10 Jun 2027 11:05:50.511             2.209           745.437
       268   10 Jun 2027 11:10:37.692   10 Jun 2027 11:10:58.181            20.489          8830.937
       269   10 Jun 2027 11:11:10.691   10 Jun 2027 11:11:11.828             1.137           297.656
       270   10 Jun 2027 11:11:16.054   10 Jun 2027 11:11:16.612             0.558            63.094
       271   11 Jun 2027 03:25:05.264   11 Jun 2027 03:28:17.508           192.244         96122.000
       272   11 Jun 2027 03:28:22.555   11 Jun 2027 03:28:51.734            29.179         14589.500
       273   11 Jun 2027 03:29:35.669   11 Jun 2027 03:29:44.751             9.082          4541.000
       274   11 Jun 2027 03:30:56.409   11 Jun 2027 03:31:04.809             8.400          4200.000
       275   11 Jun 2027 03:31:06.661   11 Jun 2027 03:31:09.143             2.482          1241.000
       276   11 Jun 2027 05:03:21.302   11 Jun 2027 05:04:02.709            41.407         20703.500
       277   11 Jun 2027 05:04:25.146   11 Jun 2027 05:05:02.347            37.201         18121.844
       278   11 Jun 2027 05:06:09.456   11 Jun 2027 05:06:10.688             1.232           616.000
       279   11 Jun 2027 05:07:02.087   11 Jun 2027 05:07:05.692             3.605          1749.125
       280   11 Jun 2027 05:07:07.934   11 Jun 2027 05:07:15.402             7.468            15.250
       281   11 Jun 2027 05:08:32.491   11 Jun 2027 05:08:38.287             5.796          2274.000
       282   11 Jun 2027 05:09:27.394   11 Jun 2027 05:09:29.028             1.634           817.000
       283   11 Jun 2027 06:41:34.480   11 Jun 2027 06:41:46.343            11.863          5931.500
       284   11 Jun 2027 06:42:04.728   11 Jun 2027 06:42:10.333             5.605          1576.031
       285   11 Jun 2027 06:42:29.714   11 Jun 2027 06:42:29.714             0.000             0.000
       286   11 Jun 2027 06:43:00.157   11 Jun 2027 06:43:00.944             0.787           393.500
       287   11 Jun 2027 06:44:13.028   11 Jun 2027 06:44:21.448             8.420          3213.281
       288   11 Jun 2027 06:44:53.093   11 Jun 2027 06:44:54.958             1.865           932.500
       289   11 Jun 2027 08:05:01.675   11 Jun 2027 08:05:22.444            20.769          8465.281
       290   11 Jun 2027 08:05:40.258   11 Jun 2027 08:05:41.068             0.810           369.906
       291   11 Jun 2027 08:06:18.439   11 Jun 2027 08:06:19.765             1.326           538.656
       292   11 Jun 2027 08:07:42.963   11 Jun 2027 08:07:48.191             5.228          2599.938
       293   11 Jun 2027 09:41:45.141   11 Jun 2027 09:41:45.141             0.000             0.000
       294   11 Jun 2027 09:42:43.659   11 Jun 2027 09:43:05.082            21.423         10343.313
       295   11 Jun 2027 09:43:20.544   11 Jun 2027 09:43:21.393             0.849           398.781
       296   11 Jun 2027 09:43:48.382   11 Jun 2027 09:43:51.453             3.071           484.156
       297   11 Jun 2027 11:16:41.797   11 Jun 2027 11:16:55.231            13.434          6717.000
       298   11 Jun 2027 11:17:14.247   11 Jun 2027 11:17:17.071             2.824           925.844
       299   11 Jun 2027 11:17:49.104   11 Jun 2027 11:17:57.499             8.395           927.187
       300   11 Jun 2027 11:18:42.929   11 Jun 2027 11:18:42.929             0.000             0.000
       301   11 Jun 2027 11:21:13.494   11 Jun 2027 11:21:13.494             0.000             0.000
       302   11 Jun 2027 11:21:18.148   11 Jun 2027 11:21:30.754            12.606          6205.719
       303   11 Jun 2027 11:22:59.764   11 Jun 2027 11:23:08.792             9.028          2720.563
       304   12 Jun 2027 03:37:08.508   12 Jun 2027 03:41:27.491           258.983        129491.500
       305   12 Jun 2027 03:41:31.866   12 Jun 2027 03:41:31.923             0.057            28.500
       306   12 Jun 2027 05:16:25.977   12 Jun 2027 05:17:31.356            65.379         31524.688
       307   12 Jun 2027 05:18:08.426   12 Jun 2027 05:18:08.426             0.000             0.000
       308   12 Jun 2027 05:18:40.402   12 Jun 2027 05:18:43.701             3.299          1317.531
       309   12 Jun 2027 05:19:43.516   12 Jun 2027 05:19:47.623             4.107          1817.844
       310   12 Jun 2027 05:20:03.442   12 Jun 2027 05:20:05.519             2.077           101.531
       311   12 Jun 2027 05:20:43.772   12 Jun 2027 05:20:46.262             2.490          1195.406
       312   12 Jun 2027 05:21:19.851   12 Jun 2027 05:21:28.970             9.119           967.625
       313   12 Jun 2027 05:22:36.307   12 Jun 2027 05:22:45.092             8.785          1209.281
       314   12 Jun 2027 05:23:03.170   12 Jun 2027 05:23:03.170             0.000             0.000
       315   12 Jun 2027 05:23:21.673   12 Jun 2027 05:23:26.105             4.432           963.031
       316   12 Jun 2027 06:42:40.627   12 Jun 2027 06:42:51.550            10.923          4882.844
       317   12 Jun 2027 06:53:30.252   12 Jun 2027 06:53:37.353             7.101          2950.406
       318   12 Jun 2027 06:53:42.202   12 Jun 2027 06:53:42.754             0.552            31.656
       319   12 Jun 2027 06:54:31.919   12 Jun 2027 06:54:33.405             1.486           743.000
       320   12 Jun 2027 06:54:48.961   12 Jun 2027 06:54:50.668             1.707           732.875
       321   12 Jun 2027 06:56:09.714   12 Jun 2027 06:56:15.215             5.501          2132.031
       322   12 Jun 2027 06:56:20.329   12 Jun 2027 06:56:22.110             1.781           159.812
       323   12 Jun 2027 06:56:31.335   12 Jun 2027 06:56:31.335             0.000             0.000
       324   12 Jun 2027 06:56:51.656   12 Jun 2027 06:56:53.727             2.071           923.312
       325   12 Jun 2027 08:17:28.680   12 Jun 2027 08:17:51.192            22.512          9725.000
       326   12 Jun 2027 08:18:03.747   12 Jun 2027 08:18:06.012             2.265           318.875
       327   12 Jun 2027 08:19:37.701   12 Jun 2027 08:19:42.704             5.003          2421.313
       328   12 Jun 2027 09:55:53.182   12 Jun 2027 09:56:29.591            36.409         16790.406
       329   12 Jun 2027 11:30:28.682   12 Jun 2027 11:30:41.287            12.605          6302.500
       330   12 Jun 2027 11:31:40.904   12 Jun 2027 11:32:02.190            21.286          9765.188
       331   12 Jun 2027 11:32:44.640   12 Jun 2027 11:32:47.495             2.855          1326.563
       332   12 Jun 2027 11:33:06.404   12 Jun 2027 11:33:07.870             1.466           339.375
       333   12 Jun 2027 11:34:22.640   12 Jun 2027 11:34:28.276             5.636          2336.562
       334   12 Jun 2027 11:34:54.968   12 Jun 2027 11:34:56.749             1.781           695.812
       335   12 Jun 2027 11:35:20.842   12 Jun 2027 11:35:22.635             1.793           588.281
       336   13 Jun 2027 03:49:48.797   13 Jun 2027 03:52:40.955           172.158         86079.000
       337   13 Jun 2027 03:53:17.797   13 Jun 2027 03:54:15.192            57.395         28697.500
       338   13 Jun 2027 03:54:17.705   13 Jun 2027 03:54:43.253            25.548         12774.000
       339   13 Jun 2027 03:55:30.280   13 Jun 2027 03:55:35.872             5.592          2796.000
       340   13 Jun 2027 03:55:39.314   13 Jun 2027 03:55:54.440            15.126          7563.000
       341   13 Jun 2027 05:28:47.960   13 Jun 2027 05:29:41.143            53.183         26591.500
       342   13 Jun 2027 05:30:25.960   13 Jun 2027 05:30:38.985            13.025          5576.469
       343   13 Jun 2027 05:30:41.166   13 Jun 2027 05:30:45.127             3.961            68.156
       344   13 Jun 2027 05:31:23.289   13 Jun 2027 05:31:28.582             5.293          1007.844
       345   13 Jun 2027 05:31:59.672   13 Jun 2027 05:32:03.261             3.589           844.625
       346   13 Jun 2027 05:33:32.542   13 Jun 2027 05:33:35.001             2.459          1229.500
       347   13 Jun 2027 05:34:19.101   13 Jun 2027 05:34:19.157             0.056            28.000
       348   13 Jun 2027 05:34:24.602   13 Jun 2027 05:34:29.023             4.421          2210.500
       349   13 Jun 2027 05:34:46.357   13 Jun 2027 05:34:49.631             3.274          1209.157
       350   13 Jun 2027 05:35:29.302   13 Jun 2027 05:35:32.588             3.286          1140.344
       351   13 Jun 2027 06:53:55.703   13 Jun 2027 06:54:13.757            18.054          8470.844
       352   13 Jun 2027 06:54:39.592   13 Jun 2027 06:54:40.914             1.322           409.000
       353   13 Jun 2027 07:05:31.448   13 Jun 2027 07:05:39.526             8.078          2729.812
       354   13 Jun 2027 07:06:40.096   13 Jun 2027 07:06:40.922             0.826           340.750
       355   13 Jun 2027 08:28:06.122   13 Jun 2027 08:28:20.545            14.423          6689.188
       356   13 Jun 2027 08:30:20.214   13 Jun 2027 08:30:28.322             8.108          3627.594
       357   13 Jun 2027 08:31:43.676   13 Jun 2027 08:31:43.676             0.000             0.000
       358   13 Jun 2027 08:31:51.290   13 Jun 2027 08:32:02.587            11.297          2363.312
       359   13 Jun 2027 10:03:23.716   13 Jun 2027 10:03:37.904            14.188          5834.031
       360   13 Jun 2027 10:03:47.836   13 Jun 2027 10:03:52.483             4.647           310.375
       361   13 Jun 2027 10:07:44.122   13 Jun 2027 10:07:50.088             5.966          2983.000
       362   13 Jun 2027 11:40:04.025   13 Jun 2027 11:40:14.450            10.425          5212.500
       363   13 Jun 2027 11:44:56.823   13 Jun 2027 11:45:21.752            24.929         12464.500
       364   13 Jun 2027 11:46:18.896   13 Jun 2027 11:46:24.108             5.212          2606.000
       365   13 Jun 2027 11:46:39.828   13 Jun 2027 11:46:43.964             4.136          1438.219
       366   13 Jun 2027 11:46:56.358   13 Jun 2027 11:47:00.285             3.927           340.969
