uniorb/output/strategy_2/Camera/Camera_KinoSat_111809.txt

KinoSat_111809
-------------------------
    Access    *     Start Time (UTCG)     *     Stop Time (UTCG)  *   Duration (s) *   Data (Mbytes)
         1   01 Jun 2027 04:04:20.417   01 Jun 2027 04:05:14.251            53.834         26917.000
         2   01 Jun 2027 04:05:23.607   01 Jun 2027 04:06:05.323            41.716         20858.000
         3   01 Jun 2027 04:06:05.879   01 Jun 2027 04:07:19.795            73.916         36958.000
         4   01 Jun 2027 04:07:49.102   01 Jun 2027 04:08:31.735            42.633         21316.500
         5   01 Jun 2027 04:08:46.990   01 Jun 2027 04:08:48.416             1.426           713.000
         6   01 Jun 2027 04:08:48.886   01 Jun 2027 04:08:54.936             6.050          3025.000
         7   01 Jun 2027 04:09:13.399   01 Jun 2027 04:09:21.441             8.042          4021.000
         8   01 Jun 2027 05:42:48.371   01 Jun 2027 05:43:49.607            61.236         30618.000
         9   01 Jun 2027 05:44:28.535   01 Jun 2027 05:45:10.669            42.134         21067.000
        10   01 Jun 2027 05:45:40.273   01 Jun 2027 05:46:02.863            22.590         11295.000
        11   01 Jun 2027 05:46:36.279   01 Jun 2027 05:46:51.837            15.558          7779.000
        12   01 Jun 2027 05:47:24.560   01 Jun 2027 05:47:27.200             2.640          1320.000
        13   01 Jun 2027 07:06:12.172   01 Jun 2027 07:07:45.395            93.223         46611.500
        14   01 Jun 2027 08:42:25.380   01 Jun 2027 08:44:49.833           144.453         72226.500
        15   01 Jun 2027 10:15:58.575   01 Jun 2027 10:18:33.810           155.235         77617.500
        16   01 Jun 2027 10:21:54.994   01 Jun 2027 10:21:54.994             0.000             0.000
        17   01 Jun 2027 10:24:31.562   01 Jun 2027 10:24:32.559             0.997           498.500
        18   01 Jun 2027 11:53:31.096   01 Jun 2027 11:55:23.936           112.840         56420.000
        19   01 Jun 2027 11:57:32.669   01 Jun 2027 11:58:28.729            56.060         28030.000
        20   01 Jun 2027 11:59:40.418   01 Jun 2027 11:59:50.747            10.329          5164.500
        21   02 Jun 2027 04:16:24.437   02 Jun 2027 04:16:49.491            25.054         12527.000
        22   02 Jun 2027 04:16:51.841   02 Jun 2027 04:19:16.666           144.825         72412.500
        23   02 Jun 2027 04:19:52.779   02 Jun 2027 04:20:55.244            62.465         31232.500
        24   02 Jun 2027 04:22:14.785   02 Jun 2027 04:22:14.785             0.000             0.000
        25   02 Jun 2027 05:54:24.338   02 Jun 2027 05:56:04.878           100.540         50270.000
        26   02 Jun 2027 05:57:06.900   02 Jun 2027 05:57:07.648             0.748           374.000
        27   02 Jun 2027 05:57:55.012   02 Jun 2027 05:58:05.045            10.033          5016.500
        28   02 Jun 2027 07:18:03.450   02 Jun 2027 07:20:04.864           121.414         60707.000
        29   02 Jun 2027 08:54:30.610   02 Jun 2027 08:55:04.867            34.257         17128.500
        30   02 Jun 2027 08:57:15.532   02 Jun 2027 08:58:05.867            50.335         25167.500
        31   02 Jun 2027 10:26:39.057   02 Jun 2027 10:26:48.952             9.895          4947.500
        32   02 Jun 2027 10:28:37.626   02 Jun 2027 10:29:46.084            68.458         33074.188
        33   02 Jun 2027 10:33:40.365   02 Jun 2027 10:33:52.628            12.263          6049.375
        34   02 Jun 2027 10:34:44.362   02 Jun 2027 10:34:48.308             3.946          1546.625
        35   02 Jun 2027 10:36:12.824   02 Jun 2027 10:36:18.704             5.880          2091.312
        36   02 Jun 2027 10:36:19.327   02 Jun 2027 10:36:19.469             0.142            19.469
        37   02 Jun 2027 10:36:27.103   02 Jun 2027 10:36:29.426             2.323           158.219
        38   03 Jun 2027 04:28:29.551   03 Jun 2027 04:29:29.928            60.377         30188.500
        39   03 Jun 2027 04:29:38.595   03 Jun 2027 04:31:51.183           132.588         66294.000
        40   03 Jun 2027 04:32:01.058   03 Jun 2027 04:32:08.006             6.948          3474.000
        41   03 Jun 2027 04:32:46.981   03 Jun 2027 04:33:16.370            29.389         14694.500
        42   03 Jun 2027 04:33:46.339   03 Jun 2027 04:34:01.269            14.930          7465.000
        43   03 Jun 2027 04:34:01.930   03 Jun 2027 04:34:05.981             4.051          2025.500
        44   03 Jun 2027 04:34:10.301   03 Jun 2027 04:34:13.582             3.281          1640.500
        45   03 Jun 2027 04:34:41.080   03 Jun 2027 04:34:48.939             7.859          3929.500
        46   03 Jun 2027 06:07:37.786   03 Jun 2027 06:08:56.429            78.643         39156.687
        47   03 Jun 2027 06:09:18.519   03 Jun 2027 06:09:19.735             1.216           519.438
        48   03 Jun 2027 06:10:33.312   03 Jun 2027 06:10:35.342             2.030          1015.000
        49   03 Jun 2027 07:30:11.907   03 Jun 2027 07:30:31.208            19.301          6058.750
        50   03 Jun 2027 07:31:04.519   03 Jun 2027 07:31:07.423             2.904           758.219
        51   03 Jun 2027 07:31:08.570   03 Jun 2027 07:31:09.021             0.451            28.531
        52   03 Jun 2027 07:32:32.675   03 Jun 2027 07:32:37.029             4.354          2001.156
        53   03 Jun 2027 07:32:58.842   03 Jun 2027 07:33:01.676             2.834           270.969
        54   03 Jun 2027 09:06:40.744   03 Jun 2027 09:06:50.818            10.074          4937.937
        55   03 Jun 2027 09:09:15.039   03 Jun 2027 09:09:25.623            10.584          4217.875
        56   03 Jun 2027 09:10:00.253   03 Jun 2027 09:10:02.917             2.664           950.063
        57   03 Jun 2027 10:41:51.941   03 Jun 2027 10:42:02.121            10.180          4938.094
        58   03 Jun 2027 10:44:46.025   03 Jun 2027 10:44:46.025             0.000             0.000
        59   03 Jun 2027 10:45:19.500   03 Jun 2027 10:45:31.353            11.853          5694.500
        60   03 Jun 2027 10:45:45.653   03 Jun 2027 10:45:50.866             5.213           153.031
        61   03 Jun 2027 10:45:59.770   03 Jun 2027 10:46:01.909             2.139            87.156
        62   03 Jun 2027 10:46:58.370   03 Jun 2027 10:47:04.719             6.349          1480.187
        63   03 Jun 2027 10:48:10.708   03 Jun 2027 10:48:18.068             7.360          2020.719
        64   03 Jun 2027 10:48:23.434   03 Jun 2027 10:48:25.883             2.449           146.156
        65   04 Jun 2027 03:02:17.770   04 Jun 2027 03:02:25.262             7.492          3746.000
        66   04 Jun 2027 03:02:27.979   04 Jun 2027 03:02:48.618            20.639         10319.500
        67   04 Jun 2027 03:03:00.490   04 Jun 2027 03:04:05.268            64.778         32389.000
        68   04 Jun 2027 03:04:52.777   04 Jun 2027 03:05:12.984            20.207         10103.500
        69   04 Jun 2027 03:05:35.041   04 Jun 2027 03:05:36.391             1.350           675.000
        70   04 Jun 2027 03:06:15.673   04 Jun 2027 03:06:15.673             0.000             0.000
        71   04 Jun 2027 03:07:02.769   04 Jun 2027 03:07:11.407             8.638          4319.000
        72   04 Jun 2027 03:08:02.615   04 Jun 2027 03:08:14.626            12.011          6005.500
        73   04 Jun 2027 03:08:52.359   04 Jun 2027 03:09:00.937             8.578          4289.000
        74   04 Jun 2027 04:40:34.332   04 Jun 2027 04:40:49.796            15.464          7732.000
        75   04 Jun 2027 04:41:36.910   04 Jun 2027 04:43:25.762           108.852         54426.000
        76   04 Jun 2027 04:43:41.628   04 Jun 2027 04:44:09.487            27.859         13929.500
        77   04 Jun 2027 04:44:30.844   04 Jun 2027 04:44:37.798             6.954          3477.000
        78   04 Jun 2027 04:45:49.007   04 Jun 2027 04:45:49.007             0.000             0.000
        79   04 Jun 2027 04:48:50.234   04 Jun 2027 04:49:12.687            22.453         11137.187
        80   04 Jun 2027 06:18:45.686   04 Jun 2027 06:18:59.386            13.700          6787.719
        81   04 Jun 2027 06:19:53.356   04 Jun 2027 06:19:59.833             6.477          1386.125
        82   04 Jun 2027 06:20:55.729   04 Jun 2027 06:21:00.905             5.176          1690.281
        83   04 Jun 2027 06:21:40.008   04 Jun 2027 06:21:41.679             1.671           240.656
        84   04 Jun 2027 07:42:54.636   04 Jun 2027 07:43:08.495            13.859          4924.719
        85   04 Jun 2027 07:43:30.188   04 Jun 2027 07:43:30.188             0.000             0.000
        86   04 Jun 2027 07:44:50.765   04 Jun 2027 07:44:58.220             7.455          3110.437
        87   04 Jun 2027 09:18:38.855   04 Jun 2027 09:18:50.819            11.964          3573.906
        88   04 Jun 2027 09:20:30.694   04 Jun 2027 09:20:38.504             7.810          3043.125
        89   04 Jun 2027 09:21:05.069   04 Jun 2027 09:21:09.201             4.132           694.531
        90   04 Jun 2027 10:53:42.566   04 Jun 2027 10:54:01.042            18.476          6952.906
        91   04 Jun 2027 10:55:24.201   04 Jun 2027 10:55:28.811             4.610          2305.000
        92   04 Jun 2027 10:56:01.126   04 Jun 2027 10:56:04.435             3.309          1202.031
        93   04 Jun 2027 10:56:11.157   04 Jun 2027 10:56:11.999             0.842            69.312
        94   04 Jun 2027 10:56:46.192   04 Jun 2027 10:56:46.899             0.707           353.500
        95   04 Jun 2027 11:00:13.759   04 Jun 2027 11:00:32.144            18.385          7092.656
        96   05 Jun 2027 03:14:47.752   05 Jun 2027 03:17:46.387           178.635         89317.500
        97   05 Jun 2027 03:18:08.397   05 Jun 2027 03:18:41.050            32.653         16326.500
        98   05 Jun 2027 03:20:22.850   05 Jun 2027 03:20:30.971             8.121          4060.500
        99   05 Jun 2027 03:21:03.316   05 Jun 2027 03:21:03.316             0.000             0.000
       100   05 Jun 2027 03:21:23.264   05 Jun 2027 03:21:23.264             0.000             0.000
       101   05 Jun 2027 04:53:39.846   05 Jun 2027 04:55:02.046            82.200         39281.469
       102   05 Jun 2027 04:56:12.144   05 Jun 2027 04:56:17.624             5.480          1902.094
       103   05 Jun 2027 04:57:36.139   05 Jun 2027 04:57:39.848             3.709          1854.500
       104   05 Jun 2027 04:57:52.109   05 Jun 2027 04:57:52.607             0.498           249.000
       105   05 Jun 2027 04:58:53.406   05 Jun 2027 04:58:58.306             4.900          2315.625
       106   05 Jun 2027 04:59:49.220   05 Jun 2027 04:59:53.534             4.314           656.625
       107   05 Jun 2027 05:00:17.514   05 Jun 2027 05:00:19.089             1.575           451.906
       108   05 Jun 2027 06:19:44.023   05 Jun 2027 06:19:57.135            13.112          5742.719
       109   05 Jun 2027 06:30:42.029   05 Jun 2027 06:30:47.213             5.184          2592.000
       110   05 Jun 2027 06:31:50.880   05 Jun 2027 06:31:52.596             1.716           858.000
       111   05 Jun 2027 06:32:09.226   05 Jun 2027 06:32:15.507             6.281          2243.469
       112   05 Jun 2027 06:33:34.863   05 Jun 2027 06:33:38.238             3.375          1449.625
       113   05 Jun 2027 06:34:01.537   05 Jun 2027 06:34:01.537             0.000             0.000
       114   05 Jun 2027 07:54:01.101   05 Jun 2027 07:54:19.173            18.072          8712.437
       115   05 Jun 2027 07:55:29.699   05 Jun 2027 07:55:29.699             0.000             0.000
       116   05 Jun 2027 07:56:43.722   05 Jun 2027 07:56:55.146            11.424          4431.125
       117   05 Jun 2027 09:29:16.254   05 Jun 2027 09:29:18.774             2.520          1260.000
       118   05 Jun 2027 09:33:11.809   05 Jun 2027 09:33:31.756            19.947          9240.469
       119   05 Jun 2027 11:05:32.823   05 Jun 2027 11:05:45.240            12.417          6102.312
       120   05 Jun 2027 11:08:32.443   05 Jun 2027 11:08:32.443             0.000             0.000
       121   05 Jun 2027 11:09:00.307   05 Jun 2027 11:09:25.233            24.926          6069.875
       122   05 Jun 2027 11:09:48.715   05 Jun 2027 11:09:51.768             3.053           133.625
       123   05 Jun 2027 11:10:33.099   05 Jun 2027 11:10:35.817             2.718          1206.219
       124   05 Jun 2027 11:11:16.232   05 Jun 2027 11:11:17.999             1.767           883.500
       125   05 Jun 2027 11:11:30.235   05 Jun 2027 11:11:30.235             0.000             0.000
       126   05 Jun 2027 11:11:49.016   05 Jun 2027 11:11:51.842             2.826          1128.625
       127   05 Jun 2027 11:12:03.631   05 Jun 2027 11:12:11.279             7.648           368.406
       128   05 Jun 2027 11:12:40.087   05 Jun 2027 11:12:42.181             2.094           635.719
       129   06 Jun 2027 03:27:02.581   06 Jun 2027 03:30:49.006           226.425        113212.500
       130   06 Jun 2027 03:32:27.603   06 Jun 2027 03:32:37.886            10.283          5141.500
       131   06 Jun 2027 05:06:05.855   06 Jun 2027 05:06:55.130            49.275         24637.500
       132   06 Jun 2027 05:07:32.617   06 Jun 2027 05:08:02.053            29.436         13752.437
       133   06 Jun 2027 05:08:17.039   06 Jun 2027 05:08:19.112             2.073            88.344
       134   06 Jun 2027 05:08:34.534   06 Jun 2027 05:08:35.688             1.154           386.063
       135   06 Jun 2027 05:09:48.949   06 Jun 2027 05:09:50.601             1.652           806.156
       136   06 Jun 2027 05:10:46.664   06 Jun 2027 05:10:55.787             9.123          1650.094
       137   06 Jun 2027 05:11:27.409   06 Jun 2027 05:11:27.409             0.000             0.000
       138   06 Jun 2027 05:11:34.171   06 Jun 2027 05:11:37.024             2.853          1199.500
       139   06 Jun 2027 05:12:07.183   06 Jun 2027 05:12:10.497             3.314           861.281
       140   06 Jun 2027 06:31:03.359   06 Jun 2027 06:31:22.076            18.717          6368.187
       141   06 Jun 2027 06:32:13.688   06 Jun 2027 06:32:18.284             4.596          1089.469
       142   06 Jun 2027 06:42:44.302   06 Jun 2027 06:42:54.122             9.820          3873.750
       143   06 Jun 2027 06:43:48.338   06 Jun 2027 06:43:51.913             3.575          1539.812
       144   06 Jun 2027 08:04:59.224   06 Jun 2027 08:05:10.046            10.822          5411.000
       145   06 Jun 2027 08:05:14.460   06 Jun 2027 08:05:18.346             3.886          1005.938
       146   06 Jun 2027 08:05:57.437   06 Jun 2027 08:05:59.601             2.164           990.219
       147   06 Jun 2027 08:07:29.567   06 Jun 2027 08:07:36.359             6.792          2354.656
       148   06 Jun 2027 08:08:50.344   06 Jun 2027 08:08:57.862             7.518          2082.250
       149   06 Jun 2027 08:09:53.774   06 Jun 2027 08:09:58.623             4.849          1417.750
       150   06 Jun 2027 09:40:32.232   06 Jun 2027 09:40:45.194            12.962          6349.563
       151   06 Jun 2027 09:43:02.189   06 Jun 2027 09:43:02.189             0.000             0.000
       152   06 Jun 2027 09:43:45.106   06 Jun 2027 09:43:53.371             8.265          4132.500
       153   06 Jun 2027 11:17:16.650   06 Jun 2027 11:17:37.638            20.988          9967.031
       154   06 Jun 2027 11:18:29.186   06 Jun 2027 11:18:29.802             0.616           308.000
       155   06 Jun 2027 11:22:20.562   06 Jun 2027 11:22:36.151            15.589          7637.656
       156   06 Jun 2027 11:23:14.314   06 Jun 2027 11:23:18.799             4.485          1022.187
       157   06 Jun 2027 11:23:55.225   06 Jun 2027 11:23:59.607             4.382           896.031
       158   07 Jun 2027 03:39:20.384   07 Jun 2027 03:42:00.309           159.925         79962.500
       159   07 Jun 2027 03:43:34.986   07 Jun 2027 03:45:00.411            85.425         42712.500
       160   07 Jun 2027 05:18:21.122   07 Jun 2027 05:19:42.637            81.515         40757.500
       161   07 Jun 2027 05:19:42.665   07 Jun 2027 05:19:43.618             0.953           172.844
       162   07 Jun 2027 05:20:31.429   07 Jun 2027 05:20:33.760             2.331           932.062
       163   07 Jun 2027 05:21:54.909   07 Jun 2027 05:22:02.405             7.496          1371.875
       164   07 Jun 2027 05:22:53.797   07 Jun 2027 05:22:57.072             3.275          1176.594
       165   07 Jun 2027 05:23:29.411   07 Jun 2027 05:23:32.180             2.769          1010.594
       166   07 Jun 2027 05:23:40.516   07 Jun 2027 05:23:40.516             0.000             0.000
       167   07 Jun 2027 05:24:53.647   07 Jun 2027 05:24:59.398             5.751          2495.844
       168   07 Jun 2027 06:42:27.518   07 Jun 2027 06:42:40.163            12.645          6322.500
       169   07 Jun 2027 06:42:59.892   07 Jun 2027 06:43:03.085             3.193           833.000
       170   07 Jun 2027 06:43:07.540   07 Jun 2027 06:43:08.464             0.924           139.219
       171   07 Jun 2027 06:43:38.682   07 Jun 2027 06:43:40.539             1.857           772.813
       172   07 Jun 2027 06:43:44.722   07 Jun 2027 06:43:46.069             1.347           130.719
       173   07 Jun 2027 06:44:27.842   07 Jun 2027 06:44:36.639             8.797          1046.594
       174   07 Jun 2027 06:54:41.368   07 Jun 2027 06:54:49.343             7.975          2693.313
       175   07 Jun 2027 08:16:43.125   07 Jun 2027 08:17:03.955            20.830          8316.187
       176   07 Jun 2027 08:17:37.580   07 Jun 2027 08:17:41.501             3.921          1012.187
       177   07 Jun 2027 08:19:10.230   07 Jun 2027 08:19:16.155             5.925          2453.906
       178   07 Jun 2027 08:19:34.486   07 Jun 2027 08:19:36.485             1.999           519.000
       179   07 Jun 2027 08:21:46.236   07 Jun 2027 08:21:49.811             3.575          1787.500
       180   07 Jun 2027 09:51:37.104   07 Jun 2027 09:51:45.199             8.095          4035.562
       181   07 Jun 2027 09:52:30.608   07 Jun 2027 09:52:34.879             4.271          1085.625
       182   07 Jun 2027 09:54:59.574   07 Jun 2027 09:55:02.316             2.742          1371.000
       183   07 Jun 2027 09:57:48.127   07 Jun 2027 09:58:02.348            14.221          7091.719
       184   07 Jun 2027 09:58:29.911   07 Jun 2027 09:58:31.517             1.606           695.688
       185   07 Jun 2027 09:59:05.463   07 Jun 2027 09:59:16.274            10.811          1060.812
       186   07 Jun 2027 11:32:02.243   07 Jun 2027 11:32:21.681            19.438          9719.000
       187   07 Jun 2027 11:35:27.326   07 Jun 2027 11:35:40.626            13.300          6650.000
       188   07 Jun 2027 11:35:45.826   07 Jun 2027 11:35:47.087             1.261           294.031
       189   07 Jun 2027 11:36:12.792   07 Jun 2027 11:36:15.797             3.005           803.281
       190   08 Jun 2027 03:52:06.425   08 Jun 2027 03:52:31.163            24.738         12369.000
       191   08 Jun 2027 03:52:33.807   08 Jun 2027 03:53:36.853            63.046         31523.000
       192   08 Jun 2027 03:55:11.236   08 Jun 2027 03:57:23.570           132.334         66167.000
       193   08 Jun 2027 05:30:29.008   08 Jun 2027 05:30:58.991            29.983         14991.500
       194   08 Jun 2027 05:31:22.607   08 Jun 2027 05:32:01.034            38.427         19213.500
       195   08 Jun 2027 05:32:37.760   08 Jun 2027 05:32:59.238            21.478         10739.000
       196   08 Jun 2027 05:33:29.316   08 Jun 2027 05:33:39.570            10.254          4435.125
       197   08 Jun 2027 05:34:31.688   08 Jun 2027 05:34:36.301             4.613          1468.125
       198   08 Jun 2027 06:54:33.348   08 Jun 2027 06:54:44.131            10.783          5190.563
       199   08 Jun 2027 06:55:14.387   08 Jun 2027 06:55:16.236             1.849           579.531
       200   08 Jun 2027 06:56:09.266   08 Jun 2027 06:56:12.940             3.674          1629.906
       201   08 Jun 2027 06:56:22.793   08 Jun 2027 06:56:23.232             0.439           176.406
       202   08 Jun 2027 08:28:20.323   08 Jun 2027 08:28:38.235            17.912          8796.375
       203   08 Jun 2027 08:29:39.128   08 Jun 2027 08:29:44.328             5.200          1272.594
       204   08 Jun 2027 08:30:16.724   08 Jun 2027 08:30:17.911             1.187           228.469
       205   08 Jun 2027 08:31:27.448   08 Jun 2027 08:31:31.365             3.917          1893.219
       206   08 Jun 2027 08:32:47.074   08 Jun 2027 08:32:47.074             0.000             0.000
       207   08 Jun 2027 08:33:14.130   08 Jun 2027 08:33:20.169             6.039          2384.094
       208   08 Jun 2027 08:33:48.212   08 Jun 2027 08:33:49.611             1.399           595.812
       209   08 Jun 2027 10:03:12.356   08 Jun 2027 10:03:19.057             6.701          3350.500
       210   08 Jun 2027 10:05:16.163   08 Jun 2027 10:05:28.975            12.812          4220.000
       211   08 Jun 2027 10:06:38.505   08 Jun 2027 10:06:43.500             4.995          2150.313
       212   08 Jun 2027 10:07:46.795   08 Jun 2027 10:07:51.509             4.714          1977.969
       213   08 Jun 2027 10:08:44.396   08 Jun 2027 10:08:48.792             4.396           331.656
       214   08 Jun 2027 10:12:13.807   08 Jun 2027 10:12:27.054            13.247          6129.406
       215   08 Jun 2027 11:41:22.238   08 Jun 2027 11:41:40.304            18.066          7211.219
       216   08 Jun 2027 11:42:06.917   08 Jun 2027 11:42:09.095             2.178           519.000
       217   08 Jun 2027 11:42:10.771   08 Jun 2027 11:42:11.897             1.126            52.375
       218   08 Jun 2027 11:43:42.014   08 Jun 2027 11:43:48.055             6.041          1252.406
       219   08 Jun 2027 11:46:54.172   08 Jun 2027 11:47:08.085            13.913          5667.688
       220   08 Jun 2027 11:47:30.245   08 Jun 2027 11:47:33.270             3.025           345.312
       221   08 Jun 2027 11:47:44.725   08 Jun 2027 11:47:46.571             1.846           357.969
       222   09 Jun 2027 04:04:40.821   09 Jun 2027 04:05:30.333            49.512         24756.000
       223   09 Jun 2027 04:05:40.448   09 Jun 2027 04:06:22.702            42.254         21127.000
       224   09 Jun 2027 04:06:23.329   09 Jun 2027 04:07:36.775            73.446         36723.000
       225   09 Jun 2027 04:08:09.766   09 Jun 2027 04:08:12.653             2.887          1443.500
       226   09 Jun 2027 04:08:54.573   09 Jun 2027 04:09:03.432             8.859          4429.500
       227   09 Jun 2027 04:09:22.640   09 Jun 2027 04:09:37.313            14.673          7336.500
       228   09 Jun 2027 04:09:37.879   09 Jun 2027 04:09:43.473             5.594          2797.000
       229   09 Jun 2027 05:43:03.161   09 Jun 2027 05:44:03.767            60.606         30303.000
       230   09 Jun 2027 05:44:47.043   09 Jun 2027 05:45:55.034            67.991         33586.563
       231   09 Jun 2027 05:46:59.444   09 Jun 2027 05:47:06.462             7.018          2009.687
       232   09 Jun 2027 05:47:41.599   09 Jun 2027 05:47:41.599             0.000             0.000
       233   09 Jun 2027 07:06:28.504   09 Jun 2027 07:06:42.131            13.627          6433.813
       234   09 Jun 2027 07:07:43.595   09 Jun 2027 07:07:47.037             3.442          1668.188
       235   09 Jun 2027 08:42:44.204   09 Jun 2027 08:42:55.251            11.047          5073.469
       236   09 Jun 2027 08:43:18.146   09 Jun 2027 08:43:18.146             0.000             0.000
       237   09 Jun 2027 08:43:22.258   09 Jun 2027 08:43:25.140             2.882           796.156
       238   09 Jun 2027 08:43:45.643   09 Jun 2027 08:43:45.643             0.000             0.000
       239   09 Jun 2027 08:45:33.173   09 Jun 2027 08:45:43.578            10.405          4001.031
       240   09 Jun 2027 10:17:17.026   09 Jun 2027 10:17:32.579            15.553          7715.938
       241   09 Jun 2027 10:21:07.360   09 Jun 2027 10:21:20.055            12.695          6236.219
       242   09 Jun 2027 10:22:23.609   09 Jun 2027 10:22:32.627             9.018           734.938
       243   09 Jun 2027 10:23:21.594   09 Jun 2027 10:23:25.237             3.643          1093.063
       244   09 Jun 2027 10:24:28.675   09 Jun 2027 10:24:32.693             4.018          1982.437
       245   09 Jun 2027 10:24:48.409   09 Jun 2027 10:24:48.805             0.396           198.000
       246   09 Jun 2027 11:53:48.951   09 Jun 2027 11:54:05.567            16.616          7971.625
       247   09 Jun 2027 11:54:44.762   09 Jun 2027 11:54:47.295             2.533          1054.125
       248   09 Jun 2027 11:56:01.947   09 Jun 2027 11:56:07.356             5.409          1993.844
       249   09 Jun 2027 11:56:38.771   09 Jun 2027 11:56:45.992             7.221           981.719
       250   09 Jun 2027 11:57:09.220   09 Jun 2027 11:57:13.052             3.832           725.875
       251   09 Jun 2027 11:58:10.412   09 Jun 2027 11:58:14.213             3.801          1780.031
       252   09 Jun 2027 11:58:17.855   09 Jun 2027 11:58:19.656             1.801            98.594
       253   09 Jun 2027 11:59:16.360   09 Jun 2027 11:59:24.314             7.954          1062.469
       254   10 Jun 2027 04:16:38.695   10 Jun 2027 04:16:45.828             7.133          3566.500
       255   10 Jun 2027 04:16:54.548   10 Jun 2027 04:18:36.877           102.329         51164.500
       256   10 Jun 2027 04:18:47.863   10 Jun 2027 04:19:34.074            46.211         23105.500
       257   10 Jun 2027 04:20:10.238   10 Jun 2027 04:21:10.086            59.848         29924.000
       258   10 Jun 2027 04:22:03.960   10 Jun 2027 04:22:25.525            21.565         10782.500
       259   10 Jun 2027 04:22:31.117   10 Jun 2027 04:22:53.807            22.690         11345.000
       260   10 Jun 2027 05:54:42.113   10 Jun 2027 05:56:03.629            81.516         40758.000
       261   10 Jun 2027 05:57:26.359   10 Jun 2027 05:57:40.111            13.752          6732.063
       262   10 Jun 2027 07:18:20.394   10 Jun 2027 07:18:41.289            20.895          7175.031
       263   10 Jun 2027 07:20:36.902   10 Jun 2027 07:20:45.672             8.770          3577.250
       264   10 Jun 2027 08:54:48.338   10 Jun 2027 08:54:56.724             8.386          4193.000
       265   10 Jun 2027 08:55:38.609   10 Jun 2027 08:55:38.609             0.000             0.000
       266   10 Jun 2027 08:57:33.180   10 Jun 2027 08:57:50.468            17.288          6078.719
       267   10 Jun 2027 10:28:56.538   10 Jun 2027 10:29:10.958            14.420          4437.313
       268   10 Jun 2027 10:32:20.838   10 Jun 2027 10:32:33.046            12.208          5733.219
       269   10 Jun 2027 10:34:05.760   10 Jun 2027 10:34:09.627             3.867          1933.500
       270   10 Jun 2027 10:34:53.883   10 Jun 2027 10:34:59.115             5.232          1871.344
       271   10 Jun 2027 10:35:17.091   10 Jun 2027 10:35:20.826             3.735           255.406
       272   10 Jun 2027 10:35:42.788   10 Jun 2027 10:35:43.095             0.307           153.500
       273   10 Jun 2027 10:36:06.938   10 Jun 2027 10:36:06.938             0.000             0.000
       274   11 Jun 2027 04:28:47.172   11 Jun 2027 04:29:46.835            59.663         29831.500
       275   11 Jun 2027 04:29:56.409   11 Jun 2027 04:33:06.286           189.877         94938.500
       276   11 Jun 2027 04:33:32.775   11 Jun 2027 04:33:36.870             4.095          2047.500
       277   11 Jun 2027 06:07:06.314   11 Jun 2027 06:07:34.849            28.535         14267.500
       278   11 Jun 2027 06:07:54.861   11 Jun 2027 06:08:38.511            43.650         21496.968
       279   11 Jun 2027 06:10:35.356   11 Jun 2027 06:10:40.833             5.477          2738.500
       280   11 Jun 2027 07:30:29.151   11 Jun 2027 07:30:45.871            16.720          6054.250
       281   11 Jun 2027 07:31:21.539   11 Jun 2027 07:31:23.855             2.316           802.000
       282   11 Jun 2027 07:31:25.951   11 Jun 2027 07:31:32.357             6.406            65.500
       283   11 Jun 2027 07:32:50.686   11 Jun 2027 07:32:54.847             4.161          2026.031
       284   11 Jun 2027 07:33:14.154   11 Jun 2027 07:33:16.838             2.684           239.656
       285   11 Jun 2027 09:07:16.759   11 Jun 2027 09:07:37.235            20.476          6354.906
       286   11 Jun 2027 10:42:09.582   11 Jun 2027 10:42:23.582            14.000          6441.156
       287   11 Jun 2027 10:45:34.566   11 Jun 2027 10:45:47.193            12.627          5656.344
       288   11 Jun 2027 10:48:18.025   11 Jun 2027 10:48:18.025             0.000             0.000
       289   11 Jun 2027 10:48:23.607   11 Jun 2027 10:48:33.453             9.846          4637.656
       290   11 Jun 2027 10:48:40.101   11 Jun 2027 10:48:43.885             3.784           207.750
       291   12 Jun 2027 03:02:35.745   12 Jun 2027 03:04:13.314            97.569         48784.500
       292   12 Jun 2027 03:07:07.874   12 Jun 2027 03:07:18.879            11.005          5502.500
       293   12 Jun 2027 03:08:05.736   12 Jun 2027 03:08:12.250             6.514          3257.000
       294   12 Jun 2027 03:08:14.510   12 Jun 2027 03:08:30.460            15.950          7975.000
       295   12 Jun 2027 03:09:13.015   12 Jun 2027 03:09:17.442             4.427          2213.500
       296   12 Jun 2027 04:40:52.221   12 Jun 2027 04:41:03.976            11.755          5877.500
       297   12 Jun 2027 04:41:54.229   12 Jun 2027 04:44:27.091           152.862         76431.000
       298   12 Jun 2027 04:45:41.679   12 Jun 2027 04:45:41.679             0.000             0.000
       299   12 Jun 2027 04:46:57.071   12 Jun 2027 04:47:00.720             3.649          1824.500
       300   12 Jun 2027 04:49:01.165   12 Jun 2027 04:49:40.929            39.764         18060.687
       301   12 Jun 2027 06:19:02.934   12 Jun 2027 06:19:25.244            22.310         11067.844
       302   12 Jun 2027 06:21:11.656   12 Jun 2027 06:21:19.319             7.663          3190.219
       303   12 Jun 2027 06:22:28.335   12 Jun 2027 06:22:28.335             0.000             0.000
       304   12 Jun 2027 07:43:09.579   12 Jun 2027 07:43:23.837            14.258          5281.469
       305   12 Jun 2027 07:45:07.051   12 Jun 2027 07:45:12.988             5.937          2576.063
       306   12 Jun 2027 09:18:55.069   12 Jun 2027 09:19:06.174            11.105          3270.000
       307   12 Jun 2027 09:21:31.370   12 Jun 2027 09:21:41.687            10.317          4423.281
       308   12 Jun 2027 10:54:20.251   12 Jun 2027 10:54:42.708            22.457          6417.250
       309   12 Jun 2027 10:56:18.858   12 Jun 2027 10:56:21.678             2.820          1402.437
       310   12 Jun 2027 11:00:30.404   12 Jun 2027 11:00:49.666            19.262          7772.688
       311   13 Jun 2027 03:15:11.985   13 Jun 2027 03:18:06.414           174.429         87214.500
       312   13 Jun 2027 03:18:38.773   13 Jun 2027 03:18:57.456            18.683          9341.500
       313   13 Jun 2027 03:20:56.466   13 Jun 2027 03:21:13.753            17.287          8643.500
       314   13 Jun 2027 04:53:57.576   13 Jun 2027 04:54:44.239            46.663         23331.500
       315   13 Jun 2027 04:54:53.052   13 Jun 2027 04:55:19.171            26.119         13059.500
       316   13 Jun 2027 04:55:59.802   13 Jun 2027 04:56:22.823            23.021         11203.250
       317   13 Jun 2027 04:56:29.163   13 Jun 2027 04:56:32.174             3.011           198.125
       318   13 Jun 2027 04:59:08.648   13 Jun 2027 04:59:08.648             0.000             0.000
       319   13 Jun 2027 05:00:06.496   13 Jun 2027 05:00:14.486             7.990          3995.000
       320   13 Jun 2027 05:00:19.305   13 Jun 2027 05:00:23.230             3.925          1599.844
       321   13 Jun 2027 05:01:29.778   13 Jun 2027 05:01:33.591             3.813          1764.375
       322   13 Jun 2027 06:19:57.955   13 Jun 2027 06:20:17.556            19.601          9600.406
       323   13 Jun 2027 06:30:59.345   13 Jun 2027 06:31:08.163             8.818          3620.969
       324   13 Jun 2027 06:32:03.637   13 Jun 2027 06:32:05.090             1.453           726.500
       325   13 Jun 2027 06:32:59.707   13 Jun 2027 06:33:03.319             3.612          1551.781
       326   13 Jun 2027 06:33:35.244   13 Jun 2027 06:33:35.244             0.000             0.000
       327   13 Jun 2027 06:33:53.109   13 Jun 2027 06:33:55.068             1.959           979.500
       328   13 Jun 2027 06:34:16.180   13 Jun 2027 06:34:18.263             2.083          1041.500
       329   13 Jun 2027 07:53:59.087   13 Jun 2027 07:54:10.524            11.437          5025.375
       330   13 Jun 2027 07:54:50.533   13 Jun 2027 07:54:53.922             3.389          1223.437
       331   13 Jun 2027 07:55:13.334   13 Jun 2027 07:55:13.334             0.000             0.000
       332   13 Jun 2027 07:55:31.037   13 Jun 2027 07:55:38.526             7.489          1141.406
       333   13 Jun 2027 07:56:59.609   13 Jun 2027 07:57:04.649             5.040          2273.656
       334   13 Jun 2027 07:57:23.293   13 Jun 2027 07:57:24.871             1.578           505.813
       335   13 Jun 2027 09:29:31.129   13 Jun 2027 09:29:38.100             6.971          3485.500
       336   13 Jun 2027 09:35:06.094   13 Jun 2027 09:35:06.504             0.410           205.000
       337   13 Jun 2027 11:05:26.016   13 Jun 2027 11:05:49.165            23.149         11574.500
       338   13 Jun 2027 11:07:39.554   13 Jun 2027 11:07:46.972             7.418          3567.750
       339   13 Jun 2027 11:12:19.452   13 Jun 2027 11:12:36.472            17.020          7631.781
       340   13 Jun 2027 11:12:43.469   13 Jun 2027 11:12:45.719             2.250           218.656
