uniorb/output/strategy_2/Camera/Camera_KinoSat_111706.txt

KinoSat_111706
-------------------------
    Access    *     Start Time (UTCG)     *     Stop Time (UTCG)  *   Duration (s) *   Data (Mbytes)
         1   01 Jun 2027 03:00:00.000   01 Jun 2027 03:00:39.019            39.019         19509.500
         2   01 Jun 2027 03:00:44.331   01 Jun 2027 03:00:45.713             1.382           691.000
         3   01 Jun 2027 03:01:19.105   01 Jun 2027 03:01:21.726             2.621          1310.500
         4   01 Jun 2027 03:01:48.909   01 Jun 2027 03:02:16.045            27.136         13568.000
         5   01 Jun 2027 03:03:51.478   01 Jun 2027 03:04:28.110            36.632         18316.000
         6   01 Jun 2027 03:04:40.184   01 Jun 2027 03:04:44.566             4.382          2191.000
         7   01 Jun 2027 03:04:52.878   01 Jun 2027 03:04:54.494             1.616           808.000
         8   01 Jun 2027 03:05:38.131   01 Jun 2027 03:05:51.891            13.760          6880.000
         9   01 Jun 2027 04:38:26.544   01 Jun 2027 04:40:50.675           144.131         72065.500
        10   01 Jun 2027 04:40:59.321   01 Jun 2027 04:41:00.719             1.398           699.000
        11   01 Jun 2027 04:41:09.472   01 Jun 2027 04:41:16.947             7.475          3737.500
        12   01 Jun 2027 04:41:29.322   01 Jun 2027 04:41:42.412            13.090          6545.000
        13   01 Jun 2027 04:44:20.593   01 Jun 2027 04:44:23.145             2.552          1276.000
        14   01 Jun 2027 04:45:16.659   01 Jun 2027 04:45:44.390            27.731         13865.500
        15   01 Jun 2027 06:03:34.736   01 Jun 2027 06:04:27.521            52.785         26392.500
        16   01 Jun 2027 06:04:35.353   01 Jun 2027 06:04:55.525            20.172         10086.000
        17   01 Jun 2027 06:15:10.725   01 Jun 2027 06:16:33.877            83.152         41576.000
        18   01 Jun 2027 07:37:45.514   01 Jun 2027 07:38:29.263            43.749         21874.500
        19   01 Jun 2027 07:39:23.674   01 Jun 2027 07:39:54.459            30.785         15392.500
        20   01 Jun 2027 09:12:51.146   01 Jun 2027 09:14:09.327            78.181         39090.500
        21   01 Jun 2027 09:14:37.729   01 Jun 2027 09:14:58.932            21.203         10601.500
        22   01 Jun 2027 09:16:18.630   01 Jun 2027 09:17:32.713            74.083         37041.500
        23   01 Jun 2027 10:49:43.189   01 Jun 2027 10:49:51.985             8.796          4398.000
        24   01 Jun 2027 10:54:20.651   01 Jun 2027 10:55:14.983            54.332         27166.000
        25   01 Jun 2027 10:56:18.785   01 Jun 2027 10:57:08.609            49.824         24912.000
        26   02 Jun 2027 03:11:43.854   02 Jun 2027 03:13:07.424            83.570         41785.000
        27   02 Jun 2027 03:13:09.720   02 Jun 2027 03:14:13.518            63.798         31899.000
        28   02 Jun 2027 03:15:53.446   02 Jun 2027 03:16:11.423            17.977          8988.500
        29   02 Jun 2027 03:16:28.630   02 Jun 2027 03:16:34.440             5.810          2905.000
        30   02 Jun 2027 04:50:43.094   02 Jun 2027 04:52:29.586           106.492         53246.000
        31   02 Jun 2027 04:52:39.605   02 Jun 2027 04:53:01.880            22.275         11137.500
        32   02 Jun 2027 04:53:05.643   02 Jun 2027 04:53:09.618             3.975          1987.500
        33   02 Jun 2027 04:53:55.596   02 Jun 2027 04:54:06.720            11.124          5562.000
        34   02 Jun 2027 04:54:42.647   02 Jun 2027 04:54:58.454            15.807          7903.500
        35   02 Jun 2027 04:55:47.346   02 Jun 2027 04:55:55.949             8.603          4301.500
        36   02 Jun 2027 04:56:24.915   02 Jun 2027 04:56:24.915             0.000             0.000
        37   02 Jun 2027 04:57:30.657   02 Jun 2027 04:57:44.086            13.429          6714.500
        38   02 Jun 2027 06:14:54.680   02 Jun 2027 06:15:25.538            30.858         15429.000
        39   02 Jun 2027 06:16:04.962   02 Jun 2027 06:16:28.071            23.109         11554.500
        40   02 Jun 2027 06:27:08.166   02 Jun 2027 06:28:03.538            55.372         27686.000
        41   02 Jun 2027 07:49:20.998   02 Jun 2027 07:50:30.223            69.225         34612.500
        42   02 Jun 2027 07:51:18.333   02 Jun 2027 07:51:42.278            23.945         11972.500
        43   02 Jun 2027 09:24:14.385   02 Jun 2027 09:25:22.324            67.939         33264.875
        44   02 Jun 2027 09:25:34.476   02 Jun 2027 09:25:35.388             0.912           267.875
        45   02 Jun 2027 09:28:08.834   02 Jun 2027 09:28:21.113            12.279          4390.281
        46   02 Jun 2027 09:29:01.649   02 Jun 2027 09:29:03.281             1.632           574.125
        47   02 Jun 2027 09:29:37.392   02 Jun 2027 09:29:39.971             2.579           992.875
        48   02 Jun 2027 11:01:49.877   02 Jun 2027 11:02:05.140            15.263          5965.063
        49   02 Jun 2027 11:03:24.537   02 Jun 2027 11:03:28.927             4.390          1232.031
        50   02 Jun 2027 11:04:45.784   02 Jun 2027 11:04:52.915             7.131          1597.656
        51   02 Jun 2027 11:05:34.078   02 Jun 2027 11:05:40.679             6.601          1286.344
        52   02 Jun 2027 11:06:05.718   02 Jun 2027 11:06:05.734             0.016             8.000
        53   02 Jun 2027 11:06:40.713   02 Jun 2027 11:06:43.718             3.005          1315.031
        54   02 Jun 2027 11:07:07.494   02 Jun 2027 11:07:07.675             0.181            90.500
        55   02 Jun 2027 11:07:29.910   02 Jun 2027 11:07:33.620             3.710           829.125
        56   02 Jun 2027 11:07:57.734   02 Jun 2027 11:07:59.391             1.657           705.688
        57   02 Jun 2027 11:08:15.006   02 Jun 2027 11:08:17.736             2.730           467.719
        58   02 Jun 2027 11:08:35.554   02 Jun 2027 11:08:36.494             0.940           444.156
        59   03 Jun 2027 03:24:03.099   03 Jun 2027 03:24:16.280            13.181          6590.500
        60   03 Jun 2027 03:24:30.472   03 Jun 2027 03:27:55.955           205.483        102741.500
        61   03 Jun 2027 05:02:49.794   03 Jun 2027 05:03:42.170            52.376         26188.000
        62   03 Jun 2027 05:04:34.840   03 Jun 2027 05:05:16.988            42.148         18102.718
        63   03 Jun 2027 05:05:54.775   03 Jun 2027 05:05:56.322             1.547           773.500
        64   03 Jun 2027 05:07:04.751   03 Jun 2027 05:07:10.748             5.997          2249.781
        65   03 Jun 2027 05:08:08.025   03 Jun 2027 05:08:14.304             6.279          1266.031
        66   03 Jun 2027 06:27:00.460   03 Jun 2027 06:27:17.358            16.898          8173.094
        67   03 Jun 2027 06:27:39.754   03 Jun 2027 06:27:39.754             0.000             0.000
        68   03 Jun 2027 06:27:47.826   03 Jun 2027 06:27:54.606             6.780           668.750
        69   03 Jun 2027 06:28:54.608   03 Jun 2027 06:28:54.983             0.375           187.500
        70   03 Jun 2027 06:39:33.212   03 Jun 2027 06:39:34.842             1.630           815.000
        71   03 Jun 2027 08:00:50.594   03 Jun 2027 08:01:04.457            13.863          6535.531
        72   03 Jun 2027 08:01:49.174   03 Jun 2027 08:01:52.903             3.729           478.719
        73   03 Jun 2027 08:03:27.628   03 Jun 2027 08:03:34.366             6.738          2345.969
        74   03 Jun 2027 08:04:18.937   03 Jun 2027 08:04:21.662             2.725          1093.000
        75   03 Jun 2027 08:05:02.861   03 Jun 2027 08:05:07.867             5.006           810.406
        76   03 Jun 2027 08:06:03.813   03 Jun 2027 08:06:07.415             3.602          1601.406
        77   03 Jun 2027 09:35:45.053   03 Jun 2027 09:35:54.266             9.213          4464.156
        78   03 Jun 2027 09:37:02.007   03 Jun 2027 09:37:08.683             6.676          1821.656
        79   03 Jun 2027 09:37:55.524   03 Jun 2027 09:37:59.239             3.715           223.656
        80   03 Jun 2027 09:38:11.951   03 Jun 2027 09:38:13.086             1.135           372.469
        81   03 Jun 2027 09:42:23.243   03 Jun 2027 09:42:23.243             0.000             0.000
        82   03 Jun 2027 09:43:40.474   03 Jun 2027 09:43:40.474             0.000             0.000
        83   03 Jun 2027 09:44:44.428   03 Jun 2027 09:45:15.145            30.717         11924.313
        84   03 Jun 2027 11:13:46.339   03 Jun 2027 11:14:10.016            23.677          6587.562
        85   03 Jun 2027 11:18:21.222   03 Jun 2027 11:18:38.204            16.982          7850.188
        86   03 Jun 2027 11:18:59.353   03 Jun 2027 11:19:01.742             2.389           643.937
        87   04 Jun 2027 03:36:40.894   04 Jun 2027 03:36:48.182             7.288          3644.000
        88   04 Jun 2027 03:37:02.356   04 Jun 2027 03:38:03.659            61.303         30651.500
        89   04 Jun 2027 03:38:08.501   04 Jun 2027 03:41:11.078           182.577         91288.500
        90   04 Jun 2027 03:41:53.933   04 Jun 2027 03:41:53.933             0.000             0.000
        91   04 Jun 2027 05:15:27.214   04 Jun 2027 05:16:23.382            56.168         27985.281
        92   04 Jun 2027 05:16:24.792   04 Jun 2027 05:16:26.037             1.245            44.063
        93   04 Jun 2027 05:16:45.626   04 Jun 2027 05:16:47.772             2.146            69.437
        94   04 Jun 2027 05:17:43.752   04 Jun 2027 05:17:43.933             0.181            77.312
        95   04 Jun 2027 05:18:31.112   04 Jun 2027 05:18:32.869             1.757           530.344
        96   04 Jun 2027 05:18:55.150   04 Jun 2027 05:18:55.150             0.000             0.000
        97   04 Jun 2027 05:19:52.541   04 Jun 2027 05:19:58.510             5.969          2051.781
        98   04 Jun 2027 06:38:57.326   04 Jun 2027 06:39:08.545            11.219          4883.438
        99   04 Jun 2027 06:40:07.991   04 Jun 2027 06:40:11.064             3.073          1469.094
       100   04 Jun 2027 06:40:17.695   04 Jun 2027 06:40:19.175             1.480           207.219
       101   04 Jun 2027 06:41:00.765   04 Jun 2027 06:41:03.517             2.752           829.250
       102   04 Jun 2027 08:15:09.151   04 Jun 2027 08:15:22.413            13.262          5837.406
       103   04 Jun 2027 08:16:17.715   04 Jun 2027 08:16:23.611             5.896          1449.469
       104   04 Jun 2027 08:17:09.175   04 Jun 2027 08:17:09.175             0.000             0.000
       105   04 Jun 2027 08:17:39.208   04 Jun 2027 08:17:43.776             4.568          2185.937
       106   04 Jun 2027 08:18:15.460   04 Jun 2027 08:18:25.140             9.680           917.375
       107   04 Jun 2027 09:48:42.512   04 Jun 2027 09:48:51.054             8.542          3895.469
       108   04 Jun 2027 09:50:29.774   04 Jun 2027 09:50:32.398             2.624          1227.719
       109   04 Jun 2027 09:52:13.996   04 Jun 2027 09:52:19.725             5.729          2864.500
       110   04 Jun 2027 09:52:51.770   04 Jun 2027 09:52:54.211             2.441          1162.688
       111   04 Jun 2027 09:53:13.543   04 Jun 2027 09:53:15.761             2.218           562.062
       112   04 Jun 2027 09:54:31.008   04 Jun 2027 09:54:37.893             6.885          2351.469
       113   04 Jun 2027 09:55:31.937   04 Jun 2027 09:55:37.554             5.617          1681.500
       114   04 Jun 2027 09:55:39.866   04 Jun 2027 09:55:40.108             0.242            72.250
       115   04 Jun 2027 09:56:53.652   04 Jun 2027 09:56:56.585             2.933          1466.500
       116   04 Jun 2027 11:26:08.704   04 Jun 2027 11:26:30.127            21.423          7894.563
       117   04 Jun 2027 11:26:34.252   04 Jun 2027 11:26:34.709             0.457           128.906
       118   04 Jun 2027 11:27:06.482   04 Jun 2027 11:27:07.645             1.163           565.656
       119   04 Jun 2027 11:28:35.127   04 Jun 2027 11:28:42.453             7.326          2115.812
       120   04 Jun 2027 11:29:19.519   04 Jun 2027 11:29:24.465             4.946           962.531
       121   04 Jun 2027 11:29:39.189   04 Jun 2027 11:29:42.661             3.472           460.125
       122   04 Jun 2027 11:30:58.291   04 Jun 2027 11:31:00.922             2.631          1315.500
       123   04 Jun 2027 11:31:15.746   04 Jun 2027 11:31:18.173             2.427           975.281
       124   04 Jun 2027 11:31:58.099   04 Jun 2027 11:31:59.184             1.085           542.500
       125   04 Jun 2027 11:32:32.335   04 Jun 2027 11:32:37.484             5.149          1543.531
       126   04 Jun 2027 11:32:42.922   04 Jun 2027 11:32:44.971             2.049           169.937
       127   04 Jun 2027 11:32:51.010   04 Jun 2027 11:32:53.137             2.127           188.719
       128   05 Jun 2027 03:49:07.578   05 Jun 2027 03:49:33.733            26.155         13077.500
       129   05 Jun 2027 03:51:13.506   05 Jun 2027 03:52:46.033            92.527         46263.500
       130   05 Jun 2027 03:53:01.283   05 Jun 2027 03:54:29.142            87.859         43929.500
       131   05 Jun 2027 03:54:36.095   05 Jun 2027 03:54:50.841            14.746          7373.000
       132   05 Jun 2027 05:27:08.405   05 Jun 2027 05:28:07.500            59.095         29547.500
       133   05 Jun 2027 05:28:30.567   05 Jun 2027 05:29:14.472            43.905         20977.812
       134   05 Jun 2027 05:29:51.221   05 Jun 2027 05:29:54.140             2.919          1123.031
       135   05 Jun 2027 06:50:48.358   05 Jun 2027 06:51:09.399            21.041          8904.781
       136   05 Jun 2027 06:51:47.220   05 Jun 2027 06:51:49.651             2.431          1181.906
       137   05 Jun 2027 06:52:37.380   05 Jun 2027 06:52:43.583             6.203           878.969
       138   05 Jun 2027 08:27:15.963   05 Jun 2027 08:27:29.505            13.542          6563.063
       139   05 Jun 2027 08:28:04.927   05 Jun 2027 08:28:07.060             2.133           811.750
       140   05 Jun 2027 08:28:42.491   05 Jun 2027 08:28:47.361             4.870           348.156
       141   05 Jun 2027 08:30:02.818   05 Jun 2027 08:30:07.298             4.480          2153.781
       142   05 Jun 2027 09:59:26.067   05 Jun 2027 09:59:33.997             7.930          3965.000
       143   05 Jun 2027 10:01:50.832   05 Jun 2027 10:02:00.666             9.834          4072.344
       144   05 Jun 2027 10:05:35.794   05 Jun 2027 10:05:46.620            10.826          4734.406
       145   05 Jun 2027 10:08:04.962   05 Jun 2027 10:08:11.093             6.131          3065.500
       146   05 Jun 2027 10:08:13.263   05 Jun 2027 10:08:14.089             0.826            74.625
       147   05 Jun 2027 10:08:27.723   05 Jun 2027 10:08:27.723             0.000             0.000
       148   05 Jun 2027 10:08:45.073   05 Jun 2027 10:08:49.443             4.370           825.438
       149   05 Jun 2027 10:09:10.379   05 Jun 2027 10:09:12.135             1.756           654.250
       150   05 Jun 2027 11:38:19.304   05 Jun 2027 11:38:31.814            12.510          6136.000
       151   05 Jun 2027 11:38:41.292   05 Jun 2027 11:38:42.556             1.264           239.562
       152   05 Jun 2027 11:39:14.335   05 Jun 2027 11:39:17.847             3.512           827.469
       153   05 Jun 2027 11:40:21.366   05 Jun 2027 11:40:24.616             3.250          1418.156
       154   05 Jun 2027 11:41:00.488   05 Jun 2027 11:41:02.947             2.459          1121.000
       155   05 Jun 2027 11:41:07.740   05 Jun 2027 11:41:11.565             3.825            79.531
       156   05 Jun 2027 11:41:33.701   05 Jun 2027 11:41:40.475             6.774           421.000
       157   05 Jun 2027 11:42:47.152   05 Jun 2027 11:42:50.935             3.783          1421.937
       158   05 Jun 2027 11:43:07.364   05 Jun 2027 11:43:13.293             5.929           513.406
       159   05 Jun 2027 11:43:21.215   05 Jun 2027 11:43:22.113             0.898           247.562
       160   05 Jun 2027 11:44:03.549   05 Jun 2027 11:44:06.884             3.335          1294.875
       161   05 Jun 2027 11:44:10.744   05 Jun 2027 11:44:12.709             1.965            81.344
       162   05 Jun 2027 11:44:23.480   05 Jun 2027 11:44:26.671             3.191           336.594
       163   05 Jun 2027 11:44:56.454   05 Jun 2027 11:45:02.619             6.165           930.719
       164   06 Jun 2027 04:01:13.653   06 Jun 2027 04:02:16.772            63.119         31559.500
       165   06 Jun 2027 04:02:23.795   06 Jun 2027 04:02:53.570            29.775         14887.500
       166   06 Jun 2027 04:03:06.601   06 Jun 2027 04:03:59.876            53.275         26637.500
       167   06 Jun 2027 04:04:16.202   06 Jun 2027 04:05:03.280            47.078         23539.000
       168   06 Jun 2027 04:05:21.827   06 Jun 2027 04:05:44.481            22.654         11327.000
       169   06 Jun 2027 04:06:00.132   06 Jun 2027 04:06:04.029             3.897          1948.500
       170   06 Jun 2027 04:06:37.523   06 Jun 2027 04:06:49.671            12.148          6074.000
       171   06 Jun 2027 05:40:21.972   06 Jun 2027 05:41:58.376            96.404         47633.844
       172   06 Jun 2027 05:42:33.699   06 Jun 2027 05:42:33.699             0.000             0.000
       173   06 Jun 2027 07:02:55.670   06 Jun 2027 07:03:17.294            21.624          5633.250
       174   06 Jun 2027 07:03:50.020   06 Jun 2027 07:03:50.020             0.000             0.000
       175   06 Jun 2027 07:03:56.210   06 Jun 2027 07:04:02.443             6.233           941.219
       176   06 Jun 2027 07:04:47.920   06 Jun 2027 07:04:47.920             0.000             0.000
       177   06 Jun 2027 07:05:07.055   06 Jun 2027 07:05:10.814             3.759          1774.250
       178   06 Jun 2027 07:05:31.093   06 Jun 2027 07:05:32.807             1.714           633.719
       179   06 Jun 2027 08:39:42.781   06 Jun 2027 08:39:56.419            13.638          6087.281
       180   06 Jun 2027 08:42:02.316   06 Jun 2027 08:42:11.764             9.448          3126.875
       181   06 Jun 2027 10:15:01.070   06 Jun 2027 10:15:16.332            15.262          6111.906
       182   06 Jun 2027 10:16:28.994   06 Jun 2027 10:16:28.994             0.000             0.000
       183   06 Jun 2027 10:17:33.470   06 Jun 2027 10:17:43.639            10.169          3430.125
       184   06 Jun 2027 10:18:02.401   06 Jun 2027 10:18:04.315             1.914           265.625
       185   06 Jun 2027 10:19:33.959   06 Jun 2027 10:19:35.223             1.264           632.000
       186   06 Jun 2027 10:20:36.793   06 Jun 2027 10:20:47.488            10.695          4064.000
       187   06 Jun 2027 10:21:09.208   06 Jun 2027 10:21:10.564             1.356           474.312
       188   06 Jun 2027 11:50:53.758   06 Jun 2027 11:51:12.388            18.630          8408.969
       189   06 Jun 2027 11:52:23.339   06 Jun 2027 11:52:24.166             0.827           413.500
       190   06 Jun 2027 11:53:00.512   06 Jun 2027 11:53:08.666             8.154          2581.469
       191   06 Jun 2027 11:54:24.070   06 Jun 2027 11:54:28.813             4.743          2356.375
       192   06 Jun 2027 11:54:46.285   06 Jun 2027 11:54:48.596             2.311           546.000
       193   06 Jun 2027 11:55:53.228   06 Jun 2027 11:55:59.250             6.022          1930.531
       194   06 Jun 2027 11:56:08.270   06 Jun 2027 11:56:09.123             0.853           281.875
       195   07 Jun 2027 04:13:18.180   07 Jun 2027 04:13:59.622            41.442         20721.000
       196   07 Jun 2027 04:14:21.774   07 Jun 2027 04:16:41.339           139.565         69782.500
       197   07 Jun 2027 04:16:50.276   07 Jun 2027 04:17:01.570            11.294          5647.000
       198   07 Jun 2027 04:17:11.374   07 Jun 2027 04:17:11.374             0.000             0.000
       199   07 Jun 2027 04:17:35.084   07 Jun 2027 04:18:05.361            30.277         15138.500
       200   07 Jun 2027 04:18:33.841   07 Jun 2027 04:18:33.841             0.000             0.000
       201   07 Jun 2027 05:51:31.009   07 Jun 2027 05:51:45.750            14.741          7370.500
       202   07 Jun 2027 05:52:01.768   07 Jun 2027 05:52:07.445             5.677          2838.500
       203   07 Jun 2027 05:52:36.069   07 Jun 2027 05:53:38.130            62.061         31030.500
       204   07 Jun 2027 05:54:17.011   07 Jun 2027 05:54:30.154            13.143          5930.343
       205   07 Jun 2027 07:14:57.891   07 Jun 2027 07:15:16.104            18.213          7437.656
       206   07 Jun 2027 07:15:40.166   07 Jun 2027 07:15:41.729             1.563           505.094
       207   07 Jun 2027 07:16:20.731   07 Jun 2027 07:16:20.731             0.000             0.000
       208   07 Jun 2027 07:17:31.730   07 Jun 2027 07:17:39.590             7.860          3095.969
       209   07 Jun 2027 07:18:02.094   07 Jun 2027 07:18:06.040             3.946           676.312
       210   07 Jun 2027 08:51:26.249   07 Jun 2027 08:51:36.401            10.152          3518.375
       211   07 Jun 2027 08:52:53.625   07 Jun 2027 08:52:59.738             6.113          2413.250
       212   07 Jun 2027 08:53:18.399   07 Jun 2027 08:53:20.038             1.639           583.156
       213   07 Jun 2027 08:54:49.759   07 Jun 2027 08:54:52.024             2.265          1132.500
       214   07 Jun 2027 10:26:38.685   07 Jun 2027 10:26:48.819            10.134          4783.875
       215   07 Jun 2027 10:28:31.775   07 Jun 2027 10:28:40.691             8.916          3217.375
       216   07 Jun 2027 10:31:34.213   07 Jun 2027 10:31:45.790            11.577          5422.437
       217   07 Jun 2027 10:32:08.156   07 Jun 2027 10:32:09.996             1.840           698.937
       218   07 Jun 2027 10:32:35.722   07 Jun 2027 10:32:37.731             2.009           600.031
       219   07 Jun 2027 10:32:42.195   07 Jun 2027 10:32:44.026             1.831           139.500
       220   07 Jun 2027 10:33:00.385   07 Jun 2027 10:33:00.385             0.000             0.000
       221   08 Jun 2027 04:26:22.774   08 Jun 2027 04:28:41.741           138.967         69483.500
       222   08 Jun 2027 04:28:42.964   08 Jun 2027 04:29:28.590            45.626         22813.000
       223   08 Jun 2027 04:29:39.333   08 Jun 2027 04:30:08.401            29.068         14534.000
       224   08 Jun 2027 04:30:20.980   08 Jun 2027 04:30:35.254            14.274          7137.000
       225   08 Jun 2027 04:33:19.085   08 Jun 2027 04:34:09.765            50.680         25340.000
       226   08 Jun 2027 05:52:33.693   08 Jun 2027 05:52:58.175            24.482         12241.000
       227   08 Jun 2027 06:03:26.759   08 Jun 2027 06:04:10.683            43.924         21853.406
       228   08 Jun 2027 06:05:05.334   08 Jun 2027 06:05:08.505             3.171          1545.656
       229   08 Jun 2027 06:05:44.675   08 Jun 2027 06:05:48.812             4.137          1085.500
       230   08 Jun 2027 06:06:21.671   08 Jun 2027 06:06:25.597             3.926           640.625
       231   08 Jun 2027 07:27:24.802   08 Jun 2027 07:27:37.799            12.997          6469.750
       232   08 Jun 2027 07:28:20.762   08 Jun 2027 07:28:28.990             8.228          1010.062
       233   08 Jun 2027 07:29:25.814   08 Jun 2027 07:29:30.645             4.831          1271.406
       234   08 Jun 2027 09:03:09.509   08 Jun 2027 09:03:16.956             7.447          3640.750
       235   08 Jun 2027 09:05:36.816   08 Jun 2027 09:05:46.138             9.322          4042.125
       236   08 Jun 2027 10:37:53.218   08 Jun 2027 10:38:08.816            15.598          6932.375
       237   08 Jun 2027 10:38:45.636   08 Jun 2027 10:38:49.352             3.716           861.937
       238   08 Jun 2027 10:40:01.750   08 Jun 2027 10:40:05.176             3.426           819.406
       239   08 Jun 2027 10:41:11.245   08 Jun 2027 10:41:12.221             0.976           488.000
       240   08 Jun 2027 10:43:33.846   08 Jun 2027 10:43:45.647            11.801          5900.500
       241   08 Jun 2027 10:44:08.126   08 Jun 2027 10:44:12.493             4.367           804.406
       242   08 Jun 2027 10:44:24.335   08 Jun 2027 10:44:25.973             1.638           370.063
       243   08 Jun 2027 10:45:09.354   08 Jun 2027 10:45:19.737            10.383          1072.594
       244   08 Jun 2027 10:45:24.698   08 Jun 2027 10:45:25.523             0.825           155.031
       245   09 Jun 2027 03:00:49.330   09 Jun 2027 03:01:38.525            49.195         24597.500
       246   09 Jun 2027 03:02:27.958   09 Jun 2027 03:02:34.627             6.669          3334.500
       247   09 Jun 2027 03:02:48.837   09 Jun 2027 03:02:50.944             2.107          1053.500
       248   09 Jun 2027 03:03:17.415   09 Jun 2027 03:03:30.682            13.267          6633.500
       249   09 Jun 2027 03:04:06.972   09 Jun 2027 03:04:42.643            35.671         17835.500
       250   09 Jun 2027 03:04:49.646   09 Jun 2027 03:04:56.851             7.205          3602.500
       251   09 Jun 2027 03:05:24.338   09 Jun 2027 03:06:00.261            35.923         17961.500
       252   09 Jun 2027 04:38:45.039   09 Jun 2027 04:41:00.794           135.755         67877.500
       253   09 Jun 2027 04:41:09.726   09 Jun 2027 04:41:13.972             4.246          2123.000
       254   09 Jun 2027 04:41:21.435   09 Jun 2027 04:41:39.813            18.378          9189.000
       255   09 Jun 2027 04:44:33.057   09 Jun 2027 04:44:41.947             8.890          4445.000
       256   09 Jun 2027 06:03:48.479   09 Jun 2027 06:04:15.143            26.664         13188.031
       257   09 Jun 2027 06:15:28.007   09 Jun 2027 06:15:38.914            10.907          4448.719
       258   09 Jun 2027 07:38:00.392   09 Jun 2027 07:38:14.286            13.894          6364.875
       259   09 Jun 2027 07:38:27.200   09 Jun 2027 07:38:29.674             2.474           403.562
       260   09 Jun 2027 07:39:41.372   09 Jun 2027 07:39:44.799             3.427          1430.437
       261   09 Jun 2027 07:40:23.274   09 Jun 2027 07:40:25.638             2.364           811.000
       262   09 Jun 2027 07:41:18.629   09 Jun 2027 07:41:20.871             2.242          1002.031
       263   09 Jun 2027 07:41:55.558   09 Jun 2027 07:42:05.952            10.394           753.594
       264   09 Jun 2027 07:42:38.657   09 Jun 2027 07:42:44.909             6.252           731.281
       265   09 Jun 2027 09:13:03.540   09 Jun 2027 09:13:04.928             1.388           694.000
       266   09 Jun 2027 09:13:30.940   09 Jun 2027 09:13:38.872             7.932          3312.562
       267   09 Jun 2027 09:15:44.279   09 Jun 2027 09:15:50.127             5.848          2558.937
       268   09 Jun 2027 09:16:16.274   09 Jun 2027 09:16:16.772             0.498           243.594
       269   09 Jun 2027 09:17:54.709   09 Jun 2027 09:17:55.618             0.909           454.500
       270   09 Jun 2027 09:18:41.346   09 Jun 2027 09:18:49.153             7.807          3666.437
       271   09 Jun 2027 10:53:14.497   09 Jun 2027 10:53:41.196            26.699         13192.281
       272   09 Jun 2027 10:54:25.499   09 Jun 2027 10:54:27.652             2.153           774.375
       273   09 Jun 2027 10:54:33.067   09 Jun 2027 10:54:33.730             0.663           169.219
       274   09 Jun 2027 10:56:34.676   09 Jun 2027 10:56:47.433            12.757          3472.281
       275   10 Jun 2027 03:12:01.684   10 Jun 2027 03:14:34.289           152.605         76302.500
       276   10 Jun 2027 03:15:18.082   10 Jun 2027 03:15:24.508             6.426          3213.000
       277   10 Jun 2027 03:16:12.520   10 Jun 2027 03:16:30.045            17.525          8762.500
       278   10 Jun 2027 03:16:43.029   10 Jun 2027 03:16:52.129             9.100          4550.000
       279   10 Jun 2027 03:17:07.683   10 Jun 2027 03:17:25.053            17.370          8685.000
       280   10 Jun 2027 03:17:32.752   10 Jun 2027 03:17:37.258             4.506          2253.000
       281   10 Jun 2027 04:51:04.702   10 Jun 2027 04:52:33.724            89.022         44511.000
       282   10 Jun 2027 04:53:08.248   10 Jun 2027 04:53:24.951            16.703          8351.500
       283   10 Jun 2027 04:53:40.077   10 Jun 2027 04:53:45.566             5.489          2548.718
       284   10 Jun 2027 04:54:21.197   10 Jun 2027 04:54:21.197             0.000             0.000
       285   10 Jun 2027 04:54:59.982   10 Jun 2027 04:55:09.088             9.106          2178.031
       286   10 Jun 2027 04:56:41.284   10 Jun 2027 04:56:41.284             0.000             0.000
       287   10 Jun 2027 04:57:48.787   10 Jun 2027 04:58:01.772            12.985          4384.937
       288   10 Jun 2027 06:15:09.747   10 Jun 2027 06:15:22.595            12.848          5943.813
       289   10 Jun 2027 06:16:21.943   10 Jun 2027 06:16:27.556             5.613          1854.625
       290   10 Jun 2027 06:17:01.029   10 Jun 2027 06:17:01.029             0.000             0.000
       291   10 Jun 2027 06:27:25.351   10 Jun 2027 06:27:31.265             5.914          2600.906
       292   10 Jun 2027 07:49:24.640   10 Jun 2027 07:49:39.464            14.824          7362.844
       293   10 Jun 2027 07:50:04.005   10 Jun 2027 07:50:05.055             1.050           429.594
       294   10 Jun 2027 07:50:28.860   10 Jun 2027 07:50:32.735             3.875           191.750
       295   10 Jun 2027 07:51:33.180   10 Jun 2027 07:51:36.967             3.787          1697.469
       296   10 Jun 2027 07:52:28.334   10 Jun 2027 07:52:34.580             6.246           907.906
       297   10 Jun 2027 07:53:30.341   10 Jun 2027 07:53:36.857             6.516          1666.875
       298   10 Jun 2027 07:53:58.463   10 Jun 2027 07:54:00.782             2.319            53.250
       299   10 Jun 2027 09:24:28.109   10 Jun 2027 09:24:35.623             7.514          3699.875
       300   10 Jun 2027 09:25:52.971   10 Jun 2027 09:26:00.812             7.841          1492.969
       301   10 Jun 2027 09:26:53.717   10 Jun 2027 09:26:55.612             1.895           947.500
       302   10 Jun 2027 09:28:01.836   10 Jun 2027 09:28:01.836             0.000             0.000
       303   10 Jun 2027 09:29:51.499   10 Jun 2027 09:30:12.147            20.648          6035.094
       304   10 Jun 2027 09:31:55.868   10 Jun 2027 09:32:03.112             7.244          3044.406
       305   10 Jun 2027 09:32:51.094   10 Jun 2027 09:32:54.051             2.957           875.188
       306   10 Jun 2027 11:05:34.558   10 Jun 2027 11:05:55.102            20.544         10272.000
       307   10 Jun 2027 11:07:30.743   10 Jun 2027 11:07:42.292            11.549          5382.438
       308   10 Jun 2027 11:08:17.109   10 Jun 2027 11:08:19.566             2.457          1088.031
       309   10 Jun 2027 11:08:38.711   10 Jun 2027 11:08:45.487             6.776           503.500
       310   10 Jun 2027 11:09:10.109   10 Jun 2027 11:09:11.240             1.131           553.531
       311   11 Jun 2027 03:24:20.817   11 Jun 2027 03:24:33.433            12.616          6308.000
       312   11 Jun 2027 03:24:48.250   11 Jun 2027 03:28:11.475           203.225        101612.500
       313   11 Jun 2027 03:28:54.361   11 Jun 2027 03:29:19.814            25.453         12726.500
       314   11 Jun 2027 03:29:34.001   11 Jun 2027 03:29:35.669             1.668           834.000
       315   11 Jun 2027 05:03:09.199   11 Jun 2027 05:04:22.962            73.763         36844.125
       316   11 Jun 2027 05:04:57.679   11 Jun 2027 05:04:58.244             0.565           222.594
       317   11 Jun 2027 05:05:02.347   11 Jun 2027 05:05:03.304             0.957           128.219
       318   11 Jun 2027 05:06:09.456   11 Jun 2027 05:06:10.688             1.232           616.000
       319   11 Jun 2027 05:07:02.087   11 Jun 2027 05:07:05.692             3.605          1749.125
       320   11 Jun 2027 06:27:17.354   11 Jun 2027 06:27:31.018            13.664          6067.250
       321   11 Jun 2027 06:27:56.363   11 Jun 2027 06:27:58.083             1.720           458.781
       322   11 Jun 2027 06:28:23.514   11 Jun 2027 06:28:30.015             6.501           584.375
       323   11 Jun 2027 06:29:11.634   11 Jun 2027 06:29:11.847             0.213           106.500
       324   11 Jun 2027 08:01:06.830   11 Jun 2027 08:01:19.090            12.260          5990.531
       325   11 Jun 2027 08:02:07.150   11 Jun 2027 08:02:08.255             1.105           532.937
       326   11 Jun 2027 08:03:03.591   11 Jun 2027 08:03:08.235             4.644          1038.469
       327   11 Jun 2027 08:04:00.936   11 Jun 2027 08:04:06.437             5.501          1406.437
       328   11 Jun 2027 08:04:54.272   11 Jun 2027 08:04:55.439             1.167           583.500
       329   11 Jun 2027 08:06:19.765   11 Jun 2027 08:06:29.177             9.412          3455.906
       330   11 Jun 2027 09:35:59.081   11 Jun 2027 09:36:07.586             8.505          4252.500
       331   11 Jun 2027 09:36:19.468   11 Jun 2027 09:36:25.144             5.676           766.219
       332   11 Jun 2027 09:38:07.409   11 Jun 2027 09:38:07.409             0.000             0.000
       333   11 Jun 2027 09:38:18.800   11 Jun 2027 09:38:26.942             8.142          2676.781
       334   11 Jun 2027 09:39:06.293   11 Jun 2027 09:39:06.293             0.000             0.000
       335   11 Jun 2027 09:40:28.594   11 Jun 2027 09:40:40.408            11.814          3677.188
       336   11 Jun 2027 09:40:48.188   11 Jun 2027 09:40:51.581             3.393           196.531
       337   11 Jun 2027 09:43:56.705   11 Jun 2027 09:44:10.768            14.063          4111.375
       338   11 Jun 2027 09:44:35.694   11 Jun 2027 09:44:39.864             4.170           700.906
       339   11 Jun 2027 09:45:24.438   11 Jun 2027 09:45:30.151             5.713          1159.656
       340   11 Jun 2027 11:14:04.725   11 Jun 2027 11:14:32.975            28.250          5561.219
       341   11 Jun 2027 11:17:59.565   11 Jun 2027 11:17:59.565             0.000             0.000
       342   11 Jun 2027 11:18:42.929   11 Jun 2027 11:18:59.309            16.380          7811.062
       343   11 Jun 2027 11:19:30.080   11 Jun 2027 11:19:30.524             0.444           222.000
       344   11 Jun 2027 11:19:52.495   11 Jun 2027 11:19:58.674             6.179          1229.188
       345   11 Jun 2027 11:20:56.294   11 Jun 2027 11:20:58.439             2.145          1072.500
       346   12 Jun 2027 03:36:58.677   12 Jun 2027 03:37:01.876             3.199          1599.500
       347   12 Jun 2027 03:37:20.316   12 Jun 2027 03:38:20.206            59.890         29945.000
       348   12 Jun 2027 03:38:25.265   12 Jun 2027 03:41:28.504           183.239         91619.500
       349   12 Jun 2027 05:15:45.826   12 Jun 2027 05:16:50.452            64.626         31655.094
       350   12 Jun 2027 05:17:03.697   12 Jun 2027 05:17:07.987             4.290           112.719
       351   12 Jun 2027 05:18:19.846   12 Jun 2027 05:18:24.142             4.296          1936.031
       352   12 Jun 2027 05:18:45.345   12 Jun 2027 05:18:46.990             1.645           430.219
       353   12 Jun 2027 05:20:07.081   12 Jun 2027 05:20:07.081             0.000             0.000
       354   12 Jun 2027 05:20:21.405   12 Jun 2027 05:20:21.405             0.000             0.000
       355   12 Jun 2027 06:39:14.128   12 Jun 2027 06:39:26.127            11.999          4652.438
       356   12 Jun 2027 06:40:28.189   12 Jun 2027 06:40:33.462             5.273          1625.500
       357   12 Jun 2027 06:41:15.102   12 Jun 2027 06:41:16.492             1.390           695.000
       358   12 Jun 2027 06:41:27.310   12 Jun 2027 06:41:32.324             5.014           913.187
       359   12 Jun 2027 08:15:26.258   12 Jun 2027 08:15:39.255            12.997          6361.563
       360   12 Jun 2027 08:16:03.920   12 Jun 2027 08:16:03.920             0.000             0.000
       361   12 Jun 2027 08:16:07.160   12 Jun 2027 08:16:09.593             2.433           527.125
       362   12 Jun 2027 08:18:20.219   12 Jun 2027 08:18:27.237             7.018          3370.875
       363   12 Jun 2027 09:48:59.635   12 Jun 2027 09:49:10.971            11.336          3857.563
       364   12 Jun 2027 09:50:48.843   12 Jun 2027 09:50:49.375             0.532           266.000
       365   12 Jun 2027 09:51:27.000   12 Jun 2027 09:51:33.212             6.212          2179.313
       366   12 Jun 2027 09:52:32.368   12 Jun 2027 09:52:46.193            13.825          1848.625
       367   12 Jun 2027 09:56:36.643   12 Jun 2027 09:56:44.875             8.232          4116.000
       368   12 Jun 2027 09:57:33.051   12 Jun 2027 09:57:34.040             0.989           494.500
       369   12 Jun 2027 11:26:30.279   12 Jun 2027 11:26:41.117            10.838          4812.281
       370   12 Jun 2027 11:27:44.327   12 Jun 2027 11:27:49.703             5.376          1975.312
       371   12 Jun 2027 11:30:41.287   12 Jun 2027 11:30:51.539            10.252          4574.094
       372   12 Jun 2027 11:31:04.641   12 Jun 2027 11:31:06.020             1.379           331.156
       373   12 Jun 2027 11:31:40.650   12 Jun 2027 11:31:43.790             3.140          1055.781
       374   12 Jun 2027 11:32:24.936   12 Jun 2027 11:32:26.326             1.390           695.000
       375   12 Jun 2027 11:32:53.354   12 Jun 2027 11:32:55.396             2.042          1021.000
       376   13 Jun 2027 03:49:23.358   13 Jun 2027 03:49:51.348            27.990         13995.000
       377   13 Jun 2027 03:49:55.353   13 Jun 2027 03:51:51.502           116.149         58074.500
       378   13 Jun 2027 03:51:59.747   13 Jun 2027 03:52:37.202            37.455         18727.500
       379   13 Jun 2027 03:53:03.076   13 Jun 2027 03:53:23.898            20.822         10411.000
       380   13 Jun 2027 03:53:47.442   13 Jun 2027 03:54:03.919            16.477          8238.500
       381   13 Jun 2027 03:54:07.675   13 Jun 2027 03:54:41.032            33.357         16678.500
       382   13 Jun 2027 05:27:25.653   13 Jun 2027 05:28:26.046            60.393         30196.500
       383   13 Jun 2027 05:28:42.733   13 Jun 2027 05:28:50.044             7.311          3655.500
       384   13 Jun 2027 05:28:59.508   13 Jun 2027 05:29:01.834             2.326          1163.000
       385   13 Jun 2027 05:29:05.328   13 Jun 2027 05:29:05.328             0.000             0.000
       386   13 Jun 2027 05:29:47.621   13 Jun 2027 05:29:54.803             7.182          2217.406
       387   13 Jun 2027 05:30:12.535   13 Jun 2027 05:30:12.535             0.000             0.000
       388   13 Jun 2027 06:51:04.914   13 Jun 2027 06:51:25.352            20.438          6829.625
       389   13 Jun 2027 06:53:09.459   13 Jun 2027 06:53:15.809             6.350          3152.563
       390   13 Jun 2027 06:53:37.930   13 Jun 2027 06:53:40.229             2.299           691.281
       391   13 Jun 2027 08:27:31.774   13 Jun 2027 08:27:47.683            15.909          7192.094
       392   13 Jun 2027 08:29:12.821   13 Jun 2027 08:29:21.438             8.617          2523.750
       393   13 Jun 2027 08:30:06.061   13 Jun 2027 08:30:06.061             0.000             0.000
       394   13 Jun 2027 08:30:35.664   13 Jun 2027 08:30:41.829             6.165          2319.562
       395   13 Jun 2027 09:59:40.098   13 Jun 2027 09:59:50.993            10.895          3477.906
       396   13 Jun 2027 10:02:08.510   13 Jun 2027 10:02:23.805            15.295          4077.937
       397   13 Jun 2027 10:06:40.027   13 Jun 2027 10:06:53.700            13.673          6134.719
       398   13 Jun 2027 10:07:30.531   13 Jun 2027 10:07:33.158             2.627          1108.469
       399   13 Jun 2027 10:07:50.088   13 Jun 2027 10:07:50.724             0.636           186.438
       400   13 Jun 2027 10:08:24.363   13 Jun 2027 10:08:26.680             2.317          1037.344
       401   13 Jun 2027 10:08:39.634   13 Jun 2027 10:08:41.383             1.749           361.125
       402   13 Jun 2027 10:08:56.953   13 Jun 2027 10:08:58.246             1.293           461.438
       403   13 Jun 2027 10:09:28.912   13 Jun 2027 10:09:31.313             2.401           951.406
       404   13 Jun 2027 11:38:37.750   13 Jun 2027 11:38:52.918            15.168          6027.719
       405   13 Jun 2027 11:39:05.744   13 Jun 2027 11:39:08.925             3.181           400.813
       406   13 Jun 2027 11:39:15.510   13 Jun 2027 11:39:18.612             3.102           105.625
       407   13 Jun 2027 11:39:53.200   13 Jun 2027 11:39:58.213             5.013           691.406
       408   13 Jun 2027 11:40:40.011   13 Jun 2027 11:40:41.261             1.250           602.906
       409   13 Jun 2027 11:41:35.940   13 Jun 2027 11:41:45.608             9.668          1614.906
       410   13 Jun 2027 11:42:19.084   13 Jun 2027 11:42:25.587             6.503           980.062
       411   13 Jun 2027 11:42:40.891   13 Jun 2027 11:42:42.021             1.130            81.656
       412   13 Jun 2027 11:43:05.672   13 Jun 2027 11:43:07.486             1.814           739.094
       413   13 Jun 2027 11:43:20.456   13 Jun 2027 11:43:22.538             2.082           332.344
       414   13 Jun 2027 11:43:48.290   13 Jun 2027 11:43:50.086             1.796           804.750
       415   13 Jun 2027 11:44:18.489   13 Jun 2027 11:44:21.340             2.851           760.563
       416   13 Jun 2027 11:45:08.173   13 Jun 2027 11:45:13.411             5.238          1414.500
