uniorb/output/strategy_2/Camera/Camera_KinoSat_111801.txt

KinoSat_111801
-------------------------
    Access    *     Start Time (UTCG)     *     Stop Time (UTCG)  *   Duration (s) *   Data (Mbytes)
         1   01 Jun 2027 03:44:00.441   01 Jun 2027 03:44:08.222             7.781          3890.500
         2   01 Jun 2027 03:44:14.172   01 Jun 2027 03:44:27.026            12.854          6427.000
         3   01 Jun 2027 03:44:32.009   01 Jun 2027 03:45:06.600            34.591         17295.500
         4   01 Jun 2027 03:45:10.324   01 Jun 2027 03:46:47.696            97.372         48686.000
         5   01 Jun 2027 03:46:54.789   01 Jun 2027 03:47:10.008            15.219          7609.500
         6   01 Jun 2027 03:47:58.765   01 Jun 2027 03:49:34.466            95.701         47850.500
         7   01 Jun 2027 05:22:46.934   01 Jun 2027 05:23:51.861            64.927         32463.500
         8   01 Jun 2027 05:24:12.822   01 Jun 2027 05:24:47.053            34.231         17115.500
         9   01 Jun 2027 05:25:45.605   01 Jun 2027 05:26:30.453            44.848         22424.000
        10   01 Jun 2027 05:26:50.903   01 Jun 2027 05:26:52.894             1.991           995.500
        11   01 Jun 2027 05:26:54.106   01 Jun 2027 05:27:03.647             9.541          4770.500
        12   01 Jun 2027 05:27:35.054   01 Jun 2027 05:28:01.717            26.663         13331.500
        13   01 Jun 2027 05:28:03.373   01 Jun 2027 05:28:03.373             0.000             0.000
        14   01 Jun 2027 05:28:38.190   01 Jun 2027 05:28:38.190             0.000             0.000
        15   01 Jun 2027 05:29:25.874   01 Jun 2027 05:29:47.945            22.071         11035.500
        16   01 Jun 2027 06:47:07.707   01 Jun 2027 06:47:27.745            20.038         10019.000
        17   01 Jun 2027 06:59:24.339   01 Jun 2027 06:59:52.013            27.674         13837.000
        18   01 Jun 2027 08:21:14.755   01 Jun 2027 08:22:28.587            73.832         36916.000
        19   01 Jun 2027 08:23:18.200   01 Jun 2027 08:24:42.955            84.755         42377.500
        20   01 Jun 2027 09:56:02.834   01 Jun 2027 09:56:53.419            50.585         25292.500
        21   01 Jun 2027 09:57:49.004   01 Jun 2027 09:58:06.094            17.090          8545.000
        22   01 Jun 2027 10:04:59.165   01 Jun 2027 10:04:59.282             0.117            58.500
        23   01 Jun 2027 11:33:53.857   01 Jun 2027 11:36:08.816           134.959         67479.500
        24   01 Jun 2027 11:39:52.182   01 Jun 2027 11:41:19.853            87.671         43835.500
        25   02 Jun 2027 03:56:43.208   02 Jun 2027 03:56:59.329            16.121          8060.500
        26   02 Jun 2027 03:57:07.405   02 Jun 2027 03:58:02.146            54.741         27370.500
        27   02 Jun 2027 03:58:07.986   02 Jun 2027 03:58:19.877            11.891          5945.500
        28   02 Jun 2027 03:58:47.567   02 Jun 2027 04:00:33.692           106.125         53062.500
        29   02 Jun 2027 04:00:58.095   02 Jun 2027 04:01:18.719            20.624         10312.000
        30   02 Jun 2027 04:01:35.043   02 Jun 2027 04:01:57.323            22.280         11140.000
        31   02 Jun 2027 05:35:11.369   02 Jun 2027 05:36:03.343            51.974         25987.000
        32   02 Jun 2027 05:36:37.124   02 Jun 2027 05:37:03.722            26.598         13299.000
        33   02 Jun 2027 05:38:53.865   02 Jun 2027 05:39:50.512            56.647         28323.500
        34   02 Jun 2027 05:39:56.326   02 Jun 2027 05:40:13.819            17.493          8746.500
        35   02 Jun 2027 06:59:05.891   02 Jun 2027 07:00:48.458           102.567         51283.500
        36   02 Jun 2027 08:35:03.138   02 Jun 2027 08:36:35.888            92.750         46375.000
        37   02 Jun 2027 10:08:51.731   02 Jun 2027 10:09:15.744            24.013         12001.064
        38   02 Jun 2027 10:10:27.173   02 Jun 2027 10:10:27.173             0.000             0.000
        39   02 Jun 2027 10:11:11.782   02 Jun 2027 10:11:20.381             8.599          2550.313
        40   02 Jun 2027 10:13:41.757   02 Jun 2027 10:13:41.757             0.000             0.000
        41   02 Jun 2027 10:14:53.003   02 Jun 2027 10:15:08.935            15.932          6392.250
        42   02 Jun 2027 10:15:59.240   02 Jun 2027 10:16:03.487             4.247          1512.844
        43   02 Jun 2027 10:16:12.489   02 Jun 2027 10:16:13.470             0.981           281.312
        44   02 Jun 2027 10:16:28.268   02 Jun 2027 10:16:31.584             3.316           327.406
        45   02 Jun 2027 10:16:40.964   02 Jun 2027 10:16:42.658             1.694           141.438
        46   02 Jun 2027 10:16:56.110   02 Jun 2027 10:16:58.094             1.984           347.375
        47   02 Jun 2027 11:46:01.317   02 Jun 2027 11:46:14.016            12.699          6174.000
        48   02 Jun 2027 11:46:35.172   02 Jun 2027 11:46:35.491             0.319           135.031
        49   02 Jun 2027 11:47:30.566   02 Jun 2027 11:47:35.130             4.564          1698.250
        50   02 Jun 2027 11:48:20.540   02 Jun 2027 11:48:22.776             2.236           127.313
        51   02 Jun 2027 11:51:11.781   02 Jun 2027 11:51:21.919            10.138          5069.000
        52   02 Jun 2027 11:52:16.545   02 Jun 2027 11:52:20.474             3.929          1822.500
        53   03 Jun 2027 04:09:27.656   03 Jun 2027 04:09:34.064             6.408          3204.000
        54   03 Jun 2027 04:10:08.935   03 Jun 2027 04:10:55.701            46.766         23383.000
        55   03 Jun 2027 04:10:57.231   03 Jun 2027 04:12:09.864            72.633         36316.500
        56   03 Jun 2027 04:12:44.014   03 Jun 2027 04:13:50.698            66.684         33342.000
        57   03 Jun 2027 04:14:00.314   03 Jun 2027 04:14:00.314             0.000             0.000
        58   03 Jun 2027 04:14:38.041   03 Jun 2027 04:14:54.668            16.627          8313.500
        59   03 Jun 2027 05:47:35.368   03 Jun 2027 05:49:19.282           103.914         51957.000
        60   03 Jun 2027 05:49:51.989   03 Jun 2027 05:50:08.865            16.876          8291.687
        61   03 Jun 2027 05:51:34.346   03 Jun 2027 05:51:37.603             3.257          1628.500
        62   03 Jun 2027 07:10:58.830   03 Jun 2027 07:11:19.155            20.325          8260.250
        63   03 Jun 2027 07:12:18.321   03 Jun 2027 07:12:23.076             4.755          1725.531
        64   03 Jun 2027 07:12:40.716   03 Jun 2027 07:12:40.716             0.000             0.000
        65   03 Jun 2027 07:13:02.567   03 Jun 2027 07:13:06.053             3.486          1067.281
        66   03 Jun 2027 08:47:21.165   03 Jun 2027 08:47:42.031            20.866         10202.594
        67   03 Jun 2027 08:50:07.094   03 Jun 2027 08:50:17.032             9.938          4533.219
        68   03 Jun 2027 10:21:13.544   03 Jun 2027 10:21:24.848            11.304          4911.969
        69   03 Jun 2027 10:24:01.414   03 Jun 2027 10:24:12.256            10.842          4079.250
        70   03 Jun 2027 10:28:10.104   03 Jun 2027 10:28:21.405            11.301          5650.500
        71   03 Jun 2027 10:28:22.125   03 Jun 2027 10:28:25.870             3.745          1693.719
        72   03 Jun 2027 10:29:21.478   03 Jun 2027 10:29:23.575             2.097          1048.500
        73   03 Jun 2027 11:58:28.083   03 Jun 2027 11:58:41.073            12.990          6443.062
        74   03 Jun 2027 11:59:22.254   03 Jun 2027 11:59:25.159             2.905          1125.625
        75   04 Jun 2027 04:21:35.271   04 Jun 2027 04:22:13.141            37.870         18935.000
        76   04 Jun 2027 04:23:03.654   04 Jun 2027 04:25:52.702           169.048         84524.000
        77   04 Jun 2027 04:25:59.146   04 Jun 2027 04:26:07.885             8.739          4369.500
        78   04 Jun 2027 04:26:39.799   04 Jun 2027 04:27:00.558            20.759         10379.500
        79   04 Jun 2027 05:59:54.498   04 Jun 2027 06:01:21.063            86.565         43282.500
        80   04 Jun 2027 06:02:18.898   04 Jun 2027 06:02:23.317             4.419          2209.500
        81   04 Jun 2027 06:03:11.126   04 Jun 2027 06:03:18.324             7.198          3424.937
        82   04 Jun 2027 06:03:47.585   04 Jun 2027 06:03:47.585             0.000             0.000
        83   04 Jun 2027 06:03:50.704   04 Jun 2027 06:03:52.920             2.216           810.844
        84   04 Jun 2027 07:22:47.823   04 Jun 2027 07:23:08.775            20.952          6139.406
        85   04 Jun 2027 07:24:19.501   04 Jun 2027 07:24:25.936             6.435          2036.813
        86   04 Jun 2027 07:24:50.576   04 Jun 2027 07:24:51.596             1.020           479.469
        87   04 Jun 2027 08:59:54.497   04 Jun 2027 08:59:54.497             0.000             0.000
        88   04 Jun 2027 09:00:17.066   04 Jun 2027 09:00:31.146            14.080          7040.000
        89   04 Jun 2027 09:01:03.358   04 Jun 2027 09:01:05.902             2.544          1023.313
        90   04 Jun 2027 09:01:53.619   04 Jun 2027 09:01:53.619             0.000             0.000
        91   04 Jun 2027 09:02:28.131   04 Jun 2027 09:02:33.420             5.289          2569.656
        92   04 Jun 2027 10:34:31.523   04 Jun 2027 10:34:49.233            17.710          7469.656
        93   04 Jun 2027 10:38:24.051   04 Jun 2027 10:38:36.149            12.098          5919.969
        94   04 Jun 2027 10:39:26.957   04 Jun 2027 10:39:27.346             0.389            17.875
        95   04 Jun 2027 10:40:29.568   04 Jun 2027 10:40:33.915             4.347          1812.281
        96   04 Jun 2027 10:41:02.236   04 Jun 2027 10:41:09.728             7.492           850.250
        97   05 Jun 2027 03:00:00.000   05 Jun 2027 03:00:45.896            45.896         22948.000
        98   05 Jun 2027 03:01:05.817   05 Jun 2027 03:01:16.242            10.425          5212.500
        99   05 Jun 2027 03:02:00.010   05 Jun 2027 03:02:20.884            20.874         10437.000
       100   05 Jun 2027 04:33:21.870   05 Jun 2027 04:33:49.235            27.365         13682.500
       101   05 Jun 2027 04:33:49.777   05 Jun 2027 04:34:18.028            28.251         14125.500
       102   05 Jun 2027 04:35:17.534   05 Jun 2027 04:37:00.230           102.696         51348.000
       103   05 Jun 2027 04:37:18.091   05 Jun 2027 04:37:43.939            25.848         12924.000
       104   05 Jun 2027 04:38:19.123   05 Jun 2027 04:38:38.238            19.115          9557.500
       105   05 Jun 2027 06:11:38.987   05 Jun 2027 06:12:01.190            22.203         11101.500
       106   05 Jun 2027 06:12:35.103   05 Jun 2027 06:12:55.693            20.590          9786.906
       107   05 Jun 2027 06:13:50.759   05 Jun 2027 06:13:59.067             8.308          1638.844
       108   05 Jun 2027 06:14:30.373   05 Jun 2027 06:14:31.514             1.141           570.500
       109   05 Jun 2027 06:14:59.550   05 Jun 2027 06:15:01.158             1.608           804.000
       110   05 Jun 2027 07:35:01.709   05 Jun 2027 07:35:13.522            11.813          5730.656
       111   05 Jun 2027 07:35:52.314   05 Jun 2027 07:35:54.922             2.608           677.312
       112   05 Jun 2027 07:36:32.065   05 Jun 2027 07:36:34.128             2.063           966.656
       113   05 Jun 2027 07:37:41.726   05 Jun 2027 07:37:45.986             4.260          2112.438
       114   05 Jun 2027 07:38:00.295   05 Jun 2027 07:38:01.483             1.188           266.594
       115   05 Jun 2027 09:11:35.513   05 Jun 2027 09:11:48.963            13.450          3880.000
       116   05 Jun 2027 09:14:06.170   05 Jun 2027 09:14:06.170             0.000             0.000
       117   05 Jun 2027 10:46:45.259   05 Jun 2027 10:47:03.807            18.548          9046.438
       118   05 Jun 2027 10:49:36.258   05 Jun 2027 10:49:47.057            10.799          4764.094
       119   05 Jun 2027 10:53:03.403   05 Jun 2027 10:53:20.090            16.687          5751.437
       120   06 Jun 2027 03:07:10.691   06 Jun 2027 03:09:18.661           127.970         63985.000
       121   06 Jun 2027 03:10:02.429   06 Jun 2027 03:10:08.115             5.686          2843.000
       122   06 Jun 2027 03:10:20.329   06 Jun 2027 03:10:28.760             8.431          4215.500
       123   06 Jun 2027 03:11:58.200   06 Jun 2027 03:12:04.418             6.218          3109.000
       124   06 Jun 2027 03:12:50.107   06 Jun 2027 03:13:06.241            16.134          8067.000
       125   06 Jun 2027 03:13:59.312   06 Jun 2027 03:14:03.293             3.981          1990.500
       126   06 Jun 2027 04:46:28.462   06 Jun 2027 04:48:36.612           128.150         64075.000
       127   06 Jun 2027 04:49:02.301   06 Jun 2027 04:49:03.796             1.495           747.500
       128   06 Jun 2027 04:50:14.823   06 Jun 2027 04:50:30.002            15.179          6800.500
       129   06 Jun 2027 04:52:52.103   06 Jun 2027 04:53:00.989             8.886          3635.469
       130   06 Jun 2027 04:53:13.592   06 Jun 2027 04:53:17.514             3.922           136.813
       131   06 Jun 2027 06:23:35.727   06 Jun 2027 06:23:51.908            16.181          6335.094
       132   06 Jun 2027 06:23:55.086   06 Jun 2027 06:23:55.286             0.200            89.406
       133   06 Jun 2027 06:24:05.929   06 Jun 2027 06:24:07.606             1.677           332.594
       134   06 Jun 2027 06:24:48.841   06 Jun 2027 06:24:53.328             4.487           814.656
       135   06 Jun 2027 06:25:44.136   06 Jun 2027 06:25:47.629             3.493          1382.844
       136   06 Jun 2027 06:26:18.520   06 Jun 2027 06:26:21.884             3.364           816.688
       137   06 Jun 2027 06:26:59.715   06 Jun 2027 06:27:02.467             2.752          1167.312
       138   06 Jun 2027 07:47:31.688   06 Jun 2027 07:47:53.800            22.112          5407.500
       139   06 Jun 2027 07:48:31.274   06 Jun 2027 07:48:40.062             8.788           651.438
       140   06 Jun 2027 07:50:13.560   06 Jun 2027 07:50:15.789             2.229          1097.938
       141   06 Jun 2027 09:25:11.636   06 Jun 2027 09:25:31.338            19.702          9602.875
       142   06 Jun 2027 09:25:43.722   06 Jun 2027 09:25:53.677             9.955           267.000
       143   06 Jun 2027 09:26:44.544   06 Jun 2027 09:26:48.022             3.478          1477.813
       144   06 Jun 2027 10:58:19.047   06 Jun 2027 10:58:38.795            19.748          8563.688
       145   06 Jun 2027 11:00:27.904   06 Jun 2027 11:00:27.904             0.000             0.000
       146   06 Jun 2027 11:01:15.100   06 Jun 2027 11:01:17.686             2.586          1293.000
       147   06 Jun 2027 11:05:01.194   06 Jun 2027 11:05:22.521            21.327         10259.281
       148   06 Jun 2027 11:05:24.330   06 Jun 2027 11:05:24.524             0.194            56.531
       149   07 Jun 2027 03:19:52.075   07 Jun 2027 03:20:31.325            39.250         19625.000
       150   07 Jun 2027 03:20:52.297   07 Jun 2027 03:23:22.243           149.946         74973.000
       151   07 Jun 2027 03:23:49.496   07 Jun 2027 03:24:07.471            17.975          8987.500
       152   07 Jun 2027 03:24:31.553   07 Jun 2027 03:24:31.553             0.000             0.000
       153   07 Jun 2027 03:24:50.295   07 Jun 2027 03:24:52.213             1.918           959.000
       154   07 Jun 2027 03:24:56.889   07 Jun 2027 03:25:07.097            10.208          5104.000
       155   07 Jun 2027 03:25:53.564   07 Jun 2027 03:26:03.323             9.759          4879.500
       156   07 Jun 2027 04:58:32.902   07 Jun 2027 04:59:39.427            66.525         33262.500
       157   07 Jun 2027 04:59:52.298   07 Jun 2027 05:00:07.319            15.021          7381.937
       158   07 Jun 2027 05:00:08.089   07 Jun 2027 05:00:09.481             1.392             5.688
       159   07 Jun 2027 05:00:32.690   07 Jun 2027 05:00:39.551             6.861           261.125
       160   07 Jun 2027 05:01:14.530   07 Jun 2027 05:01:15.368             0.838           337.469
       161   07 Jun 2027 05:02:07.125   07 Jun 2027 05:02:12.127             5.002           844.406
       162   07 Jun 2027 05:03:41.886   07 Jun 2027 05:03:44.402             2.516          1258.000
       163   07 Jun 2027 05:04:17.197   07 Jun 2027 05:04:23.226             6.029          2305.656
       164   07 Jun 2027 05:04:43.267   07 Jun 2027 05:04:47.631             4.364           528.813
       165   07 Jun 2027 05:05:04.856   07 Jun 2027 05:05:06.867             2.011           531.156
       166   07 Jun 2027 06:24:17.234   07 Jun 2027 06:24:27.782            10.548          4926.188
       167   07 Jun 2027 06:25:12.370   07 Jun 2027 06:25:12.370             0.000             0.000
       168   07 Jun 2027 06:35:32.929   07 Jun 2027 06:35:40.477             7.548          3774.000
       169   07 Jun 2027 06:36:27.762   07 Jun 2027 06:36:31.852             4.090          2021.687
       170   07 Jun 2027 07:58:08.798   07 Jun 2027 07:58:23.828            15.030          5819.344
       171   07 Jun 2027 07:59:17.555   07 Jun 2027 07:59:23.626             6.071          1598.375
       172   07 Jun 2027 08:00:06.080   07 Jun 2027 08:00:09.854             3.774          1304.469
       173   07 Jun 2027 08:01:32.138   07 Jun 2027 08:01:36.786             4.648          2218.844
       174   07 Jun 2027 08:01:58.164   07 Jun 2027 08:02:00.580             2.416           505.844
       175   07 Jun 2027 09:33:42.728   07 Jun 2027 09:33:47.458             4.730          2365.000
       176   07 Jun 2027 09:34:27.529   07 Jun 2027 09:34:30.878             3.349          1674.500
       177   07 Jun 2027 09:35:54.686   07 Jun 2027 09:36:00.888             6.202          2667.063
       178   07 Jun 2027 09:36:39.756   07 Jun 2027 09:36:44.053             4.297          1192.625
       179   07 Jun 2027 09:37:58.522   07 Jun 2027 09:38:02.179             3.657          1828.500
       180   07 Jun 2027 11:09:57.882   07 Jun 2027 11:10:12.219            14.337          7161.937
       181   07 Jun 2027 11:13:26.577   07 Jun 2027 11:13:26.577             0.000             0.000
       182   07 Jun 2027 11:16:49.034   07 Jun 2027 11:17:14.677            25.643         11919.250
       183   08 Jun 2027 03:31:58.192   08 Jun 2027 03:34:08.204           130.012         65006.000
       184   08 Jun 2027 03:35:02.186   08 Jun 2027 03:36:14.991            72.805         36402.500
       185   08 Jun 2027 03:37:08.297   08 Jun 2027 03:37:50.352            42.055         21027.500
       186   08 Jun 2027 03:37:50.518   08 Jun 2027 03:37:53.163             2.645          1322.500
       187   08 Jun 2027 05:11:03.072   08 Jun 2027 05:12:16.613            73.541         33827.312
       188   08 Jun 2027 05:12:30.046   08 Jun 2027 05:12:30.931             0.885           419.156
       189   08 Jun 2027 05:12:41.951   08 Jun 2027 05:12:42.919             0.968            97.000
       190   08 Jun 2027 05:13:16.691   08 Jun 2027 05:13:19.517             2.826           930.344
       191   08 Jun 2027 05:13:29.986   08 Jun 2027 05:13:33.557             3.571           198.500
       192   08 Jun 2027 05:13:34.986   08 Jun 2027 05:13:35.684             0.698            44.656
       193   08 Jun 2027 05:13:49.562   08 Jun 2027 05:13:53.216             3.654           133.031
       194   08 Jun 2027 05:14:14.032   08 Jun 2027 05:14:17.971             3.939           650.500
       195   08 Jun 2027 05:14:42.602   08 Jun 2027 05:14:42.602             0.000             0.000
       196   08 Jun 2027 05:14:45.516   08 Jun 2027 05:14:49.895             4.379           742.000
       197   08 Jun 2027 05:15:08.973   08 Jun 2027 05:15:10.098             1.125           155.250
       198   08 Jun 2027 05:16:14.546   08 Jun 2027 05:16:17.823             3.277          1562.812
       199   08 Jun 2027 05:16:30.697   08 Jun 2027 05:16:32.372             1.675           283.562
       200   08 Jun 2027 05:16:51.748   08 Jun 2027 05:16:53.421             1.673           605.500
       201   08 Jun 2027 05:17:08.250   08 Jun 2027 05:17:09.935             1.685           463.406
       202   08 Jun 2027 06:35:52.803   08 Jun 2027 06:36:03.328            10.525          4902.937
       203   08 Jun 2027 06:36:13.087   08 Jun 2027 06:36:13.771             0.684           299.219
       204   08 Jun 2027 06:36:30.978   08 Jun 2027 06:36:30.978             0.000             0.000
       205   08 Jun 2027 06:47:32.934   08 Jun 2027 06:47:40.857             7.923          3110.219
       206   08 Jun 2027 08:09:51.840   08 Jun 2027 08:10:08.137            16.297          6554.000
       207   08 Jun 2027 08:10:28.185   08 Jun 2027 08:10:29.255             1.070           237.344
       208   08 Jun 2027 08:12:20.783   08 Jun 2027 08:12:26.345             5.562          2762.000
       209   08 Jun 2027 08:13:41.193   08 Jun 2027 08:13:50.797             9.604          2001.937
       210   08 Jun 2027 08:14:43.325   08 Jun 2027 08:14:49.673             6.348          1316.656
       211   08 Jun 2027 09:44:50.112   08 Jun 2027 09:45:00.538            10.426          4927.750
       212   08 Jun 2027 09:45:40.976   08 Jun 2027 09:45:43.261             2.285           656.500
       213   08 Jun 2027 09:46:05.504   08 Jun 2027 09:46:05.504             0.000             0.000
       214   08 Jun 2027 09:46:53.777   08 Jun 2027 09:46:57.470             3.693          1840.969
       215   08 Jun 2027 09:51:23.233   08 Jun 2027 09:51:41.237            18.004          7785.500
       216   08 Jun 2027 09:51:47.361   08 Jun 2027 09:51:49.762             2.401           143.875
       217   08 Jun 2027 09:52:52.920   08 Jun 2027 09:52:54.505             1.585           600.438
       218   08 Jun 2027 09:53:04.095   08 Jun 2027 09:53:06.695             2.600           141.625
       219   08 Jun 2027 11:23:40.787   08 Jun 2027 11:24:05.174            24.387          7686.750
       220   08 Jun 2027 11:28:32.073   08 Jun 2027 11:28:47.819            15.746          7424.531
       221   08 Jun 2027 11:29:03.939   08 Jun 2027 11:29:05.743             1.804           503.750
       222   08 Jun 2027 11:29:10.178   08 Jun 2027 11:29:11.635             1.457           138.594
       223   09 Jun 2027 03:44:18.474   09 Jun 2027 03:45:23.805            65.331         32665.500
       224   09 Jun 2027 03:45:27.876   09 Jun 2027 03:46:21.772            53.896         26948.000
       225   09 Jun 2027 03:46:23.713   09 Jun 2027 03:46:56.804            33.091         16545.500
       226   09 Jun 2027 03:48:10.630   09 Jun 2027 03:49:38.386            87.756         43878.000
       227   09 Jun 2027 05:23:05.563   09 Jun 2027 05:24:07.986            62.423         31211.500
       228   09 Jun 2027 05:24:28.363   09 Jun 2027 05:24:34.711             6.348          3174.000
       229   09 Jun 2027 05:25:08.885   09 Jun 2027 05:25:16.272             7.387          3557.031
       230   09 Jun 2027 05:27:18.414   09 Jun 2027 05:27:26.523             8.109          3563.219
       231   09 Jun 2027 05:27:44.128   09 Jun 2027 05:27:44.128             0.000             0.000
       232   09 Jun 2027 05:28:16.337   09 Jun 2027 05:28:17.997             1.660           830.000
       233   09 Jun 2027 05:28:53.498   09 Jun 2027 05:28:56.284             2.786          1393.000
       234   09 Jun 2027 05:29:40.371   09 Jun 2027 05:29:48.354             7.983          1820.813
       235   09 Jun 2027 05:30:03.341   09 Jun 2027 05:30:03.833             0.492           199.500
       236   09 Jun 2027 06:47:25.763   09 Jun 2027 06:47:41.767            16.004          7373.437
       237   09 Jun 2027 06:49:00.088   09 Jun 2027 06:49:05.740             5.652          2353.688
       238   09 Jun 2027 06:59:41.632   09 Jun 2027 06:59:55.346            13.714          3518.500
       239   09 Jun 2027 08:21:28.827   09 Jun 2027 08:21:50.747            21.920          8054.219
       240   09 Jun 2027 08:22:29.833   09 Jun 2027 08:22:35.125             5.292          1120.750
       241   09 Jun 2027 08:24:38.587   09 Jun 2027 08:24:43.954             5.367          2683.500
       242   09 Jun 2027 08:25:39.651   09 Jun 2027 08:25:43.996             4.345          2145.469
       243   09 Jun 2027 08:26:23.782   09 Jun 2027 08:26:23.782             0.000             0.000
       244   09 Jun 2027 09:56:18.010   09 Jun 2027 09:56:31.052            13.042          6359.969
       245   09 Jun 2027 09:58:24.856   09 Jun 2027 09:58:27.873             3.017          1508.500
       246   09 Jun 2027 10:02:56.652   09 Jun 2027 10:03:14.003            17.351          8675.500
       247   09 Jun 2027 10:04:41.644   09 Jun 2027 10:04:49.015             7.371          2920.469
       248   09 Jun 2027 10:05:04.757   09 Jun 2027 10:05:05.788             1.031           282.969
       249   09 Jun 2027 11:40:07.057   09 Jun 2027 11:40:43.600            36.543         16143.500
       250   09 Jun 2027 11:40:59.245   09 Jun 2027 11:41:02.349             3.104           311.844
       251   09 Jun 2027 11:41:05.119   09 Jun 2027 11:41:05.818             0.699            86.563
       252   09 Jun 2027 11:41:28.083   09 Jun 2027 11:41:32.108             4.025           695.781
       253   10 Jun 2027 03:57:01.376   10 Jun 2027 03:57:15.268            13.892          6946.000
       254   10 Jun 2027 03:57:24.855   10 Jun 2027 03:58:33.655            68.800         34400.000
       255   10 Jun 2027 03:59:11.808   10 Jun 2027 04:01:37.577           145.769         72884.500
       256   10 Jun 2027 05:35:31.504   10 Jun 2027 05:36:42.389            70.885         35442.500
       257   10 Jun 2027 05:37:09.036   10 Jun 2027 05:37:33.023            23.987         10246.625
       258   10 Jun 2027 05:38:19.693   10 Jun 2027 05:38:21.897             2.204          1079.125
       259   10 Jun 2027 05:39:53.744   10 Jun 2027 05:40:01.125             7.381          2666.563
       260   10 Jun 2027 05:40:10.958   10 Jun 2027 05:40:10.958             0.000             0.000
       261   10 Jun 2027 06:59:22.481   10 Jun 2027 06:59:44.782            22.301          7920.750
       262   10 Jun 2027 07:00:34.193   10 Jun 2027 07:00:43.974             9.781          1540.406
       263   10 Jun 2027 07:01:15.210   10 Jun 2027 07:01:18.500             3.290           327.344
       264   10 Jun 2027 08:35:22.229   10 Jun 2027 08:35:30.287             8.058          4029.000
       265   10 Jun 2027 08:35:59.015   10 Jun 2027 08:36:08.325             9.310          3310.875
       266   10 Jun 2027 08:38:06.767   10 Jun 2027 08:38:14.902             8.135          3601.187
       267   10 Jun 2027 10:09:10.471   10 Jun 2027 10:09:18.831             8.360          3751.344
       268   10 Jun 2027 10:11:45.209   10 Jun 2027 10:11:45.209             0.000             0.000
       269   10 Jun 2027 10:13:59.381   10 Jun 2027 10:14:16.221            16.840          7225.594
       270   10 Jun 2027 10:16:56.330   10 Jun 2027 10:17:07.323            10.993          4522.750
       271   10 Jun 2027 10:17:23.329   10 Jun 2027 10:17:27.749             4.420           360.312
       272   10 Jun 2027 11:46:19.254   10 Jun 2027 11:46:34.670            15.416          5621.687
       273   10 Jun 2027 11:46:49.300   10 Jun 2027 11:46:49.428             0.128            64.000
       274   10 Jun 2027 11:47:44.482   10 Jun 2027 11:47:47.008             2.526          1263.000
       275   10 Jun 2027 11:48:54.597   10 Jun 2027 11:48:59.930             5.333          2598.657
       276   10 Jun 2027 11:49:03.351   10 Jun 2027 11:49:03.760             0.409           106.906
       277   10 Jun 2027 11:49:46.462   10 Jun 2027 11:49:50.735             4.273          1315.438
       278   10 Jun 2027 11:50:08.828   10 Jun 2027 11:50:10.049             1.221           551.594
       279   10 Jun 2027 11:50:52.696   10 Jun 2027 11:50:56.696             4.000          1183.094
       280   10 Jun 2027 11:51:32.261   10 Jun 2027 11:51:33.785             1.524           762.000
       281   10 Jun 2027 11:52:31.784   10 Jun 2027 11:52:38.513             6.729          2161.875
       282   11 Jun 2027 04:09:41.866   11 Jun 2027 04:10:03.967            22.101         11050.500
       283   11 Jun 2027 04:10:17.373   11 Jun 2027 04:12:27.607           130.234         65117.000
       284   11 Jun 2027 04:13:13.280   11 Jun 2027 04:14:58.925           105.645         52822.500
       285   11 Jun 2027 04:15:12.083   11 Jun 2027 04:15:15.265             3.182          1591.000
       286   11 Jun 2027 05:47:56.845   11 Jun 2027 05:48:33.310            36.465         18232.500
       287   11 Jun 2027 05:48:39.787   11 Jun 2027 05:49:22.617            42.830         20530.438
       288   11 Jun 2027 05:50:30.394   11 Jun 2027 05:50:35.946             5.552          2035.000
       289   11 Jun 2027 05:51:51.218   11 Jun 2027 05:51:52.227             1.009           504.500
       290   11 Jun 2027 05:52:06.265   11 Jun 2027 05:52:14.624             8.359          2286.438
       291   11 Jun 2027 07:11:15.949   11 Jun 2027 07:11:33.819            17.870          6939.375
       292   11 Jun 2027 07:12:54.819   11 Jun 2027 07:13:01.340             6.521          2385.875
       293   11 Jun 2027 07:13:26.767   11 Jun 2027 07:13:26.767             0.000             0.000
       294   11 Jun 2027 08:47:38.079   11 Jun 2027 08:48:01.160            23.081          9609.000
       295   11 Jun 2027 08:50:24.770   11 Jun 2027 08:50:33.986             9.216          4470.875
       296   11 Jun 2027 10:22:08.818   11 Jun 2027 10:22:26.376            17.558          7343.563
       297   11 Jun 2027 10:22:48.215   11 Jun 2027 10:22:51.284             3.069            79.875
       298   11 Jun 2027 10:25:58.376   11 Jun 2027 10:26:08.508            10.132          4960.156
       299   11 Jun 2027 10:26:51.780   11 Jun 2027 10:26:52.816             1.036           246.156
       300   11 Jun 2027 10:28:19.418   11 Jun 2027 10:28:19.418             0.000             0.000
       301   11 Jun 2027 10:28:41.981   11 Jun 2027 10:28:49.085             7.104          3288.562
       302   11 Jun 2027 10:28:56.639   11 Jun 2027 10:28:58.077             1.438           236.062
       303   11 Jun 2027 10:29:20.337   11 Jun 2027 10:29:20.651             0.314           157.000
       304   11 Jun 2027 10:29:23.682   11 Jun 2027 10:29:25.204             1.522           517.437
       305   11 Jun 2027 11:58:45.051   11 Jun 2027 11:58:59.047            13.996          5736.594
       306   11 Jun 2027 11:59:39.329   11 Jun 2027 11:59:42.941             3.612          1127.719
       307   12 Jun 2027 04:21:44.576   12 Jun 2027 04:22:28.066            43.490         21745.000
       308   12 Jun 2027 04:23:18.110   12 Jun 2027 04:26:24.509           186.399         93199.500
       309   12 Jun 2027 04:27:16.600   12 Jun 2027 04:27:18.291             1.691           845.500
       310   12 Jun 2027 06:00:45.182   12 Jun 2027 06:02:22.590            97.408         48704.000
       311   12 Jun 2027 06:02:47.705   12 Jun 2027 06:03:07.025            19.320          6480.750
       312   12 Jun 2027 07:23:08.516   12 Jun 2027 07:23:24.915            16.399          6689.500
       313   12 Jun 2027 07:25:23.426   12 Jun 2027 07:25:34.951            11.525          3558.031
       314   12 Jun 2027 08:59:42.225   12 Jun 2027 08:59:49.336             7.111          3311.625
       315   12 Jun 2027 09:02:24.558   12 Jun 2027 09:02:35.863            11.305          4165.281
       316   12 Jun 2027 10:35:55.750   12 Jun 2027 10:36:18.622            22.872          6927.812
       317   12 Jun 2027 10:36:53.431   12 Jun 2027 10:36:54.267             0.836           384.344
       318   12 Jun 2027 10:37:18.414   12 Jun 2027 10:37:18.944             0.530            95.750
       319   12 Jun 2027 10:38:03.370   12 Jun 2027 10:38:10.672             7.302          1303.031
       320   12 Jun 2027 10:39:42.211   12 Jun 2027 10:39:47.718             5.507          2370.719
       321   12 Jun 2027 10:40:34.730   12 Jun 2027 10:40:35.168             0.438           219.000
       322   12 Jun 2027 10:40:38.354   12 Jun 2027 10:40:39.167             0.813           406.500
       323   12 Jun 2027 10:40:51.432   12 Jun 2027 10:40:53.480             2.048           563.313
       324   13 Jun 2027 03:00:00.000   13 Jun 2027 03:01:02.275            62.275         31137.500
       325   13 Jun 2027 03:01:09.843   13 Jun 2027 03:01:22.739            12.896          6448.000
       326   13 Jun 2027 03:01:40.550   13 Jun 2027 03:01:43.826             3.276          1638.000
       327   13 Jun 2027 03:02:37.855   13 Jun 2027 03:02:38.441             0.586           293.000
       328   13 Jun 2027 04:33:40.091   13 Jun 2027 04:34:36.664            56.573         28286.500
       329   13 Jun 2027 04:34:46.969   13 Jun 2027 04:35:57.441            70.472         35236.000
       330   13 Jun 2027 04:36:28.330   13 Jun 2027 04:37:17.255            48.925         24462.500
       331   13 Jun 2027 04:37:49.188   13 Jun 2027 04:38:22.565            33.377         16688.500
       332   13 Jun 2027 04:39:45.030   13 Jun 2027 04:39:50.683             5.653          2826.500
       333   13 Jun 2027 06:11:56.177   13 Jun 2027 06:12:34.824            38.647         18662.250
       334   13 Jun 2027 06:12:51.399   13 Jun 2027 06:12:53.715             2.316           232.562
       335   13 Jun 2027 06:13:44.892   13 Jun 2027 06:13:49.346             4.454          1405.813
       336   13 Jun 2027 06:13:58.333   13 Jun 2027 06:13:59.734             1.401           138.906
       337   13 Jun 2027 06:14:32.531   13 Jun 2027 06:14:37.403             4.872           806.625
       338   13 Jun 2027 06:15:16.075   13 Jun 2027 06:15:17.160             1.085           542.500
       339   13 Jun 2027 06:15:41.299   13 Jun 2027 06:15:41.932             0.633           316.500
       340   13 Jun 2027 07:35:17.851   13 Jun 2027 07:35:30.129            12.278          5308.500
       341   13 Jun 2027 07:36:08.581   13 Jun 2027 07:36:10.143             1.562           698.125
       342   13 Jun 2027 07:36:48.668   13 Jun 2027 07:36:48.809             0.141            70.500
       343   13 Jun 2027 07:37:58.027   13 Jun 2027 07:38:04.576             6.549          3035.187
       344   13 Jun 2027 07:38:16.674   13 Jun 2027 07:38:18.081             1.407           216.125
       345   13 Jun 2027 09:11:53.041   13 Jun 2027 09:12:05.450            12.409          3865.906
       346   13 Jun 2027 09:13:16.943   13 Jun 2027 09:13:22.022             5.079          2229.906
       347   13 Jun 2027 09:14:13.446   13 Jun 2027 09:14:23.727            10.281          1607.000
       348   13 Jun 2027 10:47:03.220   13 Jun 2027 10:47:13.979            10.759          5310.781
       349   13 Jun 2027 10:49:53.617   13 Jun 2027 10:50:06.006            12.389          4801.406
       350   13 Jun 2027 10:53:23.145   13 Jun 2027 10:53:35.538            12.393          5909.281
