uniorb/output/strategy_2/Camera/Camera_KinoSat_110103.txt

KinoSat_110103
-------------------------
    Access    *     Start Time (UTCG)     *     Stop Time (UTCG)  *   Duration (s) *   Data (Mbytes)
         1   01 Jun 2027 04:26:01.110   01 Jun 2027 04:26:02.303             1.193           596.500
         2   01 Jun 2027 04:26:16.133   01 Jun 2027 04:26:23.069             6.936          3468.000
         3   01 Jun 2027 04:27:01.433   01 Jun 2027 04:27:10.351             8.918          4459.000
         4   01 Jun 2027 04:28:14.098   01 Jun 2027 04:28:23.880             9.782          4891.000
         5   01 Jun 2027 04:29:10.629   01 Jun 2027 04:29:11.031             0.402           201.000
         6   01 Jun 2027 04:29:16.190   01 Jun 2027 04:29:16.281             0.091            45.500
         7   01 Jun 2027 04:30:00.963   01 Jun 2027 04:30:12.055            11.092          5546.000
         8   01 Jun 2027 04:31:14.438   01 Jun 2027 04:31:33.565            19.127          9563.500
         9   01 Jun 2027 06:04:04.639   01 Jun 2027 06:04:12.839             8.200          4100.000
        10   01 Jun 2027 06:04:49.334   01 Jun 2027 06:04:57.432             8.098          4049.000
        11   01 Jun 2027 06:05:40.351   01 Jun 2027 06:05:44.419             4.068          2034.000
        12   01 Jun 2027 06:06:04.995   01 Jun 2027 06:06:13.441             8.446          4223.000
        13   01 Jun 2027 06:08:03.823   01 Jun 2027 06:08:09.881             6.058          3029.000
        14   01 Jun 2027 07:37:48.352   01 Jun 2027 07:37:50.039             1.687           843.500
        15   01 Jun 2027 07:38:06.758   01 Jun 2027 07:38:14.637             7.879          3939.500
        16   01 Jun 2027 07:39:02.878   01 Jun 2027 07:39:02.884             0.006             3.000
        17   01 Jun 2027 07:39:58.051   01 Jun 2027 07:40:37.021            38.970         19485.000
        18   01 Jun 2027 07:43:43.535   01 Jun 2027 07:44:01.656            18.121          9060.500
        19   02 Jun 2027 03:01:13.259   02 Jun 2027 03:01:13.768             0.509           254.500
        20   02 Jun 2027 03:01:48.221   02 Jun 2027 03:02:04.012            15.791          7895.500
        21   02 Jun 2027 03:03:12.671   02 Jun 2027 03:03:21.191             8.520          4260.000
        22   02 Jun 2027 03:04:05.196   02 Jun 2027 03:04:05.684             0.488           244.000
        23   02 Jun 2027 03:04:17.108   02 Jun 2027 03:04:21.539             4.431          2215.500
        24   02 Jun 2027 03:04:51.186   02 Jun 2027 03:04:52.448             1.262           631.000
        25   02 Jun 2027 03:05:00.578   02 Jun 2027 03:05:04.146             3.568          1784.000
        26   02 Jun 2027 03:05:55.777   02 Jun 2027 03:06:01.260             5.483          2741.500
        27   02 Jun 2027 03:06:38.322   02 Jun 2027 03:06:40.545             2.223          1111.500
        28   02 Jun 2027 03:06:57.881   02 Jun 2027 03:07:00.242             2.361          1180.500
        29   02 Jun 2027 03:07:18.081   02 Jun 2027 03:07:27.080             8.999          4499.500
        30   02 Jun 2027 03:08:11.003   02 Jun 2027 03:08:14.529             3.526          1763.000
        31   02 Jun 2027 03:08:28.812   02 Jun 2027 03:08:30.673             1.861           930.500
        32   02 Jun 2027 03:08:31.544   02 Jun 2027 03:08:34.801             3.257          1628.500
        33   02 Jun 2027 04:38:08.120   02 Jun 2027 04:38:35.768            27.648         13824.000
        34   02 Jun 2027 04:38:39.103   02 Jun 2027 04:39:01.374            22.271         11135.500
        35   02 Jun 2027 04:41:50.421   02 Jun 2027 04:41:53.140             2.719          1359.500
        36   02 Jun 2027 04:42:23.380   02 Jun 2027 04:42:32.179             8.799          4399.500
        37   02 Jun 2027 04:43:44.731   02 Jun 2027 04:43:46.115             1.384           692.000
        38   02 Jun 2027 04:44:16.439   02 Jun 2027 04:44:20.822             4.383          2191.500
        39   02 Jun 2027 06:15:42.137   02 Jun 2027 06:15:51.277             9.140          4570.000
        40   02 Jun 2027 06:16:37.470   02 Jun 2027 06:16:38.292             0.822           411.000
        41   02 Jun 2027 06:17:18.192   02 Jun 2027 06:17:19.318             1.126           563.000
        42   02 Jun 2027 06:17:36.088   02 Jun 2027 06:17:36.592             0.504           252.000
        43   02 Jun 2027 06:18:24.816   02 Jun 2027 06:18:24.861             0.045            22.500
        44   02 Jun 2027 06:18:49.922   02 Jun 2027 06:18:49.932             0.010             5.000
        45   02 Jun 2027 06:18:56.164   02 Jun 2027 06:18:59.717             3.553          1776.500
        46   02 Jun 2027 06:19:31.489   02 Jun 2027 06:19:42.776            11.287          5643.500
        47   02 Jun 2027 07:50:04.953   02 Jun 2027 07:50:08.297             3.344          1672.000
        48   02 Jun 2027 07:50:36.224   02 Jun 2027 07:50:50.503            14.279          7139.500
        49   02 Jun 2027 07:51:54.368   02 Jun 2027 07:51:59.709             5.341          2670.500
        50   02 Jun 2027 07:52:34.357   02 Jun 2027 07:52:50.644            16.287          8143.500
        51   02 Jun 2027 07:54:24.141   02 Jun 2027 07:54:32.962             8.821          4410.500
        52   02 Jun 2027 07:54:50.252   02 Jun 2027 07:54:51.726             1.474           737.000
        53   03 Jun 2027 03:13:35.307   03 Jun 2027 03:13:47.480            12.173          6086.500
        54   03 Jun 2027 03:15:07.338   03 Jun 2027 03:15:10.825             3.487          1743.500
        55   03 Jun 2027 03:15:25.565   03 Jun 2027 03:15:26.410             0.845           422.500
        56   03 Jun 2027 03:15:55.593   03 Jun 2027 03:16:03.880             8.287          4143.500
        57   03 Jun 2027 03:16:48.192   03 Jun 2027 03:16:51.231             3.039          1519.500
        58   03 Jun 2027 03:17:07.762   03 Jun 2027 03:17:08.955             1.193           596.500
        59   03 Jun 2027 03:18:08.049   03 Jun 2027 03:18:17.299             9.250          4625.000
        60   03 Jun 2027 03:19:00.843   03 Jun 2027 03:19:07.351             6.508          3254.000
        61   03 Jun 2027 03:19:20.054   03 Jun 2027 03:19:20.819             0.765           382.500
        62   03 Jun 2027 03:20:05.576   03 Jun 2027 03:20:15.088             9.512          4756.000
        63   03 Jun 2027 04:50:37.422   03 Jun 2027 04:50:56.727            19.305          9652.500
        64   03 Jun 2027 04:51:16.463   03 Jun 2027 04:51:16.518             0.055            27.500
        65   03 Jun 2027 04:52:16.903   03 Jun 2027 04:52:29.175            12.272          6136.000
        66   03 Jun 2027 04:53:28.370   03 Jun 2027 04:53:44.103            15.733          7866.500
        67   03 Jun 2027 04:54:42.052   03 Jun 2027 04:54:44.529             2.477          1238.500
        68   03 Jun 2027 04:55:22.383   03 Jun 2027 04:55:25.277             2.894          1447.000
        69   03 Jun 2027 04:55:40.899   03 Jun 2027 04:55:56.862            15.963          7981.500
        70   03 Jun 2027 04:56:07.088   03 Jun 2027 04:56:17.724            10.636          5318.000
        71   03 Jun 2027 06:27:26.042   03 Jun 2027 06:27:33.764             7.722          3861.000
        72   03 Jun 2027 06:27:59.543   03 Jun 2027 06:28:00.323             0.780           390.000
        73   03 Jun 2027 06:28:34.070   03 Jun 2027 06:28:39.549             5.479          2739.500
        74   03 Jun 2027 06:29:25.408   03 Jun 2027 06:29:41.144            15.736          7868.000
        75   03 Jun 2027 06:31:10.810   03 Jun 2027 06:31:12.566             1.756           878.000
        76   03 Jun 2027 06:31:35.450   03 Jun 2027 06:31:38.491             3.041          1520.500
        77   03 Jun 2027 08:02:42.209   03 Jun 2027 08:02:43.444             1.235           617.500
        78   03 Jun 2027 08:04:28.392   03 Jun 2027 08:04:30.399             2.007          1003.500
        79   03 Jun 2027 08:05:11.459   03 Jun 2027 08:05:18.281             6.822          3411.000
        80   03 Jun 2027 08:06:01.026   03 Jun 2027 08:06:02.560             1.534           767.000
        81   03 Jun 2027 08:06:46.626   03 Jun 2027 08:07:09.765            23.139         11569.500
        82   04 Jun 2027 03:25:46.191   04 Jun 2027 03:25:55.890             9.699          4849.500
        83   04 Jun 2027 03:27:23.071   04 Jun 2027 03:27:27.299             4.228          2114.000
        84   04 Jun 2027 03:27:52.119   04 Jun 2027 03:28:07.540            15.421          7710.500
        85   04 Jun 2027 03:28:50.841   04 Jun 2027 03:29:02.450            11.609          5804.500
        86   04 Jun 2027 03:30:09.865   04 Jun 2027 03:30:25.772            15.907          7953.500
        87   04 Jun 2027 03:31:31.254   04 Jun 2027 03:31:36.033             4.779          2389.500
        88   04 Jun 2027 03:31:49.335   04 Jun 2027 03:31:54.988             5.653          2826.500
        89   04 Jun 2027 03:32:30.542   04 Jun 2027 03:32:30.700             0.158            79.000
        90   04 Jun 2027 05:02:52.864   04 Jun 2027 05:03:05.319            12.455          6227.500
        91   04 Jun 2027 05:03:50.277   04 Jun 2027 05:03:54.098             3.821          1910.500
        92   04 Jun 2027 05:04:27.087   04 Jun 2027 05:04:27.910             0.823           411.500
        93   04 Jun 2027 05:05:27.055   04 Jun 2027 05:05:41.250            14.195          7097.500
        94   04 Jun 2027 05:06:45.522   04 Jun 2027 05:06:46.020             0.498           249.000
        95   04 Jun 2027 05:06:58.801   04 Jun 2027 05:07:07.597             8.796          4398.000
        96   04 Jun 2027 06:39:29.219   04 Jun 2027 06:39:37.821             8.602          4301.000
        97   04 Jun 2027 06:40:21.727   04 Jun 2027 06:40:31.446             9.719          4859.500
        98   04 Jun 2027 06:41:18.501   04 Jun 2027 06:41:20.866             2.365          1182.500
        99   04 Jun 2027 06:41:45.086   04 Jun 2027 06:41:56.804            11.718          5859.000
       100   04 Jun 2027 06:42:53.918   04 Jun 2027 06:43:02.760             8.842          4421.000
       101   04 Jun 2027 06:43:41.037   04 Jun 2027 06:43:42.233             1.196           598.000
       102   04 Jun 2027 06:44:26.283   04 Jun 2027 06:44:26.971             0.688           344.000
       103   04 Jun 2027 06:44:37.946   04 Jun 2027 06:44:38.119             0.173            86.500
       104   04 Jun 2027 08:17:48.332   04 Jun 2027 08:17:51.044             2.712          1356.000
       105   04 Jun 2027 08:18:13.224   04 Jun 2027 08:18:38.535            25.311         12655.500
       106   05 Jun 2027 03:38:19.943   05 Jun 2027 03:38:34.213            14.270          7135.000
       107   05 Jun 2027 03:39:36.006   05 Jun 2027 03:39:37.436             1.430           715.000
       108   05 Jun 2027 03:39:50.461   05 Jun 2027 03:39:54.240             3.779          1889.500
       109   05 Jun 2027 03:41:32.897   05 Jun 2027 03:41:40.051             7.154          3577.000
       110   05 Jun 2027 03:42:20.093   05 Jun 2027 03:42:22.485             2.392          1196.000
       111   05 Jun 2027 03:42:35.347   05 Jun 2027 03:42:44.963             9.616          4808.000
       112   05 Jun 2027 03:43:08.283   05 Jun 2027 03:43:29.788            21.505         10752.500
       113   05 Jun 2027 03:44:36.906   05 Jun 2027 03:44:37.136             0.230           115.000
       114   05 Jun 2027 05:15:45.019   05 Jun 2027 05:15:46.920             1.901           950.500
       115   05 Jun 2027 05:16:37.306   05 Jun 2027 05:16:39.301             1.995           997.500
       116   05 Jun 2027 05:16:59.919   05 Jun 2027 05:17:23.125            23.206         11603.000
       117   05 Jun 2027 05:18:31.747   05 Jun 2027 05:18:35.685             3.938          1969.000
       118   05 Jun 2027 05:19:00.199   05 Jun 2027 05:19:08.575             8.376          4188.000
       119   05 Jun 2027 06:51:55.982   05 Jun 2027 06:52:02.718             6.736          3368.000
       120   05 Jun 2027 06:52:58.974   05 Jun 2027 06:53:03.422             4.448          2224.000
       121   05 Jun 2027 06:53:58.991   05 Jun 2027 06:54:04.797             5.806          2903.000
       122   05 Jun 2027 06:54:34.857   05 Jun 2027 06:54:44.727             9.870          4935.000
       123   05 Jun 2027 06:55:27.822   05 Jun 2027 06:55:33.834             6.012          3006.000
       124   05 Jun 2027 06:55:40.670   05 Jun 2027 06:55:47.644             6.974          3487.000
       125   06 Jun 2027 03:50:00.393   06 Jun 2027 03:50:27.609            27.216         13608.000
       126   06 Jun 2027 03:51:59.436   06 Jun 2027 03:52:10.177            10.741          5370.500
       127   06 Jun 2027 03:53:15.055   06 Jun 2027 03:53:26.644            11.589          5794.500
       128   06 Jun 2027 03:54:16.404   06 Jun 2027 03:54:22.919             6.515          3257.500
       129   06 Jun 2027 03:54:29.423   06 Jun 2027 03:54:33.008             3.585          1792.500
       130   06 Jun 2027 03:55:12.422   06 Jun 2027 03:55:12.749             0.327           163.500
       131   06 Jun 2027 03:55:24.784   06 Jun 2027 03:55:31.326             6.542          3271.000
       132   06 Jun 2027 03:56:16.820   06 Jun 2027 03:56:16.975             0.155            77.500
       133   06 Jun 2027 05:27:53.057   06 Jun 2027 05:28:01.042             7.985          3992.500
       134   06 Jun 2027 05:28:38.710   06 Jun 2027 05:28:41.827             3.117          1558.500
       135   06 Jun 2027 05:29:54.522   06 Jun 2027 05:30:00.467             5.945          2972.500
       136   06 Jun 2027 05:30:26.405   06 Jun 2027 05:30:33.353             6.948          3474.000
       137   06 Jun 2027 05:31:11.161   06 Jun 2027 05:31:13.398             2.237          1118.500
       138   06 Jun 2027 05:31:56.525   06 Jun 2027 05:32:05.389             8.864          4432.000
       139   06 Jun 2027 07:03:50.401   06 Jun 2027 07:03:51.568             1.167           583.500
       140   06 Jun 2027 07:04:51.012   06 Jun 2027 07:04:52.108             1.096           548.000
       141   06 Jun 2027 07:05:03.066   06 Jun 2027 07:05:18.595            15.529          7764.500
       142   06 Jun 2027 07:06:24.595   06 Jun 2027 07:06:43.730            19.135          9567.500
       143   06 Jun 2027 07:08:20.205   06 Jun 2027 07:08:38.875            18.670          9335.000
       144   07 Jun 2027 04:02:06.522   07 Jun 2027 04:02:07.662             1.140           570.000
       145   07 Jun 2027 04:02:59.028   07 Jun 2027 04:03:00.695             1.667           833.500
       146   07 Jun 2027 04:03:17.705   07 Jun 2027 04:03:17.991             0.286           143.000
       147   07 Jun 2027 04:03:27.866   07 Jun 2027 04:03:34.851             6.985          3492.500
       148   07 Jun 2027 04:04:15.874   07 Jun 2027 04:04:36.383            20.509         10254.500
       149   07 Jun 2027 04:06:16.812   07 Jun 2027 04:06:25.468             8.656          4328.000
       150   07 Jun 2027 04:07:02.774   07 Jun 2027 04:07:14.354            11.580          5790.000
       151   07 Jun 2027 04:08:08.136   07 Jun 2027 04:08:12.956             4.820          2410.000
       152   07 Jun 2027 05:40:22.047   07 Jun 2027 05:40:36.727            14.680          7340.000
       153   07 Jun 2027 05:42:00.615   07 Jun 2027 05:42:03.293             2.678          1339.000
       154   07 Jun 2027 05:42:53.042   07 Jun 2027 05:43:03.711            10.669          5334.500
       155   07 Jun 2027 05:43:38.706   07 Jun 2027 05:43:46.689             7.983          3991.500
       156   07 Jun 2027 07:13:40.627   07 Jun 2027 07:13:54.350            13.723          6861.500
       157   07 Jun 2027 07:15:36.826   07 Jun 2027 07:15:40.528             3.702          1851.000
       158   07 Jun 2027 07:16:25.697   07 Jun 2027 07:16:31.066             5.369          2684.500
       159   07 Jun 2027 07:16:55.950   07 Jun 2027 07:17:02.510             6.560          3280.000
       160   07 Jun 2027 07:17:42.177   07 Jun 2027 07:17:45.348             3.171          1585.500
       161   07 Jun 2027 07:18:02.607   07 Jun 2027 07:18:11.621             9.014          4507.000
       162   07 Jun 2027 07:19:00.149   07 Jun 2027 07:19:01.734             1.585           792.500
       163   07 Jun 2027 07:19:14.666   07 Jun 2027 07:19:21.456             6.790          3395.000
       164   07 Jun 2027 07:20:16.960   07 Jun 2027 07:20:36.422            19.462          9731.000
       165   08 Jun 2027 04:14:26.881   08 Jun 2027 04:14:29.234             2.353          1176.500
       166   08 Jun 2027 04:15:01.714   08 Jun 2027 04:15:18.594            16.880          8440.000
       167   08 Jun 2027 04:16:06.370   08 Jun 2027 04:16:12.279             5.909          2954.500
       168   08 Jun 2027 04:17:05.172   08 Jun 2027 04:17:10.440             5.268          2634.000
       169   08 Jun 2027 04:17:35.646   08 Jun 2027 04:17:41.098             5.452          2726.000
       170   08 Jun 2027 04:18:07.912   08 Jun 2027 04:18:11.364             3.452          1726.000
       171   08 Jun 2027 04:19:01.011   08 Jun 2027 04:19:10.938             9.927          4963.500
       172   08 Jun 2027 04:19:23.193   08 Jun 2027 04:19:27.136             3.943          1971.500
       173   08 Jun 2027 04:20:31.824   08 Jun 2027 04:20:34.220             2.396          1198.000
       174   08 Jun 2027 05:52:20.499   08 Jun 2027 05:52:29.798             9.299          4649.500
       175   08 Jun 2027 05:53:23.342   08 Jun 2027 05:53:27.036             3.694          1847.000
       176   08 Jun 2027 05:53:35.760   08 Jun 2027 05:53:43.268             7.508          3754.000
       177   08 Jun 2027 05:54:39.907   08 Jun 2027 05:54:46.711             6.804          3402.000
       178   08 Jun 2027 05:55:23.948   08 Jun 2027 05:55:32.119             8.171          4085.500
       179   08 Jun 2027 05:56:10.310   08 Jun 2027 05:56:17.073             6.763          3381.500
       180   08 Jun 2027 07:25:37.629   08 Jun 2027 07:25:37.686             0.057            28.500
       181   08 Jun 2027 07:25:40.529   08 Jun 2027 07:25:41.619             1.090           545.000
       182   08 Jun 2027 07:26:00.391   08 Jun 2027 07:26:19.696            19.305          9652.500
       183   08 Jun 2027 07:27:48.989   08 Jun 2027 07:27:50.293             1.304           652.000
       184   08 Jun 2027 07:27:55.970   08 Jun 2027 07:28:21.551            25.581         12790.500
       185   08 Jun 2027 07:30:26.153   08 Jun 2027 07:30:29.111             2.958          1479.000
       186   08 Jun 2027 07:30:44.549   08 Jun 2027 07:30:47.082             2.533          1266.500
       187   08 Jun 2027 07:31:08.324   08 Jun 2027 07:31:15.544             7.220          3610.000
       188   08 Jun 2027 07:32:38.204   08 Jun 2027 07:32:39.224             1.020           510.000
       189   08 Jun 2027 07:32:58.457   08 Jun 2027 07:33:04.370             5.913          2956.500
       190   08 Jun 2027 07:33:12.415   08 Jun 2027 07:33:22.576            10.161          5080.500
       191   09 Jun 2027 04:26:15.633   09 Jun 2027 04:26:16.552             0.919           459.500
       192   09 Jun 2027 04:26:31.654   09 Jun 2027 04:26:34.768             3.114          1557.000
       193   09 Jun 2027 04:26:38.073   09 Jun 2027 04:26:40.415             2.342          1171.000
       194   09 Jun 2027 04:27:09.466   09 Jun 2027 04:27:28.460            18.994          9497.000
       195   09 Jun 2027 04:28:31.464   09 Jun 2027 04:28:38.960             7.496          3748.000
       196   09 Jun 2027 04:29:24.899   09 Jun 2027 04:29:25.832             0.933           466.500
       197   09 Jun 2027 04:29:30.677   09 Jun 2027 04:29:33.870             3.193          1596.500
       198   09 Jun 2027 04:30:18.736   09 Jun 2027 04:30:27.487             8.751          4375.500
       199   09 Jun 2027 04:31:28.787   09 Jun 2027 04:31:29.242             0.455           227.500
       200   09 Jun 2027 04:32:29.822   09 Jun 2027 04:32:33.362             3.540          1770.000
       201   09 Jun 2027 04:32:36.426   09 Jun 2027 04:32:36.610             0.184            92.000
       202   09 Jun 2027 06:04:19.529   09 Jun 2027 06:04:28.852             9.323          4661.500
       203   09 Jun 2027 06:05:12.522   09 Jun 2027 06:05:26.437            13.915          6957.500
       204   09 Jun 2027 06:06:28.534   09 Jun 2027 06:06:33.128             4.594          2297.000
       205   09 Jun 2027 06:07:09.133   09 Jun 2027 06:07:15.363             6.230          3115.000
       206   09 Jun 2027 06:07:55.345   09 Jun 2027 06:07:58.837             3.492          1746.000
       207   09 Jun 2027 06:08:22.348   09 Jun 2027 06:08:24.599             2.251          1125.500
       208   09 Jun 2027 07:38:03.697   09 Jun 2027 07:38:05.840             2.143          1071.500
       209   09 Jun 2027 07:38:21.777   09 Jun 2027 07:38:29.674             7.897          3948.500
       210   09 Jun 2027 07:38:53.047   09 Jun 2027 07:38:53.047             0.000             0.000
       211   09 Jun 2027 07:39:00.720   09 Jun 2027 07:39:17.932            17.212          8606.000
       212   09 Jun 2027 07:40:54.534   09 Jun 2027 07:41:03.113             8.579          4289.500
       213   09 Jun 2027 07:41:47.620   09 Jun 2027 07:41:50.819             3.199          1599.500
       214   09 Jun 2027 07:42:13.560   09 Jun 2027 07:42:19.894             6.334          3167.000
       215   09 Jun 2027 07:42:53.670   09 Jun 2027 07:42:57.514             3.844          1922.000
       216   09 Jun 2027 07:43:17.054   09 Jun 2027 07:43:18.601             1.547           773.500
       217   09 Jun 2027 07:43:58.176   09 Jun 2027 07:44:16.180            18.004          9002.000
       218   10 Jun 2027 03:01:28.512   10 Jun 2027 03:01:30.120             1.608           804.000
       219   10 Jun 2027 03:01:52.107   10 Jun 2027 03:02:00.728             8.621          4310.500
       220   10 Jun 2027 03:02:47.548   10 Jun 2027 03:02:53.273             5.725          2862.500
       221   10 Jun 2027 03:02:54.781   10 Jun 2027 03:03:08.703            13.922          6961.000
       222   10 Jun 2027 03:04:45.615   10 Jun 2027 03:05:04.050            18.435          9217.500
       223   10 Jun 2027 03:06:41.748   10 Jun 2027 03:06:52.907            11.159          5579.500
       224   10 Jun 2027 03:07:09.476   10 Jun 2027 03:07:15.489             6.013          3006.500
       225   10 Jun 2027 03:08:26.878   10 Jun 2027 03:08:31.121             4.243          2121.500
       226   10 Jun 2027 04:38:22.801   10 Jun 2027 04:38:37.657            14.856          7428.000
       227   10 Jun 2027 04:39:33.757   10 Jun 2027 04:39:41.768             8.011          4005.500
       228   10 Jun 2027 04:41:26.452   10 Jun 2027 04:41:31.927             5.475          2737.500
       229   10 Jun 2027 04:42:01.422   10 Jun 2027 04:42:13.747            12.325          6162.500
       230   10 Jun 2027 04:43:11.564   10 Jun 2027 04:43:16.248             4.684          2342.000
       231   10 Jun 2027 04:43:59.125   10 Jun 2027 04:44:00.848             1.723           861.500
       232   10 Jun 2027 04:44:32.587   10 Jun 2027 04:44:36.851             4.264          2132.000
       233   10 Jun 2027 06:15:56.966   10 Jun 2027 06:16:10.068            13.102          6551.000
       234   10 Jun 2027 06:17:05.341   10 Jun 2027 06:17:24.962            19.621          9810.500
       235   10 Jun 2027 06:19:04.697   10 Jun 2027 06:19:04.897             0.200           100.000
       236   10 Jun 2027 06:19:13.147   10 Jun 2027 06:19:16.341             3.194          1597.000
       237   10 Jun 2027 06:19:47.085   10 Jun 2027 06:19:58.893            11.808          5904.000
       238   10 Jun 2027 06:20:00.260   10 Jun 2027 06:20:04.301             4.041          2020.500
       239   10 Jun 2027 07:50:19.388   10 Jun 2027 07:50:23.306             3.918          1959.000
       240   10 Jun 2027 07:50:51.046   10 Jun 2027 07:51:05.572            14.526          7263.000
       241   10 Jun 2027 07:52:10.031   10 Jun 2027 07:52:14.191             4.160          2080.000
       242   10 Jun 2027 07:52:51.754   10 Jun 2027 07:53:08.836            17.082          8541.000
       243   10 Jun 2027 07:54:40.061   10 Jun 2027 07:54:47.822             7.761          3880.500
       244   10 Jun 2027 07:54:56.344   10 Jun 2027 07:55:04.327             7.983          3991.500
       245   11 Jun 2027 03:13:50.559   11 Jun 2027 03:13:56.244             5.685          2842.500
       246   11 Jun 2027 03:14:28.635   11 Jun 2027 03:14:30.423             1.788           894.000
       247   11 Jun 2027 03:15:06.553   11 Jun 2027 03:15:20.211            13.658          6829.000
       248   11 Jun 2027 03:16:21.497   11 Jun 2027 03:16:22.735             1.238           619.000
       249   11 Jun 2027 03:16:37.840   11 Jun 2027 03:16:43.683             5.843          2921.500
       250   11 Jun 2027 03:17:08.668   11 Jun 2027 03:17:11.625             2.957          1478.500
       251   11 Jun 2027 03:17:26.154   11 Jun 2027 03:17:33.549             7.395          3697.500
       252   11 Jun 2027 03:17:57.400   11 Jun 2027 03:18:19.362            21.962         10981.000
       253   11 Jun 2027 03:19:34.663   11 Jun 2027 03:19:37.194             2.531          1265.500
       254   11 Jun 2027 03:20:20.199   11 Jun 2027 03:20:33.619            13.420          6710.000
       255   11 Jun 2027 04:50:52.186   11 Jun 2027 04:51:12.895            20.709         10354.500
       256   11 Jun 2027 04:52:13.115   11 Jun 2027 04:52:19.087             5.972          2986.000
       257   11 Jun 2027 04:53:19.822   11 Jun 2027 04:53:20.124             0.302           151.000
       258   11 Jun 2027 04:53:25.217   11 Jun 2027 04:53:26.834             1.617           808.500
       259   11 Jun 2027 04:53:34.943   11 Jun 2027 04:53:36.844             1.901           950.500
       260   11 Jun 2027 04:54:43.364   11 Jun 2027 04:54:50.118             6.754          3377.000
       261   11 Jun 2027 04:55:37.032   11 Jun 2027 04:55:43.314             6.282          3141.000
       262   11 Jun 2027 04:56:31.814   11 Jun 2027 04:56:36.745             4.931          2465.500
       263   11 Jun 2027 06:27:42.447   11 Jun 2027 06:28:14.282            31.835         15917.500
       264   11 Jun 2027 06:30:29.593   11 Jun 2027 06:30:47.817            18.224          9112.000
       265   11 Jun 2027 06:32:14.199   11 Jun 2027 06:32:25.458            11.259          5629.500
       266   11 Jun 2027 08:04:54.871   11 Jun 2027 08:05:15.143            20.272         10136.000
       267   11 Jun 2027 08:07:01.442   11 Jun 2027 08:07:24.606            23.164         11582.000
       268   12 Jun 2027 03:26:01.097   12 Jun 2027 03:26:08.494             7.397          3698.500
       269   12 Jun 2027 03:26:48.592   12 Jun 2027 03:26:49.405             0.813           406.500
       270   12 Jun 2027 03:27:02.568   12 Jun 2027 03:27:23.759            21.191         10595.500
       271   12 Jun 2027 03:29:18.392   12 Jun 2027 03:29:31.506            13.114          6557.000
       272   12 Jun 2027 03:30:43.286   12 Jun 2027 03:30:43.871             0.585           292.500
       273   12 Jun 2027 03:31:15.626   12 Jun 2027 03:31:18.418             2.792          1396.000
       274   12 Jun 2027 03:31:59.700   12 Jun 2027 03:32:04.012             4.312          2156.000
       275   12 Jun 2027 05:03:11.891   12 Jun 2027 05:03:39.661            27.770         13885.000
       276   12 Jun 2027 05:05:48.412   12 Jun 2027 05:05:55.756             7.344          3672.000
       277   12 Jun 2027 05:05:59.517   12 Jun 2027 05:06:02.800             3.283          1641.500
       278   12 Jun 2027 05:06:56.946   12 Jun 2027 05:07:00.624             3.678          1839.000
       279   12 Jun 2027 05:07:24.290   12 Jun 2027 05:07:25.794             1.504           752.000
       280   12 Jun 2027 05:07:36.215   12 Jun 2027 05:07:42.145             5.930          2965.000
       281   12 Jun 2027 06:39:44.679   12 Jun 2027 06:39:52.376             7.697          3848.500
       282   12 Jun 2027 06:40:36.775   12 Jun 2027 06:40:49.058            12.283          6141.500
       283   12 Jun 2027 06:42:01.437   12 Jun 2027 06:42:04.475             3.038          1519.000
       284   12 Jun 2027 06:42:28.588   12 Jun 2027 06:42:44.891            16.303          8151.500
       285   12 Jun 2027 06:44:18.901   12 Jun 2027 06:44:25.978             7.077          3538.500
       286   12 Jun 2027 08:18:03.009   12 Jun 2027 08:18:06.012             3.003          1501.500
       287   12 Jun 2027 08:18:27.829   12 Jun 2027 08:18:49.555            21.726         10863.000
       288   13 Jun 2027 03:38:35.137   13 Jun 2027 03:38:46.689            11.552          5776.000
       289   13 Jun 2027 03:39:33.460   13 Jun 2027 03:39:52.187            18.727          9363.500
       290   13 Jun 2027 03:41:48.011   13 Jun 2027 03:41:54.783             6.772          3386.000
       291   13 Jun 2027 03:42:34.595   13 Jun 2027 03:42:39.752             5.157          2578.500
       292   13 Jun 2027 03:43:26.052   13 Jun 2027 03:43:27.280             1.228           614.000
       293   13 Jun 2027 03:43:53.158   13 Jun 2027 03:44:12.533            19.375          9687.500
       294   13 Jun 2027 05:15:59.753   13 Jun 2027 05:16:00.622             0.869           434.500
       295   13 Jun 2027 05:16:39.536   13 Jun 2027 05:16:40.584             1.048           524.000
       296   13 Jun 2027 05:16:55.321   13 Jun 2027 05:16:55.582             0.261           130.500
       297   13 Jun 2027 05:17:14.673   13 Jun 2027 05:17:15.522             0.849           424.500
       298   13 Jun 2027 05:17:41.209   13 Jun 2027 05:17:41.395             0.186            93.000
       299   13 Jun 2027 05:18:06.264   13 Jun 2027 05:18:13.088             6.824          3412.000
       300   13 Jun 2027 05:18:41.146   13 Jun 2027 05:18:50.189             9.043          4521.500
       301   13 Jun 2027 05:19:25.915   13 Jun 2027 05:19:26.120             0.205           102.500
       302   13 Jun 2027 05:19:29.810   13 Jun 2027 05:19:37.690             7.880          3940.000
       303   13 Jun 2027 05:20:12.241   13 Jun 2027 05:20:21.515             9.274          4637.000
       304   13 Jun 2027 06:52:10.985   13 Jun 2027 06:52:16.925             5.940          2970.000
       305   13 Jun 2027 06:53:13.706   13 Jun 2027 06:53:18.972             5.266          2633.000
       306   13 Jun 2027 06:54:13.757   13 Jun 2027 06:54:19.491             5.734          2867.000
       307   13 Jun 2027 06:54:49.201   13 Jun 2027 06:54:59.637            10.436          5218.000
       308   13 Jun 2027 06:55:41.043   13 Jun 2027 06:55:41.871             0.828           414.000
       309   13 Jun 2027 06:55:49.604   13 Jun 2027 06:55:55.407             5.803          2901.500
