uniorb/output/strategy_2/Camera/Camera_KinoSat_111501.txt

KinoSat_111501
-------------------------
    Access    *     Start Time (UTCG)     *     Stop Time (UTCG)  *   Duration (s) *   Data (Mbytes)
         1   01 Jun 2027 03:58:10.180   01 Jun 2027 03:59:42.843            92.663         46331.500
         2   01 Jun 2027 03:59:48.571   01 Jun 2027 04:00:07.273            18.702          9351.000
         3   01 Jun 2027 04:00:38.103   01 Jun 2027 04:00:52.364            14.261          7130.500
         4   01 Jun 2027 04:01:02.858   01 Jun 2027 04:01:18.655            15.797          7898.500
         5   01 Jun 2027 04:01:34.439   01 Jun 2027 04:01:44.472            10.033          5016.500
         6   01 Jun 2027 04:02:07.385   01 Jun 2027 04:03:28.501            81.116         40558.000
         7   01 Jun 2027 04:04:24.982   01 Jun 2027 04:04:41.480            16.498          8249.000
         8   01 Jun 2027 04:04:58.196   01 Jun 2027 04:05:17.824            19.628          9814.000
         9   01 Jun 2027 05:22:59.479   01 Jun 2027 05:23:52.377            52.898         26449.000
        10   01 Jun 2027 05:34:40.001   01 Jun 2027 05:35:38.367            58.366         29183.000
        11   01 Jun 2027 06:56:58.104   01 Jun 2027 06:58:04.289            66.185         33092.500
        12   01 Jun 2027 06:58:52.290   01 Jun 2027 06:59:40.769            48.479         24239.500
        13   01 Jun 2027 07:00:53.178   01 Jun 2027 07:01:15.223            22.045         11022.500
        14   01 Jun 2027 07:01:26.062   01 Jun 2027 07:01:35.936             9.874          4937.000
        15   01 Jun 2027 08:31:54.344   01 Jun 2027 08:33:35.773           101.429         50714.500
        16   01 Jun 2027 08:34:16.345   01 Jun 2027 08:35:03.357            47.012         23506.000
        17   01 Jun 2027 08:35:43.279   01 Jun 2027 08:35:56.487            13.208          6604.000
        18   01 Jun 2027 08:36:24.606   01 Jun 2027 08:36:50.229            25.623         12811.500
        19   01 Jun 2027 08:38:20.708   01 Jun 2027 08:38:27.755             7.047          3523.500
        20   01 Jun 2027 10:12:29.390   01 Jun 2027 10:13:00.084            30.694         15347.000
        21   01 Jun 2027 10:15:06.322   01 Jun 2027 10:16:43.251            96.929         48464.500
        22   01 Jun 2027 11:46:09.194   01 Jun 2027 11:47:01.677            52.483         26241.500
        23   01 Jun 2027 11:47:41.800   01 Jun 2027 11:48:41.445            59.645         29822.500
        24   01 Jun 2027 11:50:53.650   01 Jun 2027 11:50:57.338             3.688          1844.000
        25   02 Jun 2027 04:10:12.705   02 Jun 2027 04:12:37.242           144.537         72268.500
        26   02 Jun 2027 04:13:22.639   02 Jun 2027 04:13:31.152             8.513          4256.500
        27   02 Jun 2027 04:13:38.885   02 Jun 2027 04:13:44.915             6.030          3015.000
        28   02 Jun 2027 04:14:40.680   02 Jun 2027 04:15:04.227            23.547         11773.500
        29   02 Jun 2027 04:15:30.729   02 Jun 2027 04:16:00.089            29.360         14680.000
        30   02 Jun 2027 04:16:28.567   02 Jun 2027 04:16:40.659            12.092          6046.000
        31   02 Jun 2027 05:34:33.114   02 Jun 2027 05:35:24.469            51.355         25677.500
        32   02 Jun 2027 05:36:22.258   02 Jun 2027 05:36:22.258             0.000             0.000
        33   02 Jun 2027 05:46:48.677   02 Jun 2027 05:47:15.488            26.811         13405.500
        34   02 Jun 2027 07:08:30.097   02 Jun 2027 07:09:49.866            79.769         39884.500
        35   02 Jun 2027 07:10:38.426   02 Jun 2027 07:12:18.637           100.211         50105.500
        36   02 Jun 2027 07:14:11.278   02 Jun 2027 07:14:21.492            10.214          5107.000
        37   02 Jun 2027 08:43:23.624   02 Jun 2027 08:45:10.172           106.548         53274.000
        38   02 Jun 2027 08:46:34.260   02 Jun 2027 08:46:44.845            10.585          2781.811
        39   02 Jun 2027 08:49:12.515   02 Jun 2027 08:49:12.515             0.000             0.000
        40   02 Jun 2027 08:50:17.534   02 Jun 2027 08:50:19.077             1.543           771.500
        41   02 Jun 2027 08:52:19.812   02 Jun 2027 08:52:42.189            22.377          9399.344
        42   02 Jun 2027 10:21:18.652   02 Jun 2027 10:21:36.150            17.498          8297.625
        43   02 Jun 2027 10:22:11.348   02 Jun 2027 10:22:14.453             3.105           255.625
        44   02 Jun 2027 10:22:36.440   02 Jun 2027 10:22:38.131             1.691           109.219
        45   02 Jun 2027 10:22:56.133   02 Jun 2027 10:22:57.872             1.739           216.938
        46   02 Jun 2027 10:22:58.686   02 Jun 2027 10:23:00.265             1.579            25.437
        47   02 Jun 2027 10:25:28.269   02 Jun 2027 10:25:38.277            10.008          4154.687
        48   02 Jun 2027 10:25:46.636   02 Jun 2027 10:25:47.609             0.973           108.406
        49   02 Jun 2027 10:25:49.574   02 Jun 2027 10:25:51.058             1.484            40.219
        50   02 Jun 2027 10:26:10.432   02 Jun 2027 10:26:16.770             6.338           605.437
        51   02 Jun 2027 10:26:41.925   02 Jun 2027 10:26:43.782             1.857           786.094
        52   02 Jun 2027 10:26:56.503   02 Jun 2027 10:26:56.550             0.047            23.500
        53   02 Jun 2027 10:27:10.420   02 Jun 2027 10:27:16.304             5.884           807.469
        54   02 Jun 2027 10:28:11.809   02 Jun 2027 10:28:17.228             5.419          1731.344
        55   02 Jun 2027 11:58:03.235   02 Jun 2027 11:58:19.051            15.816          7224.813
        56   03 Jun 2027 04:22:38.590   03 Jun 2027 04:23:59.361            80.771         40385.500
        57   03 Jun 2027 04:24:38.981   03 Jun 2027 04:26:08.741            89.760         44880.000
        58   03 Jun 2027 04:26:30.751   03 Jun 2027 04:26:54.187            23.436         11718.000
        59   03 Jun 2027 04:27:34.696   03 Jun 2027 04:27:42.829             8.133          4066.500
        60   03 Jun 2027 05:46:28.949   03 Jun 2027 05:47:37.597            68.648         34324.000
        61   03 Jun 2027 07:22:28.970   03 Jun 2027 07:23:26.361            57.391         27967.688
        62   03 Jun 2027 07:23:56.855   03 Jun 2027 07:23:57.909             1.054           266.687
        63   03 Jun 2027 07:24:31.913   03 Jun 2027 07:24:31.913             0.000             0.000
        64   03 Jun 2027 07:25:37.207   03 Jun 2027 07:25:46.587             9.380          3103.063
        65   03 Jun 2027 08:56:16.988   03 Jun 2027 08:56:29.689            12.701          3981.031
        66   03 Jun 2027 08:57:50.023   03 Jun 2027 08:57:51.878             1.855           616.906
        67   03 Jun 2027 08:58:12.977   03 Jun 2027 08:58:20.181             7.204           372.688
        68   03 Jun 2027 08:58:28.113   03 Jun 2027 08:58:32.955             4.842           199.344
        69   03 Jun 2027 08:58:48.255   03 Jun 2027 08:58:49.419             1.164           437.281
        70   03 Jun 2027 09:00:01.301   03 Jun 2027 09:00:01.301             0.000             0.000
        71   03 Jun 2027 09:01:11.931   03 Jun 2027 09:01:19.204             7.273          3266.719
        72   03 Jun 2027 09:02:27.554   03 Jun 2027 09:02:33.122             5.568           939.219
        73   03 Jun 2027 09:02:47.866   03 Jun 2027 09:02:49.126             1.260           288.375
        74   03 Jun 2027 09:03:25.248   03 Jun 2027 09:03:26.960             1.712           856.000
        75   03 Jun 2027 09:03:40.706   03 Jun 2027 09:03:41.173             0.467           233.500
        76   03 Jun 2027 09:04:33.185   03 Jun 2027 09:04:38.013             4.828          1832.000
        77   03 Jun 2027 09:04:43.821   03 Jun 2027 09:04:44.105             0.284            28.750
        78   03 Jun 2027 10:33:28.568   03 Jun 2027 10:33:51.112            22.544          7216.688
        79   03 Jun 2027 10:34:00.345   03 Jun 2027 10:34:00.663             0.318           136.312
        80   03 Jun 2027 10:34:36.737   03 Jun 2027 10:34:38.754             2.017          1008.500
        81   03 Jun 2027 10:35:22.278   03 Jun 2027 10:35:27.398             5.120          1478.937
        82   03 Jun 2027 10:36:14.396   03 Jun 2027 10:36:17.580             3.184          1026.437
        83   03 Jun 2027 10:36:25.440   03 Jun 2027 10:36:32.979             7.539           106.250
        84   03 Jun 2027 10:37:30.428   03 Jun 2027 10:37:39.815             9.387          1610.313
        85   03 Jun 2027 10:37:58.702   03 Jun 2027 10:37:59.874             1.172           178.563
        86   03 Jun 2027 10:38:18.879   03 Jun 2027 10:38:21.176             2.297           447.750
        87   03 Jun 2027 10:38:46.033   03 Jun 2027 10:38:47.004             0.971           248.312
        88   03 Jun 2027 10:38:51.937   03 Jun 2027 10:38:52.524             0.587           154.156
        89   03 Jun 2027 10:39:09.149   03 Jun 2027 10:39:10.512             1.363            57.187
        90   03 Jun 2027 10:39:54.461   03 Jun 2027 10:39:57.381             2.920          1373.406
        91   03 Jun 2027 10:40:06.666   03 Jun 2027 10:40:07.368             0.702           271.563
        92   04 Jun 2027 03:00:00.000   04 Jun 2027 03:00:18.674            18.674          9337.000
        93   04 Jun 2027 03:00:44.340   04 Jun 2027 03:01:30.914            46.574         23287.000
        94   04 Jun 2027 03:02:11.750   04 Jun 2027 03:02:37.232            25.482         12741.000
        95   04 Jun 2027 04:34:59.371   04 Jun 2027 04:37:25.997           146.626         73313.000
        96   04 Jun 2027 04:37:29.787   04 Jun 2027 04:37:29.787             0.000             0.000
        97   04 Jun 2027 04:38:38.880   04 Jun 2027 04:38:43.415             4.535          2267.500
        98   04 Jun 2027 05:58:21.404   04 Jun 2027 05:59:20.912            59.508         29754.000
        99   04 Jun 2027 06:00:54.981   04 Jun 2027 06:00:56.440             1.459           729.500
       100   04 Jun 2027 07:34:42.459   04 Jun 2027 07:35:05.018            22.559         10628.688
       101   04 Jun 2027 07:35:21.411   04 Jun 2027 07:35:23.667             2.256           512.281
       102   04 Jun 2027 07:35:28.976   04 Jun 2027 07:35:31.107             2.131           114.719
       103   04 Jun 2027 07:35:52.153   04 Jun 2027 07:35:55.932             3.779           532.969
       104   04 Jun 2027 07:36:21.041   04 Jun 2027 07:36:21.041             0.000             0.000
       105   04 Jun 2027 07:36:40.934   04 Jun 2027 07:36:41.605             0.671           335.500
       106   04 Jun 2027 07:37:37.242   04 Jun 2027 07:37:43.162             5.920          2397.562
       107   04 Jun 2027 09:08:45.471   04 Jun 2027 09:08:57.346            11.875          3792.781
       108   04 Jun 2027 09:10:52.034   04 Jun 2027 09:11:00.510             8.476          2545.562
       109   04 Jun 2027 09:11:34.760   04 Jun 2027 09:11:40.620             5.860           166.125
       110   04 Jun 2027 09:14:09.528   04 Jun 2027 09:14:18.465             8.937          4241.813
       111   04 Jun 2027 09:14:45.663   04 Jun 2027 09:14:49.639             3.976           587.000
       112   04 Jun 2027 09:15:24.945   04 Jun 2027 09:15:26.829             1.884           385.781
       113   04 Jun 2027 09:16:17.993   04 Jun 2027 09:16:21.278             3.285          1565.375
       114   04 Jun 2027 09:16:33.101   04 Jun 2027 09:16:34.139             1.038            55.500
       115   04 Jun 2027 10:45:52.202   04 Jun 2027 10:46:06.414            14.212          6612.313
       116   04 Jun 2027 10:46:29.073   04 Jun 2027 10:46:31.347             2.274           255.625
       117   04 Jun 2027 10:46:46.160   04 Jun 2027 10:46:49.652             3.492           319.594
       118   04 Jun 2027 10:47:37.646   04 Jun 2027 10:47:40.110             2.464          1232.000
       119   04 Jun 2027 10:47:56.322   04 Jun 2027 10:48:00.392             4.070           527.125
       120   04 Jun 2027 10:48:46.018   04 Jun 2027 10:48:52.249             6.231          1310.156
       121   04 Jun 2027 10:49:05.901   04 Jun 2027 10:49:08.656             2.755           201.031
       122   04 Jun 2027 10:49:54.995   04 Jun 2027 10:49:57.326             2.331          1038.594
       123   04 Jun 2027 10:50:35.214   04 Jun 2027 10:50:35.713             0.499           249.500
       124   04 Jun 2027 10:50:53.008   04 Jun 2027 10:50:57.984             4.976          1377.313
       125   04 Jun 2027 10:51:56.127   04 Jun 2027 10:52:02.434             6.307          1799.469
       126   04 Jun 2027 10:52:15.964   04 Jun 2027 10:52:18.303             2.339           422.812
       127   04 Jun 2027 10:52:25.544   04 Jun 2027 10:52:26.103             0.559            77.063
       128   05 Jun 2027 03:08:53.442   05 Jun 2027 03:09:51.645            58.203         29101.500
       129   05 Jun 2027 03:09:57.419   05 Jun 2027 03:11:56.490           119.071         59535.500
       130   05 Jun 2027 03:13:35.211   05 Jun 2027 03:13:37.945             2.734          1367.000
       131   05 Jun 2027 03:14:02.270   05 Jun 2027 03:14:17.746            15.476          7738.000
       132   05 Jun 2027 03:14:23.813   05 Jun 2027 03:14:23.813             0.000             0.000
       133   05 Jun 2027 03:14:29.029   05 Jun 2027 03:14:29.951             0.922           461.000
       134   05 Jun 2027 04:47:25.441   05 Jun 2027 04:49:08.223           102.782         51108.625
       135   05 Jun 2027 04:50:13.031   05 Jun 2027 04:50:21.893             8.862          1547.156
       136   05 Jun 2027 04:50:26.393   05 Jun 2027 04:50:26.393             0.000             0.000
       137   05 Jun 2027 04:50:32.017   05 Jun 2027 04:50:32.882             0.865           316.375
       138   05 Jun 2027 06:10:22.976   05 Jun 2027 06:10:37.264            14.288          6968.750
       139   05 Jun 2027 06:12:34.479   05 Jun 2027 06:12:34.479             0.000             0.000
       140   05 Jun 2027 07:46:48.947   05 Jun 2027 07:46:58.001             9.054          4176.594
       141   05 Jun 2027 07:47:40.176   05 Jun 2027 07:47:42.628             2.452           822.625
       142   05 Jun 2027 07:48:53.583   05 Jun 2027 07:48:58.123             4.540          1866.812
       143   05 Jun 2027 07:49:47.053   05 Jun 2027 07:49:50.099             3.046           698.281
       144   05 Jun 2027 09:21:57.300   05 Jun 2027 09:22:06.896             9.596          4389.844
       145   05 Jun 2027 09:23:00.960   05 Jun 2027 09:23:00.960             0.000             0.000
       146   05 Jun 2027 09:23:13.204   05 Jun 2027 09:23:16.384             3.180          1232.688
       147   05 Jun 2027 09:24:16.574   05 Jun 2027 09:24:20.085             3.511          1418.906
       148   05 Jun 2027 09:25:51.478   05 Jun 2027 09:25:56.589             5.111          1874.281
       149   05 Jun 2027 09:26:27.953   05 Jun 2027 09:26:34.511             6.558           328.687
       150   05 Jun 2027 09:26:47.626   05 Jun 2027 09:26:47.856             0.230             7.844
       151   05 Jun 2027 09:28:27.109   05 Jun 2027 09:28:32.606             5.497          2109.938
       152   05 Jun 2027 09:28:39.276   05 Jun 2027 09:28:40.857             1.581           164.000
       153   05 Jun 2027 10:58:18.021   05 Jun 2027 10:58:30.566            12.545          5803.031
       154   05 Jun 2027 10:59:13.688   05 Jun 2027 10:59:17.442             3.754           876.094
       155   05 Jun 2027 11:00:18.978   05 Jun 2027 11:00:23.574             4.596           894.594
       156   05 Jun 2027 11:01:06.885   05 Jun 2027 11:01:13.424             6.539          1140.344
       157   05 Jun 2027 11:02:31.947   05 Jun 2027 11:02:35.831             3.884          1741.344
       158   05 Jun 2027 11:02:59.081   05 Jun 2027 11:03:00.891             1.810           723.344
       159   05 Jun 2027 11:03:36.060   05 Jun 2027 11:03:40.491             4.431           764.531
       160   05 Jun 2027 11:03:43.190   05 Jun 2027 11:03:44.658             1.468            58.344
       161   05 Jun 2027 11:03:57.935   05 Jun 2027 11:04:00.438             2.503           414.906
       162   05 Jun 2027 11:04:28.264   05 Jun 2027 11:04:28.264             0.000             0.000
       163   06 Jun 2027 03:20:46.490   06 Jun 2027 03:21:43.666            57.176         28588.000
       164   06 Jun 2027 03:21:53.555   06 Jun 2027 03:24:20.582           147.027         73513.500
       165   06 Jun 2027 03:25:51.992   06 Jun 2027 03:26:07.872            15.880          7940.000
       166   06 Jun 2027 03:26:21.837   06 Jun 2027 03:26:25.247             3.410          1705.000
       167   06 Jun 2027 04:59:02.787   06 Jun 2027 05:00:14.246            71.459         35729.500
       168   06 Jun 2027 05:00:47.621   06 Jun 2027 05:00:58.624            11.003          5195.562
       169   06 Jun 2027 05:01:51.148   06 Jun 2027 05:01:57.967             6.819          1066.656
       170   06 Jun 2027 05:02:23.219   06 Jun 2027 05:02:23.845             0.626           313.000
       171   06 Jun 2027 05:02:27.290   06 Jun 2027 05:02:33.581             6.291           539.875
       172   06 Jun 2027 06:22:22.989   06 Jun 2027 06:22:33.630            10.641          5320.500
       173   06 Jun 2027 06:23:40.524   06 Jun 2027 06:23:47.383             6.859          2771.531
       174   06 Jun 2027 06:25:23.474   06 Jun 2027 06:25:33.262             9.788          2861.438
       175   06 Jun 2027 07:58:59.433   06 Jun 2027 07:59:05.718             6.285          2775.531
       176   06 Jun 2027 07:59:55.393   06 Jun 2027 08:00:00.350             4.957          1481.594
       177   06 Jun 2027 08:00:15.962   06 Jun 2027 08:00:17.403             1.441           268.156
       178   06 Jun 2027 08:01:35.617   06 Jun 2027 08:01:43.274             7.657          2367.156
       179   06 Jun 2027 09:34:09.569   06 Jun 2027 09:34:17.054             7.485          3733.250
       180   06 Jun 2027 09:35:45.647   06 Jun 2027 09:35:54.488             8.841          2597.219
       181   06 Jun 2027 09:36:47.637   06 Jun 2027 09:36:51.137             3.500          1606.437
       182   06 Jun 2027 09:37:53.474   06 Jun 2027 09:37:58.164             4.690          1948.031
       183   06 Jun 2027 09:38:00.349   06 Jun 2027 09:38:03.175             2.826            68.281
       184   06 Jun 2027 09:38:29.892   06 Jun 2027 09:38:39.454             9.562           628.937
       185   06 Jun 2027 09:39:01.257   06 Jun 2027 09:39:02.373             1.116           333.469
       186   06 Jun 2027 09:39:40.732   06 Jun 2027 09:39:44.262             3.530           672.531
       187   06 Jun 2027 09:40:10.807   06 Jun 2027 09:40:14.668             3.861           162.188
       188   06 Jun 2027 11:10:26.821   06 Jun 2027 11:10:41.156            14.335          6548.750
       189   06 Jun 2027 11:12:04.852   06 Jun 2027 11:12:07.388             2.536          1236.500
       190   06 Jun 2027 11:12:33.110   06 Jun 2027 11:12:37.017             3.907           750.250
       191   06 Jun 2027 11:13:24.130   06 Jun 2027 11:13:30.132             6.002           707.719
       192   06 Jun 2027 11:14:20.672   06 Jun 2027 11:14:26.156             5.484          1493.219
       193   06 Jun 2027 11:15:04.332   06 Jun 2027 11:15:08.460             4.128          1181.125
       194   06 Jun 2027 11:15:37.722   06 Jun 2027 11:15:39.795             2.073           789.312
       195   06 Jun 2027 11:16:31.839   06 Jun 2027 11:16:36.093             4.254          1475.906
       196   07 Jun 2027 03:33:52.512   07 Jun 2027 03:37:40.536           228.024        114012.000
       197   07 Jun 2027 03:40:44.797   07 Jun 2027 03:41:02.169            17.372          8686.000
       198   07 Jun 2027 03:41:40.843   07 Jun 2027 03:41:44.802             3.959          1979.500
       199   07 Jun 2027 05:00:15.243   07 Jun 2027 05:00:19.696             4.453          2226.500
       200   07 Jun 2027 05:10:59.048   07 Jun 2027 05:11:40.945            41.897         20948.500
       201   07 Jun 2027 05:11:47.840   07 Jun 2027 05:12:19.691            31.851         15902.750
       202   07 Jun 2027 05:13:20.841   07 Jun 2027 05:13:23.821             2.980          1490.000
       203   07 Jun 2027 05:13:53.124   07 Jun 2027 05:13:54.553             1.429           714.500
       204   07 Jun 2027 05:13:58.292   07 Jun 2027 05:13:58.292             0.000             0.000
       205   07 Jun 2027 05:14:07.743   07 Jun 2027 05:14:19.380            11.637          1034.344
       206   07 Jun 2027 05:14:28.563   07 Jun 2027 05:14:30.358             1.795            88.938
       207   07 Jun 2027 06:34:58.581   07 Jun 2027 06:35:11.334            12.753          5416.281
       208   07 Jun 2027 06:35:26.647   07 Jun 2027 06:35:28.372             1.725           411.437
       209   07 Jun 2027 06:35:51.135   07 Jun 2027 06:35:53.986             2.851           669.531
       210   07 Jun 2027 06:37:04.301   07 Jun 2027 06:37:08.654             4.353          1988.750
       211   07 Jun 2027 08:10:43.850   07 Jun 2027 08:10:59.604            15.754          3527.031
       212   07 Jun 2027 08:12:50.607   07 Jun 2027 08:12:52.388             1.781           890.500
       213   07 Jun 2027 08:13:36.979   07 Jun 2027 08:13:45.825             8.846          3965.406
       214   07 Jun 2027 09:45:38.322   07 Jun 2027 09:45:46.442             8.120          4060.000
       215   07 Jun 2027 09:45:53.619   07 Jun 2027 09:45:56.138             2.519           956.562
       216   07 Jun 2027 09:47:33.453   07 Jun 2027 09:47:44.015            10.562          2697.562
       217   07 Jun 2027 09:48:32.169   07 Jun 2027 09:48:33.740             1.571           784.469
       218   07 Jun 2027 09:48:43.262   07 Jun 2027 09:48:43.262             0.000             0.000
       219   07 Jun 2027 09:49:56.412   07 Jun 2027 09:50:01.729             5.317          2414.969
       220   07 Jun 2027 09:50:33.119   07 Jun 2027 09:50:38.686             5.567           980.938
       221   07 Jun 2027 09:50:55.142   07 Jun 2027 09:50:56.941             1.799           514.250
       222   07 Jun 2027 09:50:59.890   07 Jun 2027 09:51:03.912             4.022            92.156
       223   07 Jun 2027 09:51:37.485   07 Jun 2027 09:51:41.360             3.875          1049.156
       224   07 Jun 2027 09:52:39.573   07 Jun 2027 09:52:44.295             4.722          1805.813
       225   07 Jun 2027 11:22:09.635   07 Jun 2027 11:22:21.779            12.144          5738.031
       226   07 Jun 2027 11:23:04.976   07 Jun 2027 11:23:09.074             4.098           924.125
       227   07 Jun 2027 11:24:08.512   07 Jun 2027 11:24:13.751             5.239          1853.031
       228   07 Jun 2027 11:24:35.797   07 Jun 2027 11:24:37.592             1.795           664.281
       229   07 Jun 2027 11:25:25.938   07 Jun 2027 11:25:29.561             3.623          1192.969
       230   07 Jun 2027 11:26:02.016   07 Jun 2027 11:26:03.833             1.817           761.687
       231   07 Jun 2027 11:26:41.082   07 Jun 2027 11:26:43.028             1.946           894.250
       232   07 Jun 2027 11:26:48.980   07 Jun 2027 11:27:06.080            17.100           104.063
       233   07 Jun 2027 11:27:08.788   07 Jun 2027 11:27:09.378             0.590            84.625
       234   07 Jun 2027 11:27:23.069   07 Jun 2027 11:27:29.653             6.584           353.344
       235   07 Jun 2027 11:28:21.115   07 Jun 2027 11:28:24.816             3.701          1608.188
       236   08 Jun 2027 03:46:00.610   08 Jun 2027 03:49:49.205           228.595        114297.500
       237   08 Jun 2027 03:51:16.992   08 Jun 2027 03:51:16.992             0.000             0.000
       238   08 Jun 2027 03:51:32.159   08 Jun 2027 03:52:09.860            37.701         18850.500
       239   08 Jun 2027 03:52:11.902   08 Jun 2027 03:52:12.584             0.682           341.000
       240   08 Jun 2027 03:53:01.191   08 Jun 2027 03:53:26.847            25.656         12482.312
       241   08 Jun 2027 05:11:33.093   08 Jun 2027 05:11:41.239             8.146          4073.000
       242   08 Jun 2027 05:22:56.907   08 Jun 2027 05:23:52.622            55.715         27630.938
       243   08 Jun 2027 05:24:27.621   08 Jun 2027 05:24:31.988             4.367           988.375
       244   08 Jun 2027 06:45:33.739   08 Jun 2027 06:45:44.825            11.086          4938.813
       245   08 Jun 2027 06:46:22.148   08 Jun 2027 06:46:22.674             0.526           263.000
       246   08 Jun 2027 06:47:52.809   08 Jun 2027 06:48:02.525             9.716          2547.687
       247   08 Jun 2027 06:49:51.797   08 Jun 2027 06:50:00.435             8.638          3414.750
       248   08 Jun 2027 06:50:11.485   08 Jun 2027 06:50:14.755             3.270           345.313
       249   08 Jun 2027 08:20:58.780   08 Jun 2027 08:21:11.291            12.511          5137.344
       250   08 Jun 2027 08:21:53.393   08 Jun 2027 08:21:53.922             0.529           264.500
       251   08 Jun 2027 08:22:48.308   08 Jun 2027 08:22:56.073             7.765          2655.656
       252   08 Jun 2027 08:23:37.717   08 Jun 2027 08:23:39.753             2.036           728.406
       253   08 Jun 2027 08:23:51.477   08 Jun 2027 08:23:52.298             0.821            93.844
       254   08 Jun 2027 08:25:30.703   08 Jun 2027 08:25:38.875             8.172          2902.438
       255   08 Jun 2027 08:26:35.653   08 Jun 2027 08:26:40.248             4.595          1774.312
       256   08 Jun 2027 08:26:48.916   08 Jun 2027 08:26:50.325             1.409           225.844
       257   08 Jun 2027 09:57:24.201   08 Jun 2027 09:57:31.940             7.739          3540.875
       258   08 Jun 2027 10:00:40.712   08 Jun 2027 10:00:52.372            11.660          5489.844
       259   08 Jun 2027 10:01:01.289   08 Jun 2027 10:01:01.289             0.000             0.000
       260   08 Jun 2027 10:01:46.584   08 Jun 2027 10:01:51.813             5.229          1639.406
       261   08 Jun 2027 10:03:19.057   08 Jun 2027 10:03:24.600             5.543          2404.281
       262   08 Jun 2027 10:04:06.963   08 Jun 2027 10:04:09.822             2.859          1306.531
       263   08 Jun 2027 10:04:41.827   08 Jun 2027 10:04:45.314             3.487           763.875
       264   08 Jun 2027 11:34:30.330   08 Jun 2027 11:34:45.141            14.811          6689.250
       265   08 Jun 2027 11:35:14.899   08 Jun 2027 11:35:18.840             3.941           872.125
       266   08 Jun 2027 11:36:13.323   08 Jun 2027 11:36:18.496             5.173          1266.562
       267   08 Jun 2027 11:36:31.082   08 Jun 2027 11:36:32.357             1.275           393.313
       268   08 Jun 2027 11:36:37.950   08 Jun 2027 11:36:46.883             8.933           170.938
       269   08 Jun 2027 11:38:03.268   08 Jun 2027 11:38:09.141             5.873          2123.375
       270   08 Jun 2027 11:38:09.674   08 Jun 2027 11:38:10.744             1.070            16.656
       271   08 Jun 2027 11:38:38.144   08 Jun 2027 11:38:39.312             1.168           584.000
       272   08 Jun 2027 11:38:40.443   08 Jun 2027 11:38:42.999             2.556           272.031
       273   08 Jun 2027 11:39:12.467   08 Jun 2027 11:39:14.697             2.230           810.719
       274   08 Jun 2027 11:40:22.270   08 Jun 2027 11:40:27.453             5.183          2036.656
       275   09 Jun 2027 03:58:26.691   09 Jun 2027 04:01:28.505           181.814         90907.000
       276   09 Jun 2027 04:02:00.634   09 Jun 2027 04:02:19.928            19.294          9647.000
       277   09 Jun 2027 04:02:31.930   09 Jun 2027 04:02:46.853            14.923          7461.500
       278   09 Jun 2027 04:03:28.130   09 Jun 2027 04:03:28.130             0.000             0.000
       279   09 Jun 2027 04:03:41.395   09 Jun 2027 04:04:14.267            32.872         16436.000
       280   09 Jun 2027 04:05:15.577   09 Jun 2027 04:05:33.779            18.202          9101.000
       281   09 Jun 2027 05:23:16.577   09 Jun 2027 05:23:51.071            34.494         17247.000
       282   09 Jun 2027 05:34:56.257   09 Jun 2027 05:35:48.989            52.732         23902.563
       283   09 Jun 2027 06:57:13.847   09 Jun 2027 06:57:30.338            16.491          7898.188
       284   09 Jun 2027 06:57:59.026   09 Jun 2027 06:58:01.818             2.792           361.687
       285   09 Jun 2027 06:59:40.295   09 Jun 2027 06:59:46.166             5.871          2878.938
       286   09 Jun 2027 07:02:06.384   09 Jun 2027 07:02:16.344             9.960          4043.344
       287   09 Jun 2027 08:32:07.807   09 Jun 2027 08:32:25.358            17.551          4455.750
       288   09 Jun 2027 08:33:08.147   09 Jun 2027 08:33:08.947             0.800           400.000
       289   09 Jun 2027 08:33:29.517   09 Jun 2027 08:33:33.760             4.243          1110.938
       290   09 Jun 2027 08:35:12.159   09 Jun 2027 08:35:18.346             6.187          2707.062
       291   09 Jun 2027 08:36:01.614   09 Jun 2027 08:36:10.121             8.507          1352.125
       292   09 Jun 2027 08:37:29.365   09 Jun 2027 08:37:38.258             8.893          2357.531
       293   09 Jun 2027 08:38:08.458   09 Jun 2027 08:38:11.280             2.822           932.500
       294   09 Jun 2027 08:38:14.489   09 Jun 2027 08:38:17.080             2.591            56.813
       295   09 Jun 2027 08:38:34.515   09 Jun 2027 08:38:38.334             3.819           544.844
       296   09 Jun 2027 08:38:43.703   09 Jun 2027 08:38:46.846             3.143           167.781
       297   09 Jun 2027 08:40:10.582   09 Jun 2027 08:40:15.402             4.820          1830.063
       298   09 Jun 2027 08:40:24.484   09 Jun 2027 08:40:25.958             1.474           235.250
       299   09 Jun 2027 10:09:40.002   09 Jun 2027 10:09:47.467             7.465          3609.125
       300   09 Jun 2027 10:10:57.299   09 Jun 2027 10:11:01.793             4.494           629.750
       301   09 Jun 2027 10:11:10.528   09 Jun 2027 10:11:12.657             2.129            39.000
       302   09 Jun 2027 10:12:45.564   09 Jun 2027 10:12:45.564             0.000             0.000
       303   09 Jun 2027 10:13:19.832   09 Jun 2027 10:13:34.314            14.482          3315.719
       304   09 Jun 2027 10:14:15.448   09 Jun 2027 10:14:18.443             2.995           841.813
       305   09 Jun 2027 10:14:30.525   09 Jun 2027 10:14:31.727             1.202            49.875
       306   09 Jun 2027 10:14:33.197   09 Jun 2027 10:14:35.289             2.092            45.937
       307   09 Jun 2027 10:14:44.721   09 Jun 2027 10:14:45.987             1.266           255.813
       308   09 Jun 2027 10:14:55.410   09 Jun 2027 10:14:57.666             2.256           257.875
       309   09 Jun 2027 10:16:08.032   09 Jun 2027 10:16:14.492             6.460          2198.938
       310   09 Jun 2027 10:16:56.815   09 Jun 2027 10:16:59.579             2.764          1322.594
       311   09 Jun 2027 11:46:23.672   09 Jun 2027 11:46:37.344            13.672          6004.844
       312   09 Jun 2027 11:47:19.774   09 Jun 2027 11:47:23.196             3.422          1231.281
       313   09 Jun 2027 11:47:48.998   09 Jun 2027 11:47:52.595             3.597           806.312
       314   09 Jun 2027 11:48:21.971   09 Jun 2027 11:48:30.693             8.722           863.187
       315   09 Jun 2027 11:48:39.526   09 Jun 2027 11:48:42.359             2.833           276.031
       316   09 Jun 2027 11:49:18.191   09 Jun 2027 11:49:18.191             0.000             0.000
       317   09 Jun 2027 11:49:43.109   09 Jun 2027 11:49:55.814            12.705          1433.375
       318   09 Jun 2027 11:50:19.347   09 Jun 2027 11:50:20.893             1.546           735.406
       319   09 Jun 2027 11:51:12.143   09 Jun 2027 11:51:15.362             3.219          1601.563
       320   09 Jun 2027 11:51:48.568   09 Jun 2027 11:51:48.934             0.366           183.000
       321   09 Jun 2027 11:52:25.756   09 Jun 2027 11:52:30.997             5.241          2005.375
       322   10 Jun 2027 04:10:30.372   10 Jun 2027 04:12:52.061           141.689         70844.500
       323   10 Jun 2027 04:13:39.435   10 Jun 2027 04:14:23.311            43.876         21938.000
       324   10 Jun 2027 04:14:55.235   10 Jun 2027 04:15:18.900            23.665         11832.500
       325   10 Jun 2027 04:16:15.847   10 Jun 2027 04:16:15.847             0.000             0.000
       326   10 Jun 2027 04:16:36.769   10 Jun 2027 04:17:10.472            33.703         16851.500
       327   10 Jun 2027 05:34:49.879   10 Jun 2027 05:35:22.122            32.243         16121.500
       328   10 Jun 2027 05:35:27.260   10 Jun 2027 05:35:33.640             6.380          3190.000
       329   10 Jun 2027 05:47:09.836   10 Jun 2027 05:47:30.868            21.032         10516.000
       330   10 Jun 2027 07:08:45.460   10 Jun 2027 07:09:35.290            49.830         22576.156
       331   10 Jun 2027 07:10:54.195   10 Jun 2027 07:10:56.137             1.942           545.875
       332   10 Jun 2027 07:11:20.217   10 Jun 2027 07:11:27.506             7.289           725.656
       333   10 Jun 2027 07:11:36.624   10 Jun 2027 07:11:37.888             1.264           205.656
       334   10 Jun 2027 07:12:06.329   10 Jun 2027 07:12:08.124             1.795           851.000
       335   10 Jun 2027 07:13:53.649   10 Jun 2027 07:13:59.646             5.997          2505.312
       336   10 Jun 2027 07:14:10.370   10 Jun 2027 07:14:10.370             0.000             0.000
       337   10 Jun 2027 08:43:38.771   10 Jun 2027 08:43:45.224             6.453          3226.500
       338   10 Jun 2027 08:44:29.012   10 Jun 2027 08:44:34.791             5.779          2868.781
       339   10 Jun 2027 08:45:24.728   10 Jun 2027 08:45:27.043             2.315           551.187
       340   10 Jun 2027 08:45:52.731   10 Jun 2027 08:45:54.439             1.708           187.781
       341   10 Jun 2027 08:46:04.357   10 Jun 2027 08:46:04.357             0.000             0.000
       342   10 Jun 2027 08:47:58.981   10 Jun 2027 08:48:07.874             8.893          3754.344
       343   10 Jun 2027 08:49:29.366   10 Jun 2027 08:49:37.176             7.810          2315.406
       344   10 Jun 2027 08:50:05.484   10 Jun 2027 08:50:09.902             4.418           884.625
       345   10 Jun 2027 08:50:12.790   10 Jun 2027 08:50:13.479             0.689            90.250
       346   10 Jun 2027 08:50:35.236   10 Jun 2027 08:50:36.677             1.441           400.781
       347   10 Jun 2027 08:50:57.341   10 Jun 2027 08:50:59.491             2.150           645.750
       348   10 Jun 2027 08:51:44.348   10 Jun 2027 08:51:44.670             0.322           161.000
       349   10 Jun 2027 08:52:50.841   10 Jun 2027 08:52:57.402             6.561          2691.344
       350   10 Jun 2027 10:21:35.059   10 Jun 2027 10:21:50.857            15.798          6173.094
       351   10 Jun 2027 10:22:38.806   10 Jun 2027 10:22:40.228             1.422           552.219
       352   10 Jun 2027 10:22:47.720   10 Jun 2027 10:22:48.219             0.499           234.125
       353   10 Jun 2027 10:23:45.816   10 Jun 2027 10:23:57.504            11.688          1799.906
       354   10 Jun 2027 10:24:37.311   10 Jun 2027 10:24:43.007             5.696           964.594
       355   10 Jun 2027 10:24:59.689   10 Jun 2027 10:25:01.762             2.073           330.500
       356   10 Jun 2027 10:25:42.382   10 Jun 2027 10:25:47.930             5.548           908.969
       357   10 Jun 2027 10:27:24.918   10 Jun 2027 10:27:31.196             6.278          3030.875
       358   10 Jun 2027 10:27:45.843   10 Jun 2027 10:27:48.902             3.059           212.562
       359   10 Jun 2027 10:28:25.705   10 Jun 2027 10:28:27.346             1.641           820.500
       360   10 Jun 2027 10:28:40.169   10 Jun 2027 10:28:43.236             3.067           605.656
       361   10 Jun 2027 11:58:22.959   10 Jun 2027 11:58:38.701            15.742          7671.688
       362   10 Jun 2027 11:59:23.867   10 Jun 2027 11:59:30.167             6.300           286.250
       363   11 Jun 2027 04:22:56.691   11 Jun 2027 04:26:27.571           210.880        105440.000
       364   11 Jun 2027 04:26:45.318   11 Jun 2027 04:27:08.850            23.532         11766.000
       365   11 Jun 2027 05:46:45.748   11 Jun 2027 05:47:53.935            68.187         34093.500
       366   11 Jun 2027 07:22:45.347   11 Jun 2027 07:23:19.249            33.902         14931.938
       367   11 Jun 2027 07:23:31.351   11 Jun 2027 07:23:31.351             0.000             0.000
       368   11 Jun 2027 07:24:04.371   11 Jun 2027 07:24:08.192             3.821          1410.062
       369   11 Jun 2027 07:25:54.085   11 Jun 2027 07:26:03.209             9.124          3309.156
       370   11 Jun 2027 08:56:32.693   11 Jun 2027 08:56:45.487            12.794          3652.875
       371   11 Jun 2027 08:58:58.764   11 Jun 2027 08:59:04.222             5.458          2224.844
       372   11 Jun 2027 09:00:19.152   11 Jun 2027 09:00:28.415             9.263          2341.562
       373   11 Jun 2027 09:03:00.656   11 Jun 2027 09:03:00.656             0.000             0.000
       374   11 Jun 2027 09:03:17.075   11 Jun 2027 09:03:25.128             8.053          3909.750
       375   11 Jun 2027 09:04:14.773   11 Jun 2027 09:04:19.339             4.566          1498.813
       376   11 Jun 2027 10:33:47.652   11 Jun 2027 10:34:06.106            18.454          7517.344
       377   11 Jun 2027 10:34:30.451   11 Jun 2027 10:34:33.015             2.564           459.437
       378   11 Jun 2027 10:34:54.712   11 Jun 2027 10:34:55.384             0.672            59.219
       379   11 Jun 2027 10:35:13.620   11 Jun 2027 10:35:15.681             2.061           569.875
       380   11 Jun 2027 10:35:20.796   11 Jun 2027 10:35:22.368             1.572           159.844
       381   11 Jun 2027 10:36:17.905   11 Jun 2027 10:36:17.905             0.000             0.000
       382   11 Jun 2027 10:38:17.248   11 Jun 2027 10:38:28.199            10.951          5188.500
       383   11 Jun 2027 10:39:03.748   11 Jun 2027 10:39:08.540             4.792          1110.906
       384   11 Jun 2027 10:39:22.127   11 Jun 2027 10:39:23.279             1.152            97.250
       385   11 Jun 2027 10:39:30.096   11 Jun 2027 10:39:34.534             4.438           194.125
       386   11 Jun 2027 10:40:17.253   11 Jun 2027 10:40:20.103             2.850           984.562
       387   11 Jun 2027 10:40:36.803   11 Jun 2027 10:40:40.909             4.106           517.063
       388   12 Jun 2027 03:00:00.000   12 Jun 2027 03:00:16.522            16.522          8261.000
       389   12 Jun 2027 03:00:59.189   12 Jun 2027 03:01:46.598            47.409         23704.500
       390   12 Jun 2027 03:02:26.281   12 Jun 2027 03:02:31.420             5.139          2569.500
       391   12 Jun 2027 03:02:53.082   12 Jun 2027 03:03:03.941            10.859          5429.500
       392   12 Jun 2027 04:35:15.939   12 Jun 2027 04:37:41.823           145.884         72942.000
       393   12 Jun 2027 04:37:47.975   12 Jun 2027 04:38:02.428            14.453          7226.500
       394   12 Jun 2027 04:39:09.240   12 Jun 2027 04:39:26.050            16.810          8405.000
       395   12 Jun 2027 05:58:37.772   12 Jun 2027 05:59:19.155            41.383         20691.500
       396   12 Jun 2027 06:00:13.481   12 Jun 2027 06:00:13.481             0.000             0.000
       397   12 Jun 2027 06:01:05.952   12 Jun 2027 06:01:10.007             4.055          2027.500
       398   12 Jun 2027 07:34:59.610   12 Jun 2027 07:35:43.302            43.692         20381.656
       399   12 Jun 2027 07:35:45.326   12 Jun 2027 07:35:46.708             1.382            63.250
       400   12 Jun 2027 07:36:09.990   12 Jun 2027 07:36:11.197             1.207           518.750
       401   12 Jun 2027 07:36:33.719   12 Jun 2027 07:36:36.226             2.507           249.750
       402   12 Jun 2027 07:36:59.113   12 Jun 2027 07:36:59.708             0.595            59.313
       403   12 Jun 2027 07:37:39.706   12 Jun 2027 07:37:42.287             2.581          1249.938
       404   12 Jun 2027 09:07:17.624   12 Jun 2027 09:07:26.525             8.901          4171.094
       405   12 Jun 2027 09:09:04.508   12 Jun 2027 09:09:12.182             7.674          1808.750
       406   12 Jun 2027 09:10:57.937   12 Jun 2027 09:11:05.129             7.192          2194.000
       407   12 Jun 2027 09:11:53.516   12 Jun 2027 09:11:57.009             3.493          1352.500
       408   12 Jun 2027 09:12:12.708   12 Jun 2027 09:12:14.048             1.340            83.688
       409   12 Jun 2027 09:13:00.004   12 Jun 2027 09:13:03.179             3.175          1369.594
       410   12 Jun 2027 09:14:14.484   12 Jun 2027 09:14:17.873             3.389          1473.031
       411   12 Jun 2027 09:15:32.836   12 Jun 2027 09:15:37.395             4.559          2168.594
       412   12 Jun 2027 09:15:46.195   12 Jun 2027 09:15:48.689             2.494           270.375
       413   12 Jun 2027 09:16:59.237   12 Jun 2027 09:17:01.036             1.799           899.500
       414   12 Jun 2027 10:46:08.474   12 Jun 2027 10:46:22.481            14.007          6151.250
       415   12 Jun 2027 10:46:36.366   12 Jun 2027 10:46:38.678             2.312           167.062
       416   12 Jun 2027 10:47:02.182   12 Jun 2027 10:47:05.116             2.934           309.656
       417   12 Jun 2027 10:47:13.822   12 Jun 2027 10:47:14.952             1.130           272.063
       418   12 Jun 2027 10:47:47.802   12 Jun 2027 10:47:50.513             2.711           837.344
       419   12 Jun 2027 10:48:12.577   12 Jun 2027 10:48:14.695             2.118           571.094
       420   12 Jun 2027 10:49:02.053   12 Jun 2027 10:49:08.166             6.113          1341.656
       421   12 Jun 2027 10:50:33.849   12 Jun 2027 10:50:39.931             6.082          2468.125
       422   12 Jun 2027 10:50:58.861   12 Jun 2027 10:51:02.719             3.858           591.563
       423   12 Jun 2027 10:51:14.387   12 Jun 2027 10:51:15.752             1.365           287.344
       424   12 Jun 2027 10:51:25.197   12 Jun 2027 10:51:25.764             0.567           246.938
       425   12 Jun 2027 10:52:00.131   12 Jun 2027 10:52:06.832             6.701           634.531
       426   12 Jun 2027 10:52:41.787   12 Jun 2027 10:52:41.857             0.070            35.000
       427   13 Jun 2027 03:09:07.169   13 Jun 2027 03:10:08.022            60.853         30426.500
       428   13 Jun 2027 03:10:13.650   13 Jun 2027 03:11:37.640            83.990         41995.000
       429   13 Jun 2027 03:12:37.136   13 Jun 2027 03:12:59.904            22.768         11384.000
       430   13 Jun 2027 03:13:53.575   13 Jun 2027 03:14:08.450            14.875          7437.500
       431   13 Jun 2027 04:48:08.342   13 Jun 2027 04:50:06.717           118.375         59187.500
       432   13 Jun 2027 04:50:11.843   13 Jun 2027 04:50:23.733            11.890          2843.625
       433   13 Jun 2027 04:50:44.400   13 Jun 2027 04:50:46.659             2.259           524.344
       434   13 Jun 2027 04:51:08.470   13 Jun 2027 04:51:14.517             6.047           681.594
       435   13 Jun 2027 06:10:41.174   13 Jun 2027 06:10:56.124            14.950          7278.250
       436   13 Jun 2027 07:47:07.190   13 Jun 2027 07:47:22.327            15.137          4244.688
       437   13 Jun 2027 07:47:46.557   13 Jun 2027 07:47:50.548             3.991           432.000
       438   13 Jun 2027 07:49:53.551   13 Jun 2027 07:50:03.746            10.195          3596.719
       439   13 Jun 2027 07:50:09.883   13 Jun 2027 07:50:12.480             2.597           191.781
       440   13 Jun 2027 09:22:14.901   13 Jun 2027 09:22:25.466            10.565          4626.719
       441   13 Jun 2027 09:23:19.442   13 Jun 2027 09:23:19.442             0.000             0.000
       442   13 Jun 2027 09:23:31.652   13 Jun 2027 09:23:48.988            17.336          1317.781
       443   13 Jun 2027 09:24:34.873   13 Jun 2027 09:24:37.968             3.095          1433.906
       444   13 Jun 2027 09:24:50.237   13 Jun 2027 09:24:53.581             3.344           263.406
       445   13 Jun 2027 09:24:58.172   13 Jun 2027 09:25:00.268             2.096            87.687
       446   13 Jun 2027 09:25:38.189   13 Jun 2027 09:25:42.320             4.131           410.375
       447   13 Jun 2027 09:26:05.932   13 Jun 2027 09:26:09.242             3.310           480.625
       448   13 Jun 2027 09:26:32.973   13 Jun 2027 09:26:33.975             1.002           501.000
       449   13 Jun 2027 09:27:16.669   13 Jun 2027 09:27:20.397             3.728          1574.781
       450   13 Jun 2027 09:28:17.332   13 Jun 2027 09:28:20.783             3.451          1421.594
       451   13 Jun 2027 09:28:52.413   13 Jun 2027 09:28:52.526             0.113            56.500
       452   13 Jun 2027 09:28:55.453   13 Jun 2027 09:29:00.114             4.661           925.625
       453   13 Jun 2027 10:58:36.510   13 Jun 2027 10:58:46.307             9.797          4880.531
       454   13 Jun 2027 10:59:01.242   13 Jun 2027 10:59:11.297            10.055           466.719
       455   13 Jun 2027 11:00:23.770   13 Jun 2027 11:00:29.735             5.965          2264.781
       456   13 Jun 2027 11:00:52.014   13 Jun 2027 11:00:53.862             1.848           696.219
       457   13 Jun 2027 11:01:22.082   13 Jun 2027 11:01:23.923             1.841           881.875
       458   13 Jun 2027 11:01:53.155   13 Jun 2027 11:01:57.681             4.526           913.500
       459   13 Jun 2027 11:02:40.133   13 Jun 2027 11:02:42.842             2.709          1130.656
       460   13 Jun 2027 11:02:50.002   13 Jun 2027 11:02:53.635             3.633            71.875
       461   13 Jun 2027 11:03:01.985   13 Jun 2027 11:03:02.964             0.979           120.375
       462   13 Jun 2027 11:03:27.771   13 Jun 2027 11:03:29.428             1.657           772.375
       463   13 Jun 2027 11:04:16.043   13 Jun 2027 11:04:22.975             6.932           792.156
       464   13 Jun 2027 11:04:39.900   13 Jun 2027 11:04:41.126             1.226           518.438
