uniorb/output/strategy_2/Camera/Camera_KinoSat_110508.txt

KinoSat_110508
-------------------------
    Access    *     Start Time (UTCG)     *     Stop Time (UTCG)  *   Duration (s) *   Data (Mbytes)
         1   01 Jun 2027 03:19:43.881   01 Jun 2027 03:19:49.921             6.040          3020.000
         2   01 Jun 2027 03:20:35.805   01 Jun 2027 03:20:39.871             4.066          2033.000
         3   01 Jun 2027 03:21:07.416   01 Jun 2027 03:21:13.713             6.297          3148.500
         4   01 Jun 2027 03:21:47.344   01 Jun 2027 03:22:01.289            13.945          6972.500
         5   01 Jun 2027 03:23:07.097   01 Jun 2027 03:23:14.376             7.279          3639.500
         6   01 Jun 2027 04:54:41.631   01 Jun 2027 04:54:48.453             6.822          3411.000
         7   01 Jun 2027 04:55:29.141   01 Jun 2027 04:55:29.945             0.804           402.000
         8   01 Jun 2027 04:55:38.655   01 Jun 2027 04:55:55.325            16.670          8335.000
         9   01 Jun 2027 04:57:00.593   01 Jun 2027 04:57:16.192            15.599          7799.500
        10   01 Jun 2027 04:58:13.594   01 Jun 2027 04:58:17.098             3.504          1752.000
        11   01 Jun 2027 04:58:39.443   01 Jun 2027 04:58:44.414             4.971          2485.500
        12   01 Jun 2027 04:59:41.370   01 Jun 2027 04:59:57.179            15.809          7904.500
        13   01 Jun 2027 05:01:30.918   01 Jun 2027 05:01:31.169             0.251           125.500
        14   01 Jun 2027 06:30:53.732   01 Jun 2027 06:30:56.655             2.923          1461.500
        15   01 Jun 2027 06:31:29.979   01 Jun 2027 06:31:40.925            10.946          5473.000
        16   01 Jun 2027 06:32:41.183   01 Jun 2027 06:32:41.694             0.511           255.500
        17   01 Jun 2027 06:33:17.781   01 Jun 2027 06:33:20.536             2.755          1377.500
        18   01 Jun 2027 06:34:15.166   01 Jun 2027 06:34:19.835             4.669          2334.500
        19   01 Jun 2027 06:34:41.643   01 Jun 2027 06:34:55.643            14.000          7000.000
        20   01 Jun 2027 06:36:25.716   01 Jun 2027 06:36:30.709             4.993          2496.500
        21   01 Jun 2027 06:37:11.084   01 Jun 2027 06:37:20.119             9.035          4517.500
        22   01 Jun 2027 08:08:54.099   01 Jun 2027 08:08:58.276             4.177          2088.500
        23   01 Jun 2027 08:09:16.662   01 Jun 2027 08:09:24.004             7.342          3671.000
        24   01 Jun 2027 08:10:20.657   01 Jun 2027 08:10:22.465             1.808           904.000
        25   01 Jun 2027 08:10:35.075   01 Jun 2027 08:10:40.463             5.388          2694.000
        26   01 Jun 2027 08:10:57.601   01 Jun 2027 08:10:57.601             0.000             0.000
        27   01 Jun 2027 08:12:14.243   01 Jun 2027 08:12:16.008             1.765           882.500
        28   01 Jun 2027 08:12:37.867   01 Jun 2027 08:12:42.589             4.722          2361.000
        29   01 Jun 2027 09:44:35.109   01 Jun 2027 09:44:44.157             9.048          4524.000
        30   01 Jun 2027 09:45:28.258   01 Jun 2027 09:45:28.780             0.522           261.000
        31   01 Jun 2027 09:45:43.266   01 Jun 2027 09:45:56.217            12.951          6475.500
        32   01 Jun 2027 09:47:06.480   01 Jun 2027 09:47:09.437             2.957          1478.500
        33   01 Jun 2027 09:47:41.411   01 Jun 2027 09:47:45.778             4.367          2183.500
        34   01 Jun 2027 09:48:15.834   01 Jun 2027 09:48:33.629            17.795          8897.500
        35   01 Jun 2027 09:49:29.644   01 Jun 2027 09:49:32.953             3.309          1654.500
        36   02 Jun 2027 03:30:19.932   02 Jun 2027 03:30:20.537             0.605           302.500
        37   02 Jun 2027 03:31:29.479   02 Jun 2027 03:31:33.310             3.831          1915.500
        38   02 Jun 2027 03:31:49.511   02 Jun 2027 03:31:51.283             1.772           886.000
        39   02 Jun 2027 03:32:10.949   02 Jun 2027 03:32:13.291             2.342          1171.000
        40   02 Jun 2027 03:32:41.332   02 Jun 2027 03:32:48.932             7.600          3800.000
        41   02 Jun 2027 03:33:39.289   02 Jun 2027 03:33:45.333             6.044          3022.000
        42   02 Jun 2027 03:34:02.305   02 Jun 2027 03:34:03.316             1.011           505.500
        43   02 Jun 2027 03:34:19.802   02 Jun 2027 03:34:21.454             1.652           826.000
        44   02 Jun 2027 03:34:32.236   02 Jun 2027 03:34:39.091             6.855          3427.500
        45   02 Jun 2027 03:35:16.060   02 Jun 2027 03:35:17.689             1.629           814.500
        46   02 Jun 2027 03:35:44.673   02 Jun 2027 03:35:56.169            11.496          5748.000
        47   02 Jun 2027 05:06:15.434   02 Jun 2027 05:06:15.685             0.251           125.500
        48   02 Jun 2027 05:06:26.378   02 Jun 2027 05:06:29.076             2.698          1349.000
        49   02 Jun 2027 05:07:00.999   02 Jun 2027 05:07:24.545            23.546         11773.000
        50   02 Jun 2027 05:08:04.515   02 Jun 2027 05:08:05.258             0.743           371.500
        51   02 Jun 2027 05:09:13.662   02 Jun 2027 05:09:15.843             2.181          1090.500
        52   02 Jun 2027 05:09:39.971   02 Jun 2027 05:10:03.648            23.677         11838.500
        53   02 Jun 2027 05:11:38.818   02 Jun 2027 05:11:48.336             9.518          4759.000
        54   02 Jun 2027 05:12:23.217   02 Jun 2027 05:12:30.294             7.077          3538.500
        55   02 Jun 2027 05:13:06.085   02 Jun 2027 05:13:19.017            12.932          6466.000
        56   02 Jun 2027 06:43:14.774   02 Jun 2027 06:43:38.345            23.571         11785.500
        57   02 Jun 2027 06:45:12.937   02 Jun 2027 06:45:21.692             8.755          4377.500
        58   02 Jun 2027 06:46:20.459   02 Jun 2027 06:46:28.870             8.411          4205.500
        59   02 Jun 2027 06:47:10.347   02 Jun 2027 06:47:13.683             3.336          1668.000
        60   02 Jun 2027 06:47:19.788   02 Jun 2027 06:47:24.594             4.806          2403.000
        61   02 Jun 2027 06:48:08.479   02 Jun 2027 06:48:10.726             2.247          1123.500
        62   02 Jun 2027 06:48:21.980   02 Jun 2027 06:48:22.759             0.779           389.500
        63   02 Jun 2027 06:49:08.511   02 Jun 2027 06:49:18.309             9.798          4899.000
        64   02 Jun 2027 08:21:15.792   02 Jun 2027 08:21:28.152            12.360          6180.000
        65   02 Jun 2027 08:22:22.708   02 Jun 2027 08:22:23.301             0.593           296.500
        66   02 Jun 2027 08:22:30.749   02 Jun 2027 08:22:46.137            15.388          7694.000
        67   02 Jun 2027 08:23:39.138   02 Jun 2027 08:23:54.667            15.529          7764.500
        68   02 Jun 2027 08:25:07.926   02 Jun 2027 08:25:12.440             4.514          2257.000
        69   02 Jun 2027 09:54:31.112   02 Jun 2027 09:54:41.369            10.257          5128.500
        70   02 Jun 2027 09:55:13.774   02 Jun 2027 09:55:23.330             9.556          4778.000
        71   02 Jun 2027 09:56:15.642   02 Jun 2027 09:56:28.876            13.234          6617.000
        72   02 Jun 2027 09:57:42.215   02 Jun 2027 09:57:45.089             2.874          1437.000
        73   02 Jun 2027 09:58:10.367   02 Jun 2027 09:58:18.277             7.910          3955.000
        74   02 Jun 2027 09:59:16.127   02 Jun 2027 09:59:28.712            12.585          6292.500
        75   02 Jun 2027 10:00:41.936   02 Jun 2027 10:00:47.736             5.800          2900.000
        76   02 Jun 2027 10:00:53.046   02 Jun 2027 10:00:54.813             1.767           883.500
        77   02 Jun 2027 10:01:46.340   02 Jun 2027 10:01:54.791             8.451          4225.500
        78   03 Jun 2027 03:41:12.790   03 Jun 2027 03:41:22.903            10.113          5056.500
        79   03 Jun 2027 03:42:18.278   03 Jun 2027 03:42:25.243             6.965          3482.500
        80   03 Jun 2027 03:43:12.951   03 Jun 2027 03:43:21.517             8.566          4283.000
        81   03 Jun 2027 03:44:30.692   03 Jun 2027 03:44:36.820             6.128          3064.000
        82   03 Jun 2027 03:46:19.139   03 Jun 2027 03:46:22.718             3.579          1789.500
        83   03 Jun 2027 03:46:47.261   03 Jun 2027 03:46:47.412             0.151            75.500
        84   03 Jun 2027 03:47:03.229   03 Jun 2027 03:47:03.282             0.053            26.500
        85   03 Jun 2027 03:47:12.296   03 Jun 2027 03:47:14.067             1.771           885.500
        86   03 Jun 2027 03:47:25.243   03 Jun 2027 03:47:39.097            13.854          6927.000
        87   03 Jun 2027 03:49:07.630   03 Jun 2027 03:49:15.147             7.517          3758.500
        88   03 Jun 2027 05:18:22.905   03 Jun 2027 05:18:23.522             0.617           308.500
        89   03 Jun 2027 05:18:29.087   03 Jun 2027 05:18:37.957             8.870          4435.000
        90   03 Jun 2027 05:19:31.065   03 Jun 2027 05:19:50.490            19.425          9712.500
        91   03 Jun 2027 05:21:58.377   03 Jun 2027 05:22:03.638             5.261          2630.500
        92   03 Jun 2027 05:22:25.582   03 Jun 2027 05:22:27.759             2.177          1088.500
        93   03 Jun 2027 05:22:54.019   03 Jun 2027 05:22:54.919             0.900           450.000
        94   03 Jun 2027 05:24:17.707   03 Jun 2027 05:24:26.609             8.902          4451.000
        95   03 Jun 2027 05:24:50.570   03 Jun 2027 05:24:57.529             6.959          3479.500
        96   03 Jun 2027 05:25:41.721   03 Jun 2027 05:25:42.637             0.916           458.000
        97   03 Jun 2027 05:25:44.440   03 Jun 2027 05:25:48.992             4.552          2276.000
        98   03 Jun 2027 06:55:20.304   03 Jun 2027 06:55:34.517            14.213          7106.500
        99   03 Jun 2027 06:57:21.946   03 Jun 2027 06:57:40.051            18.105          9052.500
       100   03 Jun 2027 06:58:49.925   03 Jun 2027 06:58:58.355             8.430          4215.000
       101   03 Jun 2027 06:59:28.628   03 Jun 2027 06:59:30.129             1.501           750.500
       102   03 Jun 2027 06:59:44.010   03 Jun 2027 06:59:44.681             0.671           335.500
       103   03 Jun 2027 07:00:37.239   03 Jun 2027 07:01:05.358            28.119         14059.500
       104   03 Jun 2027 08:33:13.347   03 Jun 2027 08:33:13.723             0.376           188.000
       105   03 Jun 2027 08:33:18.321   03 Jun 2027 08:33:27.778             9.457          4728.500
       106   03 Jun 2027 08:35:40.570   03 Jun 2027 08:35:43.047             2.477          1238.500
       107   03 Jun 2027 08:35:54.222   03 Jun 2027 08:35:57.397             3.175          1587.500
       108   03 Jun 2027 08:36:29.657   03 Jun 2027 08:36:34.725             5.068          2534.000
       109   03 Jun 2027 10:06:40.613   03 Jun 2027 10:07:03.753            23.140         11570.000
       110   03 Jun 2027 10:07:16.172   03 Jun 2027 10:07:24.016             7.844          3922.000
       111   03 Jun 2027 10:09:21.002   03 Jun 2027 10:09:25.704             4.702          2351.000
       112   03 Jun 2027 10:09:45.584   03 Jun 2027 10:10:08.285            22.701         11350.500
       113   03 Jun 2027 10:11:35.663   03 Jun 2027 10:11:35.847             0.184            92.000
       114   03 Jun 2027 10:11:41.259   03 Jun 2027 10:11:46.789             5.530          2765.000
       115   03 Jun 2027 10:12:56.704   03 Jun 2027 10:13:04.789             8.085          4042.500
       116   03 Jun 2027 10:13:50.136   03 Jun 2027 10:13:51.984             1.848           924.000
       117   03 Jun 2027 10:14:10.655   03 Jun 2027 10:14:12.606             1.951           975.500
       118   04 Jun 2027 03:52:41.619   04 Jun 2027 03:52:49.325             7.706          3853.000
       119   04 Jun 2027 03:53:24.404   04 Jun 2027 03:53:24.936             0.532           266.000
       120   04 Jun 2027 03:53:29.060   04 Jun 2027 03:54:20.246            51.186         25593.000
       121   04 Jun 2027 03:57:59.160   04 Jun 2027 03:58:08.279             9.119          4559.500
       122   04 Jun 2027 03:58:48.212   04 Jun 2027 03:58:49.607             1.395           697.500
       123   04 Jun 2027 03:59:36.945   04 Jun 2027 03:59:40.502             3.557          1778.500
       124   04 Jun 2027 04:00:09.701   04 Jun 2027 04:00:10.371             0.670           335.000
       125   04 Jun 2027 04:00:14.788   04 Jun 2027 04:00:30.902            16.114          8057.000
       126   04 Jun 2027 04:01:30.850   04 Jun 2027 04:01:33.745             2.895          1447.500
       127   04 Jun 2027 05:30:24.185   04 Jun 2027 05:30:26.548             2.363          1181.500
       128   04 Jun 2027 05:30:38.426   04 Jun 2027 05:30:39.437             1.011           505.500
       129   04 Jun 2027 05:31:01.823   04 Jun 2027 05:31:12.290            10.467          5233.500
       130   04 Jun 2027 05:32:08.937   04 Jun 2027 05:32:10.869             1.932           966.000
       131   04 Jun 2027 05:32:49.132   04 Jun 2027 05:32:49.468             0.336           168.000
       132   04 Jun 2027 05:32:54.111   04 Jun 2027 05:32:57.261             3.150          1575.000
       133   04 Jun 2027 05:33:12.158   04 Jun 2027 05:33:17.847             5.689          2844.500
       134   04 Jun 2027 05:33:25.469   04 Jun 2027 05:33:26.024             0.555           277.500
       135   04 Jun 2027 05:34:15.314   04 Jun 2027 05:34:16.351             1.037           518.500
       136   04 Jun 2027 05:34:24.998   04 Jun 2027 05:34:25.143             0.145            72.500
       137   04 Jun 2027 05:34:29.120   04 Jun 2027 05:34:36.434             7.314          3657.000
       138   04 Jun 2027 05:35:15.655   04 Jun 2027 05:35:33.062            17.407          8703.500
       139   04 Jun 2027 05:36:28.079   04 Jun 2027 05:36:36.157             8.078          4039.000
       140   04 Jun 2027 05:36:55.196   04 Jun 2027 05:36:55.196             0.000             0.000
       141   04 Jun 2027 05:37:09.283   04 Jun 2027 05:37:19.281             9.998          4999.000
       142   04 Jun 2027 07:07:12.367   04 Jun 2027 07:07:25.555            13.188          6594.000
       143   04 Jun 2027 07:08:20.300   04 Jun 2027 07:08:31.915            11.615          5807.500
       144   04 Jun 2027 07:09:05.322   04 Jun 2027 07:09:10.661             5.339          2669.500
       145   04 Jun 2027 07:10:16.430   04 Jun 2027 07:10:28.708            12.278          6139.000
       146   04 Jun 2027 07:11:24.183   04 Jun 2027 07:11:25.647             1.464           732.000
       147   04 Jun 2027 07:11:28.986   04 Jun 2027 07:11:28.986             0.000             0.000
       148   04 Jun 2027 07:11:52.738   04 Jun 2027 07:11:55.962             3.224          1612.000
       149   04 Jun 2027 07:12:10.031   04 Jun 2027 07:12:16.774             6.743          3371.500
       150   04 Jun 2027 07:12:53.755   04 Jun 2027 07:13:00.492             6.737          3368.500
       151   04 Jun 2027 07:13:54.461   04 Jun 2027 07:13:55.178             0.717           358.500
       152   04 Jun 2027 08:45:14.058   04 Jun 2027 08:45:18.582             4.524          2262.000
       153   04 Jun 2027 08:45:47.861   04 Jun 2027 08:45:52.704             4.843          2421.500
       154   04 Jun 2027 08:46:13.494   04 Jun 2027 08:46:25.559            12.065          6032.500
       155   04 Jun 2027 08:47:50.072   04 Jun 2027 08:47:54.761             4.689          2344.500
       156   04 Jun 2027 08:48:20.779   04 Jun 2027 08:48:33.158            12.379          6189.500
       157   04 Jun 2027 10:19:06.732   04 Jun 2027 10:19:18.040            11.308          5654.000
       158   04 Jun 2027 10:20:41.756   04 Jun 2027 10:20:45.447             3.691          1845.500
       159   04 Jun 2027 10:21:06.068   04 Jun 2027 10:21:18.271            12.203          6101.500
       160   04 Jun 2027 10:22:21.578   04 Jun 2027 10:22:21.647             0.069            34.500
       161   04 Jun 2027 10:22:23.486   04 Jun 2027 10:22:36.721            13.235          6617.500
       162   04 Jun 2027 10:23:30.437   04 Jun 2027 10:23:33.101             2.664          1332.000
       163   04 Jun 2027 10:23:44.268   04 Jun 2027 10:23:46.880             2.612          1306.000
       164   04 Jun 2027 10:24:26.668   04 Jun 2027 10:24:37.748            11.080          5540.000
       165   04 Jun 2027 10:25:30.365   04 Jun 2027 10:25:34.743             4.378          2189.000
       166   05 Jun 2027 04:05:24.957   05 Jun 2027 04:05:25.590             0.633           316.500
       167   05 Jun 2027 04:06:22.582   05 Jun 2027 04:06:33.707            11.125          5562.500
       168   05 Jun 2027 04:07:20.514   05 Jun 2027 04:07:26.248             5.734          2867.000
       169   05 Jun 2027 04:08:01.606   05 Jun 2027 04:08:19.499            17.893          8946.500
       170   05 Jun 2027 04:09:40.256   05 Jun 2027 04:09:45.646             5.390          2695.000
       171   05 Jun 2027 04:10:11.048   05 Jun 2027 04:10:19.237             8.189          4094.500
       172   05 Jun 2027 04:10:58.160   05 Jun 2027 04:10:59.683             1.523           761.500
       173   05 Jun 2027 04:11:57.496   05 Jun 2027 04:12:02.479             4.983          2491.500
       174   05 Jun 2027 04:12:54.088   05 Jun 2027 04:13:07.177            13.089          6544.500
       175   05 Jun 2027 04:13:13.843   05 Jun 2027 04:13:15.332             1.489           744.500
       176   05 Jun 2027 05:42:27.441   05 Jun 2027 05:42:27.842             0.401           200.500
       177   05 Jun 2027 05:42:44.484   05 Jun 2027 05:42:50.331             5.847          2923.500
       178   05 Jun 2027 05:43:13.678   05 Jun 2027 05:43:19.436             5.758          2879.000
       179   05 Jun 2027 05:43:59.339   05 Jun 2027 05:44:12.090            12.751          6375.500
       180   05 Jun 2027 05:45:16.686   05 Jun 2027 05:45:22.853             6.167          3083.500
       181   05 Jun 2027 05:45:47.879   05 Jun 2027 05:45:52.512             4.633          2316.500
       182   05 Jun 2027 05:46:18.138   05 Jun 2027 05:46:25.407             7.269          3634.500
       183   05 Jun 2027 05:46:55.581   05 Jun 2027 05:47:11.613            16.032          8016.000
       184   05 Jun 2027 05:48:20.140   05 Jun 2027 05:48:26.600             6.460          3230.000
       185   05 Jun 2027 05:49:19.190   05 Jun 2027 05:49:19.273             0.083            41.500
       186   05 Jun 2027 05:49:35.793   05 Jun 2027 05:49:38.414             2.621          1310.500
       187   05 Jun 2027 05:49:47.461   05 Jun 2027 05:49:48.537             1.076           538.000
       188   05 Jun 2027 07:19:22.192   05 Jun 2027 07:19:33.541            11.349          5674.500
       189   05 Jun 2027 07:19:56.937   05 Jun 2027 07:20:23.109            26.172         13086.000
       190   05 Jun 2027 07:22:31.689   05 Jun 2027 07:22:32.031             0.342           171.000
       191   05 Jun 2027 07:22:36.473   05 Jun 2027 07:22:48.712            12.239          6119.500
       192   05 Jun 2027 07:24:02.496   05 Jun 2027 07:24:04.205             1.709           854.500
       193   05 Jun 2027 07:25:24.456   05 Jun 2027 07:25:35.659            11.203          5601.500
       194   05 Jun 2027 08:56:28.504   05 Jun 2027 08:56:37.534             9.030          4515.000
       195   05 Jun 2027 08:57:14.013   05 Jun 2027 08:57:21.423             7.410          3705.000
       196   05 Jun 2027 08:57:51.262   05 Jun 2027 08:58:03.842            12.580          6290.000
       197   05 Jun 2027 08:59:04.797   05 Jun 2027 08:59:21.018            16.221          8110.500
       198   05 Jun 2027 09:00:32.173   05 Jun 2027 09:00:39.311             7.138          3569.000
       199   05 Jun 2027 10:31:27.657   05 Jun 2027 10:31:29.933             2.276          1138.000
       200   05 Jun 2027 10:31:54.137   05 Jun 2027 10:31:58.572             4.435          2217.500
       201   05 Jun 2027 10:33:10.676   05 Jun 2027 10:33:16.094             5.418          2709.000
       202   05 Jun 2027 10:33:47.101   05 Jun 2027 10:34:09.146            22.045         11022.500
       203   05 Jun 2027 10:35:42.276   05 Jun 2027 10:35:45.726             3.450          1725.000
       204   05 Jun 2027 10:36:29.312   05 Jun 2027 10:36:30.534             1.222           611.000
       205   06 Jun 2027 04:17:21.276   06 Jun 2027 04:17:26.416             5.140          2570.000
       206   06 Jun 2027 04:17:55.020   06 Jun 2027 04:18:12.476            17.456          8728.000
       207   06 Jun 2027 04:19:32.004   06 Jun 2027 04:19:50.484            18.480          9240.000
       208   06 Jun 2027 04:21:22.938   06 Jun 2027 04:21:24.961             2.023          1011.500
       209   06 Jun 2027 04:21:44.830   06 Jun 2027 04:21:45.143             0.313           156.500
       210   06 Jun 2027 04:21:58.622   06 Jun 2027 04:22:09.641            11.019          5509.500
       211   06 Jun 2027 04:23:52.999   06 Jun 2027 04:24:02.283             9.284          4642.000
       212   06 Jun 2027 04:24:48.786   06 Jun 2027 04:25:00.359            11.573          5786.500
       213   06 Jun 2027 04:25:47.737   06 Jun 2027 04:25:53.683             5.946          2973.000
       214   06 Jun 2027 05:54:53.465   06 Jun 2027 05:55:03.158             9.693          4846.500
       215   06 Jun 2027 05:55:20.615   06 Jun 2027 05:55:27.620             7.005          3502.500
       216   06 Jun 2027 05:55:33.126   06 Jun 2027 05:55:46.597            13.471          6735.500
       217   06 Jun 2027 05:57:27.085   06 Jun 2027 05:57:38.993            11.908          5954.000
       218   06 Jun 2027 05:58:17.202   06 Jun 2027 05:58:20.505             3.303          1651.500
       219   06 Jun 2027 05:58:28.875   06 Jun 2027 05:58:29.055             0.180            90.000
       220   06 Jun 2027 05:59:00.092   06 Jun 2027 05:59:06.922             6.830          3415.000
       221   06 Jun 2027 05:59:52.583   06 Jun 2027 05:59:57.664             5.081          2540.500
       222   06 Jun 2027 06:00:43.127   06 Jun 2027 06:00:48.823             5.696          2848.000
       223   06 Jun 2027 06:01:13.706   06 Jun 2027 06:01:14.531             0.825           412.500
       224   06 Jun 2027 06:01:23.844   06 Jun 2027 06:01:25.351             1.507           753.500
       225   06 Jun 2027 07:31:49.486   06 Jun 2027 07:31:51.216             1.730           865.000
       226   06 Jun 2027 07:32:10.841   06 Jun 2027 07:32:28.988            18.147          9073.500
       227   06 Jun 2027 07:33:35.455   06 Jun 2027 07:33:38.279             2.824          1412.000
       228   06 Jun 2027 07:34:10.078   06 Jun 2027 07:34:14.594             4.516          2258.000
       229   06 Jun 2027 07:34:56.852   06 Jun 2027 07:34:58.947             2.095          1047.500
       230   06 Jun 2027 07:35:29.063   06 Jun 2027 07:35:33.726             4.663          2331.500
       231   06 Jun 2027 07:35:52.427   06 Jun 2027 07:35:53.846             1.419           709.500
       232   06 Jun 2027 07:36:07.928   06 Jun 2027 07:36:12.243             4.315          2157.500
       233   06 Jun 2027 07:37:06.101   06 Jun 2027 07:37:07.107             1.006           503.000
       234   06 Jun 2027 07:37:14.873   06 Jun 2027 07:37:17.983             3.110          1555.000
       235   06 Jun 2027 07:37:36.041   06 Jun 2027 07:37:37.064             1.023           511.500
       236   06 Jun 2027 09:08:40.326   06 Jun 2027 09:08:44.387             4.061          2030.500
       237   06 Jun 2027 09:09:28.997   06 Jun 2027 09:09:35.339             6.342          3171.000
       238   06 Jun 2027 09:09:59.243   06 Jun 2027 09:09:59.243             0.000             0.000
       239   06 Jun 2027 09:10:28.394   06 Jun 2027 09:10:31.609             3.215          1607.500
       240   06 Jun 2027 09:10:55.463   06 Jun 2027 09:11:08.427            12.964          6482.000
       241   06 Jun 2027 09:12:02.389   06 Jun 2027 09:12:05.281             2.892          1446.000
       242   06 Jun 2027 09:12:29.474   06 Jun 2027 09:12:30.703             1.229           614.500
       243   06 Jun 2027 09:12:32.097   06 Jun 2027 09:12:37.299             5.202          2601.000
       244   06 Jun 2027 09:13:03.964   06 Jun 2027 09:13:12.548             8.584          4292.000
       245   06 Jun 2027 10:46:13.667   06 Jun 2027 10:46:18.759             5.092          2546.000
       246   06 Jun 2027 10:46:50.133   06 Jun 2027 10:47:02.218            12.085          6042.500
       247   06 Jun 2027 10:48:15.295   06 Jun 2027 10:48:17.514             2.219          1109.500
       248   07 Jun 2027 04:30:00.851   07 Jun 2027 04:30:11.756            10.905          5452.500
       249   07 Jun 2027 04:30:27.572   07 Jun 2027 04:30:27.980             0.408           204.000
       250   07 Jun 2027 04:31:11.589   07 Jun 2027 04:31:25.416            13.827          6913.500
       251   07 Jun 2027 04:33:14.454   07 Jun 2027 04:33:18.824             4.370          2185.000
       252   07 Jun 2027 04:33:38.116   07 Jun 2027 04:33:55.129            17.013          8506.500
       253   07 Jun 2027 04:35:16.038   07 Jun 2027 04:35:19.931             3.893          1946.500
       254   07 Jun 2027 04:36:03.826   07 Jun 2027 04:36:14.449            10.623          5311.500
       255   07 Jun 2027 04:37:05.762   07 Jun 2027 04:37:06.456             0.694           347.000
       256   07 Jun 2027 04:37:47.008   07 Jun 2027 04:37:47.459             0.451           225.500
       257   07 Jun 2027 06:06:59.360   07 Jun 2027 06:07:13.680            14.320          7160.000
       258   07 Jun 2027 06:08:13.728   07 Jun 2027 06:08:46.048            32.320         16160.000
       259   07 Jun 2027 06:11:01.588   07 Jun 2027 06:11:01.864             0.276           138.000
       260   07 Jun 2027 06:11:22.739   07 Jun 2027 06:11:34.830            12.091          6045.500
       261   07 Jun 2027 06:12:35.471   07 Jun 2027 06:12:37.365             1.894           947.000
       262   07 Jun 2027 06:13:01.898   07 Jun 2027 06:13:02.869             0.971           485.500
       263   07 Jun 2027 07:44:37.998   07 Jun 2027 07:44:41.789             3.791          1895.500
       264   07 Jun 2027 07:44:48.955   07 Jun 2027 07:44:50.259             1.304           652.000
       265   07 Jun 2027 07:45:47.886   07 Jun 2027 07:45:56.723             8.837          4418.500
       266   07 Jun 2027 07:46:35.317   07 Jun 2027 07:46:36.237             0.920           460.000
       267   07 Jun 2027 07:46:51.839   07 Jun 2027 07:47:00.353             8.514          4257.000
       268   07 Jun 2027 07:47:44.326   07 Jun 2027 07:47:44.681             0.355           177.500
       269   07 Jun 2027 07:47:59.655   07 Jun 2027 07:47:59.953             0.298           149.000
       270   07 Jun 2027 07:48:01.895   07 Jun 2027 07:48:11.386             9.491          4745.500
       271   07 Jun 2027 09:20:43.520   07 Jun 2027 09:20:46.143             2.623          1311.500
       272   07 Jun 2027 09:20:57.172   07 Jun 2027 09:20:59.387             2.215          1107.500
       273   07 Jun 2027 09:21:25.093   07 Jun 2027 09:21:33.434             8.341          4170.500
       274   07 Jun 2027 09:22:27.923   07 Jun 2027 09:22:29.362             1.439           719.500
       275   07 Jun 2027 09:22:36.100   07 Jun 2027 09:22:43.428             7.328          3664.000
       276   07 Jun 2027 09:22:50.041   07 Jun 2027 09:22:50.585             0.544           272.000
       277   07 Jun 2027 09:23:22.282   07 Jun 2027 09:23:24.630             2.348          1174.000
       278   07 Jun 2027 09:23:54.955   07 Jun 2027 09:23:55.198             0.243           121.500
       279   07 Jun 2027 09:23:57.713   07 Jun 2027 09:24:02.830             5.117          2558.500
       280   07 Jun 2027 09:24:30.943   07 Jun 2027 09:24:42.001            11.058          5529.000
       281   07 Jun 2027 10:59:27.010   07 Jun 2027 10:59:30.167             3.157          1578.500
       282   08 Jun 2027 03:08:03.391   08 Jun 2027 03:08:07.117             3.726          1863.000
       283   08 Jun 2027 03:08:27.966   08 Jun 2027 03:08:31.363             3.397          1698.500
       284   08 Jun 2027 03:08:54.628   08 Jun 2027 03:09:00.322             5.694          2847.000
       285   08 Jun 2027 03:09:46.174   08 Jun 2027 03:09:50.850             4.676          2338.000
       286   08 Jun 2027 03:10:40.186   08 Jun 2027 03:10:51.437            11.251          5625.500
       287   08 Jun 2027 03:11:14.130   08 Jun 2027 03:11:16.300             2.170          1085.000
       288   08 Jun 2027 04:43:13.455   08 Jun 2027 04:43:16.599             3.144          1572.000
       289   08 Jun 2027 04:44:01.420   08 Jun 2027 04:44:03.691             2.271          1135.500
       290   08 Jun 2027 04:44:27.741   08 Jun 2027 04:44:32.440             4.699          2349.500
       291   08 Jun 2027 04:44:57.759   08 Jun 2027 04:45:03.313             5.554          2777.000
       292   08 Jun 2027 04:46:18.993   08 Jun 2027 04:46:19.864             0.871           435.500
       293   08 Jun 2027 04:46:34.186   08 Jun 2027 04:46:39.743             5.557          2778.500
       294   08 Jun 2027 04:47:52.407   08 Jun 2027 04:47:54.129             1.722           861.000
       295   08 Jun 2027 04:48:21.382   08 Jun 2027 04:48:24.662             3.280          1640.000
       296   08 Jun 2027 04:48:39.551   08 Jun 2027 04:48:46.647             7.096          3548.000
       297   08 Jun 2027 04:49:21.104   08 Jun 2027 04:49:35.127            14.023          7011.500
       298   08 Jun 2027 06:19:35.465   08 Jun 2027 06:19:46.454            10.989          5494.500
       299   08 Jun 2027 06:19:59.181   08 Jun 2027 06:20:13.771            14.590          7295.000
       300   08 Jun 2027 06:22:15.697   08 Jun 2027 06:22:16.462             0.765           382.500
       301   08 Jun 2027 06:22:36.606   08 Jun 2027 06:22:45.333             8.727          4363.500
       302   08 Jun 2027 06:23:56.586   08 Jun 2027 06:23:57.451             0.865           432.500
       303   08 Jun 2027 06:24:26.008   08 Jun 2027 06:24:26.841             0.833           416.500
       304   08 Jun 2027 06:24:54.277   08 Jun 2027 06:24:56.384             2.107          1053.500
       305   08 Jun 2027 06:25:19.326   08 Jun 2027 06:25:28.735             9.409          4704.500
       306   08 Jun 2027 07:56:53.703   08 Jun 2027 07:57:05.553            11.850          5925.000
       307   08 Jun 2027 07:58:02.546   08 Jun 2027 07:58:06.100             3.554          1777.000
       308   08 Jun 2027 07:58:23.381   08 Jun 2027 07:58:23.985             0.604           302.000
       309   08 Jun 2027 07:58:36.544   08 Jun 2027 07:58:36.576             0.032            16.000
       310   08 Jun 2027 07:58:39.019   08 Jun 2027 07:58:41.104             2.085          1042.500
       311   08 Jun 2027 07:59:14.918   08 Jun 2027 07:59:24.656             9.738          4869.000
       312   08 Jun 2027 08:00:11.858   08 Jun 2027 08:00:14.809             2.951          1475.500
       313   08 Jun 2027 08:00:46.843   08 Jun 2027 08:00:47.660             0.817           408.500
       314   08 Jun 2027 08:01:06.764   08 Jun 2027 08:01:09.123             2.359          1179.500
       315   08 Jun 2027 08:01:16.210   08 Jun 2027 08:01:16.369             0.159            79.500
       316   08 Jun 2027 09:33:05.446   08 Jun 2027 09:33:11.954             6.508          3254.000
       317   08 Jun 2027 09:34:30.584   08 Jun 2027 09:34:31.602             1.018           509.000
       318   08 Jun 2027 09:34:56.754   08 Jun 2027 09:35:02.922             6.168          3084.000
       319   08 Jun 2027 09:35:36.208   08 Jun 2027 09:35:43.053             6.845          3422.500
       320   08 Jun 2027 09:36:06.545   08 Jun 2027 09:36:11.963             5.418          2709.000
       321   08 Jun 2027 09:37:05.821   08 Jun 2027 09:37:06.845             1.024           512.000
       322   08 Jun 2027 09:37:22.179   08 Jun 2027 09:37:32.670            10.491          5245.500
       323   09 Jun 2027 03:19:58.354   09 Jun 2027 03:20:04.531             6.177          3088.500
       324   09 Jun 2027 03:20:23.742   09 Jun 2027 03:20:30.028             6.286          3143.000
       325   09 Jun 2027 03:21:24.237   09 Jun 2027 03:21:28.953             4.716          2358.000
       326   09 Jun 2027 03:22:01.961   09 Jun 2027 03:22:17.414            15.453          7726.500
       327   09 Jun 2027 03:23:06.323   09 Jun 2027 03:23:10.155             3.832          1916.000
       328   09 Jun 2027 03:23:22.406   09 Jun 2027 03:23:30.242             7.836          3918.000
       329   09 Jun 2027 04:54:55.884   09 Jun 2027 04:55:03.239             7.355          3677.500
       330   09 Jun 2027 04:55:44.120   09 Jun 2027 04:55:44.300             0.180            90.000
       331   09 Jun 2027 04:55:53.614   09 Jun 2027 04:55:57.964             4.350          2175.000
       332   09 Jun 2027 04:56:24.632   09 Jun 2027 04:56:30.280             5.648          2824.000
       333   09 Jun 2027 04:57:12.975   09 Jun 2027 04:57:16.888             3.913          1956.500
       334   09 Jun 2027 04:57:57.282   09 Jun 2027 04:58:09.220            11.938          5969.000
       335   09 Jun 2027 04:58:19.550   09 Jun 2027 04:58:22.015             2.465          1232.500
       336   09 Jun 2027 04:59:28.088   09 Jun 2027 04:59:28.936             0.848           424.000
       337   09 Jun 2027 04:59:41.183   09 Jun 2027 04:59:45.753             4.570          2285.000
       338   09 Jun 2027 05:00:13.951   09 Jun 2027 05:00:17.751             3.800          1900.000
       339   09 Jun 2027 05:00:34.477   09 Jun 2027 05:00:38.186             3.709          1854.500
       340   09 Jun 2027 05:01:06.986   09 Jun 2027 05:01:14.282             7.296          3648.000
       341   09 Jun 2027 06:31:08.249   09 Jun 2027 06:31:11.272             3.023          1511.500
       342   09 Jun 2027 06:31:45.131   09 Jun 2027 06:31:56.068            10.937          5468.500
       343   09 Jun 2027 06:32:57.716   09 Jun 2027 06:32:58.621             0.905           452.500
       344   09 Jun 2027 06:33:11.046   09 Jun 2027 06:33:21.163            10.117          5058.500
       345   09 Jun 2027 06:34:10.024   09 Jun 2027 06:34:16.590             6.566          3283.000
       346   09 Jun 2027 06:34:43.274   09 Jun 2027 06:34:48.821             5.547          2773.500
       347   09 Jun 2027 06:35:12.651   09 Jun 2027 06:35:29.471            16.820          8410.000
       348   09 Jun 2027 06:36:40.223   09 Jun 2027 06:36:44.798             4.575          2287.500
       349   09 Jun 2027 06:37:15.402   09 Jun 2027 06:37:26.679            11.277          5638.500
       350   09 Jun 2027 08:09:09.174   09 Jun 2027 08:09:14.000             4.826          2413.000
       351   09 Jun 2027 08:10:03.947   09 Jun 2027 08:10:11.116             7.169          3584.500
       352   09 Jun 2027 08:10:45.735   09 Jun 2027 08:10:52.070             6.335          3167.500
       353   09 Jun 2027 08:11:48.033   09 Jun 2027 08:11:53.656             5.623          2811.500
       354   09 Jun 2027 08:12:16.748   09 Jun 2027 08:12:24.742             7.994          3997.000
       355   09 Jun 2027 08:12:58.913   09 Jun 2027 08:12:59.402             0.489           244.500
       356   09 Jun 2027 09:44:49.382   09 Jun 2027 09:44:59.586            10.204          5102.000
       357   09 Jun 2027 09:45:43.363   09 Jun 2027 09:45:43.867             0.504           252.000
       358   09 Jun 2027 09:45:46.632   09 Jun 2027 09:45:48.161             1.529           764.500
       359   09 Jun 2027 09:45:56.457   09 Jun 2027 09:45:58.378             1.921           960.500
       360   09 Jun 2027 09:46:20.543   09 Jun 2027 09:46:20.839             0.296           148.000
       361   09 Jun 2027 09:47:08.467   09 Jun 2027 09:47:16.242             7.775          3887.500
       362   09 Jun 2027 09:47:48.186   09 Jun 2027 09:47:48.822             0.636           318.000
       363   09 Jun 2027 09:48:10.969   09 Jun 2027 09:48:30.538            19.569          9784.500
       364   09 Jun 2027 09:49:57.219   09 Jun 2027 09:50:03.048             5.829          2914.500
       365   10 Jun 2027 03:30:34.362   10 Jun 2027 03:30:35.225             0.863           431.500
       366   10 Jun 2027 03:31:44.069   10 Jun 2027 03:31:47.824             3.755          1877.500
       367   10 Jun 2027 03:32:04.192   10 Jun 2027 03:32:07.235             3.043          1521.500
       368   10 Jun 2027 03:32:26.504   10 Jun 2027 03:32:27.711             1.207           603.500
       369   10 Jun 2027 03:32:56.820   10 Jun 2027 03:33:03.537             6.717          3358.500
       370   10 Jun 2027 03:33:53.944   10 Jun 2027 03:33:59.942             5.998          2999.000
       371   10 Jun 2027 03:34:55.138   10 Jun 2027 03:34:57.285             2.147          1073.500
       372   10 Jun 2027 03:35:21.048   10 Jun 2027 03:35:31.580            10.532          5266.000
       373   10 Jun 2027 05:06:29.622   10 Jun 2027 05:06:30.230             0.608           304.000
       374   10 Jun 2027 05:06:41.154   10 Jun 2027 05:06:46.806             5.652          2826.000
       375   10 Jun 2027 05:07:15.180   10 Jun 2027 05:07:40.685            25.505         12752.500
       376   10 Jun 2027 05:09:30.460   10 Jun 2027 05:09:57.923            27.463         13731.500
       377   10 Jun 2027 05:12:02.870   10 Jun 2027 05:12:03.573             0.703           351.500
       378   10 Jun 2027 05:12:19.894   10 Jun 2027 05:12:21.215             1.321           660.500
       379   10 Jun 2027 05:12:37.726   10 Jun 2027 05:12:45.304             7.578          3789.000
       380   10 Jun 2027 05:13:20.539   10 Jun 2027 05:13:37.658            17.119          8559.500
       381   10 Jun 2027 05:13:59.097   10 Jun 2027 05:14:02.910             3.813          1906.500
       382   10 Jun 2027 06:43:29.508   10 Jun 2027 06:43:53.499            23.991         11995.500
       383   10 Jun 2027 06:45:30.523   10 Jun 2027 06:45:36.344             5.821          2910.500
       384   10 Jun 2027 06:46:35.390   10 Jun 2027 06:46:41.423             6.033          3016.500
       385   10 Jun 2027 06:47:12.163   10 Jun 2027 06:47:17.369             5.206          2603.000
       386   10 Jun 2027 06:47:40.081   10 Jun 2027 06:47:41.578             1.497           748.500
       387   10 Jun 2027 06:48:22.913   10 Jun 2027 06:48:25.268             2.355          1177.500
       388   10 Jun 2027 06:48:32.442   10 Jun 2027 06:48:32.461             0.019             9.500
       389   10 Jun 2027 08:21:30.608   10 Jun 2027 08:21:45.143            14.535          7267.500
       390   10 Jun 2027 08:23:31.505   10 Jun 2027 08:23:35.683             4.178          2089.000
       391   10 Jun 2027 08:23:53.281   10 Jun 2027 08:24:06.317            13.036          6518.000
       392   10 Jun 2027 08:24:51.045   10 Jun 2027 08:24:51.045             0.000             0.000
       393   10 Jun 2027 08:25:14.454   10 Jun 2027 08:25:16.233             1.779           889.500
       394   10 Jun 2027 09:54:45.329   10 Jun 2027 09:54:52.021             6.692          3346.000
       395   10 Jun 2027 09:55:28.424   10 Jun 2027 09:55:37.947             9.523          4761.500
       396   10 Jun 2027 09:56:31.273   10 Jun 2027 09:56:43.559            12.286          6143.000
       397   10 Jun 2027 09:57:57.497   10 Jun 2027 09:57:59.567             2.070          1035.000
       398   10 Jun 2027 09:58:24.591   10 Jun 2027 09:58:26.596             2.005          1002.500
       399   10 Jun 2027 09:58:38.288   10 Jun 2027 09:58:44.950             6.662          3331.000
       400   10 Jun 2027 09:59:23.505   10 Jun 2027 09:59:26.874             3.369          1684.500
       401   10 Jun 2027 10:00:01.471   10 Jun 2027 10:00:03.031             1.560           780.000
       402   10 Jun 2027 10:00:34.615   10 Jun 2027 10:00:37.176             2.561          1280.500
       403   10 Jun 2027 10:01:02.652   10 Jun 2027 10:01:06.420             3.768          1884.000
       404   10 Jun 2027 10:01:30.857   10 Jun 2027 10:01:35.118             4.261          2130.500
       405   10 Jun 2027 10:02:01.792   10 Jun 2027 10:02:11.052             9.260          4630.000
       406   11 Jun 2027 03:41:26.549   11 Jun 2027 03:41:37.646            11.097          5548.500
       407   11 Jun 2027 03:42:34.703   11 Jun 2027 03:42:39.963             5.260          2630.000
       408   11 Jun 2027 03:43:27.436   11 Jun 2027 03:43:37.347             9.911          4955.500
       409   11 Jun 2027 03:44:45.814   11 Jun 2027 03:44:51.828             6.014          3007.000
       410   11 Jun 2027 03:46:34.280   11 Jun 2027 03:46:36.353             2.073          1036.500
       411   11 Jun 2027 03:47:01.047   11 Jun 2027 03:47:01.103             0.056            28.000
       412   11 Jun 2027 03:47:19.380   11 Jun 2027 03:47:20.407             1.027           513.500
       413   11 Jun 2027 03:47:25.009   11 Jun 2027 03:47:25.143             0.134            67.000
       414   11 Jun 2027 03:47:31.291   11 Jun 2027 03:47:34.862             3.571          1785.500
       415   11 Jun 2027 03:47:53.817   11 Jun 2027 03:48:02.490             8.673          4336.500
       416   11 Jun 2027 03:49:22.149   11 Jun 2027 03:49:25.866             3.717          1858.500
       417   11 Jun 2027 03:49:30.403   11 Jun 2027 03:49:30.461             0.058            29.000
       418   11 Jun 2027 05:18:37.656   11 Jun 2027 05:18:39.985             2.329          1164.500
       419   11 Jun 2027 05:18:52.969   11 Jun 2027 05:19:05.043            12.074          6037.000
       420   11 Jun 2027 05:20:24.704   11 Jun 2027 05:20:30.847             6.143          3071.500
       421   11 Jun 2027 05:20:56.523   11 Jun 2027 05:21:02.599             6.076          3038.000
       422   11 Jun 2027 05:21:50.322   11 Jun 2027 05:21:58.224             7.902          3951.000
       423   11 Jun 2027 05:22:30.131   11 Jun 2027 05:22:36.001             5.870          2935.000
       424   11 Jun 2027 05:22:43.672   11 Jun 2027 05:22:53.795            10.123          5061.500
       425   11 Jun 2027 05:24:28.829   11 Jun 2027 05:24:30.083             1.254           627.000
       426   11 Jun 2027 05:24:41.489   11 Jun 2027 05:24:47.567             6.078          3039.000
       427   11 Jun 2027 05:25:30.457   11 Jun 2027 05:25:36.383             5.926          2963.000
       428   11 Jun 2027 05:26:03.101   11 Jun 2027 05:26:03.629             0.528           264.000
       429   11 Jun 2027 06:55:34.960   11 Jun 2027 06:55:49.165            14.205          7102.500
       430   11 Jun 2027 06:57:36.585   11 Jun 2027 06:57:54.773            18.188          9094.000
       431   11 Jun 2027 06:59:22.144   11 Jun 2027 06:59:23.191             1.047           523.500
       432   11 Jun 2027 06:59:38.682   11 Jun 2027 06:59:40.055             1.373           686.500
       433   11 Jun 2027 06:59:55.515   11 Jun 2027 06:59:56.031             0.516           258.000
       434   11 Jun 2027 07:00:00.568   11 Jun 2027 07:00:11.899            11.331          5665.500
       435   11 Jun 2027 07:01:23.636   11 Jun 2027 07:01:27.871             4.235          2117.500
       436   11 Jun 2027 08:33:27.977   11 Jun 2027 08:33:28.187             0.210           105.000
       437   11 Jun 2027 08:33:48.668   11 Jun 2027 08:33:49.866             1.198           599.000
       438   11 Jun 2027 08:34:00.912   11 Jun 2027 08:34:06.151             5.239          2619.500
       439   11 Jun 2027 08:34:33.846   11 Jun 2027 08:34:36.749             2.903          1451.500
       440   11 Jun 2027 08:35:10.266   11 Jun 2027 08:35:32.869            22.603         11301.500
       441   11 Jun 2027 08:37:03.877   11 Jun 2027 08:37:06.135             2.258          1129.000
       442   11 Jun 2027 08:37:17.095   11 Jun 2027 08:37:25.536             8.441          4220.500
       443   11 Jun 2027 10:06:55.694   11 Jun 2027 10:06:58.064             2.370          1185.000
       444   11 Jun 2027 10:07:24.171   11 Jun 2027 10:07:30.815             6.644          3322.000
       445   11 Jun 2027 10:08:11.842   11 Jun 2027 10:08:23.377            11.535          5767.500
       446   11 Jun 2027 10:09:36.138   11 Jun 2027 10:09:42.661             6.523          3261.500
       447   11 Jun 2027 10:10:23.601   11 Jun 2027 10:10:27.228             3.627          1813.500
       448   11 Jun 2027 10:11:06.830   11 Jun 2027 10:11:09.560             2.730          1365.000
       449   11 Jun 2027 10:11:51.346   11 Jun 2027 10:11:55.983             4.637          2318.500
       450   11 Jun 2027 10:12:20.010   11 Jun 2027 10:12:32.873            12.863          6431.500
       451   11 Jun 2027 10:13:27.408   11 Jun 2027 10:13:35.016             7.608          3804.000
       452   11 Jun 2027 10:14:06.463   11 Jun 2027 10:14:06.958             0.495           247.500
       453   11 Jun 2027 10:14:26.208   11 Jun 2027 10:14:28.451             2.243          1121.500
       454   12 Jun 2027 03:52:55.938   12 Jun 2027 03:53:06.276            10.338          5169.000
       455   12 Jun 2027 03:54:36.688   12 Jun 2027 03:54:37.523             0.835           417.500
       456   12 Jun 2027 03:55:13.026   12 Jun 2027 03:55:16.409             3.383          1691.500
       457   12 Jun 2027 03:55:33.345   12 Jun 2027 03:55:45.953            12.608          6304.000
       458   12 Jun 2027 03:56:44.070   12 Jun 2027 03:56:55.817            11.747          5873.500
       459   12 Jun 2027 03:57:47.944   12 Jun 2027 03:57:52.881             4.937          2468.500
       460   12 Jun 2027 03:58:34.026   12 Jun 2027 03:58:34.860             0.834           417.000
       461   12 Jun 2027 03:58:57.808   12 Jun 2027 03:59:00.296             2.488          1244.000
       462   12 Jun 2027 03:59:13.057   12 Jun 2027 03:59:18.070             5.013          2506.500
       463   12 Jun 2027 04:01:10.518   12 Jun 2027 04:01:11.743             1.225           612.500
       464   12 Jun 2027 04:01:22.600   12 Jun 2027 04:01:23.850             1.250           625.000
       465   12 Jun 2027 04:01:29.922   12 Jun 2027 04:01:30.196             0.274           137.000
       466   12 Jun 2027 04:01:37.947   12 Jun 2027 04:01:38.448             0.501           250.500
       467   12 Jun 2027 04:01:43.843   12 Jun 2027 04:01:49.707             5.864          2932.000
       468   12 Jun 2027 05:30:38.917   12 Jun 2027 05:30:43.002             4.085          2042.500
       469   12 Jun 2027 05:31:13.593   12 Jun 2027 05:31:24.336            10.743          5371.500
       470   12 Jun 2027 05:32:23.630   12 Jun 2027 05:32:24.816             1.186           593.000
       471   12 Jun 2027 05:33:03.781   12 Jun 2027 05:33:04.201             0.420           210.000
       472   12 Jun 2027 05:33:09.143   12 Jun 2027 05:33:12.556             3.413          1706.500
       473   12 Jun 2027 05:33:27.300   12 Jun 2027 05:33:32.563             5.263          2631.500
       474   12 Jun 2027 05:33:42.909   12 Jun 2027 05:33:58.154            15.245          7622.500
       475   12 Jun 2027 05:34:18.602   12 Jun 2027 05:34:24.847             6.245          3122.500
       476   12 Jun 2027 05:36:04.791   12 Jun 2027 05:36:09.414             4.623          2311.500
       477   12 Jun 2027 05:37:17.735   12 Jun 2027 05:37:27.968            10.233          5116.500
       478   12 Jun 2027 07:07:27.111   12 Jun 2027 07:07:36.991             9.880          4940.000
       479   12 Jun 2027 07:08:28.139   12 Jun 2027 07:08:37.704             9.565          4782.500
       480   12 Jun 2027 07:09:35.864   12 Jun 2027 07:09:47.067            11.203          5601.500
       481   12 Jun 2027 07:10:31.068   12 Jun 2027 07:10:43.607            12.539          6269.500
       482   12 Jun 2027 07:11:38.926   12 Jun 2027 07:11:40.218             1.292           646.000
       483   12 Jun 2027 07:12:00.150   12 Jun 2027 07:12:06.033             5.883          2941.500
       484   12 Jun 2027 07:12:35.868   12 Jun 2027 07:12:40.149             4.281          2140.500
       485   12 Jun 2027 07:12:57.828   12 Jun 2027 07:13:03.935             6.107          3053.500
       486   12 Jun 2027 07:13:34.949   12 Jun 2027 07:13:36.734             1.785           892.500
       487   12 Jun 2027 07:13:49.749   12 Jun 2027 07:13:59.661             9.912          4956.000
       488   12 Jun 2027 08:45:29.162   12 Jun 2027 08:45:29.420             0.258           129.000
       489   12 Jun 2027 08:46:02.564   12 Jun 2027 08:46:03.038             0.474           237.000
       490   12 Jun 2027 08:47:01.607   12 Jun 2027 08:47:08.385             6.778          3389.000
       491   12 Jun 2027 08:47:17.220   12 Jun 2027 08:47:22.196             4.976          2488.000
       492   12 Jun 2027 08:48:05.538   12 Jun 2027 08:48:08.024             2.486          1243.000
       493   12 Jun 2027 08:48:18.157   12 Jun 2027 08:48:18.693             0.536           268.000
       494   12 Jun 2027 08:48:29.491   12 Jun 2027 08:48:31.686             2.195          1097.500
       495   12 Jun 2027 08:48:48.985   12 Jun 2027 08:48:56.246             7.261          3630.500
       496   12 Jun 2027 10:19:21.442   12 Jun 2027 10:19:32.676            11.234          5617.000
       497   12 Jun 2027 10:20:56.516   12 Jun 2027 10:21:02.050             5.534          2767.000
       498   12 Jun 2027 10:21:39.124   12 Jun 2027 10:21:48.189             9.065          4532.500
       499   12 Jun 2027 10:23:02.591   12 Jun 2027 10:23:09.970             7.379          3689.500
       500   12 Jun 2027 10:24:01.510   12 Jun 2027 10:24:01.777             0.267           133.500
       501   12 Jun 2027 10:25:04.811   12 Jun 2027 10:25:14.161             9.350          4675.000
       502   13 Jun 2027 04:05:39.539   13 Jun 2027 04:05:40.320             0.781           390.500
       503   13 Jun 2027 04:06:39.035   13 Jun 2027 04:06:57.195            18.160          9080.000
       504   13 Jun 2027 04:08:16.659   13 Jun 2027 04:08:35.044            18.385          9192.500
       505   13 Jun 2027 04:09:54.890   13 Jun 2027 04:10:00.511             5.621          2810.500
       506   13 Jun 2027 04:10:27.191   13 Jun 2027 04:10:32.790             5.599          2799.500
       507   13 Jun 2027 04:11:02.966   13 Jun 2027 04:11:04.899             1.933           966.500
       508   13 Jun 2027 04:11:51.957   13 Jun 2027 04:11:59.192             7.235          3617.500
       509   13 Jun 2027 04:12:28.944   13 Jun 2027 04:12:32.726             3.782          1891.000
       510   13 Jun 2027 04:13:08.837   13 Jun 2027 04:13:20.136            11.299          5649.500
       511   13 Jun 2027 04:13:30.781   13 Jun 2027 04:13:32.690             1.909           954.500
       512   13 Jun 2027 05:42:42.217   13 Jun 2027 05:42:57.956            15.739          7869.500
       513   13 Jun 2027 05:44:13.986   13 Jun 2027 05:44:27.169            13.183          6591.500
       514   13 Jun 2027 05:45:28.148   13 Jun 2027 05:45:31.311             3.163          1581.500
       515   13 Jun 2027 05:45:57.688   13 Jun 2027 05:45:59.407             1.719           859.500
       516   13 Jun 2027 05:46:07.259   13 Jun 2027 05:46:09.415             2.156          1078.000
       517   13 Jun 2027 05:46:34.088   13 Jun 2027 05:46:40.404             6.316          3158.000
       518   13 Jun 2027 05:47:02.405   13 Jun 2027 05:47:02.799             0.394           197.000
       519   13 Jun 2027 05:47:48.993   13 Jun 2027 05:47:50.113             1.120           560.000
       520   13 Jun 2027 05:48:16.743   13 Jun 2027 05:48:41.111            24.368         12184.000
       521   13 Jun 2027 07:19:37.033   13 Jun 2027 07:19:45.646             8.613          4306.500
       522   13 Jun 2027 07:20:46.402   13 Jun 2027 07:20:51.626             5.224          2612.000
       523   13 Jun 2027 07:21:17.951   13 Jun 2027 07:21:27.935             9.984          4992.000
       524   13 Jun 2027 07:22:19.745   13 Jun 2027 07:22:26.489             6.744          3372.000
       525   13 Jun 2027 07:23:07.996   13 Jun 2027 07:23:11.159             3.163          1581.500
       526   13 Jun 2027 07:24:03.622   13 Jun 2027 07:24:03.925             0.303           151.500
       527   13 Jun 2027 07:24:09.290   13 Jun 2027 07:24:14.288             4.998          2499.000
       528   13 Jun 2027 07:25:39.365   13 Jun 2027 07:25:50.527            11.162          5581.000
       529   13 Jun 2027 08:56:43.108   13 Jun 2027 08:56:47.110             4.002          2001.000
       530   13 Jun 2027 08:56:52.002   13 Jun 2027 08:56:52.214             0.212           106.000
       531   13 Jun 2027 08:57:17.522   13 Jun 2027 08:57:21.685             4.163          2081.500
       532   13 Jun 2027 08:57:39.676   13 Jun 2027 08:57:50.557            10.881          5440.500
       533   13 Jun 2027 08:58:35.152   13 Jun 2027 08:58:41.645             6.493          3246.500
       534   13 Jun 2027 08:59:09.834   13 Jun 2027 08:59:17.075             7.241          3620.500
       535   13 Jun 2027 09:00:16.161   13 Jun 2027 09:00:18.663             2.502          1251.000
       536   13 Jun 2027 09:00:36.188   13 Jun 2027 09:00:45.182             8.994          4497.000
       537   13 Jun 2027 10:31:42.871   13 Jun 2027 10:31:44.605             1.734           867.000
       538   13 Jun 2027 10:32:09.869   13 Jun 2027 10:32:13.505             3.636          1818.000
       539   13 Jun 2027 10:33:24.907   13 Jun 2027 10:33:31.254             6.347          3173.500
       540   13 Jun 2027 10:34:25.599   13 Jun 2027 10:34:28.373             2.774          1387.000
       541   13 Jun 2027 10:34:49.531   13 Jun 2027 10:34:50.405             0.874           437.000
       542   13 Jun 2027 10:35:03.163   13 Jun 2027 10:35:41.281            38.118         19059.000
