uniorb/output/strategy_2/Camera/Camera_KinoSat_110807.txt

KinoSat_110807
-------------------------
    Access    *     Start Time (UTCG)     *     Stop Time (UTCG)  *   Duration (s) *   Data (Mbytes)
         1   01 Jun 2027 03:15:54.016   01 Jun 2027 03:16:20.625            26.609         13304.500
         2   01 Jun 2027 03:16:26.356   01 Jun 2027 03:16:35.883             9.527          4763.500
         3   01 Jun 2027 03:16:37.644   01 Jun 2027 03:16:42.579             4.935          2467.500
         4   01 Jun 2027 03:17:25.819   01 Jun 2027 03:17:29.651             3.832          1916.000
         5   01 Jun 2027 03:17:35.876   01 Jun 2027 03:18:16.012            40.136         20068.000
         6   01 Jun 2027 04:52:29.373   01 Jun 2027 04:55:38.655           189.282         94641.000
         7   01 Jun 2027 06:27:39.527   01 Jun 2027 06:28:37.322            57.795         28897.500
         8   01 Jun 2027 06:28:44.145   01 Jun 2027 06:30:23.864            99.719         49859.500
         9   01 Jun 2027 06:30:24.757   01 Jun 2027 06:30:34.197             9.440          4720.000
        10   01 Jun 2027 06:30:43.196   01 Jun 2027 06:30:43.196             0.000             0.000
        11   01 Jun 2027 06:30:51.988   01 Jun 2027 06:31:29.979            37.991         18995.500
        12   01 Jun 2027 06:32:41.694   01 Jun 2027 06:33:06.528            24.834         12417.000
        13   01 Jun 2027 06:33:07.861   01 Jun 2027 06:33:12.659             4.798          2399.000
        14   01 Jun 2027 06:33:25.740   01 Jun 2027 06:33:25.740             0.000             0.000
        15   01 Jun 2027 06:33:31.191   01 Jun 2027 06:33:32.907             1.716           858.000
        16   01 Jun 2027 06:34:01.684   01 Jun 2027 06:34:01.864             0.180            90.000
        17   01 Jun 2027 08:04:00.358   01 Jun 2027 08:06:53.604           173.246         86623.000
        18   01 Jun 2027 08:07:28.922   01 Jun 2027 08:07:40.538            11.616          5808.000
        19   01 Jun 2027 08:09:24.004   01 Jun 2027 08:09:38.466            14.462          7231.000
        20   01 Jun 2027 09:41:17.099   01 Jun 2027 09:43:24.078           126.979         63489.500
        21   01 Jun 2027 09:43:37.166   01 Jun 2027 09:43:42.892             5.726          2863.000
        22   01 Jun 2027 09:44:44.157   01 Jun 2027 09:44:44.157             0.000             0.000
        23   01 Jun 2027 09:44:52.488   01 Jun 2027 09:44:59.739             7.251          3625.500
        24   01 Jun 2027 09:45:32.645   01 Jun 2027 09:45:58.223            25.578         12789.000
        25   01 Jun 2027 11:17:29.576   01 Jun 2027 11:19:05.372            95.796         47898.000
        26   02 Jun 2027 03:28:27.119   02 Jun 2027 03:28:56.210            29.091         14545.500
        27   02 Jun 2027 03:29:23.227   02 Jun 2027 03:29:57.860            34.633         17316.500
        28   02 Jun 2027 03:30:20.537   02 Jun 2027 03:30:20.537             0.000             0.000
        29   02 Jun 2027 03:30:42.111   02 Jun 2027 03:30:54.771            12.660          6330.000
        30   02 Jun 2027 03:30:59.483   02 Jun 2027 03:30:59.483             0.000             0.000
        31   02 Jun 2027 05:04:16.914   02 Jun 2027 05:05:32.425            75.511         37755.500
        32   02 Jun 2027 05:05:50.704   02 Jun 2027 05:07:37.378           106.674         53337.000
        33   02 Jun 2027 06:39:10.152   02 Jun 2027 06:42:12.384           182.232         91116.000
        34   02 Jun 2027 06:42:26.145   02 Jun 2027 06:42:26.145             0.000             0.000
        35   02 Jun 2027 06:42:27.990   02 Jun 2027 06:42:37.290             9.300          4650.000
        36   02 Jun 2027 06:42:47.385   02 Jun 2027 06:42:49.646             2.261          1130.500
        37   02 Jun 2027 06:43:38.345   02 Jun 2027 06:43:46.513             8.168          4084.000
        38   02 Jun 2027 06:44:19.133   02 Jun 2027 06:44:28.341             9.208          4604.000
        39   02 Jun 2027 06:45:52.108   02 Jun 2027 06:46:02.278            10.170          5085.000
        40   02 Jun 2027 08:15:38.920   02 Jun 2027 08:17:38.838           119.918         57476.000
        41   02 Jun 2027 08:19:23.037   02 Jun 2027 08:19:30.108             7.071          2895.250
        42   02 Jun 2027 08:19:43.172   02 Jun 2027 08:19:45.718             2.546           181.875
        43   02 Jun 2027 08:20:15.756   02 Jun 2027 08:20:17.271             1.515           639.281
        44   02 Jun 2027 08:21:05.657   02 Jun 2027 08:21:09.456             3.799          1512.062
        45   02 Jun 2027 09:53:56.725   02 Jun 2027 09:54:18.028            21.303          9528.781
        46   02 Jun 2027 09:55:20.999   02 Jun 2027 09:55:24.933             3.934          1885.156
        47   02 Jun 2027 09:57:02.435   02 Jun 2027 09:57:07.306             4.871          2360.656
        48   02 Jun 2027 11:29:23.735   02 Jun 2027 11:29:38.378            14.643          7321.500
        49   02 Jun 2027 11:29:58.570   02 Jun 2027 11:30:02.330             3.760          1046.188
        50   02 Jun 2027 11:31:16.815   02 Jun 2027 11:31:21.823             5.008          2167.969
        51   02 Jun 2027 11:31:59.240   02 Jun 2027 11:32:04.604             5.364          1152.906
        52   02 Jun 2027 11:33:14.876   02 Jun 2027 11:33:22.549             7.673          2196.000
        53   02 Jun 2027 11:33:45.776   02 Jun 2027 11:33:46.709             0.933           416.500
        54   02 Jun 2027 11:34:41.890   02 Jun 2027 11:34:44.925             3.035          1371.406
        55   03 Jun 2027 03:39:01.522   03 Jun 2027 03:39:28.892            27.370         13685.000
        56   03 Jun 2027 03:39:29.067   03 Jun 2027 03:40:05.596            36.529         18264.500
        57   03 Jun 2027 03:40:18.938   03 Jun 2027 03:40:33.591            14.653          7326.500
        58   03 Jun 2027 03:40:52.182   03 Jun 2027 03:41:22.449            30.267         15133.500
        59   03 Jun 2027 03:42:55.607   03 Jun 2027 03:43:00.544             4.937          2468.500
        60   03 Jun 2027 03:43:21.517   03 Jun 2027 03:43:44.059            22.542         11271.000
        61   03 Jun 2027 05:14:33.211   03 Jun 2027 05:15:23.953            50.742         25371.000
        62   03 Jun 2027 05:16:02.094   03 Jun 2027 05:17:44.955           102.861         51430.500
        63   03 Jun 2027 05:19:09.463   03 Jun 2027 05:19:09.463             0.000             0.000
        64   03 Jun 2027 05:19:25.795   03 Jun 2027 05:19:31.065             5.270          2635.000
        65   03 Jun 2027 05:19:50.490   03 Jun 2027 05:19:50.490             0.000             0.000
        66   03 Jun 2027 05:20:23.629   03 Jun 2027 05:20:25.404             1.775           887.500
        67   03 Jun 2027 06:50:52.383   03 Jun 2027 06:51:26.367            33.984         16591.844
        68   03 Jun 2027 06:52:15.138   03 Jun 2027 06:52:17.720             2.582           350.531
        69   03 Jun 2027 06:53:24.850   03 Jun 2027 06:53:26.413             1.563           309.094
        70   03 Jun 2027 06:53:45.401   03 Jun 2027 06:53:47.229             1.828           404.313
        71   03 Jun 2027 06:54:55.687   03 Jun 2027 06:54:58.862             3.175          1587.500
        72   03 Jun 2027 06:55:43.440   03 Jun 2027 06:55:49.519             6.079          1735.562
        73   03 Jun 2027 06:56:50.022   03 Jun 2027 06:56:52.614             2.592          1240.594
        74   03 Jun 2027 06:57:39.231   03 Jun 2027 06:57:41.873             2.642           952.406
        75   03 Jun 2027 06:58:02.961   03 Jun 2027 06:58:05.427             2.466           559.062
        76   03 Jun 2027 08:27:59.326   03 Jun 2027 08:28:24.601            25.275         12041.000
        77   03 Jun 2027 08:29:21.115   03 Jun 2027 08:29:28.806             7.691          1176.375
        78   03 Jun 2027 08:29:47.587   03 Jun 2027 08:29:55.566             7.979           511.375
        79   03 Jun 2027 08:30:47.392   03 Jun 2027 08:30:50.954             3.562           931.375
        80   03 Jun 2027 08:31:37.155   03 Jun 2027 08:31:38.405             1.250           625.000
        81   03 Jun 2027 08:32:09.692   03 Jun 2027 08:32:11.728             2.036          1018.000
        82   03 Jun 2027 08:32:36.009   03 Jun 2027 08:32:39.488             3.479          1502.813
        83   03 Jun 2027 08:33:55.127   03 Jun 2027 08:34:00.037             4.910          2363.719
        84   03 Jun 2027 08:34:17.056   03 Jun 2027 08:34:18.302             1.246           531.844
        85   03 Jun 2027 10:06:04.784   03 Jun 2027 10:06:21.583            16.799          8399.500
        86   03 Jun 2027 10:07:18.422   03 Jun 2027 10:07:23.309             4.887          2218.750
        87   03 Jun 2027 10:07:34.798   03 Jun 2027 10:07:37.359             2.561           123.156
        88   03 Jun 2027 10:08:07.713   03 Jun 2027 10:08:12.275             4.562           930.500
        89   03 Jun 2027 10:09:21.002   03 Jun 2027 10:09:23.811             2.809          1332.281
        90   03 Jun 2027 11:38:59.624   03 Jun 2027 11:39:12.893            13.269          5739.906
        91   03 Jun 2027 11:39:33.536   03 Jun 2027 11:39:36.396             2.860           576.406
        92   03 Jun 2027 11:40:20.622   03 Jun 2027 11:40:21.966             1.344           573.750
        93   03 Jun 2027 11:40:47.598   03 Jun 2027 11:40:49.778             2.180           671.875
        94   03 Jun 2027 11:41:24.123   03 Jun 2027 11:41:25.930             1.807           627.031
        95   03 Jun 2027 11:41:49.312   03 Jun 2027 11:41:52.418             3.106           564.656
        96   03 Jun 2027 11:42:09.287   03 Jun 2027 11:42:13.839             4.552           527.156
        97   03 Jun 2027 11:43:14.385   03 Jun 2027 11:43:20.037             5.652          1760.688
        98   03 Jun 2027 11:44:13.544   03 Jun 2027 11:44:16.771             3.227          1560.625
        99   03 Jun 2027 11:45:05.436   03 Jun 2027 11:45:09.329             3.893          1520.781
       100   03 Jun 2027 11:46:14.727   03 Jun 2027 11:46:23.738             9.011          1679.781
       101   04 Jun 2027 03:50:44.357   04 Jun 2027 03:51:03.071            18.714          9357.000
       102   04 Jun 2027 03:51:13.487   04 Jun 2027 03:51:50.238            36.751         18375.500
       103   04 Jun 2027 03:52:39.249   04 Jun 2027 03:53:23.542            44.293         22146.500
       104   04 Jun 2027 03:55:01.401   04 Jun 2027 03:55:06.799             5.398          2699.000
       105   04 Jun 2027 03:55:17.338   04 Jun 2027 03:55:34.142            16.804          8402.000
       106   04 Jun 2027 05:25:42.062   04 Jun 2027 05:27:37.260           115.198         57599.000
       107   04 Jun 2027 05:27:46.083   04 Jun 2027 05:28:03.231            17.148          8574.000
       108   04 Jun 2027 05:28:42.868   04 Jun 2027 05:29:00.908            18.040          9020.000
       109   04 Jun 2027 05:30:57.621   04 Jun 2027 05:31:10.170            12.549          6274.500
       110   04 Jun 2027 05:32:11.949   04 Jun 2027 05:32:21.386             9.437          4718.500
       111   04 Jun 2027 05:32:26.707   04 Jun 2027 05:32:35.192             8.485          4242.500
       112   04 Jun 2027 07:03:10.738   04 Jun 2027 07:03:53.254            42.516         20921.469
       113   04 Jun 2027 07:05:36.361   04 Jun 2027 07:05:37.452             1.091           138.969
       114   04 Jun 2027 07:06:05.366   04 Jun 2027 07:06:07.319             1.953           485.125
       115   04 Jun 2027 07:06:44.578   04 Jun 2027 07:06:50.413             5.835          1164.344
       116   04 Jun 2027 07:08:08.751   04 Jun 2027 07:08:11.916             3.165          1582.500
       117   04 Jun 2027 07:08:47.897   04 Jun 2027 07:08:52.557             4.660          1648.188
       118   04 Jun 2027 07:10:07.605   04 Jun 2027 07:10:12.343             4.738          1465.594
       119   04 Jun 2027 07:10:28.708   04 Jun 2027 07:10:29.072             0.364           182.000
       120   04 Jun 2027 08:39:55.351   04 Jun 2027 08:40:23.682            28.331         13433.344
       121   04 Jun 2027 08:40:52.430   04 Jun 2027 08:40:58.888             6.458           686.969
       122   04 Jun 2027 08:41:30.341   04 Jun 2027 08:41:31.965             1.624           637.312
       123   04 Jun 2027 08:42:19.425   04 Jun 2027 08:42:27.538             8.113           986.594
       124   04 Jun 2027 08:42:37.700   04 Jun 2027 08:42:40.822             3.122           317.562
       125   04 Jun 2027 08:43:20.023   04 Jun 2027 08:43:21.626             1.603           468.344
       126   04 Jun 2027 08:43:43.621   04 Jun 2027 08:43:47.526             3.905           595.375
       127   04 Jun 2027 08:43:58.297   04 Jun 2027 08:43:58.967             0.670           229.844
       128   04 Jun 2027 08:44:43.422   04 Jun 2027 08:44:47.469             4.047          1389.219
       129   04 Jun 2027 08:45:21.502   04 Jun 2027 08:45:25.394             3.892           950.375
       130   04 Jun 2027 08:45:52.704   04 Jun 2027 08:45:52.704             0.000             0.000
       131   04 Jun 2027 08:46:13.494   04 Jun 2027 08:46:21.953             8.459          1257.969
       132   04 Jun 2027 10:17:53.835   04 Jun 2027 10:18:12.340            18.505          9238.937
       133   04 Jun 2027 10:18:18.995   04 Jun 2027 10:18:20.916             1.921           207.969
       134   04 Jun 2027 10:19:05.784   04 Jun 2027 10:19:08.614             2.830          1352.563
       135   04 Jun 2027 10:19:26.566   04 Jun 2027 10:19:32.336             5.770           511.063
       136   04 Jun 2027 10:19:45.292   04 Jun 2027 10:19:47.274             1.982           404.875
       137   04 Jun 2027 10:20:00.802   04 Jun 2027 10:20:01.694             0.892           335.812
       138   04 Jun 2027 10:21:18.271   04 Jun 2027 10:21:21.758             3.487          1415.625
       139   04 Jun 2027 10:21:39.990   04 Jun 2027 10:21:44.954             4.964           481.594
       140   04 Jun 2027 11:51:31.736   04 Jun 2027 11:51:51.187            19.451          2764.594
       141   04 Jun 2027 11:52:52.942   04 Jun 2027 11:53:04.965            12.023          1542.125
       142   04 Jun 2027 11:53:12.033   04 Jun 2027 11:53:13.710             1.677           193.625
       143   04 Jun 2027 11:53:47.432   04 Jun 2027 11:53:51.025             3.593          1053.812
       144   04 Jun 2027 11:54:19.704   04 Jun 2027 11:54:19.704             0.000             0.000
       145   04 Jun 2027 11:55:12.498   04 Jun 2027 11:55:22.146             9.648          2154.375
       146   04 Jun 2027 11:55:25.856   04 Jun 2027 11:55:26.843             0.987            26.437
       147   04 Jun 2027 11:56:23.778   04 Jun 2027 11:56:23.808             0.030            15.000
       148   04 Jun 2027 11:56:29.847   04 Jun 2027 11:56:32.249             2.402           724.938
       149   04 Jun 2027 11:56:57.570   04 Jun 2027 11:56:57.570             0.000             0.000
       150   04 Jun 2027 11:57:34.109   04 Jun 2027 11:57:35.847             1.738           869.000
       151   04 Jun 2027 11:58:13.935   04 Jun 2027 11:58:29.208            15.273          2066.531
       152   05 Jun 2027 04:02:16.721   05 Jun 2027 04:03:36.336            79.615         39807.500
       153   05 Jun 2027 04:04:46.044   05 Jun 2027 04:04:55.196             9.152          4576.000
       154   05 Jun 2027 04:06:53.247   05 Jun 2027 04:07:02.013             8.766          4383.000
       155   05 Jun 2027 04:07:29.715   05 Jun 2027 04:08:01.606            31.891         15945.500
       156   05 Jun 2027 05:37:10.145   05 Jun 2027 05:38:14.809            64.664         32332.000
       157   05 Jun 2027 05:39:24.266   05 Jun 2027 05:41:00.714            96.448         48224.000
       158   05 Jun 2027 05:42:26.113   05 Jun 2027 05:42:26.113             0.000             0.000
       159   05 Jun 2027 05:42:38.407   05 Jun 2027 05:42:53.965            15.558          7779.000
       160   05 Jun 2027 05:44:34.442   05 Jun 2027 05:44:49.350            14.908          7454.000
       161   05 Jun 2027 05:46:25.407   05 Jun 2027 05:46:25.407             0.000             0.000
       162   05 Jun 2027 07:15:03.946   05 Jun 2027 07:15:22.278            18.332          9166.000
       163   05 Jun 2027 07:15:31.866   05 Jun 2027 07:15:43.061            11.195          5597.500
       164   05 Jun 2027 07:15:54.952   05 Jun 2027 07:16:13.620            18.668          8273.531
       165   05 Jun 2027 07:17:01.409   05 Jun 2027 07:17:06.473             5.064          1493.406
       166   05 Jun 2027 07:17:29.546   05 Jun 2027 07:17:36.091             6.545           555.687
       167   05 Jun 2027 07:18:31.151   05 Jun 2027 07:18:36.139             4.988          1361.750
       168   05 Jun 2027 07:18:46.636   05 Jun 2027 07:18:49.360             2.724           268.750
       169   05 Jun 2027 07:19:33.541   05 Jun 2027 07:19:37.689             4.148          1083.687
       170   05 Jun 2027 07:19:45.675   05 Jun 2027 07:19:48.511             2.836           249.563
       171   05 Jun 2027 07:20:17.441   05 Jun 2027 07:20:21.740             4.299           348.031
       172   05 Jun 2027 07:21:22.938   05 Jun 2027 07:21:27.835             4.897          1912.438
       173   05 Jun 2027 07:22:00.212   05 Jun 2027 07:22:03.902             3.690           691.219
       174   05 Jun 2027 08:51:47.957   05 Jun 2027 08:52:19.708            31.751         14159.031
       175   05 Jun 2027 08:52:28.685   05 Jun 2027 08:52:38.771            10.086           278.281
       176   05 Jun 2027 08:52:51.200   05 Jun 2027 08:52:55.554             4.354           122.906
       177   05 Jun 2027 08:53:22.317   05 Jun 2027 08:53:23.015             0.698           107.813
       178   05 Jun 2027 08:54:06.103   05 Jun 2027 08:54:07.050             0.947           467.406
       179   05 Jun 2027 08:54:30.167   05 Jun 2027 08:54:32.481             2.314           385.156
       180   05 Jun 2027 08:54:55.641   05 Jun 2027 08:54:57.688             2.047           633.344
       181   05 Jun 2027 08:55:27.993   05 Jun 2027 08:55:29.070             1.077            18.094
       182   05 Jun 2027 08:55:41.553   05 Jun 2027 08:55:45.383             3.830           390.094
       183   05 Jun 2027 08:56:13.901   05 Jun 2027 08:56:15.142             1.241           618.531
       184   05 Jun 2027 08:56:32.553   05 Jun 2027 08:56:37.442             4.889           458.187
       185   05 Jun 2027 08:57:21.423   05 Jun 2027 08:57:24.056             2.633          1221.719
       186   05 Jun 2027 10:29:53.922   05 Jun 2027 10:30:13.846            19.924          7627.031
       187   05 Jun 2027 10:30:15.528   05 Jun 2027 10:30:18.095             2.567            25.406
       188   05 Jun 2027 10:31:15.760   05 Jun 2027 10:31:19.348             3.588          1629.500
       189   05 Jun 2027 10:32:05.851   05 Jun 2027 10:32:14.068             8.217          1453.219
       190   05 Jun 2027 10:33:16.094   05 Jun 2027 10:33:18.346             2.252          1126.000
       191   06 Jun 2027 04:16:15.126   06 Jun 2027 04:17:55.020            99.894         49947.000
       192   06 Jun 2027 04:18:12.476   06 Jun 2027 04:18:40.311            27.835         13917.500
       193   06 Jun 2027 04:19:27.030   06 Jun 2027 04:19:30.030             3.000          1500.000
       194   06 Jun 2027 05:50:02.828   06 Jun 2027 05:52:20.065           137.237         68618.500
       195   06 Jun 2027 05:52:57.652   06 Jun 2027 05:53:04.883             7.231          3615.500
       196   06 Jun 2027 05:53:53.491   06 Jun 2027 05:53:53.491             0.000             0.000
       197   06 Jun 2027 05:54:32.398   06 Jun 2027 05:54:55.252            22.854         11427.000
       198   06 Jun 2027 05:57:31.157   06 Jun 2027 05:58:08.795            37.638         17715.126
       199   06 Jun 2027 05:58:26.401   06 Jun 2027 05:58:27.900             1.499           498.594
       200   06 Jun 2027 05:58:33.024   06 Jun 2027 05:58:33.240             0.216           108.000
       201   06 Jun 2027 07:27:11.768   06 Jun 2027 07:27:35.200            23.432         11716.000
       202   06 Jun 2027 07:27:47.769   06 Jun 2027 07:27:49.814             2.045           787.031
       203   06 Jun 2027 07:28:12.708   06 Jun 2027 07:28:20.978             8.270           357.312
       204   06 Jun 2027 07:29:25.014   06 Jun 2027 07:29:33.346             8.332          1871.656
       205   06 Jun 2027 07:31:02.040   06 Jun 2027 07:31:07.891             5.851          2290.000
       206   06 Jun 2027 07:31:26.164   06 Jun 2027 07:31:32.811             6.647           291.438
       207   06 Jun 2027 07:31:46.732   06 Jun 2027 07:31:49.486             2.754           435.031
       208   06 Jun 2027 07:32:08.980   06 Jun 2027 07:32:09.973             0.993           349.875
       209   06 Jun 2027 07:33:03.390   06 Jun 2027 07:33:04.347             0.957           285.938
       210   06 Jun 2027 07:34:00.698   06 Jun 2027 07:34:04.531             3.833          1625.250
       211   06 Jun 2027 07:34:14.594   06 Jun 2027 07:34:14.994             0.400           198.281
       212   06 Jun 2027 09:04:26.327   06 Jun 2027 09:04:46.672            20.345          9666.688
       213   06 Jun 2027 09:05:43.960   06 Jun 2027 09:05:49.830             5.870          1722.844
       214   06 Jun 2027 09:06:27.146   06 Jun 2027 09:06:29.727             2.581           772.969
       215   06 Jun 2027 09:07:06.400   06 Jun 2027 09:07:13.989             7.589           983.281
       216   06 Jun 2027 09:07:29.958   06 Jun 2027 09:07:30.950             0.992           225.531
       217   06 Jun 2027 09:07:52.468   06 Jun 2027 09:07:55.073             2.605           402.781
       218   06 Jun 2027 09:08:18.288   06 Jun 2027 09:08:20.054             1.766           672.219
       219   06 Jun 2027 09:08:34.169   06 Jun 2027 09:08:38.222             4.053           441.094
       220   06 Jun 2027 09:09:58.449   06 Jun 2027 09:10:04.056             5.607          2280.781
       221   06 Jun 2027 10:41:07.931   06 Jun 2027 10:41:27.274            19.343          8809.125
       222   06 Jun 2027 10:41:47.088   06 Jun 2027 10:41:50.892             3.804           570.125
       223   06 Jun 2027 10:43:20.031   06 Jun 2027 10:43:25.094             5.063          2447.281
       224   06 Jun 2027 10:43:35.289   06 Jun 2027 10:43:36.675             1.386            35.750
       225   06 Jun 2027 10:43:47.281   06 Jun 2027 10:43:48.472             1.191           178.875
       226   06 Jun 2027 10:44:15.424   06 Jun 2027 10:44:17.824             2.400           842.250
       227   06 Jun 2027 10:44:24.946   06 Jun 2027 10:44:25.859             0.913             3.625
       228   06 Jun 2027 10:45:14.419   06 Jun 2027 10:45:22.015             7.596          1517.500
       229   07 Jun 2027 04:28:27.988   07 Jun 2027 04:31:00.875           152.887         76443.500
       230   07 Jun 2027 04:31:26.160   07 Jun 2027 04:31:58.284            32.124         16062.000
       231   07 Jun 2027 06:02:27.899   07 Jun 2027 06:04:00.852            92.953         46476.500
       232   07 Jun 2027 06:04:21.612   07 Jun 2027 06:04:46.575            24.963         12481.500
       233   07 Jun 2027 06:05:08.207   07 Jun 2027 06:05:08.207             0.000             0.000
       234   07 Jun 2027 06:06:35.171   07 Jun 2027 06:06:36.564             1.393           696.500
       235   07 Jun 2027 06:06:58.367   07 Jun 2027 06:07:13.669            15.302          5843.250
       236   07 Jun 2027 06:08:15.326   07 Jun 2027 06:08:15.326             0.000             0.000
       237   07 Jun 2027 06:09:19.509   07 Jun 2027 06:09:27.796             8.287          3932.500
       238   07 Jun 2027 06:10:23.779   07 Jun 2027 06:10:27.869             4.090          1474.969
       239   07 Jun 2027 07:39:37.010   07 Jun 2027 07:40:09.776            32.766         13050.031
       240   07 Jun 2027 07:42:37.494   07 Jun 2027 07:42:40.662             3.168          1505.812
       241   07 Jun 2027 07:42:58.672   07 Jun 2027 07:43:02.071             3.399           487.250
       242   07 Jun 2027 07:43:53.854   07 Jun 2027 07:43:56.433             2.579          1146.562
       243   07 Jun 2027 07:44:02.361   07 Jun 2027 07:44:02.737             0.376           185.250
       244   07 Jun 2027 07:45:11.956   07 Jun 2027 07:45:15.308             3.352          1676.000
       245   07 Jun 2027 07:45:36.344   07 Jun 2027 07:45:38.817             2.473          1144.469
       246   07 Jun 2027 07:45:43.641   07 Jun 2027 07:45:44.141             0.500            58.906
       247   07 Jun 2027 07:46:07.799   07 Jun 2027 07:46:08.610             0.811           309.313
       248   07 Jun 2027 09:16:35.905   07 Jun 2027 09:17:01.037            25.132         11181.031
       249   07 Jun 2027 09:17:34.555   07 Jun 2027 09:17:37.850             3.295          1003.437
       250   07 Jun 2027 09:17:51.024   07 Jun 2027 09:17:51.024             0.000             0.000
       251   07 Jun 2027 09:18:05.058   07 Jun 2027 09:18:08.280             3.222           458.781
       252   07 Jun 2027 09:18:10.819   07 Jun 2027 09:18:13.950             3.131            40.344
       253   07 Jun 2027 09:19:12.181   07 Jun 2027 09:19:15.668             3.487          1654.469
       254   07 Jun 2027 09:19:52.030   07 Jun 2027 09:19:54.349             2.319          1136.313
       255   07 Jun 2027 09:20:46.143   07 Jun 2027 09:20:53.172             7.029          1618.563
       256   07 Jun 2027 09:21:46.759   07 Jun 2027 09:21:51.506             4.747          1480.375
       257   07 Jun 2027 10:53:22.730   07 Jun 2027 10:53:39.664            16.934          8467.000
       258   07 Jun 2027 10:54:18.637   07 Jun 2027 10:54:22.570             3.933          1758.906
       259   07 Jun 2027 10:55:20.028   07 Jun 2027 10:55:24.374             4.346          1795.562
       260   07 Jun 2027 10:55:42.309   07 Jun 2027 10:55:43.530             1.221           242.375
       261   07 Jun 2027 10:56:24.282   07 Jun 2027 10:56:30.379             6.097          1273.500
       262   07 Jun 2027 10:56:44.924   07 Jun 2027 10:56:51.245             6.321           329.875
       263   07 Jun 2027 10:57:45.139   07 Jun 2027 10:57:50.372             5.233           997.812
       264   08 Jun 2027 03:04:03.316   08 Jun 2027 03:04:28.272            24.956         12478.000
       265   08 Jun 2027 03:04:40.101   08 Jun 2027 03:04:48.108             8.007          4003.500
       266   08 Jun 2027 03:05:04.071   08 Jun 2027 03:05:04.071             0.000             0.000
       267   08 Jun 2027 03:05:41.956   08 Jun 2027 03:05:52.476            10.520          5260.000
       268   08 Jun 2027 03:06:02.134   08 Jun 2027 03:06:32.483            30.349         15174.500
       269   08 Jun 2027 04:40:33.862   08 Jun 2027 04:42:14.567           100.705         50352.500
       270   08 Jun 2027 06:15:42.726   08 Jun 2027 06:18:06.769           144.043         70088.844
       271   08 Jun 2027 06:18:16.609   08 Jun 2027 06:18:17.590             0.981           175.656
       272   08 Jun 2027 06:18:18.303   08 Jun 2027 06:18:19.314             1.011            22.281
       273   08 Jun 2027 06:20:26.505   08 Jun 2027 06:20:34.211             7.706          3500.125
       274   08 Jun 2027 06:21:32.518   08 Jun 2027 06:21:36.768             4.250          1661.219
       275   08 Jun 2027 06:21:47.979   08 Jun 2027 06:21:49.618             1.639           350.344
       276   08 Jun 2027 06:22:08.865   08 Jun 2027 06:22:10.401             1.536           601.469
       277   08 Jun 2027 06:22:16.462   08 Jun 2027 06:22:18.069             1.607            23.906
       278   08 Jun 2027 06:22:21.017   08 Jun 2027 06:22:21.017             0.000             0.000
       279   08 Jun 2027 07:52:03.053   08 Jun 2027 07:52:23.141            20.088          9518.937
       280   08 Jun 2027 07:53:49.147   08 Jun 2027 07:53:53.447             4.300          1818.656
       281   08 Jun 2027 07:54:15.786   08 Jun 2027 07:54:22.609             6.823           698.094
       282   08 Jun 2027 07:55:18.414   08 Jun 2027 07:55:21.458             3.044          1477.500
       283   08 Jun 2027 07:56:00.387   08 Jun 2027 07:56:01.306             0.919           459.500
       284   08 Jun 2027 07:56:53.438   08 Jun 2027 07:56:59.521             6.083          2231.031
       285   08 Jun 2027 07:57:09.518   08 Jun 2027 07:57:10.485             0.967           117.750
       286   08 Jun 2027 07:57:35.520   08 Jun 2027 07:57:37.343             1.823           168.031
       287   08 Jun 2027 07:58:08.803   08 Jun 2027 07:58:09.405             0.602           195.531
       288   08 Jun 2027 07:58:23.985   08 Jun 2027 07:58:25.153             1.168           390.312
       289   08 Jun 2027 09:29:37.100   08 Jun 2027 09:30:03.374            26.274         11003.219
       290   08 Jun 2027 09:30:38.446   08 Jun 2027 09:30:44.485             6.039           734.844
       291   08 Jun 2027 09:31:20.135   08 Jun 2027 09:31:22.101             1.966           849.875
       292   08 Jun 2027 09:31:23.821   08 Jun 2027 09:31:23.915             0.094            47.000
       293   08 Jun 2027 09:32:33.123   08 Jun 2027 09:32:38.290             5.167          2169.500
       294   08 Jun 2027 09:33:14.555   08 Jun 2027 09:33:15.641             1.086           543.000
       295   08 Jun 2027 09:33:47.955   08 Jun 2027 09:33:53.263             5.308          1600.094
       296   08 Jun 2027 11:05:40.288   08 Jun 2027 11:05:53.556            13.268          6634.000
       297   08 Jun 2027 11:06:18.288   08 Jun 2027 11:06:21.601             3.313           830.625
       298   08 Jun 2027 11:07:26.185   08 Jun 2027 11:07:30.937             4.752          1879.469
       299   08 Jun 2027 11:07:50.615   08 Jun 2027 11:07:51.067             0.452           226.000
       300   08 Jun 2027 11:08:55.510   08 Jun 2027 11:09:08.678            13.168          2399.406
       301   09 Jun 2027 03:16:08.540   09 Jun 2027 03:16:30.440            21.900         10950.000
       302   09 Jun 2027 03:16:48.775   09 Jun 2027 03:17:25.355            36.580         18290.000
       303   09 Jun 2027 03:19:10.532   09 Jun 2027 03:19:17.915             7.383          3691.500
       304   09 Jun 2027 04:52:44.203   09 Jun 2027 04:55:44.120           179.917         89958.500
       305   09 Jun 2027 06:27:54.453   09 Jun 2027 06:28:50.647            56.194         28036.219
       306   09 Jun 2027 06:29:22.684   09 Jun 2027 06:29:30.384             7.700           925.844
       307   09 Jun 2027 06:29:59.672   09 Jun 2027 06:30:01.086             1.414           654.906
       308   09 Jun 2027 06:30:10.079   09 Jun 2027 06:30:12.027             1.948           129.313
       309   09 Jun 2027 06:32:16.116   09 Jun 2027 06:32:26.800            10.684          3709.750
       310   09 Jun 2027 06:32:42.445   09 Jun 2027 06:32:47.878             5.433           488.906
       311   09 Jun 2027 06:32:58.621   09 Jun 2027 06:33:01.709             3.088            28.281
       312   09 Jun 2027 06:33:21.163   09 Jun 2027 06:33:23.906             2.743           316.156
       313   09 Jun 2027 06:33:43.987   09 Jun 2027 06:33:46.051             2.064           508.438
       314   09 Jun 2027 06:33:48.582   09 Jun 2027 06:33:49.958             1.376            79.094
       315   09 Jun 2027 08:04:15.014   09 Jun 2027 08:04:37.797            22.783         10992.625
       316   09 Jun 2027 08:05:03.334   09 Jun 2027 08:05:06.346             3.012           795.625
       317   09 Jun 2027 08:05:37.566   09 Jun 2027 08:05:39.548             1.982           198.281
       318   09 Jun 2027 08:05:48.192   09 Jun 2027 08:05:50.245             2.053           270.125
       319   09 Jun 2027 08:07:55.592   09 Jun 2027 08:08:03.234             7.642          3773.844
       320   09 Jun 2027 08:08:57.395   09 Jun 2027 08:09:01.493             4.098          1604.844
       321   09 Jun 2027 08:09:06.214   09 Jun 2027 08:09:08.602             2.388           147.531
       322   09 Jun 2027 08:09:30.538   09 Jun 2027 08:09:35.718             5.180           304.969
       323   09 Jun 2027 09:42:18.437   09 Jun 2027 09:42:39.394            20.957         10114.062
       324   09 Jun 2027 09:42:43.081   09 Jun 2027 09:42:44.290             1.209           115.219
       325   09 Jun 2027 09:44:07.031   09 Jun 2027 09:44:14.789             7.758          2300.281
       326   09 Jun 2027 09:44:32.301   09 Jun 2027 09:44:35.981             3.680            20.688
       327   09 Jun 2027 09:44:59.586   09 Jun 2027 09:45:01.017             1.431           614.469
       328   09 Jun 2027 09:45:17.609   09 Jun 2027 09:45:22.069             4.460           356.781
       329   09 Jun 2027 11:17:44.413   09 Jun 2027 11:18:01.948            17.535          8343.031
       330   09 Jun 2027 11:18:42.744   09 Jun 2027 11:18:46.187             3.443          1243.031
       331   09 Jun 2027 11:19:20.146   09 Jun 2027 11:19:26.493             6.347           921.313
       332   09 Jun 2027 11:19:49.390   09 Jun 2027 11:19:51.708             2.318           672.781
       333   09 Jun 2027 11:20:58.640   09 Jun 2027 11:21:04.437             5.797          1782.031
       334   09 Jun 2027 11:21:18.942   09 Jun 2027 11:21:18.942             0.000             0.000
       335   09 Jun 2027 11:22:00.147   09 Jun 2027 11:22:04.815             4.668          1479.281
       336   09 Jun 2027 11:22:08.280   09 Jun 2027 11:22:08.280             0.000             0.000
       337   09 Jun 2027 11:22:29.249   09 Jun 2027 11:22:31.255             2.006           763.562
       338   10 Jun 2027 03:28:42.135   10 Jun 2027 03:29:50.456            68.321         34160.500
       339   10 Jun 2027 03:31:11.102   10 Jun 2027 03:31:25.034            13.932          6966.000
       340   10 Jun 2027 05:04:31.115   10 Jun 2027 05:07:15.180           164.065         82032.500
       341   10 Jun 2027 05:07:53.422   10 Jun 2027 05:08:17.172            23.750         11875.000
       342   10 Jun 2027 05:08:37.783   10 Jun 2027 05:08:40.788             3.005          1502.500
       343   10 Jun 2027 06:39:24.209   10 Jun 2027 06:40:02.291            38.082         18363.000
       344   10 Jun 2027 06:40:39.498   10 Jun 2027 06:40:42.765             3.267          1089.750
       345   10 Jun 2027 06:41:15.190   10 Jun 2027 06:41:16.642             1.452           590.844
       346   10 Jun 2027 06:41:30.043   10 Jun 2027 06:41:32.103             2.060           133.000
       347   10 Jun 2027 06:42:12.654   10 Jun 2027 06:42:17.248             4.594          1205.688
       348   10 Jun 2027 06:42:18.662   10 Jun 2027 06:42:23.145             4.483            44.188
       349   10 Jun 2027 06:42:42.537   10 Jun 2027 06:42:46.004             3.467           477.312
       350   10 Jun 2027 06:44:26.563   10 Jun 2027 06:44:33.686             7.123          3142.469
       351   10 Jun 2027 06:44:52.974   10 Jun 2027 06:44:54.403             1.429           602.750
       352   10 Jun 2027 06:46:12.533   10 Jun 2027 06:46:17.007             4.474          1557.719
       353   10 Jun 2027 08:15:54.188   10 Jun 2027 08:16:24.434            30.246         13501.656
       354   10 Jun 2027 08:17:48.469   10 Jun 2027 08:17:53.815             5.346          1631.875
       355   10 Jun 2027 08:18:43.216   10 Jun 2027 08:18:47.169             3.953          1196.687
       356   10 Jun 2027 08:19:09.363   10 Jun 2027 08:19:11.497             2.134           235.250
       357   10 Jun 2027 08:19:33.335   10 Jun 2027 08:19:35.549             2.214           682.438
       358   10 Jun 2027 08:20:10.889   10 Jun 2027 08:20:14.016             3.127          1024.969
       359   10 Jun 2027 08:20:26.423   10 Jun 2027 08:20:27.005             0.582           286.094
       360   10 Jun 2027 08:20:40.435   10 Jun 2027 08:20:43.714             3.279           298.125
       361   10 Jun 2027 08:20:56.533   10 Jun 2027 08:20:58.669             2.136           319.750
       362   10 Jun 2027 08:21:08.325   10 Jun 2027 08:21:09.535             1.210           180.437
       363   10 Jun 2027 08:21:57.385   10 Jun 2027 08:22:00.915             3.530          1121.937
       364   10 Jun 2027 08:22:11.579   10 Jun 2027 08:22:11.579             0.000             0.000
       365   10 Jun 2027 09:54:11.753   10 Jun 2027 09:54:32.997            21.244          9837.437
       366   10 Jun 2027 09:55:26.931   10 Jun 2027 09:55:28.424             1.493           746.500
       367   10 Jun 2027 09:56:06.686   10 Jun 2027 09:56:11.362             4.676          2055.500
       368   10 Jun 2027 09:56:43.559   10 Jun 2027 09:56:46.012             2.453           850.031
       369   10 Jun 2027 09:57:39.440   10 Jun 2027 09:57:43.115             3.675          1247.844
       370   10 Jun 2027 11:29:37.928   10 Jun 2027 11:29:50.525            12.597          6125.906
       371   10 Jun 2027 11:30:13.591   10 Jun 2027 11:30:13.591             0.000             0.000
       372   10 Jun 2027 11:30:22.856   10 Jun 2027 11:30:25.700             2.844           967.969
       373   10 Jun 2027 11:30:32.218   10 Jun 2027 11:30:32.218             0.000             0.000
       374   10 Jun 2027 11:31:32.693   10 Jun 2027 11:31:37.207             4.514          1926.813
       375   10 Jun 2027 11:32:14.018   10 Jun 2027 11:32:18.079             4.061          1150.344
       376   10 Jun 2027 11:33:29.644   10 Jun 2027 11:33:34.555             4.911          2196.906
       377   10 Jun 2027 11:34:00.815   10 Jun 2027 11:34:03.190             2.375           547.344
       378   10 Jun 2027 11:34:47.041   10 Jun 2027 11:34:51.108             4.067          1075.594
       379   11 Jun 2027 03:39:16.593   11 Jun 2027 03:39:43.489            26.896         13448.000
       380   11 Jun 2027 03:40:51.343   11 Jun 2027 03:41:07.943            16.600          8300.000
       381   11 Jun 2027 03:41:42.649   11 Jun 2027 03:41:49.844             7.195          3597.500
       382   11 Jun 2027 03:43:11.949   11 Jun 2027 03:43:15.559             3.610          1805.000
       383   11 Jun 2027 03:43:37.347   11 Jun 2027 03:43:48.122            10.775          5387.500
       384   11 Jun 2027 03:43:56.454   11 Jun 2027 03:43:59.067             2.613          1306.500
       385   11 Jun 2027 05:14:47.792   11 Jun 2027 05:15:38.517            50.725         25362.500
       386   11 Jun 2027 05:16:16.466   11 Jun 2027 05:18:36.014           139.548         69774.000
       387   11 Jun 2027 05:19:09.365   11 Jun 2027 05:19:27.220            17.855          8927.500
       388   11 Jun 2027 05:20:38.028   11 Jun 2027 05:20:50.844            12.816          6408.000
       389   11 Jun 2027 06:51:07.583   11 Jun 2027 06:51:47.161            39.578         19783.281
       390   11 Jun 2027 06:52:29.722   11 Jun 2027 06:52:31.840             2.118           334.906
       391   11 Jun 2027 06:52:59.450   11 Jun 2027 06:53:03.208             3.758           605.781
       392   11 Jun 2027 06:53:58.177   11 Jun 2027 06:54:01.589             3.412          1695.594
       393   11 Jun 2027 06:54:09.587   11 Jun 2027 06:54:10.163             0.576           249.938
       394   11 Jun 2027 06:54:44.568   11 Jun 2027 06:54:48.389             3.821           718.594
       395   11 Jun 2027 06:55:11.870   11 Jun 2027 06:55:13.552             1.682           704.656
       396   11 Jun 2027 06:55:28.080   11 Jun 2027 06:55:29.916             1.836           454.000
       397   11 Jun 2027 06:55:49.165   11 Jun 2027 06:55:50.923             1.758           544.562
       398   11 Jun 2027 06:56:35.104   11 Jun 2027 06:56:38.926             3.822          1364.406
       399   11 Jun 2027 06:57:05.959   11 Jun 2027 06:57:08.404             2.445           654.062
       400   11 Jun 2027 06:57:53.778   11 Jun 2027 06:57:56.462             2.684           898.344
       401   11 Jun 2027 08:28:13.939   11 Jun 2027 08:28:39.611            25.672         11760.469
       402   11 Jun 2027 08:28:58.134   11 Jun 2027 08:29:02.129             3.995           533.469
       403   11 Jun 2027 08:29:55.191   11 Jun 2027 08:29:58.582             3.391           651.969
       404   11 Jun 2027 08:30:36.599   11 Jun 2027 08:30:40.394             3.795          1176.344
       405   11 Jun 2027 08:32:00.957   11 Jun 2027 08:32:06.627             5.670          2412.594
       406   11 Jun 2027 08:32:11.150   11 Jun 2027 08:32:14.962             3.812           141.344
       407   11 Jun 2027 08:32:17.999   11 Jun 2027 08:32:19.397             1.398            94.906
       408   11 Jun 2027 08:33:49.866   11 Jun 2027 08:33:57.069             7.203          2676.875
       409   11 Jun 2027 08:34:08.793   11 Jun 2027 08:34:11.024             2.231           366.375
       410   11 Jun 2027 10:06:09.318   11 Jun 2027 10:06:25.297            15.979          7905.094
       411   11 Jun 2027 10:06:55.194   11 Jun 2027 10:06:58.064             2.870           898.531
       412   11 Jun 2027 10:07:35.027   11 Jun 2027 10:07:36.970             1.943           633.219
       413   11 Jun 2027 10:07:45.734   11 Jun 2027 10:07:49.630             3.896           273.875
       414   11 Jun 2027 10:08:23.377   11 Jun 2027 10:08:26.969             3.592          1054.594
       415   11 Jun 2027 10:09:48.015   11 Jun 2027 10:09:52.565             4.550          1860.000
       416   11 Jun 2027 11:39:14.545   11 Jun 2027 11:39:29.819            15.274          7019.938
       417   11 Jun 2027 11:39:52.791   11 Jun 2027 11:39:55.023             2.232           717.875
       418   11 Jun 2027 11:41:21.484   11 Jun 2027 11:41:29.431             7.947          1398.094
       419   11 Jun 2027 11:41:40.897   11 Jun 2027 11:41:45.177             4.280           321.500
       420   11 Jun 2027 11:42:06.864   11 Jun 2027 11:42:07.469             0.605           302.500
       421   11 Jun 2027 11:42:25.779   11 Jun 2027 11:42:29.724             3.945           894.500
       422   11 Jun 2027 11:43:00.220   11 Jun 2027 11:43:05.145             4.925           859.875
       423   11 Jun 2027 11:43:21.400   11 Jun 2027 11:43:27.387             5.987           507.969
       424   11 Jun 2027 11:44:28.346   11 Jun 2027 11:44:32.594             4.248          1814.375
       425   11 Jun 2027 11:45:12.247   11 Jun 2027 11:45:18.211             5.964          1080.844
       426   11 Jun 2027 11:46:29.401   11 Jun 2027 11:46:29.514             0.113            56.500
       427   11 Jun 2027 11:47:03.728   11 Jun 2027 11:47:09.533             5.805          2290.250
       428   12 Jun 2027 03:50:58.985   12 Jun 2027 03:51:18.302            19.317          9658.500
       429   12 Jun 2027 03:52:52.876   12 Jun 2027 03:54:36.688           103.812         51906.000
       430   12 Jun 2027 03:54:47.333   12 Jun 2027 03:54:55.910             8.577          4288.500
       431   12 Jun 2027 03:55:07.121   12 Jun 2027 03:55:13.026             5.905          2952.500
       432   12 Jun 2027 05:25:56.086   12 Jun 2027 05:27:52.346           116.260         58130.000
       433   12 Jun 2027 05:28:00.812   12 Jun 2027 05:28:44.840            44.028         22014.000
       434   12 Jun 2027 05:30:47.987   12 Jun 2027 05:30:49.067             1.080           540.000
       435   12 Jun 2027 05:32:28.672   12 Jun 2027 05:32:36.890             8.218          4109.000
       436   12 Jun 2027 05:33:12.556   12 Jun 2027 05:33:14.362             1.806           903.000
       437   12 Jun 2027 07:03:25.370   12 Jun 2027 07:04:08.793            43.423         20888.219
       438   12 Jun 2027 07:05:21.507   12 Jun 2027 07:05:26.222             4.715          2085.031
       439   12 Jun 2027 07:05:54.006   12 Jun 2027 07:05:55.892             1.886           851.344
       440   12 Jun 2027 07:06:00.463   12 Jun 2027 07:06:02.106             1.643             8.563
       441   12 Jun 2027 07:06:46.331   12 Jun 2027 07:06:52.675             6.344          1263.500
       442   12 Jun 2027 07:07:17.653   12 Jun 2027 07:07:21.243             3.590           780.563
       443   12 Jun 2027 07:07:55.954   12 Jun 2027 07:07:57.307             1.353           490.437
       444   12 Jun 2027 07:08:37.704   12 Jun 2027 07:08:39.958             2.254           722.469
       445   12 Jun 2027 07:08:58.715   12 Jun 2027 07:09:01.635             2.920           373.500
       446   12 Jun 2027 07:09:04.124   12 Jun 2027 07:09:07.494             3.370            47.219
       447   12 Jun 2027 07:09:35.879   12 Jun 2027 07:09:39.872             3.993           453.719
       448   12 Jun 2027 08:40:09.984   12 Jun 2027 08:40:39.141            29.157         13335.313
       449   12 Jun 2027 08:41:07.353   12 Jun 2027 08:41:13.612             6.259           697.906
       450   12 Jun 2027 08:42:26.808   12 Jun 2027 08:42:33.800             6.992           706.937
       451   12 Jun 2027 08:43:30.302   12 Jun 2027 08:43:34.739             4.437          1747.031
       452   12 Jun 2027 08:43:47.965   12 Jun 2027 08:43:50.949             2.984           397.125
       453   12 Jun 2027 08:45:08.055   12 Jun 2027 08:45:13.079             5.024          2401.594
       454   12 Jun 2027 08:45:26.549   12 Jun 2027 08:45:27.307             0.758           246.938
       455   12 Jun 2027 08:45:37.130   12 Jun 2027 08:45:37.551             0.421            90.813
       456   12 Jun 2027 08:46:10.026   12 Jun 2027 08:46:12.396             2.370          1014.844
       457   12 Jun 2027 08:46:28.917   12 Jun 2027 08:46:36.607             7.690           382.625
       458   12 Jun 2027 10:18:08.599   12 Jun 2027 10:18:24.286            15.687          7737.969
       459   12 Jun 2027 10:19:48.900   12 Jun 2027 10:19:55.839             6.939          2470.656
       460   12 Jun 2027 10:20:16.243   12 Jun 2027 10:20:18.385             2.142           549.781
       461   12 Jun 2027 10:20:49.287   12 Jun 2027 10:20:53.306             4.019           965.687
       462   12 Jun 2027 10:21:30.823   12 Jun 2027 10:21:33.423             2.600          1031.000
       463   12 Jun 2027 10:22:16.532   12 Jun 2027 10:22:19.523             2.991          1347.156
       464   12 Jun 2027 11:51:46.259   12 Jun 2027 11:51:51.879             5.620          2103.875
       465   12 Jun 2027 11:52:22.338   12 Jun 2027 11:52:25.696             3.358           362.813
       466   12 Jun 2027 11:53:08.420   12 Jun 2027 11:53:10.989             2.569          1179.313
       467   12 Jun 2027 11:53:26.800   12 Jun 2027 11:53:28.916             2.116           172.437
       468   12 Jun 2027 11:53:54.996   12 Jun 2027 11:53:56.824             1.828           764.250
       469   12 Jun 2027 11:54:20.098   12 Jun 2027 11:54:21.362             1.264           549.500
       470   12 Jun 2027 11:55:05.516   12 Jun 2027 11:55:07.568             2.052           857.594
       471   12 Jun 2027 11:56:20.853   12 Jun 2027 11:56:25.488             4.635          2290.156
       472   12 Jun 2027 11:56:29.766   12 Jun 2027 11:56:30.053             0.287            57.344
       473   12 Jun 2027 11:56:44.674   12 Jun 2027 11:56:44.674             0.000             0.000
       474   12 Jun 2027 11:56:55.050   12 Jun 2027 11:57:02.212             7.162           513.281
       475   12 Jun 2027 11:57:50.481   12 Jun 2027 11:57:56.011             5.530          1177.750
       476   12 Jun 2027 11:59:06.034   12 Jun 2027 11:59:09.524             3.490          1745.000
       477   13 Jun 2027 04:02:30.962   13 Jun 2027 04:03:50.536            79.574         39787.000
       478   13 Jun 2027 04:05:03.144   13 Jun 2027 04:05:03.144             0.000             0.000
       479   13 Jun 2027 04:05:09.724   13 Jun 2027 04:05:10.955             1.231           615.500
       480   13 Jun 2027 04:07:09.236   13 Jun 2027 04:07:45.531            36.295         18147.500
       481   13 Jun 2027 05:37:24.683   13 Jun 2027 05:39:58.774           154.091         77045.500
       482   13 Jun 2027 05:40:32.373   13 Jun 2027 05:40:47.192            14.819          7409.500
       483   13 Jun 2027 05:40:57.693   13 Jun 2027 05:40:57.693             0.000             0.000
       484   13 Jun 2027 05:41:08.444   13 Jun 2027 05:41:15.346             6.902          3451.000
       485   13 Jun 2027 05:44:46.975   13 Jun 2027 05:45:03.824            16.849          8424.500
       486   13 Jun 2027 07:15:18.896   13 Jun 2027 07:16:25.505            66.609         30062.687
       487   13 Jun 2027 07:17:05.512   13 Jun 2027 07:17:07.141             1.629           808.656
       488   13 Jun 2027 07:17:23.531   13 Jun 2027 07:17:25.800             2.269           247.594
       489   13 Jun 2027 07:17:46.037   13 Jun 2027 07:17:53.465             7.428           571.313
       490   13 Jun 2027 07:19:27.786   13 Jun 2027 07:19:34.414             6.628          2674.281
       491   13 Jun 2027 07:19:53.448   13 Jun 2027 07:20:00.104             6.656           594.813
       492   13 Jun 2027 07:20:38.335   13 Jun 2027 07:20:40.440             2.105          1052.500
       493   13 Jun 2027 07:20:51.626   13 Jun 2027 07:20:52.710             1.084           491.781
       494   13 Jun 2027 07:21:09.568   13 Jun 2027 07:21:11.020             1.452           499.312
       495   13 Jun 2027 07:21:56.513   13 Jun 2027 07:22:00.229             3.716           970.563
       496   13 Jun 2027 08:52:02.985   13 Jun 2027 08:52:14.883            11.898          5949.000
       497   13 Jun 2027 08:52:37.698   13 Jun 2027 08:52:59.420            21.722          7367.812
       498   13 Jun 2027 08:53:06.037   13 Jun 2027 08:53:07.304             1.267           127.594
       499   13 Jun 2027 08:54:50.087   13 Jun 2027 08:54:53.700             3.613          1718.656
       500   13 Jun 2027 08:55:53.286   13 Jun 2027 08:55:58.262             4.976          1271.844
       501   13 Jun 2027 08:56:09.288   13 Jun 2027 08:56:09.288             0.000             0.000
       502   13 Jun 2027 08:56:59.213   13 Jun 2027 08:57:07.383             8.170          1727.344
       503   13 Jun 2027 08:57:36.904   13 Jun 2027 08:57:39.072             2.168           903.625
       504   13 Jun 2027 10:29:56.488   13 Jun 2027 10:30:14.566            18.078          8544.156
       505   13 Jun 2027 10:30:50.798   13 Jun 2027 10:30:52.162             1.364           682.000
       506   13 Jun 2027 10:31:53.730   13 Jun 2027 10:32:00.718             6.988          2257.156
       507   13 Jun 2027 10:32:13.505   13 Jun 2027 10:32:15.030             1.525           113.625
       508   13 Jun 2027 10:33:31.254   13 Jun 2027 10:33:36.464             5.210          1494.219
       509   13 Jun 2027 10:33:49.645   13 Jun 2027 10:33:50.004             0.359           151.625
       510   13 Jun 2027 10:33:59.103   13 Jun 2027 10:34:01.349             2.246           184.812
       511   13 Jun 2027 10:34:15.222   13 Jun 2027 10:34:16.685             1.463           433.531
