uniorb/output/strategy_2/Camera/Camera_KinoSat_112002.txt

KinoSat_112002
-------------------------
    Access    *     Start Time (UTCG)     *     Stop Time (UTCG)  *   Duration (s) *   Data (Mbytes)
         1   01 Jun 2027 03:25:34.963   01 Jun 2027 03:25:59.392            24.429         12214.500
         2   01 Jun 2027 03:26:06.802   01 Jun 2027 03:29:41.953           215.151        107575.500
         3   01 Jun 2027 03:30:20.237   01 Jun 2027 03:31:22.770            62.533         31266.500
         4   01 Jun 2027 03:31:32.509   01 Jun 2027 03:31:46.932            14.423          7211.500
         5   01 Jun 2027 03:32:44.437   01 Jun 2027 03:32:51.201             6.764          3382.000
         6   01 Jun 2027 05:05:14.206   01 Jun 2027 05:06:49.764            95.558         47779.000
         7   01 Jun 2027 05:08:03.676   01 Jun 2027 05:08:51.497            47.821         23910.500
         8   01 Jun 2027 05:09:14.481   01 Jun 2027 05:09:25.295            10.814          5407.000
         9   01 Jun 2027 06:42:04.999   01 Jun 2027 06:43:36.704            91.705         45852.500
        10   01 Jun 2027 06:44:09.549   01 Jun 2027 06:44:58.322            48.773         24386.500
        11   01 Jun 2027 06:46:24.025   01 Jun 2027 06:46:40.612            16.587          8293.500
        12   01 Jun 2027 08:05:28.483   01 Jun 2027 08:06:55.769            87.286         43643.000
        13   01 Jun 2027 09:41:51.181   01 Jun 2027 09:42:34.992            43.811         21905.500
        14   01 Jun 2027 11:15:46.983   01 Jun 2027 11:17:58.175           131.192         65596.000
        15   01 Jun 2027 11:22:31.939   01 Jun 2027 11:22:51.155            19.216          9608.000
        16   01 Jun 2027 11:22:52.348   01 Jun 2027 11:23:53.567            61.219         30609.500
        17   02 Jun 2027 03:37:41.665   02 Jun 2027 03:41:28.189           226.524        113262.000
        18   02 Jun 2027 03:42:23.638   02 Jun 2027 03:42:31.622             7.984          3992.000
        19   02 Jun 2027 03:42:55.811   02 Jun 2027 03:42:56.521             0.710           355.000
        20   02 Jun 2027 03:43:09.938   02 Jun 2027 03:43:27.845            17.907          8953.500
        21   02 Jun 2027 03:43:57.860   02 Jun 2027 03:44:53.284            55.424         27712.000
        22   02 Jun 2027 05:15:56.235   02 Jun 2027 05:16:53.218            56.983         28491.500
        23   02 Jun 2027 05:17:51.840   02 Jun 2027 05:18:22.108            30.268         15134.000
        24   02 Jun 2027 05:18:26.067   02 Jun 2027 05:18:40.770            14.703          7351.500
        25   02 Jun 2027 05:19:41.143   02 Jun 2027 05:19:52.236            11.093          5546.500
        26   02 Jun 2027 05:20:00.047   02 Jun 2027 05:20:04.465             4.418          2209.000
        27   02 Jun 2027 05:21:16.358   02 Jun 2027 05:22:01.724            45.366         22683.000
        28   02 Jun 2027 06:54:57.590   02 Jun 2027 06:55:50.582            52.992         26496.000
        29   02 Jun 2027 06:55:53.295   02 Jun 2027 06:56:32.611            39.316         19658.000
        30   02 Jun 2027 06:56:39.089   02 Jun 2027 06:57:03.822            24.733         12366.500
        31   02 Jun 2027 06:57:14.240   02 Jun 2027 06:57:17.240             3.000          1500.000
        32   02 Jun 2027 06:57:27.516   02 Jun 2027 06:57:32.638             5.122          2561.000
        33   02 Jun 2027 06:58:00.639   02 Jun 2027 06:58:27.624            26.985         13492.500
        34   02 Jun 2027 08:17:20.932   02 Jun 2027 08:18:24.787            63.855         31761.093
        35   02 Jun 2027 09:53:59.769   02 Jun 2027 09:54:29.578            29.809         14127.781
        36   02 Jun 2027 09:55:14.557   02 Jun 2027 09:55:19.522             4.965          1405.594
        37   02 Jun 2027 09:55:57.404   02 Jun 2027 09:55:59.502             2.098          1006.094
        38   02 Jun 2027 09:56:58.593   02 Jun 2027 09:56:58.593             0.000             0.000
        39   02 Jun 2027 11:29:03.716   02 Jun 2027 11:29:28.072            24.356         11267.094
        40   02 Jun 2027 11:35:02.288   02 Jun 2027 11:35:23.826            21.538         10332.219
        41   02 Jun 2027 11:35:45.937   02 Jun 2027 11:35:48.929             2.992           670.125
        42   03 Jun 2027 03:49:39.904   03 Jun 2027 03:53:29.685           229.781        114890.500
        43   03 Jun 2027 03:53:44.807   03 Jun 2027 03:54:15.412            30.605         15302.500
        44   03 Jun 2027 03:54:21.130   03 Jun 2027 03:54:21.532             0.402           201.000
        45   03 Jun 2027 03:55:54.321   03 Jun 2027 03:55:55.245             0.924           462.000
        46   03 Jun 2027 03:56:17.750   03 Jun 2027 03:56:24.763             7.013          3506.500
        47   03 Jun 2027 05:27:53.008   03 Jun 2027 05:28:25.573            32.565         16282.500
        48   03 Jun 2027 05:28:59.721   03 Jun 2027 05:29:53.353            53.632         26816.000
        49   03 Jun 2027 05:30:23.666   03 Jun 2027 05:30:36.155            12.489          6041.343
        50   03 Jun 2027 05:31:12.798   03 Jun 2027 05:31:12.798             0.000             0.000
        51   03 Jun 2027 05:31:58.863   03 Jun 2027 05:32:05.986             7.123          1966.219
        52   03 Jun 2027 05:32:45.595   03 Jun 2027 05:32:49.168             3.573          1237.781
        53   03 Jun 2027 05:33:03.380   03 Jun 2027 05:33:03.380             0.000             0.000
        54   03 Jun 2027 07:06:08.197   03 Jun 2027 07:06:21.238            13.041          6520.500
        55   03 Jun 2027 07:07:11.374   03 Jun 2027 07:07:17.836             6.462          3052.188
        56   03 Jun 2027 07:08:27.774   03 Jun 2027 07:08:33.106             5.332          1548.875
        57   03 Jun 2027 07:09:01.031   03 Jun 2027 07:09:01.031             0.000             0.000
        58   03 Jun 2027 07:09:18.084   03 Jun 2027 07:09:21.405             3.321          1356.250
        59   03 Jun 2027 08:29:30.601   03 Jun 2027 08:29:55.566            24.965         11322.406
        60   03 Jun 2027 08:30:38.826   03 Jun 2027 08:30:40.405             1.579           779.625
        61   03 Jun 2027 08:32:28.732   03 Jun 2027 08:32:34.450             5.718          2838.031
        62   03 Jun 2027 10:07:44.515   03 Jun 2027 10:08:01.750            17.235          8617.500
        63   03 Jun 2027 10:08:12.275   03 Jun 2027 10:08:24.221            11.946          5891.437
        64   03 Jun 2027 10:09:05.265   03 Jun 2027 10:09:05.736             0.471           235.500
        65   03 Jun 2027 11:41:15.837   03 Jun 2027 11:41:38.109            22.272         11136.000
        66   03 Jun 2027 11:47:39.862   03 Jun 2027 11:47:51.607            11.745          5872.500
        67   04 Jun 2027 04:01:41.106   04 Jun 2027 04:05:09.714           208.608        104304.000
        68   04 Jun 2027 04:05:56.514   04 Jun 2027 04:06:17.658            21.144         10572.000
        69   04 Jun 2027 04:07:15.974   04 Jun 2027 04:07:28.159            12.185          6092.500
        70   04 Jun 2027 04:08:08.354   04 Jun 2027 04:08:13.156             4.802          2401.000
        71   04 Jun 2027 05:40:58.716   04 Jun 2027 05:42:35.679            96.963         48481.500
        72   04 Jun 2027 05:43:08.796   04 Jun 2027 05:43:14.181             5.385          2241.125
        73   04 Jun 2027 05:44:27.558   04 Jun 2027 05:44:34.215             6.657          1793.969
        74   04 Jun 2027 05:44:38.424   04 Jun 2027 05:44:39.053             0.629           131.531
        75   04 Jun 2027 05:45:32.419   04 Jun 2027 05:45:32.419             0.000             0.000
        76   04 Jun 2027 05:46:03.002   04 Jun 2027 05:46:08.879             5.877          2428.469
        77   04 Jun 2027 05:47:38.204   04 Jun 2027 05:47:42.679             4.475          1754.250
        78   04 Jun 2027 05:48:43.247   04 Jun 2027 05:48:46.457             3.210          1453.250
        79   04 Jun 2027 07:18:04.928   04 Jun 2027 07:18:14.636             9.708          4854.000
        80   04 Jun 2027 07:18:16.871   04 Jun 2027 07:18:21.465             4.594          2190.937
        81   04 Jun 2027 07:18:25.246   04 Jun 2027 07:18:26.823             1.577           118.156
        82   04 Jun 2027 07:18:50.750   04 Jun 2027 07:18:54.442             3.692           747.719
        83   04 Jun 2027 07:19:25.115   04 Jun 2027 07:19:27.374             2.259           443.750
        84   04 Jun 2027 07:19:57.611   04 Jun 2027 07:19:59.210             1.599           572.375
        85   04 Jun 2027 07:20:11.103   04 Jun 2027 07:20:11.103             0.000             0.000
        86   04 Jun 2027 07:20:27.558   04 Jun 2027 07:20:30.440             2.882           665.281
        87   04 Jun 2027 07:21:17.309   04 Jun 2027 07:21:17.309             0.000             0.000
        88   04 Jun 2027 07:21:17.367   04 Jun 2027 07:21:20.010             2.643           735.469
        89   04 Jun 2027 08:42:03.538   04 Jun 2027 08:42:27.538            24.000          9391.750
        90   04 Jun 2027 08:43:14.140   04 Jun 2027 08:43:19.827             5.687          1147.594
        91   04 Jun 2027 11:56:07.677   04 Jun 2027 11:56:28.296            20.619         10309.500
        92   04 Jun 2027 11:59:30.810   04 Jun 2027 12:00:00.000            29.190         14595.000
        93   05 Jun 2027 04:14:21.905   05 Jun 2027 04:15:01.203            39.298         19649.000
        94   05 Jun 2027 04:16:03.885   05 Jun 2027 04:18:54.887           171.002         85501.000
        95   05 Jun 2027 04:19:29.970   05 Jun 2027 04:19:29.970             0.000             0.000
        96   05 Jun 2027 04:19:49.708   05 Jun 2027 04:19:53.807             4.099          2049.500
        97   05 Jun 2027 04:20:28.491   05 Jun 2027 04:20:29.338             0.847           423.500
        98   05 Jun 2027 05:53:07.497   05 Jun 2027 05:55:08.403           120.906         60453.000
        99   05 Jun 2027 05:55:30.755   05 Jun 2027 05:55:39.190             8.435          2548.968
       100   05 Jun 2027 05:56:23.373   05 Jun 2027 05:56:23.373             0.000             0.000
       101   05 Jun 2027 05:57:54.019   05 Jun 2027 05:58:06.350            12.331          4213.406
       102   05 Jun 2027 05:59:00.027   05 Jun 2027 05:59:03.419             3.392          1283.156
       103   05 Jun 2027 06:00:07.609   05 Jun 2027 06:00:12.719             5.110          1926.563
       104   05 Jun 2027 07:18:44.089   05 Jun 2027 07:18:58.863            14.774          6526.875
       105   05 Jun 2027 07:19:46.081   05 Jun 2027 07:19:48.531             2.450          1222.656
       106   05 Jun 2027 07:30:03.251   05 Jun 2027 07:30:09.533             6.282          2457.563
       107   05 Jun 2027 07:30:37.361   05 Jun 2027 07:30:37.855             0.494           247.000
       108   05 Jun 2027 07:31:12.739   05 Jun 2027 07:31:15.681             2.942          1471.000
       109   05 Jun 2027 08:52:38.771   05 Jun 2027 08:52:55.554            16.783          7906.688
       110   05 Jun 2027 08:53:55.993   05 Jun 2027 08:53:59.697             3.704          1558.188
       111   05 Jun 2027 08:54:07.050   05 Jun 2027 08:54:07.050             0.000             0.000
       112   05 Jun 2027 08:54:43.868   05 Jun 2027 08:54:47.579             3.711          1341.344
       113   05 Jun 2027 08:56:16.312   05 Jun 2027 08:56:16.312             0.000             0.000
       114   05 Jun 2027 10:28:09.770   05 Jun 2027 10:28:28.304            18.534          7875.375
       115   06 Jun 2027 04:26:29.678   06 Jun 2027 04:28:04.733            95.055         47527.500
       116   06 Jun 2027 04:28:05.048   06 Jun 2027 04:28:43.236            38.188         19094.000
       117   06 Jun 2027 04:30:18.053   06 Jun 2027 04:31:15.966            57.913         28956.500
       118   06 Jun 2027 06:05:33.484   06 Jun 2027 06:07:57.738           144.254         71780.844
       119   06 Jun 2027 06:08:37.021   06 Jun 2027 06:08:37.080             0.059            29.500
       120   06 Jun 2027 06:09:09.234   06 Jun 2027 06:09:13.835             4.601          2199.750
       121   06 Jun 2027 06:09:59.913   06 Jun 2027 06:10:11.235            11.322          1210.250
       122   06 Jun 2027 06:10:48.501   06 Jun 2027 06:10:53.247             4.746          1155.687
       123   06 Jun 2027 06:11:16.197   06 Jun 2027 06:11:21.643             5.446           412.812
       124   06 Jun 2027 06:12:28.097   06 Jun 2027 06:12:35.230             7.133          1694.281
       125   06 Jun 2027 07:30:22.747   06 Jun 2027 07:30:32.527             9.780          4890.000
       126   06 Jun 2027 07:30:41.380   06 Jun 2027 07:30:43.047             1.667           734.562
       127   06 Jun 2027 07:31:54.934   06 Jun 2027 07:31:57.318             2.384          1192.000
       128   06 Jun 2027 07:42:02.735   06 Jun 2027 07:42:11.646             8.911          3628.062
       129   06 Jun 2027 07:42:50.613   06 Jun 2027 07:42:57.077             6.464           669.094
       130   06 Jun 2027 09:04:21.330   06 Jun 2027 09:04:47.675            26.345         13172.500
       131   06 Jun 2027 09:05:26.530   06 Jun 2027 09:05:27.561             1.031           515.500
       132   06 Jun 2027 09:06:16.372   06 Jun 2027 09:06:22.296             5.924          2837.094
       133   06 Jun 2027 09:06:46.019   06 Jun 2027 09:06:49.526             3.507           707.094
       134   06 Jun 2027 10:39:17.200   06 Jun 2027 10:39:31.296            14.096          6225.062
       135   06 Jun 2027 10:42:29.551   06 Jun 2027 10:42:40.205            10.654          4612.406
       136   06 Jun 2027 10:43:06.662   06 Jun 2027 10:43:11.182             4.520           826.781
       137   07 Jun 2027 03:01:53.312   07 Jun 2027 03:02:19.497            26.185         13092.500
       138   07 Jun 2027 03:02:24.672   07 Jun 2027 03:02:30.049             5.377          2688.500
       139   07 Jun 2027 03:02:48.289   07 Jun 2027 03:03:05.805            17.516          8758.000
       140   07 Jun 2027 03:03:42.639   07 Jun 2027 03:04:11.823            29.184         14592.000
       141   07 Jun 2027 03:04:49.978   07 Jun 2027 03:05:10.616            20.638         10319.000
       142   07 Jun 2027 03:05:12.580   07 Jun 2027 03:05:14.007             1.427           713.500
       143   07 Jun 2027 03:05:38.836   07 Jun 2027 03:05:40.690             1.854           927.000
       144   07 Jun 2027 03:06:31.480   07 Jun 2027 03:06:34.651             3.171          1585.500
       145   07 Jun 2027 03:06:38.824   07 Jun 2027 03:06:49.561            10.737          5368.500
       146   07 Jun 2027 03:06:54.827   07 Jun 2027 03:06:56.369             1.542           771.000
       147   07 Jun 2027 03:07:32.845   07 Jun 2027 03:07:33.082             0.237           118.500
       148   07 Jun 2027 03:07:42.063   07 Jun 2027 03:07:44.100             2.037          1018.500
       149   07 Jun 2027 03:08:33.045   07 Jun 2027 03:08:57.743            24.698         12349.000
       150   07 Jun 2027 04:38:56.925   07 Jun 2027 04:39:14.675            17.750          8875.000
       151   07 Jun 2027 04:39:22.458   07 Jun 2027 04:39:37.029            14.571          7285.500
       152   07 Jun 2027 04:39:57.580   07 Jun 2027 04:40:51.209            53.629         26814.500
       153   07 Jun 2027 04:40:53.355   07 Jun 2027 04:42:16.646            83.291         41645.500
       154   07 Jun 2027 04:43:01.102   07 Jun 2027 04:43:06.945             5.843          2921.500
       155   07 Jun 2027 04:44:50.307   07 Jun 2027 04:44:50.919             0.612           306.000
       156   07 Jun 2027 06:17:38.481   07 Jun 2027 06:18:21.983            43.502         21009.282
       157   07 Jun 2027 06:19:42.635   07 Jun 2027 06:19:46.539             3.904          1529.656
       158   07 Jun 2027 06:19:51.364   07 Jun 2027 06:19:51.900             0.536            11.375
       159   07 Jun 2027 06:19:58.030   07 Jun 2027 06:19:58.030             0.000             0.000
       160   07 Jun 2027 06:20:17.349   07 Jun 2027 06:20:19.913             2.564           795.281
       161   07 Jun 2027 06:20:59.942   07 Jun 2027 06:21:00.367             0.425           212.500
       162   07 Jun 2027 06:21:13.812   07 Jun 2027 06:21:20.853             7.041          1309.750
       163   07 Jun 2027 06:21:28.331   07 Jun 2027 06:21:28.806             0.475           182.750
       164   07 Jun 2027 06:21:38.270   07 Jun 2027 06:21:38.861             0.591           137.812
       165   07 Jun 2027 06:22:35.901   07 Jun 2027 06:22:39.530             3.629          1025.469
       166   07 Jun 2027 06:23:30.225   07 Jun 2027 06:23:37.259             7.034           834.500
       167   07 Jun 2027 07:41:56.491   07 Jun 2027 07:42:12.452            15.961          7507.313
       168   07 Jun 2027 07:42:43.062   07 Jun 2027 07:42:43.889             0.827           329.687
       169   07 Jun 2027 07:43:03.474   07 Jun 2027 07:43:05.165             1.691           587.562
       170   07 Jun 2027 07:43:40.297   07 Jun 2027 07:43:42.664             2.367          1086.406
       171   07 Jun 2027 07:54:18.380   07 Jun 2027 07:54:27.742             9.362          2818.812
       172   07 Jun 2027 09:15:53.463   07 Jun 2027 09:16:33.548            40.085         19609.125
       173   07 Jun 2027 09:19:51.393   07 Jun 2027 09:20:08.016            16.623          6059.906
       174   07 Jun 2027 09:21:06.027   07 Jun 2027 09:21:10.087             4.060          1238.156
       175   07 Jun 2027 10:51:49.653   07 Jun 2027 10:52:07.614            17.961          7532.656
       176   07 Jun 2027 10:52:53.419   07 Jun 2027 10:52:56.659             3.240           656.844
       177   07 Jun 2027 10:54:26.264   07 Jun 2027 10:54:26.264             0.000             0.000
       178   07 Jun 2027 10:57:58.202   07 Jun 2027 10:57:58.202             0.000             0.000
       179   07 Jun 2027 10:58:03.403   07 Jun 2027 10:58:23.090            19.687          9397.406
       180   07 Jun 2027 10:58:47.240   07 Jun 2027 10:58:50.732             3.492           754.688
       181   07 Jun 2027 10:59:12.009   07 Jun 2027 10:59:14.110             2.101           212.031
       182   07 Jun 2027 10:59:24.255   07 Jun 2027 10:59:24.801             0.546           273.000
       183   07 Jun 2027 10:59:34.325   07 Jun 2027 10:59:35.458             1.133           341.656
       184   07 Jun 2027 10:59:46.119   07 Jun 2027 10:59:52.510             6.391           196.844
       185   08 Jun 2027 03:13:51.451   08 Jun 2027 03:15:12.020            80.569         40284.500
       186   08 Jun 2027 03:16:06.686   08 Jun 2027 03:16:06.686             0.000             0.000
       187   08 Jun 2027 03:16:07.390   08 Jun 2027 03:16:51.214            43.824         21912.000
       188   08 Jun 2027 03:17:14.564   08 Jun 2027 03:18:20.453            65.889         32944.500
       189   08 Jun 2027 03:18:21.036   08 Jun 2027 03:18:39.689            18.653          9326.500
       190   08 Jun 2027 03:19:39.561   08 Jun 2027 03:19:44.298             4.737          2368.500
       191   08 Jun 2027 03:20:33.846   08 Jun 2027 03:20:56.662            22.816         11408.000
       192   08 Jun 2027 03:21:00.990   08 Jun 2027 03:21:10.151             9.161          4580.500
       193   08 Jun 2027 04:51:33.027   08 Jun 2027 04:51:45.445            12.418          6209.000
       194   08 Jun 2027 04:51:55.983   08 Jun 2027 04:52:56.420            60.437         30218.500
       195   08 Jun 2027 04:53:04.677   08 Jun 2027 04:53:23.351            18.674          9337.000
       196   08 Jun 2027 04:53:42.651   08 Jun 2027 04:53:49.286             6.635          2990.563
       197   08 Jun 2027 04:57:05.657   08 Jun 2027 04:57:08.471             2.814          1407.000
       198   08 Jun 2027 06:30:04.097   08 Jun 2027 06:30:47.431            43.334         20329.094
       199   08 Jun 2027 06:31:31.867   08 Jun 2027 06:31:35.193             3.326           595.375
       200   08 Jun 2027 06:32:02.578   08 Jun 2027 06:32:04.361             1.783           707.312
       201   08 Jun 2027 06:32:47.440   08 Jun 2027 06:32:49.491             2.051           971.875
       202   08 Jun 2027 06:33:05.843   08 Jun 2027 06:33:07.142             1.299           511.000
       203   08 Jun 2027 06:34:30.836   08 Jun 2027 06:34:37.930             7.094          2615.437
       204   08 Jun 2027 07:53:52.541   08 Jun 2027 07:54:06.789            14.248          5733.656
       205   08 Jun 2027 07:55:12.141   08 Jun 2027 07:55:18.327             6.186          1400.031
       206   08 Jun 2027 09:29:52.535   08 Jun 2027 09:30:28.422            35.887         17764.062
       207   08 Jun 2027 09:31:40.860   08 Jun 2027 09:31:49.883             9.023          1761.719
       208   08 Jun 2027 09:32:19.920   08 Jun 2027 09:32:21.080             1.160           552.063
       209   08 Jun 2027 09:32:44.149   08 Jun 2027 09:32:49.305             5.156           643.844
       210   08 Jun 2027 11:03:40.344   08 Jun 2027 11:03:56.459            16.115          5352.313
       211   08 Jun 2027 11:05:26.386   08 Jun 2027 11:05:31.842             5.456            57.531
       212   08 Jun 2027 11:09:48.071   08 Jun 2027 11:10:04.597            16.526          7990.250
       213   08 Jun 2027 11:10:55.672   08 Jun 2027 11:10:59.396             3.724          1124.406
       214   08 Jun 2027 11:11:45.805   08 Jun 2027 11:11:49.290             3.485          1328.062
       215   09 Jun 2027 03:25:53.691   09 Jun 2027 03:26:57.718            64.027         32013.500
       216   09 Jun 2027 03:27:10.041   09 Jun 2027 03:29:34.637           144.596         72298.000
       217   09 Jun 2027 03:29:42.066   09 Jun 2027 03:29:58.937            16.871          8435.500
       218   09 Jun 2027 03:30:42.991   09 Jun 2027 03:30:49.186             6.195          3097.500
       219   09 Jun 2027 03:31:37.689   09 Jun 2027 03:31:49.748            12.059          6029.500
       220   09 Jun 2027 05:04:06.150   09 Jun 2027 05:04:32.905            26.755         13377.500
       221   09 Jun 2027 05:04:43.876   09 Jun 2027 05:05:53.254            69.378         34338.313
       222   09 Jun 2027 05:06:01.153   09 Jun 2027 05:06:02.743             1.590           142.031
       223   09 Jun 2027 05:07:07.751   09 Jun 2027 05:07:07.751             0.000             0.000
       224   09 Jun 2027 05:08:30.184   09 Jun 2027 05:08:31.883             1.699           849.500
       225   09 Jun 2027 05:08:55.328   09 Jun 2027 05:09:06.951            11.623          4456.281
       226   09 Jun 2027 05:09:17.381   09 Jun 2027 05:09:20.379             2.998           265.531
       227   09 Jun 2027 05:09:45.431   09 Jun 2027 05:09:46.493             1.062           107.563
       228   09 Jun 2027 05:10:01.998   09 Jun 2027 05:10:02.664             0.666           125.219
       229   09 Jun 2027 06:42:22.794   09 Jun 2027 06:42:50.366            27.572         12732.750
       230   09 Jun 2027 06:43:33.985   09 Jun 2027 06:43:33.985             0.000             0.000
       231   09 Jun 2027 06:43:55.791   09 Jun 2027 06:44:01.192             5.401          1985.688
       232   09 Jun 2027 06:44:34.317   09 Jun 2027 06:44:35.401             1.084           542.000
       233   09 Jun 2027 06:46:27.437   09 Jun 2027 06:46:36.085             8.648          3900.250
       234   09 Jun 2027 08:05:45.137   09 Jun 2027 08:05:56.420            11.283          5357.969
       235   09 Jun 2027 08:07:56.520   09 Jun 2027 08:08:03.234             6.714          3011.875
       236   09 Jun 2027 09:42:06.210   09 Jun 2027 09:42:35.077            28.867         12940.031
       237   09 Jun 2027 11:16:10.249   09 Jun 2027 11:16:33.484            23.235         10166.813
       238   09 Jun 2027 11:17:09.187   09 Jun 2027 11:17:15.264             6.077           909.937
       239   09 Jun 2027 11:17:53.716   09 Jun 2027 11:17:56.009             2.293            41.062
       240   09 Jun 2027 11:21:34.162   09 Jun 2027 11:21:37.832             3.670          1835.000
       241   09 Jun 2027 11:22:51.129   09 Jun 2027 11:23:09.042            17.913          7153.500
       242   09 Jun 2027 11:23:46.821   09 Jun 2027 11:23:52.531             5.710          1048.125
       243   10 Jun 2027 03:37:59.340   10 Jun 2027 03:39:11.844            72.504         36252.000
       244   10 Jun 2027 03:39:21.582   10 Jun 2027 03:41:43.674           142.092         71046.000
       245   10 Jun 2027 03:42:40.600   10 Jun 2027 03:42:48.769             8.169          4084.500
       246   10 Jun 2027 03:43:11.436   10 Jun 2027 03:43:43.652            32.216         16108.000
       247   10 Jun 2027 03:44:51.650   10 Jun 2027 03:45:11.553            19.903          9951.500
       248   10 Jun 2027 05:16:12.439   10 Jun 2027 05:17:14.199            61.760         30880.000
       249   10 Jun 2027 05:17:20.223   10 Jun 2027 05:17:58.656            38.433         18750.875
       250   10 Jun 2027 05:18:16.524   10 Jun 2027 05:18:19.185             2.661           558.375
       251   10 Jun 2027 05:18:56.029   10 Jun 2027 05:18:58.153             2.124           600.937
       252   10 Jun 2027 05:19:56.594   10 Jun 2027 05:19:58.769             2.175          1087.500
       253   10 Jun 2027 05:20:22.589   10 Jun 2027 05:20:26.423             3.834          1270.406
       254   10 Jun 2027 05:21:10.839   10 Jun 2027 05:21:10.920             0.081            40.500
       255   10 Jun 2027 05:21:30.900   10 Jun 2027 05:21:35.112             4.212          1668.563
       256   10 Jun 2027 05:21:46.897   10 Jun 2027 05:21:47.898             1.001            96.781
       257   10 Jun 2027 06:55:15.771   10 Jun 2027 06:55:26.955            11.184          5592.000
       258   10 Jun 2027 06:55:57.534   10 Jun 2027 06:56:02.092             4.558          2176.656
       259   10 Jun 2027 06:57:20.211   10 Jun 2027 06:57:24.705             4.494          1911.812
       260   10 Jun 2027 06:57:45.672   10 Jun 2027 06:57:47.830             2.158           441.406
       261   10 Jun 2027 08:17:47.084   10 Jun 2027 08:18:04.922            17.838          7971.906
       262   10 Jun 2027 08:19:14.756   10 Jun 2027 08:19:21.108             6.352          2021.062
       263   10 Jun 2027 08:19:33.285   10 Jun 2027 08:19:35.549             2.264            71.063
       264   10 Jun 2027 09:54:15.407   10 Jun 2027 09:54:38.997            23.590         11543.719
       265   10 Jun 2027 09:54:51.089   10 Jun 2027 09:54:51.089             0.000             0.000
       266   10 Jun 2027 09:55:44.410   10 Jun 2027 09:55:48.519             4.109          1927.312
       267   10 Jun 2027 11:29:46.374   10 Jun 2027 11:30:06.454            20.080         10040.000
       268   10 Jun 2027 11:36:03.852   10 Jun 2027 11:36:08.406             4.554          2277.000
       269   11 Jun 2027 03:49:57.834   11 Jun 2027 03:54:31.740           273.906        136953.000
       270   11 Jun 2027 03:55:22.609   11 Jun 2027 03:55:36.479            13.870          6935.000
       271   11 Jun 2027 05:28:11.681   11 Jun 2027 05:28:56.754            45.073         22536.500
       272   11 Jun 2027 05:29:17.785   11 Jun 2027 05:29:49.183            31.398         15699.000
       273   11 Jun 2027 05:30:14.418   11 Jun 2027 05:30:17.159             2.741          1353.937
       274   11 Jun 2027 05:32:00.926   11 Jun 2027 05:32:07.114             6.188          2537.625
       275   11 Jun 2027 05:32:12.783   11 Jun 2027 05:32:14.016             1.233           161.562
       276   11 Jun 2027 05:33:20.540   11 Jun 2027 05:33:25.472             4.932          2078.875
       277   11 Jun 2027 07:06:24.989   11 Jun 2027 07:06:38.862            13.873          6936.500
       278   11 Jun 2027 07:07:04.869   11 Jun 2027 07:07:11.979             7.110          2898.031
       279   11 Jun 2027 07:07:29.594   11 Jun 2027 07:07:32.017             2.423           550.469
       280   11 Jun 2027 07:08:00.804   11 Jun 2027 07:08:02.443             1.639           245.781
       281   11 Jun 2027 07:08:59.486   11 Jun 2027 07:09:06.597             7.111          1782.594
       282   11 Jun 2027 07:09:44.652   11 Jun 2027 07:09:46.519             1.867           907.875
       283   11 Jun 2027 08:29:46.888   11 Jun 2027 08:30:09.941            23.053         10502.688
       284   11 Jun 2027 08:30:56.762   11 Jun 2027 08:30:58.900             2.138           835.813
       285   11 Jun 2027 08:31:31.284   11 Jun 2027 08:31:34.180             2.896           509.875
       286   11 Jun 2027 08:32:45.272   11 Jun 2027 08:32:51.629             6.357          1544.594
       287   11 Jun 2027 11:43:34.038   11 Jun 2027 11:44:41.539            67.501         32447.031
       288   11 Jun 2027 11:47:57.004   11 Jun 2027 11:48:09.482            12.478          6030.844
       289   12 Jun 2027 04:01:59.493   12 Jun 2027 04:02:21.774            22.281         11140.500
       290   12 Jun 2027 04:02:24.319   12 Jun 2027 04:06:03.568           219.249        109624.500
       291   12 Jun 2027 04:06:23.507   12 Jun 2027 04:06:23.507             0.000             0.000
       292   12 Jun 2027 04:07:00.644   12 Jun 2027 04:07:00.644             0.000             0.000
       293   12 Jun 2027 04:07:44.228   12 Jun 2027 04:07:44.228             0.000             0.000
       294   12 Jun 2027 04:08:55.938   12 Jun 2027 04:08:57.333             1.395           697.500
       295   12 Jun 2027 05:41:17.004   12 Jun 2027 05:43:04.761           107.757         53457.531
       296   12 Jun 2027 05:44:03.102   12 Jun 2027 05:44:04.555             1.453           726.500
       297   12 Jun 2027 05:44:33.399   12 Jun 2027 05:44:34.568             1.169           584.500
       298   12 Jun 2027 05:45:03.615   12 Jun 2027 05:45:14.729            11.114          2162.437
       299   12 Jun 2027 05:45:46.078   12 Jun 2027 05:45:47.660             1.582           791.000
       300   12 Jun 2027 05:47:32.812   12 Jun 2027 05:47:41.650             8.838          3005.156
       301   12 Jun 2027 05:48:10.527   12 Jun 2027 05:48:13.028             2.501           577.250
       302   12 Jun 2027 05:48:58.270   12 Jun 2027 05:49:01.140             2.870          1413.813
       303   12 Jun 2027 07:07:39.982   12 Jun 2027 07:07:43.342             3.360          1680.000
       304   12 Jun 2027 07:18:22.818   12 Jun 2027 07:18:34.233            11.415          5349.781
       305   12 Jun 2027 07:19:02.102   12 Jun 2027 07:19:05.328             3.226           801.656
       306   12 Jun 2027 07:19:30.706   12 Jun 2027 07:19:38.011             7.305           528.313
       307   12 Jun 2027 07:21:08.745   12 Jun 2027 07:21:11.650             2.905          1452.500
       308   12 Jun 2027 07:21:32.206   12 Jun 2027 07:21:33.871             1.665           832.500
       309   12 Jun 2027 07:21:49.942   12 Jun 2027 07:21:53.143             3.201          1550.032
       310   12 Jun 2027 08:42:23.303   12 Jun 2027 08:42:47.155            23.852          9809.969
       311   12 Jun 2027 08:42:59.375   12 Jun 2027 08:42:59.375             0.000             0.000
       312   12 Jun 2027 08:43:31.705   12 Jun 2027 08:43:34.739             3.034          1244.281
       313   12 Jun 2027 10:19:37.496   12 Jun 2027 10:19:37.496             0.000             0.000
       314   12 Jun 2027 10:21:36.714   12 Jun 2027 10:21:36.714             0.000             0.000
       315   12 Jun 2027 11:59:47.681   12 Jun 2027 12:00:00.000            12.319          6159.500
       316   13 Jun 2027 04:14:40.089   13 Jun 2027 04:17:47.686           187.597         93798.500
       317   13 Jun 2027 04:18:05.452   13 Jun 2027 04:18:53.561            48.109         24054.500
       318   13 Jun 2027 04:19:11.562   13 Jun 2027 04:19:11.562             0.000             0.000
       319   13 Jun 2027 04:19:31.825   13 Jun 2027 04:19:39.721             7.896          3948.000
       320   13 Jun 2027 04:19:58.226   13 Jun 2027 04:20:07.276             9.050          4525.000
       321   13 Jun 2027 05:53:37.829   13 Jun 2027 05:55:07.484            89.655         44827.500
       322   13 Jun 2027 05:55:38.870   13 Jun 2027 05:55:54.297            15.427          7713.500
       323   13 Jun 2027 05:56:55.510   13 Jun 2027 05:56:55.510             0.000             0.000
       324   13 Jun 2027 05:57:25.749   13 Jun 2027 05:57:34.517             8.768          4097.656
       325   13 Jun 2027 05:57:52.591   13 Jun 2027 05:58:00.128             7.537           131.125
       326   13 Jun 2027 05:58:07.752   13 Jun 2027 05:58:08.537             0.785           238.250
       327   13 Jun 2027 05:59:05.896   13 Jun 2027 05:59:14.728             8.832           976.812
       328   13 Jun 2027 05:59:18.070   13 Jun 2027 05:59:18.158             0.088            44.000
       329   13 Jun 2027 05:59:24.520   13 Jun 2027 05:59:25.252             0.732           229.625
       330   13 Jun 2027 06:00:07.937   13 Jun 2027 06:00:07.937             0.000             0.000
       331   13 Jun 2027 06:00:26.956   13 Jun 2027 06:00:31.019             4.063          1028.000
       332   13 Jun 2027 07:18:57.319   13 Jun 2027 07:19:10.871            13.552          6430.250
       333   13 Jun 2027 07:30:21.612   13 Jun 2027 07:30:29.788             8.176          3319.219
       334   13 Jun 2027 07:31:30.339   13 Jun 2027 07:31:33.482             3.143          1180.906
       335   13 Jun 2027 08:52:59.420   13 Jun 2027 08:53:17.276            17.856          8346.750
       336   13 Jun 2027 08:55:16.280   13 Jun 2027 08:55:23.849             7.569          3692.469
       337   13 Jun 2027 08:57:35.567   13 Jun 2027 08:57:35.567             0.000             0.000
