uniorb/output/strategy_2/Camera/Camera_KinoSat_111508.txt

KinoSat_111508
-------------------------
    Access    *     Start Time (UTCG)     *     Stop Time (UTCG)  *   Duration (s) *   Data (Mbytes)
         1   01 Jun 2027 04:27:42.693   01 Jun 2027 04:29:10.629            87.936         43968.000
         2   01 Jun 2027 04:30:44.770   01 Jun 2027 04:32:23.810            99.040         49520.000
         3   01 Jun 2027 05:51:10.983   01 Jun 2027 05:52:37.476            86.493         43246.500
         4   01 Jun 2027 07:27:23.663   01 Jun 2027 07:30:53.077           209.414        104707.000
         5   01 Jun 2027 09:00:56.966   01 Jun 2027 09:03:23.555           146.589         73294.500
         6   01 Jun 2027 09:06:39.508   01 Jun 2027 09:06:50.610            11.102          5551.000
         7   01 Jun 2027 09:09:29.985   01 Jun 2027 09:09:31.003             1.018           509.000
         8   01 Jun 2027 10:38:28.383   01 Jun 2027 10:40:15.979           107.596         53798.000
         9   01 Jun 2027 10:42:34.793   01 Jun 2027 10:43:20.527            45.734         22867.000
        10   02 Jun 2027 03:01:21.943   02 Jun 2027 03:01:49.040            27.097         13548.500
        11   02 Jun 2027 03:01:52.957   02 Jun 2027 03:02:27.725            34.768         17384.000
        12   02 Jun 2027 03:02:28.932   02 Jun 2027 03:02:54.910            25.978         12989.000
        13   02 Jun 2027 03:03:03.026   02 Jun 2027 03:03:04.934             1.908           954.000
        14   02 Jun 2027 03:03:43.813   02 Jun 2027 03:03:45.618             1.805           902.500
        15   02 Jun 2027 03:04:11.552   02 Jun 2027 03:04:12.926             1.374           687.000
        16   02 Jun 2027 03:04:49.105   02 Jun 2027 03:04:51.186             2.081          1040.500
        17   02 Jun 2027 03:04:57.707   02 Jun 2027 03:05:00.826             3.119          1559.500
        18   02 Jun 2027 03:05:28.201   02 Jun 2027 03:05:46.391            18.190          9095.000
        19   02 Jun 2027 03:05:55.703   02 Jun 2027 03:05:55.777             0.074            37.000
        20   02 Jun 2027 03:06:23.726   02 Jun 2027 03:06:49.360            25.634         12817.000
        21   02 Jun 2027 03:07:15.789   02 Jun 2027 03:07:18.081             2.292          1146.000
        22   02 Jun 2027 03:07:27.080   02 Jun 2027 03:07:29.868             2.788          1394.000
        23   02 Jun 2027 04:39:22.913   02 Jun 2027 04:41:08.690           105.777         52888.500
        24   02 Jun 2027 04:41:17.051   02 Jun 2027 04:41:17.702             0.651           325.500
        25   02 Jun 2027 04:41:41.929   02 Jun 2027 04:42:09.881            27.952         13976.000
        26   02 Jun 2027 04:43:08.684   02 Jun 2027 04:43:08.684             0.000             0.000
        27   02 Jun 2027 06:03:01.993   02 Jun 2027 06:03:43.818            41.825         20912.500
        28   02 Jun 2027 06:05:19.547   02 Jun 2027 06:05:26.619             7.072          3536.000
        29   02 Jun 2027 07:39:28.921   02 Jun 2027 07:42:20.066           171.145         85572.500
        30   02 Jun 2027 07:42:54.733   02 Jun 2027 07:42:54.733             0.000             0.000
        31   02 Jun 2027 09:11:37.019   02 Jun 2027 09:11:48.072            11.053          5526.500
        32   02 Jun 2027 09:13:35.853   02 Jun 2027 09:15:11.830            95.977         47768.343
        33   02 Jun 2027 09:18:36.183   02 Jun 2027 09:18:36.183             0.000             0.000
        34   02 Jun 2027 09:21:06.528   02 Jun 2027 09:21:26.985            20.457         10228.500
        35   02 Jun 2027 10:50:34.618   02 Jun 2027 10:50:48.391            13.773          6580.500
        36   02 Jun 2027 10:51:17.506   02 Jun 2027 10:51:19.860             2.354           848.219
        37   02 Jun 2027 10:52:50.852   02 Jun 2027 10:52:57.268             6.416          2440.156
        38   02 Jun 2027 10:53:34.375   02 Jun 2027 10:53:39.282             4.907           974.437
        39   02 Jun 2027 10:54:16.332   02 Jun 2027 10:54:28.744            12.412           880.437
        40   02 Jun 2027 10:55:13.552   02 Jun 2027 10:55:16.373             2.821          1085.250
        41   02 Jun 2027 10:55:27.559   02 Jun 2027 10:55:30.458             2.899           349.562
        42   02 Jun 2027 10:55:46.897   02 Jun 2027 10:55:48.919             2.022           513.719
        43   02 Jun 2027 10:56:45.580   02 Jun 2027 10:56:50.956             5.376          1595.406
        44   02 Jun 2027 10:57:05.406   02 Jun 2027 10:57:08.392             2.986           451.563
        45   03 Jun 2027 03:13:28.056   03 Jun 2027 03:14:30.310            62.254         31127.000
        46   03 Jun 2027 03:14:37.380   03 Jun 2027 03:16:38.670           121.290         60645.000
        47   03 Jun 2027 03:17:46.525   03 Jun 2027 03:18:12.388            25.863         12931.500
        48   03 Jun 2027 03:19:01.386   03 Jun 2027 03:19:07.351             5.965          2982.500
        49   03 Jun 2027 04:52:36.160   03 Jun 2027 04:54:24.086           107.926         51714.344
        50   03 Jun 2027 04:54:53.465   03 Jun 2027 04:54:53.465             0.000             0.000
        51   03 Jun 2027 04:55:09.294   03 Jun 2027 04:55:10.910             1.616           808.000
        52   03 Jun 2027 04:55:39.037   03 Jun 2027 04:55:42.756             3.719          1483.719
        53   03 Jun 2027 06:15:10.447   03 Jun 2027 06:15:22.826            12.379          5834.625
        54   03 Jun 2027 06:16:23.240   03 Jun 2027 06:16:23.240             0.000             0.000
        55   03 Jun 2027 06:17:38.180   03 Jun 2027 06:17:53.117            14.937          3990.750
        56   03 Jun 2027 06:18:04.470   03 Jun 2027 06:18:05.519             1.049           354.781
        57   03 Jun 2027 07:51:38.887   03 Jun 2027 07:51:47.070             8.183          3302.906
        58   03 Jun 2027 07:52:37.137   03 Jun 2027 07:52:37.953             0.816           408.000
        59   03 Jun 2027 07:52:49.290   03 Jun 2027 07:52:54.417             5.127          1264.531
        60   03 Jun 2027 07:53:11.830   03 Jun 2027 07:53:11.830             0.000             0.000
        61   03 Jun 2027 07:53:14.339   03 Jun 2027 07:53:18.353             4.014           585.750
        62   03 Jun 2027 07:54:08.343   03 Jun 2027 07:54:12.808             4.465          1517.875
        63   03 Jun 2027 07:54:58.384   03 Jun 2027 07:54:58.384             0.000             0.000
        64   03 Jun 2027 07:55:16.343   03 Jun 2027 07:55:17.409             1.066           533.000
        65   03 Jun 2027 09:26:50.171   03 Jun 2027 09:26:58.773             8.602          3799.469
        66   03 Jun 2027 09:27:59.141   03 Jun 2027 09:28:04.100             4.959          1684.156
        67   03 Jun 2027 09:28:14.417   03 Jun 2027 09:28:21.246             6.829           290.281
        68   03 Jun 2027 09:32:03.582   03 Jun 2027 09:32:22.799            19.217          5629.250
        69   03 Jun 2027 09:33:05.826   03 Jun 2027 09:33:08.508             2.682          1313.000
        70   03 Jun 2027 11:03:08.887   03 Jun 2027 11:03:20.569            11.682          5560.656
        71   03 Jun 2027 11:05:05.668   03 Jun 2027 11:05:13.368             7.700          2652.719
        72   03 Jun 2027 11:05:44.843   03 Jun 2027 11:05:50.680             5.837           930.187
        73   03 Jun 2027 11:06:21.702   03 Jun 2027 11:06:25.713             4.011           969.437
        74   03 Jun 2027 11:07:02.123   03 Jun 2027 11:07:07.094             4.971          1116.125
        75   03 Jun 2027 11:08:30.251   03 Jun 2027 11:08:36.863             6.612          2405.313
        76   03 Jun 2027 11:08:52.310   03 Jun 2027 11:08:55.560             3.250           328.875
        77   03 Jun 2027 11:09:02.416   03 Jun 2027 11:09:03.983             1.567           214.250
        78   03 Jun 2027 11:09:18.144   03 Jun 2027 11:09:21.354             3.210           418.687
        79   04 Jun 2027 03:25:32.788   04 Jun 2027 03:26:14.069            41.281         20640.500
        80   04 Jun 2027 03:26:35.993   04 Jun 2027 03:29:04.518           148.525         74262.500
        81   04 Jun 2027 03:30:28.308   04 Jun 2027 03:30:31.322             3.014          1507.000
        82   04 Jun 2027 03:31:03.183   04 Jun 2027 03:31:08.872             5.689          2844.500
        83   04 Jun 2027 03:31:12.275   04 Jun 2027 03:31:31.254            18.979          9489.500
        84   04 Jun 2027 03:31:36.033   04 Jun 2027 03:31:39.631             3.598          1799.000
        85   04 Jun 2027 05:03:45.149   04 Jun 2027 05:04:21.565            36.416         18208.000
        86   04 Jun 2027 05:04:50.165   04 Jun 2027 05:05:41.071            50.906         24160.781
        87   04 Jun 2027 05:06:05.743   04 Jun 2027 05:06:09.981             4.238           228.094
        88   04 Jun 2027 05:06:58.801   04 Jun 2027 05:07:00.784             1.983           809.375
        89   04 Jun 2027 06:27:52.952   04 Jun 2027 06:28:02.419             9.467          3717.938
        90   04 Jun 2027 06:29:53.520   04 Jun 2027 06:30:02.734             9.214          3361.594
        91   04 Jun 2027 08:03:38.185   04 Jun 2027 08:03:47.045             8.860          2973.313
        92   04 Jun 2027 08:04:38.617   04 Jun 2027 08:04:42.908             4.291          1572.844
        93   04 Jun 2027 08:04:59.534   04 Jun 2027 08:05:01.671             2.137           392.969
        94   04 Jun 2027 08:05:11.604   04 Jun 2027 08:05:12.730             1.126           218.250
        95   04 Jun 2027 08:05:56.761   04 Jun 2027 08:06:00.181             3.420          1287.156
        96   04 Jun 2027 08:06:46.489   04 Jun 2027 08:06:50.948             4.459          1141.750
        97   04 Jun 2027 09:38:51.216   04 Jun 2027 09:38:59.830             8.614          4011.688
        98   04 Jun 2027 09:40:15.618   04 Jun 2027 09:40:20.439             4.821          2352.344
        99   04 Jun 2027 09:41:22.706   04 Jun 2027 09:41:26.864             4.158          1945.844
       100   04 Jun 2027 09:41:34.084   04 Jun 2027 09:41:36.372             2.288            13.219
       101   04 Jun 2027 09:42:36.781   04 Jun 2027 09:42:36.781             0.000             0.000
       102   04 Jun 2027 09:44:03.480   04 Jun 2027 09:44:13.927            10.447          4306.531
       103   04 Jun 2027 09:45:00.102   04 Jun 2027 09:45:03.341             3.239          1105.000
       104   04 Jun 2027 09:45:23.388   04 Jun 2027 09:45:27.270             3.882           299.094
       105   04 Jun 2027 11:14:47.720   04 Jun 2027 11:15:06.236            18.516          7376.281
       106   04 Jun 2027 11:15:20.211   04 Jun 2027 11:15:20.837             0.626           166.781
       107   04 Jun 2027 11:15:21.265   04 Jun 2027 11:15:21.383             0.118            13.375
       108   04 Jun 2027 11:15:36.994   04 Jun 2027 11:15:38.606             1.612           375.781
       109   04 Jun 2027 11:16:54.401   04 Jun 2027 11:16:56.779             2.378          1189.000
       110   04 Jun 2027 11:17:52.383   04 Jun 2027 11:17:57.972             5.589          2439.531
       111   04 Jun 2027 11:18:43.241   04 Jun 2027 11:18:46.266             3.025           948.844
       112   04 Jun 2027 11:19:27.402   04 Jun 2027 11:19:29.870             2.468          1129.813
       113   04 Jun 2027 11:19:56.308   04 Jun 2027 11:20:02.672             6.364           615.719
       114   05 Jun 2027 03:38:37.303   05 Jun 2027 03:42:20.093           222.790        111395.000
       115   05 Jun 2027 03:43:35.688   05 Jun 2027 03:43:42.764             7.076          3538.000
       116   05 Jun 2027 03:45:34.327   05 Jun 2027 03:46:24.136            49.809         24904.500
       117   05 Jun 2027 05:04:43.525   05 Jun 2027 05:04:52.171             8.646          4323.000
       118   05 Jun 2027 05:04:59.656   05 Jun 2027 05:05:13.545            13.889          6944.500
       119   05 Jun 2027 05:15:40.842   05 Jun 2027 05:16:23.518            42.676         20414.531
       120   05 Jun 2027 05:16:59.919   05 Jun 2027 05:16:59.919             0.000             0.000
       121   05 Jun 2027 05:17:23.770   05 Jun 2027 05:17:26.749             2.979          1389.656
       122   05 Jun 2027 05:18:08.445   05 Jun 2027 05:18:10.188             1.743           695.844
       123   05 Jun 2027 06:38:59.895   05 Jun 2027 06:39:11.670            11.775          5075.438
       124   05 Jun 2027 06:40:44.042   05 Jun 2027 06:40:49.660             5.618          2393.750
       125   05 Jun 2027 06:41:45.184   05 Jun 2027 06:41:53.413             8.229           944.375
       126   05 Jun 2027 06:42:10.590   05 Jun 2027 06:42:13.905             3.315           536.781
       127   05 Jun 2027 08:15:22.738   05 Jun 2027 08:15:38.325            15.587          4859.406
       128   05 Jun 2027 08:17:45.199   05 Jun 2027 08:17:53.848             8.649          3943.844
       129   05 Jun 2027 08:18:57.400   05 Jun 2027 08:19:10.012            12.612          1872.500
       130   05 Jun 2027 09:50:07.753   05 Jun 2027 09:50:19.237            11.484          4811.750
       131   05 Jun 2027 09:51:14.443   05 Jun 2027 09:51:21.671             7.228          1362.719
       132   05 Jun 2027 09:51:41.442   05 Jun 2027 09:51:42.646             1.204           440.188
       133   05 Jun 2027 09:51:48.783   05 Jun 2027 09:51:49.267             0.484             5.219
       134   05 Jun 2027 09:53:02.395   05 Jun 2027 09:53:07.543             5.148          1825.000
       135   05 Jun 2027 09:53:41.081   05 Jun 2027 09:53:41.223             0.142            71.000
       136   05 Jun 2027 09:54:40.851   05 Jun 2027 09:54:40.851             0.000             0.000
       137   05 Jun 2027 09:56:02.710   05 Jun 2027 09:56:12.582             9.872          4627.594
       138   05 Jun 2027 09:56:49.543   05 Jun 2027 09:56:55.252             5.709          1153.563
       139   05 Jun 2027 09:57:27.003   05 Jun 2027 09:57:33.550             6.547           917.906
       140   05 Jun 2027 11:26:57.110   05 Jun 2027 11:27:11.554            14.444          6836.250
       141   05 Jun 2027 11:27:26.050   05 Jun 2027 11:27:27.650             1.600           353.281
       142   05 Jun 2027 11:27:47.160   05 Jun 2027 11:27:51.867             4.707           609.687
       143   05 Jun 2027 11:28:48.563   05 Jun 2027 11:28:55.942             7.379          1701.187
       144   05 Jun 2027 11:29:14.029   05 Jun 2027 11:29:19.804             5.775           428.938
       145   05 Jun 2027 11:29:48.372   05 Jun 2027 11:29:53.202             4.830           892.750
       146   05 Jun 2027 11:30:00.313   05 Jun 2027 11:30:00.951             0.638           222.219
       147   05 Jun 2027 11:30:38.836   05 Jun 2027 11:30:42.785             3.949          1183.906
       148   05 Jun 2027 11:30:58.812   05 Jun 2027 11:31:03.067             4.255           492.906
       149   05 Jun 2027 11:31:21.305   05 Jun 2027 11:31:22.992             1.687           503.875
       150   05 Jun 2027 11:31:26.596   05 Jun 2027 11:31:29.163             2.567           112.625
       151   05 Jun 2027 11:32:31.689   05 Jun 2027 11:32:34.682             2.993          1496.500
       152   05 Jun 2027 11:32:45.831   05 Jun 2027 11:32:50.367             4.536           805.844
       153   05 Jun 2027 11:33:04.623   05 Jun 2027 11:33:05.156             0.533           266.500
       154   06 Jun 2027 03:51:00.068   06 Jun 2027 03:54:03.519           183.451         91725.500
       155   06 Jun 2027 03:54:33.008   06 Jun 2027 03:55:12.422            39.414         19707.000
       156   06 Jun 2027 03:55:31.326   06 Jun 2027 03:55:31.326             0.000             0.000
       157   06 Jun 2027 03:56:16.820   06 Jun 2027 03:56:16.820             0.000             0.000
       158   06 Jun 2027 03:56:20.384   06 Jun 2027 03:56:20.895             0.511           255.500
       159   06 Jun 2027 03:57:26.293   06 Jun 2027 03:57:47.356            21.063         10531.500
       160   06 Jun 2027 03:57:49.950   06 Jun 2027 03:58:17.566            27.616         13808.000
       161   06 Jun 2027 05:16:02.081   06 Jun 2027 05:16:12.117            10.036          5018.000
       162   06 Jun 2027 05:16:19.818   06 Jun 2027 05:16:19.818             0.000             0.000
       163   06 Jun 2027 05:17:19.352   06 Jun 2027 05:17:28.359             9.007          4503.500
       164   06 Jun 2027 05:27:41.999   06 Jun 2027 05:28:51.284            69.285         32802.469
       165   06 Jun 2027 06:49:58.324   06 Jun 2027 06:50:08.794            10.470          5235.000
       166   06 Jun 2027 06:50:28.408   06 Jun 2027 06:50:30.873             2.465           966.906
       167   06 Jun 2027 06:51:55.110   06 Jun 2027 06:52:00.192             5.082          1497.062
       168   06 Jun 2027 06:52:13.846   06 Jun 2027 06:52:15.001             1.155           109.125
       169   06 Jun 2027 06:53:17.209   06 Jun 2027 06:53:17.209             0.000             0.000
       170   06 Jun 2027 06:53:37.164   06 Jun 2027 06:53:42.490             5.326          2291.687
       171   06 Jun 2027 06:54:13.496   06 Jun 2027 06:54:15.444             1.948           664.719
       172   06 Jun 2027 08:25:10.759   06 Jun 2027 08:25:20.651             9.892          4911.125
       173   06 Jun 2027 08:27:25.772   06 Jun 2027 08:27:37.887            12.115          3789.187
       174   06 Jun 2027 08:27:56.779   06 Jun 2027 08:28:01.126             4.347           590.375
       175   06 Jun 2027 08:28:45.724   06 Jun 2027 08:28:48.050             2.326           758.469
       176   06 Jun 2027 08:30:35.184   06 Jun 2027 08:30:43.166             7.982          3095.500
       177   06 Jun 2027 08:31:17.896   06 Jun 2027 08:31:20.070             2.174           762.313
       178   06 Jun 2027 10:02:15.073   06 Jun 2027 10:02:16.846             1.773           886.500
       179   06 Jun 2027 10:04:16.595   06 Jun 2027 10:04:38.041            21.446          6702.000
       180   06 Jun 2027 10:06:47.556   06 Jun 2027 10:06:53.036             5.480          2294.875
       181   06 Jun 2027 10:07:38.257   06 Jun 2027 10:07:39.999             1.742           871.000
       182   06 Jun 2027 10:08:03.448   06 Jun 2027 10:08:05.128             1.680           813.406
       183   06 Jun 2027 10:08:50.461   06 Jun 2027 10:08:54.168             3.707          1405.219
       184   06 Jun 2027 10:09:13.979   06 Jun 2027 10:09:19.217             5.238           468.719
       185   06 Jun 2027 10:09:23.103   06 Jun 2027 10:09:23.103             0.000             0.000
       186   06 Jun 2027 11:39:13.113   06 Jun 2027 11:39:27.812            14.699          6301.688
       187   06 Jun 2027 11:40:22.152   06 Jun 2027 11:40:24.346             2.194           966.750
       188   06 Jun 2027 11:40:50.903   06 Jun 2027 11:40:53.620             2.717           829.906
       189   06 Jun 2027 11:41:02.304   06 Jun 2027 11:41:05.289             2.985           157.656
       190   06 Jun 2027 11:41:21.744   06 Jun 2027 11:41:28.529             6.785           407.781
       191   06 Jun 2027 11:42:53.663   06 Jun 2027 11:42:59.448             5.785          2463.250
       192   06 Jun 2027 11:43:22.701   06 Jun 2027 11:43:23.732             1.031           515.500
       193   06 Jun 2027 11:43:41.644   06 Jun 2027 11:43:45.899             4.255           770.906
       194   06 Jun 2027 11:44:47.968   06 Jun 2027 11:44:54.458             6.490          1846.938
       195   06 Jun 2027 11:44:54.529   06 Jun 2027 11:44:55.671             1.142             2.219
       196   06 Jun 2027 11:45:05.102   06 Jun 2027 11:45:05.391             0.289           111.312
       197   07 Jun 2027 04:03:18.881   07 Jun 2027 04:06:11.372           172.491         86245.500
       198   07 Jun 2027 04:07:14.354   07 Jun 2027 04:07:55.405            41.051         20525.500
       199   07 Jun 2027 04:08:12.956   07 Jun 2027 04:08:26.937            13.981          6990.500
       200   07 Jun 2027 04:08:58.186   07 Jun 2027 04:08:58.186             0.000             0.000
       201   07 Jun 2027 04:10:03.591   07 Jun 2027 04:10:05.983             2.392          1196.000
       202   07 Jun 2027 05:27:23.781   07 Jun 2027 05:28:08.528            44.747         22373.500
       203   07 Jun 2027 05:39:39.232   07 Jun 2027 05:40:19.010            39.778         19889.000
       204   07 Jun 2027 07:01:39.108   07 Jun 2027 07:02:01.601            22.493          8283.625
       205   07 Jun 2027 07:02:45.538   07 Jun 2027 07:02:48.316             2.778          1373.031
       206   07 Jun 2027 07:03:50.812   07 Jun 2027 07:03:55.663             4.851          1860.812
       207   07 Jun 2027 07:05:51.278   07 Jun 2027 07:05:57.523             6.245          3096.719
       208   07 Jun 2027 07:06:26.527   07 Jun 2027 07:06:27.446             0.919           352.781
       209   07 Jun 2027 08:36:38.413   07 Jun 2027 08:36:48.352             9.939          4463.469
       210   07 Jun 2027 08:37:47.430   07 Jun 2027 08:37:51.278             3.848          1511.062
       211   07 Jun 2027 08:38:28.882   07 Jun 2027 08:38:28.882             0.000             0.000
       212   07 Jun 2027 08:39:12.693   07 Jun 2027 08:39:17.205             4.512          2050.656
       213   07 Jun 2027 08:40:24.115   07 Jun 2027 08:40:29.207             5.092           936.500
       214   07 Jun 2027 08:42:07.318   07 Jun 2027 08:42:18.704            11.386          2682.031
       215   07 Jun 2027 08:42:56.086   07 Jun 2027 08:42:56.086             0.000             0.000
       216   07 Jun 2027 08:44:14.101   07 Jun 2027 08:44:20.891             6.790          3179.844
       217   07 Jun 2027 10:14:17.242   07 Jun 2027 10:14:28.599            11.357          5284.250
       218   07 Jun 2027 10:14:57.467   07 Jun 2027 10:14:58.933             1.466           729.937
       219   07 Jun 2027 10:15:20.560   07 Jun 2027 10:15:25.217             4.657           629.219
       220   07 Jun 2027 10:15:37.404   07 Jun 2027 10:15:37.414             0.010             5.000
       221   07 Jun 2027 10:15:39.182   07 Jun 2027 10:15:39.939             0.757           303.531
       222   07 Jun 2027 10:17:00.214   07 Jun 2027 10:17:07.499             7.285          2137.688
       223   07 Jun 2027 10:17:32.775   07 Jun 2027 10:17:35.561             2.786           760.406
       224   07 Jun 2027 10:18:03.911   07 Jun 2027 10:18:06.091             2.180           603.844
       225   07 Jun 2027 10:20:25.943   07 Jun 2027 10:20:35.210             9.267          4107.375
       226   07 Jun 2027 10:21:00.416   07 Jun 2027 10:21:06.557             6.141           274.750
       227   07 Jun 2027 10:21:23.427   07 Jun 2027 10:21:24.140             0.713           304.875
       228   07 Jun 2027 11:51:03.789   07 Jun 2027 11:51:20.361            16.572          8186.531
       229   07 Jun 2027 11:53:51.841   07 Jun 2027 11:54:03.691            11.850          4733.750
       230   07 Jun 2027 11:55:22.493   07 Jun 2027 11:55:27.284             4.791          2395.500
       231   07 Jun 2027 11:55:56.443   07 Jun 2027 11:55:59.007             2.564           967.625
       232   07 Jun 2027 11:57:15.117   07 Jun 2027 11:57:18.330             3.213          1606.500
       233   08 Jun 2027 04:15:23.905   08 Jun 2027 04:17:35.646           131.741         65870.500
       234   08 Jun 2027 04:18:11.364   08 Jun 2027 04:18:56.291            44.927         22463.500
       235   08 Jun 2027 04:19:16.353   08 Jun 2027 04:19:57.208            40.855         20427.500
       236   08 Jun 2027 04:20:25.728   08 Jun 2027 04:20:31.824             6.096          3048.000
       237   08 Jun 2027 04:21:20.266   08 Jun 2027 04:21:20.266             0.000             0.000
       238   08 Jun 2027 05:39:31.311   08 Jun 2027 05:40:32.584            61.273         30636.500
       239   08 Jun 2027 07:13:19.844   08 Jun 2027 07:14:06.392            46.548         23274.000
       240   08 Jun 2027 07:14:30.489   08 Jun 2027 07:14:37.871             7.382          2007.500
       241   08 Jun 2027 07:15:17.171   08 Jun 2027 07:15:19.135             1.964           757.656
       242   08 Jun 2027 07:16:06.089   08 Jun 2027 07:16:09.341             3.252          1217.187
       243   08 Jun 2027 07:16:20.223   08 Jun 2027 07:16:21.088             0.865           203.656
       244   08 Jun 2027 07:17:09.761   08 Jun 2027 07:17:15.810             6.049          1506.281
       245   08 Jun 2027 07:18:36.802   08 Jun 2027 07:18:43.245             6.443          2156.563
       246   08 Jun 2027 08:48:12.355   08 Jun 2027 08:48:21.864             9.509          4196.719
       247   08 Jun 2027 08:49:06.876   08 Jun 2027 08:49:09.602             2.726          1185.500
       248   08 Jun 2027 08:50:55.522   08 Jun 2027 08:51:03.168             7.646          3266.313
       249   08 Jun 2027 08:52:41.705   08 Jun 2027 08:52:41.705             0.000             0.000
       250   08 Jun 2027 08:54:00.476   08 Jun 2027 08:54:11.712            11.236          5540.875
       251   08 Jun 2027 08:55:02.436   08 Jun 2027 08:55:05.939             3.503          1571.687
       252   08 Jun 2027 08:55:33.339   08 Jun 2027 08:55:34.508             1.169           523.969
       253   08 Jun 2027 08:55:50.216   08 Jun 2027 08:55:51.317             1.101           482.250
       254   08 Jun 2027 08:57:02.687   08 Jun 2027 08:57:07.576             4.889          2230.312
       255   08 Jun 2027 08:57:33.605   08 Jun 2027 08:57:36.193             2.588           293.781
       256   08 Jun 2027 10:26:19.172   08 Jun 2027 10:26:40.090            20.918          6488.625
       257   08 Jun 2027 10:29:11.442   08 Jun 2027 10:29:11.442             0.000             0.000
       258   08 Jun 2027 10:30:41.193   08 Jun 2027 10:30:56.278            15.085          7115.781
       259   08 Jun 2027 10:31:53.605   08 Jun 2027 10:31:57.417             3.812          1414.156
       260   08 Jun 2027 10:32:40.414   08 Jun 2027 10:32:50.466            10.052          1167.156
       261   08 Jun 2027 10:32:53.642   08 Jun 2027 10:32:54.487             0.845            99.250
       262   08 Jun 2027 10:33:17.708   08 Jun 2027 10:33:19.071             1.363           468.844
       263   09 Jun 2027 04:28:00.497   09 Jun 2027 04:31:22.475           201.978        100989.000
       264   09 Jun 2027 04:31:25.175   09 Jun 2027 04:31:48.225            23.050         11525.000
       265   09 Jun 2027 04:31:55.470   09 Jun 2027 04:32:21.987            26.517         13258.500
       266   09 Jun 2027 04:32:36.610   09 Jun 2027 04:32:42.459             5.849          2924.500
       267   09 Jun 2027 05:51:27.033   09 Jun 2027 05:52:08.069            41.036         20518.000
       268   09 Jun 2027 05:53:39.463   09 Jun 2027 05:53:39.463             0.000             0.000
       269   09 Jun 2027 07:27:41.417   09 Jun 2027 07:28:12.170            30.753         15008.031
       270   09 Jun 2027 07:28:23.914   09 Jun 2027 07:28:23.921             0.007             3.500
       271   09 Jun 2027 07:28:44.215   09 Jun 2027 07:28:49.041             4.826           993.063
       272   09 Jun 2027 07:29:36.275   09 Jun 2027 07:29:39.817             3.542          1396.969
       273   09 Jun 2027 07:29:49.276   09 Jun 2027 07:29:49.988             0.712           111.531
       274   09 Jun 2027 07:30:21.272   09 Jun 2027 07:30:23.786             2.514           544.781
       275   09 Jun 2027 07:31:11.060   09 Jun 2027 07:31:11.060             0.000             0.000
       276   09 Jun 2027 09:01:13.974   09 Jun 2027 09:01:25.916            11.942          4496.531
       277   09 Jun 2027 09:02:30.865   09 Jun 2027 09:02:33.271             2.406           574.187
       278   09 Jun 2027 09:03:41.626   09 Jun 2027 09:03:46.709             5.083          1955.281
       279   09 Jun 2027 09:04:28.759   09 Jun 2027 09:04:37.278             8.519          1104.250
       280   09 Jun 2027 09:07:54.592   09 Jun 2027 09:08:06.449            11.857          5928.500
       281   09 Jun 2027 09:08:24.292   09 Jun 2027 09:08:24.292             0.000             0.000
       282   09 Jun 2027 09:08:30.095   09 Jun 2027 09:08:37.239             7.144           847.563
       283   09 Jun 2027 09:09:33.727   09 Jun 2027 09:09:37.894             4.167          1742.844
       284   09 Jun 2027 10:38:46.560   09 Jun 2027 10:39:04.544            17.984          5587.281
       285   09 Jun 2027 10:40:15.994   09 Jun 2027 10:40:18.873             2.879           595.688
       286   09 Jun 2027 10:41:04.174   09 Jun 2027 10:41:07.017             2.843          1396.937
       287   09 Jun 2027 10:41:56.027   09 Jun 2027 10:41:59.705             3.678          1463.594
       288   09 Jun 2027 10:42:30.890   09 Jun 2027 10:42:33.518             2.628           903.250
       289   09 Jun 2027 10:43:36.397   09 Jun 2027 10:43:41.943             5.546          1420.688
       290   09 Jun 2027 10:43:50.062   09 Jun 2027 10:43:52.710             2.648           234.313
       291   09 Jun 2027 10:44:09.898   09 Jun 2027 10:44:11.007             1.109           237.063
       292   09 Jun 2027 10:44:22.286   09 Jun 2027 10:44:31.663             9.377           240.500
       293   09 Jun 2027 10:44:40.806   09 Jun 2027 10:44:49.506             8.700           285.719
       294   09 Jun 2027 10:45:05.901   09 Jun 2027 10:45:09.564             3.663           444.063
       295   09 Jun 2027 10:45:24.109   09 Jun 2027 10:45:24.842             0.733            73.656
       296   10 Jun 2027 03:01:37.045   10 Jun 2027 03:02:05.059            28.014         14007.000
       297   10 Jun 2027 03:02:08.975   10 Jun 2027 03:02:18.689             9.714          4857.000
       298   10 Jun 2027 03:03:17.432   10 Jun 2027 03:03:52.349            34.917         17458.500
       299   10 Jun 2027 03:03:56.679   10 Jun 2027 03:04:00.668             3.989          1994.500
       300   10 Jun 2027 03:04:57.412   10 Jun 2027 03:05:00.171             2.759          1379.500
       301   10 Jun 2027 03:05:11.750   10 Jun 2027 03:05:16.904             5.154          2577.000
       302   10 Jun 2027 03:05:52.268   10 Jun 2027 03:06:32.870            40.602         20301.000
       303   10 Jun 2027 03:07:03.568   10 Jun 2027 03:07:06.232             2.664          1332.000
       304   10 Jun 2027 03:07:15.489   10 Jun 2027 03:07:28.134            12.645          6322.500
       305   10 Jun 2027 03:07:45.499   10 Jun 2027 03:07:48.189             2.690          1345.000
       306   10 Jun 2027 04:39:39.590   10 Jun 2027 04:41:20.416           100.826         50413.000
       307   10 Jun 2027 04:41:24.795   10 Jun 2027 04:41:58.167            33.372         16686.000
       308   10 Jun 2027 04:42:13.747   10 Jun 2027 04:42:25.173            11.426          5713.000
       309   10 Jun 2027 04:43:37.178   10 Jun 2027 04:43:37.178             0.000             0.000
       310   10 Jun 2027 06:03:18.602   10 Jun 2027 06:03:58.543            39.941         19970.500
       311   10 Jun 2027 06:05:36.643   10 Jun 2027 06:05:55.548            18.905          8851.095
       312   10 Jun 2027 07:39:45.824   10 Jun 2027 07:39:57.139            11.315          5581.844
       313   10 Jun 2027 07:40:27.216   10 Jun 2027 07:40:28.058             0.842           362.281
       314   10 Jun 2027 07:41:14.519   10 Jun 2027 07:41:17.223             2.704          1078.781
       315   10 Jun 2027 07:41:21.603   10 Jun 2027 07:41:23.210             1.607            52.781
       316   10 Jun 2027 07:41:41.130   10 Jun 2027 07:41:41.488             0.358           102.656
       317   10 Jun 2027 07:42:36.892   10 Jun 2027 07:42:36.892             0.000             0.000
       318   10 Jun 2027 07:43:12.899   10 Jun 2027 07:43:19.833             6.934          2684.344
       319   10 Jun 2027 09:11:54.500   10 Jun 2027 09:12:04.028             9.528          4764.000
       320   10 Jun 2027 09:14:30.528   10 Jun 2027 09:14:37.021             6.493          3083.969
       321   10 Jun 2027 09:15:10.285   10 Jun 2027 09:15:10.879             0.594           259.219
       322   10 Jun 2027 09:16:00.890   10 Jun 2027 09:16:00.890             0.000             0.000
       323   10 Jun 2027 09:16:30.664   10 Jun 2027 09:16:34.890             4.226          1642.250
       324   10 Jun 2027 09:18:09.536   10 Jun 2027 09:18:09.536             0.000             0.000
       325   10 Jun 2027 09:18:51.573   10 Jun 2027 09:19:02.506            10.933          3125.437
       326   10 Jun 2027 09:19:44.397   10 Jun 2027 09:19:46.279             1.882           343.937
       327   10 Jun 2027 09:20:19.019   10 Jun 2027 09:20:20.604             1.585           641.219
       328   10 Jun 2027 09:20:40.385   10 Jun 2027 09:20:40.657             0.272           136.000
       329   10 Jun 2027 09:20:43.675   10 Jun 2027 09:20:47.934             4.259           482.156
       330   10 Jun 2027 09:21:24.312   10 Jun 2027 09:21:26.086             1.774           519.750
       331   10 Jun 2027 09:21:33.037   10 Jun 2027 09:21:34.355             1.318           217.219
       332   10 Jun 2027 10:50:51.351   10 Jun 2027 10:51:08.507            17.156          8482.344
       333   10 Jun 2027 10:51:48.815   10 Jun 2027 10:51:51.103             2.288           433.563
       334   10 Jun 2027 10:52:47.112   10 Jun 2027 10:52:52.932             5.820          1244.250
       335   10 Jun 2027 10:53:34.962   10 Jun 2027 10:53:36.780             1.818           723.031
       336   10 Jun 2027 10:54:05.234   10 Jun 2027 10:54:12.400             7.166           829.625
       337   10 Jun 2027 10:55:33.448   10 Jun 2027 10:55:38.354             4.906          1884.625
       338   10 Jun 2027 10:55:47.175   10 Jun 2027 10:55:48.186             1.011           153.906
       339   10 Jun 2027 10:55:59.838   10 Jun 2027 10:55:59.838             0.000             0.000
       340   10 Jun 2027 10:56:01.998   10 Jun 2027 10:56:02.766             0.768           232.313
       341   10 Jun 2027 10:56:22.512   10 Jun 2027 10:56:29.566             7.054           617.063
       342   10 Jun 2027 10:56:50.316   10 Jun 2027 10:56:53.789             3.473           648.437
       343   10 Jun 2027 10:57:17.055   10 Jun 2027 10:57:22.982             5.927           727.062
       344   10 Jun 2027 10:57:27.329   10 Jun 2027 10:57:28.675             1.346           134.250
       345   11 Jun 2027 03:13:44.672   11 Jun 2027 03:14:45.199            60.527         30263.500
       346   11 Jun 2027 03:14:53.724   11 Jun 2027 03:16:39.811           106.087         53043.500
       347   11 Jun 2027 03:18:19.362   11 Jun 2027 03:18:34.969            15.607          7803.500
       348   11 Jun 2027 03:19:07.213   11 Jun 2027 03:19:17.726            10.513          5256.500
       349   11 Jun 2027 03:19:20.064   11 Jun 2027 03:19:23.872             3.808          1904.000
       350   11 Jun 2027 04:52:52.738   11 Jun 2027 04:54:19.998            87.260         43630.000
       351   11 Jun 2027 04:54:23.397   11 Jun 2027 04:54:41.608            18.211          9105.500
       352   11 Jun 2027 04:55:08.057   11 Jun 2027 04:55:08.057             0.000             0.000
       353   11 Jun 2027 04:55:57.879   11 Jun 2027 04:56:08.923            11.044          4982.437
       354   11 Jun 2027 06:15:26.888   11 Jun 2027 06:15:40.775            13.887          6860.219
       355   11 Jun 2027 06:17:54.681   11 Jun 2027 06:18:08.569            13.888          4049.875
       356   11 Jun 2027 06:18:21.581   11 Jun 2027 06:18:21.581             0.000             0.000
       357   11 Jun 2027 07:51:55.975   11 Jun 2027 07:52:05.487             9.512          3560.625
       358   11 Jun 2027 07:52:30.438   11 Jun 2027 07:52:37.151             6.713           454.406
       359   11 Jun 2027 07:54:00.065   11 Jun 2027 07:54:04.715             4.650          2034.688
       360   11 Jun 2027 07:54:55.362   11 Jun 2027 07:55:00.418             5.056           938.219
       361   11 Jun 2027 09:27:07.139   11 Jun 2027 09:27:16.522             9.383          4226.156
       362   11 Jun 2027 09:27:21.162   11 Jun 2027 09:27:22.952             1.790            76.406
       363   11 Jun 2027 09:28:23.676   11 Jun 2027 09:28:27.853             4.177          1719.969
       364   11 Jun 2027 09:30:06.860   11 Jun 2027 09:30:06.860             0.000             0.000
       365   11 Jun 2027 09:30:53.199   11 Jun 2027 09:31:00.883             7.684          3842.000
       366   11 Jun 2027 09:31:18.862   11 Jun 2027 09:31:21.209             2.347          1125.312
       367   11 Jun 2027 09:31:32.818   11 Jun 2027 09:31:33.868             1.050           208.437
       368   11 Jun 2027 09:31:48.047   11 Jun 2027 09:31:49.430             1.383           283.000
       369   11 Jun 2027 09:32:12.727   11 Jun 2027 09:32:13.163             0.436           189.469
       370   11 Jun 2027 09:33:36.424   11 Jun 2027 09:33:41.320             4.896          2421.562
       371   11 Jun 2027 11:03:26.229   11 Jun 2027 11:03:38.269            12.040          5562.000
       372   11 Jun 2027 11:04:16.982   11 Jun 2027 11:04:18.586             1.604           661.437
       373   11 Jun 2027 11:05:24.497   11 Jun 2027 11:05:30.734             6.237          1328.250
       374   11 Jun 2027 11:06:00.775   11 Jun 2027 11:06:02.680             1.905           937.812
       375   11 Jun 2027 11:06:38.714   11 Jun 2027 11:06:40.844             2.130           969.219
       376   11 Jun 2027 11:06:54.623   11 Jun 2027 11:06:56.926             2.303           388.094
       377   11 Jun 2027 11:07:41.215   11 Jun 2027 11:07:45.517             4.302          1384.031
       378   11 Jun 2027 11:07:54.753   11 Jun 2027 11:07:56.507             1.754           288.625
       379   11 Jun 2027 11:08:10.285   11 Jun 2027 11:08:11.192             0.907           430.562
       380   11 Jun 2027 11:08:57.814   11 Jun 2027 11:09:02.690             4.876          1279.812
       381   11 Jun 2027 11:09:22.409   11 Jun 2027 11:09:27.079             4.670           471.594
       382   12 Jun 2027 03:25:49.658   12 Jun 2027 03:26:08.932            19.274          9637.000
       383   12 Jun 2027 03:26:52.346   12 Jun 2027 03:29:48.550           176.204         88102.000
       384   12 Jun 2027 03:30:43.871   12 Jun 2027 03:30:51.100             7.229          3614.500
       385   12 Jun 2027 03:30:51.741   12 Jun 2027 03:30:58.966             7.225          3612.500
       386   12 Jun 2027 03:31:48.588   12 Jun 2027 03:31:53.718             5.130          2565.000
       387   12 Jun 2027 03:34:07.090   12 Jun 2027 03:34:33.521            26.431         13215.500
       388   12 Jun 2027 05:04:01.335   12 Jun 2027 05:04:38.170            36.835         18417.500
       389   12 Jun 2027 05:05:06.944   12 Jun 2027 05:05:43.362            36.418         18044.749
       390   12 Jun 2027 05:06:20.492   12 Jun 2027 05:06:22.286             1.794           749.531
       391   12 Jun 2027 05:07:13.433   12 Jun 2027 05:07:15.904             2.471           722.781
       392   12 Jun 2027 06:28:09.600   12 Jun 2027 06:28:21.127            11.527          4903.344
       393   12 Jun 2027 06:28:45.595   12 Jun 2027 06:28:45.595             0.000             0.000
       394   12 Jun 2027 06:28:50.462   12 Jun 2027 06:28:53.515             3.053           878.188
       395   12 Jun 2027 06:30:06.241   12 Jun 2027 06:30:10.418             4.177          2067.969
       396   12 Jun 2027 08:03:53.433   12 Jun 2027 08:04:02.126             8.693          4307.813
       397   12 Jun 2027 08:04:56.415   12 Jun 2027 08:05:03.741             7.326          1634.906
       398   12 Jun 2027 08:05:26.703   12 Jun 2027 08:05:27.419             0.716           160.594
       399   12 Jun 2027 08:06:15.570   12 Jun 2027 08:06:19.026             3.456          1287.781
       400   12 Jun 2027 08:07:03.646   12 Jun 2027 08:07:03.646             0.000             0.000
       401   12 Jun 2027 09:38:57.153   12 Jun 2027 09:39:08.698            11.545          4568.375
       402   12 Jun 2027 09:39:39.023   12 Jun 2027 09:39:44.617             5.594           796.406
       403   12 Jun 2027 09:40:50.338   12 Jun 2027 09:40:50.338             0.000             0.000
       404   12 Jun 2027 09:41:07.158   12 Jun 2027 09:41:09.621             2.463          1055.438
       405   12 Jun 2027 09:41:52.763   12 Jun 2027 09:41:57.112             4.349           893.531
       406   12 Jun 2027 09:42:02.999   12 Jun 2027 09:42:02.999             0.000             0.000
       407   12 Jun 2027 09:42:54.961   12 Jun 2027 09:42:59.870             4.909          1725.531
       408   12 Jun 2027 09:43:22.652   12 Jun 2027 09:43:23.452             0.800           174.219
       409   12 Jun 2027 09:44:20.600   12 Jun 2027 09:44:20.869             0.269           134.500
       410   12 Jun 2027 09:45:27.957   12 Jun 2027 09:45:38.103            10.146          2889.312
       411   12 Jun 2027 09:45:47.975   12 Jun 2027 09:45:48.888             0.913           308.500
       412   12 Jun 2027 11:15:02.948   12 Jun 2027 11:15:16.665            13.717          6599.688
       413   12 Jun 2027 11:16:06.270   12 Jun 2027 11:16:08.443             2.173           690.250
       414   12 Jun 2027 11:17:09.627   12 Jun 2027 11:17:13.425             3.798          1861.063
       415   12 Jun 2027 11:17:47.575   12 Jun 2027 11:17:53.507             5.932          1067.188
       416   12 Jun 2027 11:18:08.911   12 Jun 2027 11:18:09.340             0.429           214.500
       417   12 Jun 2027 11:18:47.768   12 Jun 2027 11:18:50.442             2.674          1227.031
       418   12 Jun 2027 11:18:56.089   12 Jun 2027 11:18:57.819             1.730            60.375
       419   12 Jun 2027 11:19:21.181   12 Jun 2027 11:19:22.778             1.597           692.938
       420   12 Jun 2027 11:20:06.677   12 Jun 2027 11:20:11.029             4.352          1371.844
       421   12 Jun 2027 11:20:36.624   12 Jun 2027 11:20:39.081             2.457           799.844
       422   12 Jun 2027 11:20:55.937   12 Jun 2027 11:20:58.392             2.455           401.344
       423   12 Jun 2027 11:21:08.391   12 Jun 2027 11:21:10.948             2.557           257.875
       424   12 Jun 2027 11:21:17.532   12 Jun 2027 11:21:18.652             1.120           203.406
       425   13 Jun 2027 03:38:54.367   13 Jun 2027 03:40:55.692           121.325         60662.500
       426   13 Jun 2027 03:41:14.052   13 Jun 2027 03:42:34.595            80.543         40271.500
       427   13 Jun 2027 03:43:27.280   13 Jun 2027 03:43:53.158            25.878         12939.000
       428   13 Jun 2027 03:45:10.567   13 Jun 2027 03:45:11.287             0.720           360.000
       429   13 Jun 2027 03:45:35.124   13 Jun 2027 03:46:38.476            63.352         31621.688
       430   13 Jun 2027 05:04:57.578   13 Jun 2027 05:05:30.818            33.240         16620.000
       431   13 Jun 2027 05:15:57.216   13 Jun 2027 05:16:26.603            29.387         14345.562
       432   13 Jun 2027 05:16:55.582   13 Jun 2027 05:16:55.582             0.000             0.000
       433   13 Jun 2027 05:17:41.395   13 Jun 2027 05:17:45.628             4.233          1933.094
       434   13 Jun 2027 05:17:55.399   13 Jun 2027 05:17:56.303             0.904            66.719
       435   13 Jun 2027 05:18:05.036   13 Jun 2027 05:18:06.264             1.228           245.469
       436   13 Jun 2027 05:19:00.952   13 Jun 2027 05:19:03.299             2.347           219.281
       437   13 Jun 2027 06:39:15.530   13 Jun 2027 06:39:26.895            11.365          5566.187
       438   13 Jun 2027 06:40:40.320   13 Jun 2027 06:40:40.320             0.000             0.000
       439   13 Jun 2027 06:41:01.893   13 Jun 2027 06:41:07.383             5.490          2404.188
       440   13 Jun 2027 06:42:00.361   13 Jun 2027 06:42:08.825             8.464           870.344
       441   13 Jun 2027 06:42:27.678   13 Jun 2027 06:42:31.202             3.524           589.156
       442   13 Jun 2027 08:14:30.088   13 Jun 2027 08:14:33.850             3.762          1881.000
       443   13 Jun 2027 08:15:38.296   13 Jun 2027 08:15:44.241             5.945          2507.063
       444   13 Jun 2027 08:16:57.647   13 Jun 2027 08:17:03.537             5.890          1969.219
       445   13 Jun 2027 08:18:14.625   13 Jun 2027 08:18:21.467             6.842          1843.406
       446   13 Jun 2027 08:18:33.329   13 Jun 2027 08:18:33.329             0.000             0.000
       447   13 Jun 2027 08:19:48.841   13 Jun 2027 08:19:54.036             5.195          2522.000
       448   13 Jun 2027 09:50:24.357   13 Jun 2027 09:50:33.934             9.577          4325.125
       449   13 Jun 2027 09:52:34.091   13 Jun 2027 09:52:40.617             6.526          3006.656
       450   13 Jun 2027 09:53:51.301   13 Jun 2027 09:53:57.650             6.349          1762.781
       451   13 Jun 2027 09:56:20.034   13 Jun 2027 09:56:28.597             8.563          4281.500
       452   13 Jun 2027 09:57:21.291   13 Jun 2027 09:57:26.605             5.314          1814.688
       453   13 Jun 2027 09:57:52.607   13 Jun 2027 09:57:54.461             1.854           812.563
       454   13 Jun 2027 11:27:14.939   13 Jun 2027 11:27:30.414            15.475          7548.750
       455   13 Jun 2027 11:27:43.458   13 Jun 2027 11:27:43.649             0.191            95.500
       456   13 Jun 2027 11:28:46.611   13 Jun 2027 11:28:53.250             6.639          2125.813
       457   13 Jun 2027 11:29:00.574   13 Jun 2027 11:29:02.192             1.618           228.875
       458   13 Jun 2027 11:30:10.093   13 Jun 2027 11:30:14.669             4.576          2019.687
       459   13 Jun 2027 11:30:32.015   13 Jun 2027 11:30:33.442             1.427           477.531
       460   13 Jun 2027 11:30:57.668   13 Jun 2027 11:30:59.347             1.679           113.187
       461   13 Jun 2027 11:31:22.452   13 Jun 2027 11:31:25.186             2.734           668.000
       462   13 Jun 2027 11:31:46.148   13 Jun 2027 11:31:50.392             4.244           319.281
       463   13 Jun 2027 11:31:57.101   13 Jun 2027 11:31:58.088             0.987           209.656
       464   13 Jun 2027 11:32:19.039   13 Jun 2027 11:32:22.224             3.185           654.719
       465   13 Jun 2027 11:32:54.132   13 Jun 2027 11:32:54.237             0.105            52.500
       466   13 Jun 2027 11:33:05.099   13 Jun 2027 11:33:08.433             3.334           783.625
       467   13 Jun 2027 11:33:22.347   13 Jun 2027 11:33:23.589             1.242           413.031
