uniorb/output/strategy_2/Camera/Camera_KinoSat_110409.txt

KinoSat_110409
-------------------------
    Access    *     Start Time (UTCG)     *     Stop Time (UTCG)  *   Duration (s) *   Data (Mbytes)
         1   01 Jun 2027 03:11:47.973   01 Jun 2027 03:11:50.304             2.331          1165.500
         2   01 Jun 2027 03:12:02.485   01 Jun 2027 03:12:14.092            11.607          5803.500
         3   01 Jun 2027 03:13:40.412   01 Jun 2027 03:13:49.494             9.082          4541.000
         4   01 Jun 2027 03:14:29.727   01 Jun 2027 03:14:36.605             6.878          3439.000
         5   01 Jun 2027 03:15:41.686   01 Jun 2027 03:15:53.083            11.397          5698.500
         6   01 Jun 2027 03:17:22.172   01 Jun 2027 03:17:24.954             2.782          1391.000
         7   01 Jun 2027 03:17:47.456   01 Jun 2027 03:17:52.818             5.362          2681.000
         8   01 Jun 2027 03:18:17.268   01 Jun 2027 03:18:17.766             0.498           249.000
         9   01 Jun 2027 03:18:29.104   01 Jun 2027 03:18:30.523             1.419           709.500
        10   01 Jun 2027 03:19:03.348   01 Jun 2027 03:19:08.447             5.099          2549.500
        11   01 Jun 2027 03:19:50.787   01 Jun 2027 03:19:53.974             3.187          1593.500
        12   01 Jun 2027 03:20:14.012   01 Jun 2027 03:20:19.599             5.587          2793.500
        13   01 Jun 2027 04:49:22.328   01 Jun 2027 04:49:45.213            22.885         11442.500
        14   01 Jun 2027 04:51:44.280   01 Jun 2027 04:51:49.961             5.681          2840.500
        15   01 Jun 2027 04:52:21.077   01 Jun 2027 04:52:21.406             0.329           164.500
        16   01 Jun 2027 04:52:29.845   01 Jun 2027 04:52:39.951            10.106          5053.000
        17   01 Jun 2027 04:53:24.236   01 Jun 2027 04:53:28.088             3.852          1926.000
        18   01 Jun 2027 04:53:49.048   01 Jun 2027 04:53:59.723            10.675          5337.500
        19   01 Jun 2027 04:54:34.886   01 Jun 2027 04:54:35.835             0.949           474.500
        20   01 Jun 2027 04:54:48.453   01 Jun 2027 04:54:56.023             7.570          3785.000
        21   01 Jun 2027 04:55:43.863   01 Jun 2027 04:55:44.599             0.736           368.000
        22   01 Jun 2027 04:55:53.432   01 Jun 2027 04:56:03.629            10.197          5098.500
        23   01 Jun 2027 06:26:05.169   01 Jun 2027 06:26:05.418             0.249           124.500
        24   01 Jun 2027 06:26:26.137   01 Jun 2027 06:26:32.719             6.582          3291.000
        25   01 Jun 2027 06:27:01.742   01 Jun 2027 06:27:26.986            25.244         12622.000
        26   01 Jun 2027 06:29:21.998   01 Jun 2027 06:29:35.995            13.997          6998.500
        27   01 Jun 2027 06:30:49.963   01 Jun 2027 06:30:53.940             3.977          1988.500
        28   01 Jun 2027 06:31:40.925   01 Jun 2027 06:31:45.323             4.398          2199.000
        29   01 Jun 2027 06:32:40.537   01 Jun 2027 06:32:41.183             0.646           323.000
        30   01 Jun 2027 08:04:08.339   01 Jun 2027 08:04:08.412             0.073            36.500
        31   01 Jun 2027 08:04:09.798   01 Jun 2027 08:04:15.226             5.428          2714.000
        32   01 Jun 2027 08:04:41.267   01 Jun 2027 08:04:43.996             2.729          1364.500
        33   01 Jun 2027 08:05:28.973   01 Jun 2027 08:05:31.129             2.156          1078.000
        34   01 Jun 2027 08:05:47.904   01 Jun 2027 08:06:05.041            17.137          8568.500
        35   01 Jun 2027 08:07:17.529   01 Jun 2027 08:07:28.922            11.393          5696.500
        36   01 Jun 2027 09:37:49.547   01 Jun 2027 09:38:09.988            20.441         10220.500
        37   01 Jun 2027 09:39:36.680   01 Jun 2027 09:39:39.176             2.496          1248.000
        38   01 Jun 2027 09:39:49.284   01 Jun 2027 09:40:02.547            13.263          6631.500
        39   01 Jun 2027 09:41:25.584   01 Jun 2027 09:41:29.089             3.505          1752.500
        40   01 Jun 2027 09:41:50.427   01 Jun 2027 09:42:02.647            12.220          6110.000
        41   01 Jun 2027 09:43:10.874   01 Jun 2027 09:43:12.648             1.774           887.000
        42   01 Jun 2027 09:43:24.924   01 Jun 2027 09:43:37.166            12.242          6121.000
        43   01 Jun 2027 09:44:44.157   01 Jun 2027 09:44:45.603             1.446           723.000
        44   02 Jun 2027 03:23:18.402   02 Jun 2027 03:23:19.058             0.656           328.000
        45   02 Jun 2027 03:23:47.794   02 Jun 2027 03:23:51.573             3.779          1889.500
        46   02 Jun 2027 03:24:36.375   02 Jun 2027 03:24:47.977            11.602          5801.000
        47   02 Jun 2027 03:26:00.168   02 Jun 2027 03:26:08.077             7.909          3954.500
        48   02 Jun 2027 03:26:32.537   02 Jun 2027 03:26:34.770             2.233          1116.500
        49   02 Jun 2027 03:26:54.477   02 Jun 2027 03:27:00.357             5.880          2940.000
        50   02 Jun 2027 03:27:46.589   02 Jun 2027 03:27:54.604             8.015          4007.500
        51   02 Jun 2027 03:28:40.150   02 Jun 2027 03:28:40.644             0.494           247.000
        52   02 Jun 2027 03:29:03.902   02 Jun 2027 03:29:04.588             0.686           343.000
        53   02 Jun 2027 03:29:21.143   02 Jun 2027 03:29:22.178             1.035           517.500
        54   02 Jun 2027 03:29:30.800   02 Jun 2027 03:29:30.850             0.050            25.000
        55   02 Jun 2027 03:29:34.888   02 Jun 2027 03:29:35.751             0.863           431.500
        56   02 Jun 2027 03:30:54.771   02 Jun 2027 03:30:59.483             4.712          2356.000
        57   02 Jun 2027 03:31:47.199   02 Jun 2027 03:31:47.956             0.757           378.500
        58   02 Jun 2027 03:31:55.235   02 Jun 2027 03:32:07.890            12.655          6327.500
        59   02 Jun 2027 05:01:16.477   02 Jun 2027 05:01:29.674            13.197          6598.500
        60   02 Jun 2027 05:02:34.690   02 Jun 2027 05:02:37.367             2.677          1338.500
        61   02 Jun 2027 05:03:18.017   02 Jun 2027 05:03:37.738            19.721          9860.500
        62   02 Jun 2027 05:05:32.425   02 Jun 2027 05:05:49.305            16.880          8440.000
        63   02 Jun 2027 05:06:59.763   02 Jun 2027 05:07:06.591             6.828          3414.000
        64   02 Jun 2027 05:07:44.734   02 Jun 2027 05:08:04.515            19.781          9890.500
        65   02 Jun 2027 06:38:11.868   02 Jun 2027 06:38:17.616             5.748          2874.000
        66   02 Jun 2027 06:38:48.121   02 Jun 2027 06:38:52.927             4.806          2403.000
        67   02 Jun 2027 06:39:22.977   02 Jun 2027 06:39:42.485            19.508          9754.000
        68   02 Jun 2027 06:41:11.413   02 Jun 2027 06:41:14.936             3.523          1761.500
        69   02 Jun 2027 06:42:02.068   02 Jun 2027 06:42:03.982             1.914           957.000
        70   02 Jun 2027 06:42:37.290   02 Jun 2027 06:42:47.385            10.095          5047.500
        71   02 Jun 2027 06:43:51.375   02 Jun 2027 06:43:51.398             0.023            11.500
        72   02 Jun 2027 06:44:25.381   02 Jun 2027 06:44:32.304             6.923          3461.500
        73   02 Jun 2027 08:15:54.250   02 Jun 2027 08:16:02.177             7.927          3963.500
        74   02 Jun 2027 08:16:15.837   02 Jun 2027 08:16:22.161             6.324          3162.000
        75   02 Jun 2027 08:17:32.001   02 Jun 2027 08:17:32.506             0.505           252.500
        76   02 Jun 2027 08:17:47.740   02 Jun 2027 08:17:53.725             5.985          2992.500
        77   02 Jun 2027 08:18:24.787   02 Jun 2027 08:18:29.130             4.343          2171.500
        78   02 Jun 2027 08:19:06.001   02 Jun 2027 08:19:06.480             0.479           239.500
        79   02 Jun 2027 08:19:16.125   02 Jun 2027 08:19:18.109             1.984           992.000
        80   02 Jun 2027 08:19:53.462   02 Jun 2027 08:19:55.409             1.947           973.500
        81   02 Jun 2027 08:20:02.541   02 Jun 2027 08:20:16.240            13.699          6849.500
        82   02 Jun 2027 09:50:09.731   02 Jun 2027 09:50:20.976            11.245          5622.500
        83   02 Jun 2027 09:51:10.535   02 Jun 2027 09:51:22.810            12.275          6137.500
        84   02 Jun 2027 09:52:18.614   02 Jun 2027 09:52:36.712            18.098          9049.000
        85   02 Jun 2027 09:54:20.876   02 Jun 2027 09:54:24.595             3.719          1859.500
        86   02 Jun 2027 09:54:41.369   02 Jun 2027 09:54:45.022             3.653          1826.500
        87   02 Jun 2027 09:55:11.516   02 Jun 2027 09:55:13.774             2.258          1129.000
        88   03 Jun 2027 03:36:12.184   03 Jun 2027 03:36:29.378            17.194          8597.000
        89   03 Jun 2027 03:37:39.844   03 Jun 2027 03:37:46.316             6.472          3236.000
        90   03 Jun 2027 03:38:34.365   03 Jun 2027 03:38:35.345             0.980           490.000
        91   03 Jun 2027 03:39:28.892   03 Jun 2027 03:39:29.067             0.175            87.500
        92   03 Jun 2027 03:39:33.279   03 Jun 2027 03:39:37.006             3.727          1863.500
        93   03 Jun 2027 03:39:50.657   03 Jun 2027 03:39:54.667             4.010          2005.000
        94   03 Jun 2027 03:40:15.005   03 Jun 2027 03:40:18.005             3.000          1500.000
        95   03 Jun 2027 03:40:33.591   03 Jun 2027 03:40:37.925             4.334          2167.000
        96   03 Jun 2027 03:41:02.685   03 Jun 2027 03:41:18.225            15.540          7770.000
        97   03 Jun 2027 03:42:29.294   03 Jun 2027 03:42:38.323             9.029          4514.500
        98   03 Jun 2027 03:43:32.563   03 Jun 2027 03:43:36.277             3.714          1857.000
        99   03 Jun 2027 03:43:50.753   03 Jun 2027 03:43:54.047             3.294          1647.000
       100   03 Jun 2027 03:44:09.250   03 Jun 2027 03:44:13.781             4.531          2265.500
       101   03 Jun 2027 03:44:45.793   03 Jun 2027 03:44:46.784             0.991           495.500
       102   03 Jun 2027 05:13:37.748   03 Jun 2027 05:13:47.081             9.333          4666.500
       103   03 Jun 2027 05:14:12.112   03 Jun 2027 05:14:15.714             3.602          1801.000
       104   03 Jun 2027 05:14:23.755   03 Jun 2027 05:14:29.984             6.229          3114.500
       105   03 Jun 2027 05:14:47.246   03 Jun 2027 05:14:56.792             9.546          4773.000
       106   03 Jun 2027 05:15:48.261   03 Jun 2027 05:15:56.663             8.402          4201.000
       107   03 Jun 2027 05:16:51.979   03 Jun 2027 05:16:56.862             4.883          2441.500
       108   03 Jun 2027 05:17:21.092   03 Jun 2027 05:17:21.924             0.832           416.000
       109   03 Jun 2027 05:17:44.705   03 Jun 2027 05:17:48.257             3.552          1776.000
       110   03 Jun 2027 05:18:07.266   03 Jun 2027 05:18:08.707             1.441           720.500
       111   03 Jun 2027 05:18:15.014   03 Jun 2027 05:18:22.458             7.444          3722.000
       112   03 Jun 2027 05:19:13.262   03 Jun 2027 05:19:13.350             0.088            44.000
       113   03 Jun 2027 05:19:25.272   03 Jun 2027 05:19:44.528            19.256          9628.000
       114   03 Jun 2027 06:50:41.294   03 Jun 2027 06:50:45.449             4.155          2077.500
       115   03 Jun 2027 06:51:18.326   03 Jun 2027 06:51:51.643            33.317         16658.500
       116   03 Jun 2027 06:54:12.583   03 Jun 2027 06:54:14.339             1.756           878.000
       117   03 Jun 2027 06:55:17.756   03 Jun 2027 06:55:28.423            10.667          5333.500
       118   03 Jun 2027 06:56:18.550   03 Jun 2027 06:56:23.144             4.594          2297.000
       119   03 Jun 2027 08:27:26.537   03 Jun 2027 08:27:35.728             9.191          4595.500
       120   03 Jun 2027 08:28:21.736   03 Jun 2027 08:28:24.601             2.865          1432.500
       121   03 Jun 2027 08:28:43.471   03 Jun 2027 08:29:07.135            23.664         11832.000
       122   03 Jun 2027 08:31:46.180   03 Jun 2027 08:31:47.292             1.112           556.000
       123   03 Jun 2027 10:02:42.780   03 Jun 2027 10:02:46.149             3.369          1684.500
       124   03 Jun 2027 10:04:24.308   03 Jun 2027 10:04:26.175             1.867           933.500
       125   03 Jun 2027 10:05:35.066   03 Jun 2027 10:05:39.783             4.717          2358.500
       126   03 Jun 2027 10:06:21.583   03 Jun 2027 10:06:43.386            21.803         10901.500
       127   03 Jun 2027 10:07:03.753   03 Jun 2027 10:07:13.532             9.779          4889.500
       128   04 Jun 2027 03:48:47.162   04 Jun 2027 03:49:12.081            24.919         12459.500
       129   04 Jun 2027 03:51:01.135   04 Jun 2027 03:51:19.170            18.035          9017.500
       130   04 Jun 2027 03:52:49.325   04 Jun 2027 03:52:50.983             1.658           829.000
       131   04 Jun 2027 03:53:01.885   04 Jun 2027 03:53:13.169            11.284          5642.000
       132   04 Jun 2027 03:53:55.065   04 Jun 2027 03:54:15.491            20.426         10213.000
       133   04 Jun 2027 03:55:49.098   04 Jun 2027 03:55:55.361             6.263          3131.500
       134   04 Jun 2027 03:56:27.128   04 Jun 2027 03:56:33.414             6.286          3143.000
       135   04 Jun 2027 05:25:50.553   04 Jun 2027 05:25:57.272             6.719          3359.500
       136   04 Jun 2027 05:26:26.601   04 Jun 2027 05:26:39.206            12.605          6302.500
       137   04 Jun 2027 05:27:46.780   04 Jun 2027 05:27:48.230             1.450           725.000
       138   04 Jun 2027 05:28:03.231   04 Jun 2027 05:28:10.702             7.471          3735.500
       139   04 Jun 2027 05:28:44.056   04 Jun 2027 05:28:56.045            11.989          5994.500
       140   04 Jun 2027 05:30:05.177   04 Jun 2027 05:30:07.608             2.431          1215.500
       141   04 Jun 2027 05:30:55.390   04 Jun 2027 05:30:57.621             2.231          1115.500
       142   04 Jun 2027 05:31:12.290   04 Jun 2027 05:31:23.403            11.113          5556.500
       143   04 Jun 2027 05:31:38.843   04 Jun 2027 05:31:43.955             5.112          2556.000
       144   04 Jun 2027 07:02:47.179   04 Jun 2027 07:02:47.330             0.151            75.500
       145   04 Jun 2027 07:03:13.003   04 Jun 2027 07:03:27.528            14.525          7262.500
       146   04 Jun 2027 07:05:06.766   04 Jun 2027 07:05:08.054             1.288           644.000
       147   04 Jun 2027 07:06:15.037   04 Jun 2027 07:06:16.313             1.276           638.000
       148   04 Jun 2027 07:07:11.465   04 Jun 2027 07:07:21.784            10.319          5159.500
       149   04 Jun 2027 08:39:33.119   04 Jun 2027 08:39:35.052             1.933           966.500
       150   04 Jun 2027 08:40:00.093   04 Jun 2027 08:40:06.593             6.500          3250.000
       151   04 Jun 2027 08:40:45.335   04 Jun 2027 08:40:59.863            14.528          7264.000
       152   04 Jun 2027 08:42:35.070   04 Jun 2027 08:42:37.700             2.630          1315.000
       153   04 Jun 2027 08:43:35.979   04 Jun 2027 08:43:47.526            11.547          5773.500
       154   04 Jun 2027 08:44:39.577   04 Jun 2027 08:44:40.361             0.784           392.000
       155   04 Jun 2027 10:17:46.674   04 Jun 2027 10:17:47.618             0.944           472.000
       156   04 Jun 2027 10:18:39.854   04 Jun 2027 10:18:40.415             0.561           280.500
       157   05 Jun 2027 04:01:58.710   05 Jun 2027 04:02:06.196             7.486          3743.000
       158   05 Jun 2027 04:02:36.369   05 Jun 2027 04:02:40.856             4.487          2243.500
       159   05 Jun 2027 04:03:06.095   05 Jun 2027 04:03:19.771            13.676          6838.000
       160   05 Jun 2027 04:04:03.504   05 Jun 2027 04:04:04.399             0.895           447.500
       161   05 Jun 2027 04:04:11.475   05 Jun 2027 04:04:22.901            11.426          5713.000
       162   05 Jun 2027 04:05:25.590   05 Jun 2027 04:05:26.145             0.555           277.500
       163   05 Jun 2027 04:05:36.069   05 Jun 2027 04:05:40.965             4.896          2448.000
       164   05 Jun 2027 04:06:06.496   05 Jun 2027 04:06:21.459            14.963          7481.500
       165   05 Jun 2027 04:07:35.341   05 Jun 2027 04:07:44.193             8.852          4426.000
       166   05 Jun 2027 04:07:54.628   05 Jun 2027 04:07:56.837             2.209          1104.500
       167   05 Jun 2027 04:08:32.008   05 Jun 2027 04:08:45.275            13.267          6633.500
       168   05 Jun 2027 05:38:20.889   05 Jun 2027 05:38:40.903            20.014         10007.000
       169   05 Jun 2027 05:40:11.619   05 Jun 2027 05:40:11.864             0.245           122.500
       170   05 Jun 2027 05:40:36.794   05 Jun 2027 05:40:50.781            13.987          6993.500
       171   05 Jun 2027 05:41:49.065   05 Jun 2027 05:41:51.410             2.345          1172.500
       172   05 Jun 2027 05:42:55.832   05 Jun 2027 05:42:57.377             1.545           772.500
       173   05 Jun 2027 05:43:34.049   05 Jun 2027 05:43:34.162             0.113            56.500
       174   05 Jun 2027 05:43:39.963   05 Jun 2027 05:43:41.111             1.148           574.000
       175   05 Jun 2027 05:44:04.997   05 Jun 2027 05:44:11.602             6.605          3302.500
       176   05 Jun 2027 07:15:48.884   05 Jun 2027 07:15:49.917             1.033           516.500
       177   05 Jun 2027 07:16:20.343   05 Jun 2027 07:16:32.142            11.799          5899.500
       178   05 Jun 2027 07:18:20.218   05 Jun 2027 07:18:31.151            10.933          5466.500
       179   05 Jun 2027 07:19:13.018   05 Jun 2027 07:19:16.553             3.535          1767.500
       180   05 Jun 2027 07:19:48.511   05 Jun 2027 07:19:56.937             8.426          4213.000
       181   05 Jun 2027 08:51:55.460   05 Jun 2027 08:51:57.477             2.017          1008.500
       182   05 Jun 2027 08:52:15.044   05 Jun 2027 08:52:25.578            10.534          5267.000
       183   05 Jun 2027 08:53:26.094   05 Jun 2027 08:53:29.861             3.767          1883.500
       184   05 Jun 2027 08:53:51.146   05 Jun 2027 08:53:55.782             4.636          2318.000
       185   05 Jun 2027 08:54:14.833   05 Jun 2027 08:54:34.934            20.101         10050.500
       186   05 Jun 2027 08:55:55.477   05 Jun 2027 08:56:01.786             6.309          3154.500
       187   06 Jun 2027 04:14:07.499   06 Jun 2027 04:14:10.967             3.468          1734.000
       188   06 Jun 2027 04:14:27.099   06 Jun 2027 04:14:38.283            11.184          5592.000
       189   06 Jun 2027 04:15:34.405   06 Jun 2027 04:15:38.679             4.274          2137.000
       190   06 Jun 2027 04:16:05.514   06 Jun 2027 04:16:19.496            13.982          6991.000
       191   06 Jun 2027 04:17:31.478   06 Jun 2027 04:17:40.740             9.262          4631.000
       192   06 Jun 2027 04:19:00.603   06 Jun 2027 04:19:03.097             2.494          1247.000
       193   06 Jun 2027 04:19:25.372   06 Jun 2027 04:19:29.426             4.054          2027.000
       194   06 Jun 2027 04:19:57.980   06 Jun 2027 04:20:08.106            10.126          5063.000
       195   06 Jun 2027 05:50:06.175   06 Jun 2027 05:50:10.931             4.756          2378.000
       196   06 Jun 2027 05:50:58.870   06 Jun 2027 05:51:03.539             4.669          2334.500
       197   06 Jun 2027 05:51:40.046   06 Jun 2027 05:51:44.868             4.822          2411.000
       198   06 Jun 2027 05:52:04.284   06 Jun 2027 05:52:13.213             8.929          4464.500
       199   06 Jun 2027 05:52:55.501   06 Jun 2027 05:52:57.652             2.151          1075.500
       200   06 Jun 2027 05:53:36.566   06 Jun 2027 05:53:39.424             2.858          1429.000
       201   06 Jun 2027 05:54:01.692   06 Jun 2027 05:54:02.053             0.361           180.500
       202   06 Jun 2027 05:54:05.666   06 Jun 2027 05:54:11.097             5.431          2715.500
       203   06 Jun 2027 05:54:38.902   06 Jun 2027 05:54:39.859             0.957           478.500
       204   06 Jun 2027 05:54:50.514   06 Jun 2027 05:55:03.082            12.568          6284.000
       205   06 Jun 2027 05:55:27.620   06 Jun 2027 05:55:33.126             5.506          2753.000
       206   06 Jun 2027 07:27:55.328   06 Jun 2027 07:27:57.465             2.137          1068.500
       207   06 Jun 2027 07:28:26.470   06 Jun 2027 07:28:27.768             1.298           649.000
       208   06 Jun 2027 07:28:35.488   06 Jun 2027 07:28:41.282             5.794          2897.000
       209   06 Jun 2027 07:29:55.877   06 Jun 2027 07:29:58.720             2.843          1421.500
       210   06 Jun 2027 07:30:15.038   06 Jun 2027 07:30:19.843             4.805          2402.500
       211   06 Jun 2027 07:30:53.940   06 Jun 2027 07:31:02.040             8.100          4050.000
       212   06 Jun 2027 07:31:36.628   06 Jun 2027 07:31:40.794             4.166          2083.000
       213   06 Jun 2027 07:32:08.980   06 Jun 2027 07:32:20.234            11.254          5627.000
       214   06 Jun 2027 09:03:57.144   06 Jun 2027 09:04:09.657            12.513          6256.500
       215   06 Jun 2027 09:05:04.598   06 Jun 2027 09:05:11.195             6.597          3298.500
       216   06 Jun 2027 09:06:34.935   06 Jun 2027 09:06:35.529             0.594           297.000
       217   06 Jun 2027 09:07:26.834   06 Jun 2027 09:07:29.958             3.124          1562.000
       218   06 Jun 2027 09:07:43.741   06 Jun 2027 09:07:48.896             5.155          2577.500
       219   06 Jun 2027 09:08:12.326   06 Jun 2027 09:08:18.288             5.962          2981.000
       220   06 Jun 2027 09:08:44.387   06 Jun 2027 09:08:52.333             7.946          3973.000
       221   07 Jun 2027 04:25:30.903   07 Jun 2027 04:26:03.470            32.567         16283.500
       222   07 Jun 2027 04:27:25.149   07 Jun 2027 04:27:34.399             9.250          4625.000
       223   07 Jun 2027 04:29:26.830   07 Jun 2027 04:29:33.768             6.938          3469.000
       224   07 Jun 2027 04:30:11.756   07 Jun 2027 04:30:27.572            15.816          7908.000
       225   07 Jun 2027 04:31:34.145   07 Jun 2027 04:31:58.914            24.769         12384.500
       226   07 Jun 2027 06:02:08.023   07 Jun 2027 06:02:10.088             2.065          1032.500
       227   07 Jun 2027 06:03:20.812   07 Jun 2027 06:03:33.695            12.883          6441.500
       228   07 Jun 2027 06:04:27.734   07 Jun 2027 06:04:41.805            14.071          7035.500
       229   07 Jun 2027 06:05:44.141   07 Jun 2027 06:05:49.098             4.957          2478.500
       230   07 Jun 2027 06:06:12.309   07 Jun 2027 06:06:12.431             0.122            61.000
       231   07 Jun 2027 06:06:24.319   07 Jun 2027 06:06:27.628             3.309          1654.500
       232   07 Jun 2027 06:06:55.965   07 Jun 2027 06:07:08.591            12.626          6313.000
       233   07 Jun 2027 06:08:18.660   07 Jun 2027 06:08:23.663             5.003          2501.500
       234   07 Jun 2027 07:40:25.918   07 Jun 2027 07:40:34.304             8.386          4193.000
       235   07 Jun 2027 07:41:55.335   07 Jun 2027 07:42:03.950             8.615          4307.500
       236   07 Jun 2027 07:43:06.531   07 Jun 2027 07:43:12.250             5.719          2859.500
       237   07 Jun 2027 07:43:39.211   07 Jun 2027 07:43:40.296             1.085           542.500
       238   07 Jun 2027 09:13:45.322   07 Jun 2027 09:14:05.769            20.447         10223.500
       239   07 Jun 2027 09:15:45.222   07 Jun 2027 09:15:56.406            11.184          5592.000
       240   07 Jun 2027 09:16:42.014   07 Jun 2027 09:16:52.345            10.331          5165.500
       241   07 Jun 2027 09:18:19.960   07 Jun 2027 09:18:25.184             5.224          2612.000
       242   07 Jun 2027 09:19:24.340   07 Jun 2027 09:19:42.572            18.232          9116.000
       243   07 Jun 2027 09:21:14.236   07 Jun 2027 09:21:15.470             1.234           617.000
       244   08 Jun 2027 03:00:42.077   08 Jun 2027 03:00:49.477             7.400          3700.000
       245   08 Jun 2027 03:01:37.140   08 Jun 2027 03:01:40.952             3.812          1906.000
       246   08 Jun 2027 03:02:24.665   08 Jun 2027 03:02:29.937             5.272          2636.000
       247   08 Jun 2027 03:03:05.997   08 Jun 2027 03:03:08.075             2.078          1039.000
       248   08 Jun 2027 03:03:32.624   08 Jun 2027 03:03:36.801             4.177          2088.500
       249   08 Jun 2027 03:04:05.795   08 Jun 2027 03:04:17.414            11.619          5809.500
       250   08 Jun 2027 03:04:50.072   08 Jun 2027 03:04:55.545             5.473          2736.500
       251   08 Jun 2027 03:05:15.717   08 Jun 2027 03:05:15.717             0.000             0.000
       252   08 Jun 2027 03:05:31.737   08 Jun 2027 03:05:41.956            10.219          5109.500
       253   08 Jun 2027 03:07:10.291   08 Jun 2027 03:07:11.997             1.706           853.000
       254   08 Jun 2027 04:37:26.113   08 Jun 2027 04:37:35.132             9.019          4509.500
       255   08 Jun 2027 04:38:27.737   08 Jun 2027 04:38:40.225            12.488          6244.000
       256   08 Jun 2027 04:39:31.574   08 Jun 2027 04:40:01.562            29.988         14994.000
       257   08 Jun 2027 04:42:14.567   08 Jun 2027 04:42:16.166             1.599           799.500
       258   08 Jun 2027 04:42:43.505   08 Jun 2027 04:42:44.629             1.124           562.000
       259   08 Jun 2027 04:42:50.826   08 Jun 2027 04:42:51.281             0.455           227.500
       260   08 Jun 2027 04:43:30.837   08 Jun 2027 04:43:34.746             3.909          1954.500
       261   08 Jun 2027 04:44:03.691   08 Jun 2027 04:44:18.573            14.882          7441.000
       262   08 Jun 2027 04:44:38.019   08 Jun 2027 04:44:39.947             1.928           964.000
       263   08 Jun 2027 04:44:54.323   08 Jun 2027 04:44:54.833             0.510           255.000
       264   08 Jun 2027 06:14:28.993   08 Jun 2027 06:14:31.447             2.454          1227.000
       265   08 Jun 2027 06:15:18.118   08 Jun 2027 06:15:18.677             0.559           279.500
       266   08 Jun 2027 06:15:28.052   08 Jun 2027 06:15:47.184            19.132          9566.000
       267   08 Jun 2027 06:17:05.866   08 Jun 2027 06:17:08.723             2.857          1428.500
       268   08 Jun 2027 06:17:41.565   08 Jun 2027 06:17:48.366             6.801          3400.500
       269   08 Jun 2027 06:18:17.590   08 Jun 2027 06:18:18.303             0.713           356.500
       270   08 Jun 2027 06:18:49.612   08 Jun 2027 06:18:54.362             4.750          2375.000
       271   08 Jun 2027 06:19:06.498   08 Jun 2027 06:19:12.026             5.528          2764.000
       272   08 Jun 2027 07:52:23.141   08 Jun 2027 07:52:28.009             4.868          2434.000
       273   08 Jun 2027 07:53:07.911   08 Jun 2027 07:53:15.370             7.459          3729.500
       274   08 Jun 2027 07:53:53.447   08 Jun 2027 07:53:57.981             4.534          2267.000
       275   08 Jun 2027 07:54:38.568   08 Jun 2027 07:54:42.575             4.007          2003.500
       276   08 Jun 2027 07:55:43.566   08 Jun 2027 07:55:44.204             0.638           319.000
       277   08 Jun 2027 07:56:01.306   08 Jun 2027 07:56:07.844             6.538          3269.000
       278   08 Jun 2027 09:25:36.966   08 Jun 2027 09:26:03.922            26.956         13478.000
       279   08 Jun 2027 09:28:30.144   08 Jun 2027 09:28:39.421             9.277          4638.500
       280   08 Jun 2027 09:29:42.390   08 Jun 2027 09:29:46.041             3.651          1825.500
       281   08 Jun 2027 09:30:31.417   08 Jun 2027 09:30:31.849             0.432           216.000
       282   08 Jun 2027 09:31:01.134   08 Jun 2027 09:31:15.607            14.473          7236.500
       283   08 Jun 2027 09:32:30.659   08 Jun 2027 09:32:33.123             2.464          1232.000
       284   08 Jun 2027 09:33:11.954   08 Jun 2027 09:33:14.555             2.601          1300.500
       285   09 Jun 2027 03:12:02.295   09 Jun 2027 03:12:05.294             2.999          1499.500
       286   09 Jun 2027 03:12:17.147   09 Jun 2027 03:12:29.955            12.808          6404.000
       287   09 Jun 2027 03:13:58.904   09 Jun 2027 03:14:05.070             6.166          3083.000
       288   09 Jun 2027 03:14:39.798   09 Jun 2027 03:14:40.255             0.457           228.500
       289   09 Jun 2027 03:14:45.025   09 Jun 2027 03:14:53.124             8.099          4049.500
       290   09 Jun 2027 03:15:56.335   09 Jun 2027 03:16:08.101            11.766          5883.000
       291   09 Jun 2027 03:17:36.421   09 Jun 2027 03:17:41.148             4.727          2363.500
       292   09 Jun 2027 03:19:10.532   09 Jun 2027 03:19:13.303             2.771          1385.500
       293   09 Jun 2027 03:20:07.875   09 Jun 2027 03:20:08.666             0.791           395.500
       294   09 Jun 2027 03:20:22.218   09 Jun 2027 03:20:23.742             1.524           762.000
       295   09 Jun 2027 04:49:36.745   09 Jun 2027 04:49:54.106            17.361          8680.500
       296   09 Jun 2027 04:51:10.546   09 Jun 2027 04:51:11.887             1.341           670.500
       297   09 Jun 2027 04:52:19.478   09 Jun 2027 04:52:23.172             3.694          1847.000
       298   09 Jun 2027 04:52:55.645   09 Jun 2027 04:52:56.299             0.654           327.000
       299   09 Jun 2027 04:53:14.385   09 Jun 2027 04:53:21.308             6.923          3461.500
       300   09 Jun 2027 04:54:13.950   09 Jun 2027 04:54:33.901            19.951          9975.500
       301   09 Jun 2027 04:55:44.300   09 Jun 2027 04:55:46.762             2.462          1231.000
       302   09 Jun 2027 04:56:13.027   09 Jun 2027 04:56:20.657             7.630          3815.000
       303   09 Jun 2027 06:26:19.487   09 Jun 2027 06:26:19.990             0.503           251.500
       304   09 Jun 2027 06:26:40.377   09 Jun 2027 06:26:47.951             7.574          3787.000
       305   09 Jun 2027 06:28:22.105   09 Jun 2027 06:28:50.647            28.542         14271.000
       306   09 Jun 2027 06:31:05.303   09 Jun 2027 06:31:08.586             3.283          1641.500
       307   09 Jun 2027 06:31:56.068   09 Jun 2027 06:31:57.986             1.918           959.000
       308   09 Jun 2027 06:32:37.150   09 Jun 2027 06:32:56.112            18.962          9481.000
       309   09 Jun 2027 08:04:23.062   09 Jun 2027 08:04:23.298             0.236           118.000
       310   09 Jun 2027 08:04:43.998   09 Jun 2027 08:04:54.101            10.103          5051.500
       311   09 Jun 2027 08:05:39.548   09 Jun 2027 08:05:45.980             6.432          3216.000
       312   09 Jun 2027 08:06:23.637   09 Jun 2027 08:06:41.762            18.125          9062.500
       313   09 Jun 2027 08:08:31.559   09 Jun 2027 08:08:32.399             0.840           420.000
       314   09 Jun 2027 09:38:04.923   09 Jun 2027 09:38:24.645            19.722          9861.000
       315   09 Jun 2027 09:39:50.800   09 Jun 2027 09:39:54.012             3.212          1606.000
       316   09 Jun 2027 09:40:16.811   09 Jun 2027 09:40:29.144            12.333          6166.500
       317   09 Jun 2027 09:41:38.265   09 Jun 2027 09:41:43.951             5.686          2843.000
       318   09 Jun 2027 09:42:35.077   09 Jun 2027 09:42:44.290             9.213          4606.500
       319   09 Jun 2027 09:43:25.533   09 Jun 2027 09:43:27.897             2.364          1182.000
       320   09 Jun 2027 09:43:41.505   09 Jun 2027 09:43:51.985            10.480          5240.000
       321   09 Jun 2027 09:44:39.923   09 Jun 2027 09:44:41.581             1.658           829.000
       322   10 Jun 2027 03:23:32.626   10 Jun 2027 03:24:02.324            29.698         14849.000
       323   10 Jun 2027 03:26:15.911   10 Jun 2027 03:26:22.739             6.828          3414.000
       324   10 Jun 2027 03:26:51.377   10 Jun 2027 03:27:05.937            14.560          7280.000
       325   10 Jun 2027 03:27:54.827   10 Jun 2027 03:28:01.744             6.917          3458.500
       326   10 Jun 2027 03:28:45.709   10 Jun 2027 03:28:47.659             1.950           975.000
       327   10 Jun 2027 03:28:55.479   10 Jun 2027 03:29:05.306             9.827          4913.500
       328   10 Jun 2027 03:30:12.820   10 Jun 2027 03:30:19.932             7.112          3556.000
       329   10 Jun 2027 03:31:07.535   10 Jun 2027 03:31:07.841             0.306           153.000
       330   10 Jun 2027 03:31:39.156   10 Jun 2027 03:31:41.934             2.778          1389.000
       331   10 Jun 2027 03:32:01.856   10 Jun 2027 03:32:03.547             1.691           845.500
       332   10 Jun 2027 03:32:11.229   10 Jun 2027 03:32:15.385             4.156          2078.000
       333   10 Jun 2027 03:32:46.555   10 Jun 2027 03:32:47.527             0.972           486.000
       334   10 Jun 2027 05:01:31.081   10 Jun 2027 05:01:48.500            17.419          8709.500
       335   10 Jun 2027 05:03:02.677   10 Jun 2027 05:03:16.227            13.550          6775.000
       336   10 Jun 2027 05:04:24.726   10 Jun 2027 05:04:32.465             7.739          3869.500
       337   10 Jun 2027 05:05:23.069   10 Jun 2027 05:05:24.805             1.736           868.000
       338   10 Jun 2027 05:06:32.659   10 Jun 2027 05:06:34.836             2.177          1088.500
       339   10 Jun 2027 05:07:22.125   10 Jun 2027 05:07:32.687            10.562          5281.000
       340   10 Jun 2027 05:08:17.963   10 Jun 2027 05:08:22.722             4.759          2379.500
       341   10 Jun 2027 06:38:27.539   10 Jun 2027 06:38:34.773             7.234          3617.000
       342   10 Jun 2027 06:39:28.734   10 Jun 2027 06:39:40.263            11.529          5764.500
       343   10 Jun 2027 06:40:19.862   10 Jun 2027 06:40:20.877             1.015           507.500
       344   10 Jun 2027 06:40:50.384   10 Jun 2027 06:40:55.987             5.603          2801.500
       345   10 Jun 2027 06:41:25.787   10 Jun 2027 06:41:27.380             1.593           796.500
       346   10 Jun 2027 06:41:55.696   10 Jun 2027 06:41:56.912             1.216           608.000
       347   10 Jun 2027 06:42:06.575   10 Jun 2027 06:42:08.504             1.929           964.500
       348   10 Jun 2027 06:42:29.231   10 Jun 2027 06:42:30.130             0.899           449.500
       349   10 Jun 2027 06:43:30.505   10 Jun 2027 06:43:31.507             1.002           501.000
       350   10 Jun 2027 06:44:04.891   10 Jun 2027 06:44:06.615             1.724           862.000
       351   10 Jun 2027 06:44:39.831   10 Jun 2027 06:44:48.132             8.301          4150.500
       352   10 Jun 2027 08:16:01.000   10 Jun 2027 08:16:02.993             1.993           996.500
       353   10 Jun 2027 08:16:19.976   10 Jun 2027 08:16:24.434             4.458          2229.000
       354   10 Jun 2027 08:17:14.120   10 Jun 2027 08:17:30.698            16.578          8289.000
       355   10 Jun 2027 08:18:45.551   10 Jun 2027 08:18:47.288             1.737           868.500
       356   10 Jun 2027 08:19:52.085   10 Jun 2027 08:19:57.694             5.609          2804.500
       357   10 Jun 2027 09:50:24.686   10 Jun 2027 09:50:26.159             1.473           736.500
       358   10 Jun 2027 09:50:56.862   10 Jun 2027 09:51:07.202            10.340          5170.000
       359   10 Jun 2027 09:52:08.911   10 Jun 2027 09:52:21.545            12.634          6317.000
       360   10 Jun 2027 09:54:07.479   10 Jun 2027 09:54:35.529            28.050         14025.000
       361   11 Jun 2027 03:36:26.675   11 Jun 2027 03:36:45.510            18.835          9417.500
       362   11 Jun 2027 03:38:00.947   11 Jun 2027 03:38:12.824            11.877          5938.500
       363   11 Jun 2027 03:39:26.065   11 Jun 2027 03:39:28.634             2.569          1284.500
       364   11 Jun 2027 03:40:16.737   11 Jun 2027 03:40:20.698             3.961          1980.500
       365   11 Jun 2027 03:40:49.748   11 Jun 2027 03:40:52.873             3.125          1562.500
       366   11 Jun 2027 03:41:19.278   11 Jun 2027 03:41:35.056            15.778          7889.000
       367   11 Jun 2027 03:42:44.374   11 Jun 2027 03:42:53.389             9.015          4507.500
       368   11 Jun 2027 03:43:48.122   11 Jun 2027 03:43:52.266             4.144          2072.000
       369   11 Jun 2027 03:44:05.037   11 Jun 2027 03:44:09.535             4.498          2249.000
       370   11 Jun 2027 05:13:52.483   11 Jun 2027 05:14:04.032            11.549          5774.500
       371   11 Jun 2027 05:15:23.224   11 Jun 2027 05:15:30.314             7.090          3545.000
       372   11 Jun 2027 05:16:02.959   11 Jun 2027 05:16:13.423            10.464          5232.000
       373   11 Jun 2027 05:16:24.385   11 Jun 2027 05:16:25.425             1.040           520.000
       374   11 Jun 2027 05:17:44.913   11 Jun 2027 05:18:00.722            15.809          7904.500
       375   11 Jun 2027 05:18:23.171   11 Jun 2027 05:18:23.198             0.027            13.500
       376   11 Jun 2027 05:19:17.060   11 Jun 2027 05:19:27.879            10.819          5409.500
       377   11 Jun 2027 05:20:13.042   11 Jun 2027 05:20:24.704            11.662          5831.000
       378   11 Jun 2027 06:50:56.037   11 Jun 2027 06:51:01.369             5.332          2666.000
       379   11 Jun 2027 06:51:35.551   11 Jun 2027 06:52:06.993            31.442         15721.000
       380   11 Jun 2027 06:54:09.410   11 Jun 2027 06:54:09.548             0.138            69.000
       381   11 Jun 2027 06:54:23.183   11 Jun 2027 06:54:24.163             0.980           490.000
       382   11 Jun 2027 06:55:21.073   11 Jun 2027 06:55:24.979             3.906          1953.000
       383   11 Jun 2027 06:56:00.239   11 Jun 2027 06:56:02.432             2.193          1096.500
       384   11 Jun 2027 06:56:24.755   11 Jun 2027 06:56:32.468             7.713          3856.500
       385   11 Jun 2027 08:27:41.555   11 Jun 2027 08:27:41.836             0.281           140.500
       386   11 Jun 2027 08:27:54.949   11 Jun 2027 08:28:04.529             9.580          4790.000
       387   11 Jun 2027 08:29:23.200   11 Jun 2027 08:29:26.934             3.734          1867.000
       388   11 Jun 2027 08:30:05.998   11 Jun 2027 08:30:24.721            18.723          9361.500
       389   11 Jun 2027 10:02:57.579   11 Jun 2027 10:03:00.844             3.265          1632.500
       390   11 Jun 2027 10:04:39.195   11 Jun 2027 10:04:40.360             1.165           582.500
       391   11 Jun 2027 10:05:01.193   11 Jun 2027 10:05:08.295             7.102          3551.000
       392   11 Jun 2027 10:05:46.900   11 Jun 2027 10:05:49.642             2.742          1371.000
       393   11 Jun 2027 10:06:19.228   11 Jun 2027 10:06:36.238            17.010          8505.000
       394   12 Jun 2027 03:49:02.929   12 Jun 2027 03:49:26.954            24.025         12012.500
       395   12 Jun 2027 03:51:15.741   12 Jun 2027 03:51:17.862             2.121          1060.500
       396   12 Jun 2027 03:52:18.927   12 Jun 2027 03:52:19.431             0.504           252.000
       397   12 Jun 2027 03:52:23.914   12 Jun 2027 03:52:24.730             0.816           408.000
       398   12 Jun 2027 03:52:28.388   12 Jun 2027 03:52:31.128             2.740          1370.000
       399   12 Jun 2027 03:53:09.427   12 Jun 2027 03:53:09.945             0.518           259.000
       400   12 Jun 2027 03:53:39.140   12 Jun 2027 03:53:39.730             0.590           295.000
       401   12 Jun 2027 03:53:44.636   12 Jun 2027 03:53:45.105             0.469           234.500
       402   12 Jun 2027 03:53:47.931   12 Jun 2027 03:53:48.660             0.729           364.500
       403   12 Jun 2027 03:54:37.523   12 Jun 2027 03:54:44.082             6.559          3279.500
       404   12 Jun 2027 03:55:07.121   12 Jun 2027 03:55:07.121             0.000             0.000
       405   12 Jun 2027 03:55:24.494   12 Jun 2027 03:55:32.737             8.243          4121.500
       406   12 Jun 2027 03:56:17.741   12 Jun 2027 03:56:26.719             8.978          4489.000
       407   12 Jun 2027 03:56:50.243   12 Jun 2027 03:56:58.201             7.958          3979.000
       408   12 Jun 2027 05:26:04.822   12 Jun 2027 05:26:16.352            11.530          5765.000
       409   12 Jun 2027 05:26:41.845   12 Jun 2027 05:26:43.781             1.936           968.000
       410   12 Jun 2027 05:27:16.814   12 Jun 2027 05:28:01.462            44.648         22324.000
       411   12 Jun 2027 05:31:02.618   12 Jun 2027 05:31:06.428             3.810          1905.000
       412   12 Jun 2027 05:31:31.814   12 Jun 2027 05:31:38.954             7.140          3570.000
       413   12 Jun 2027 05:31:56.074   12 Jun 2027 05:32:01.124             5.050          2525.000
       414   12 Jun 2027 07:03:02.282   12 Jun 2027 07:03:02.557             0.275           137.500
       415   12 Jun 2027 07:04:04.158   12 Jun 2027 07:04:11.418             7.260          3630.000
       416   12 Jun 2027 07:05:02.849   12 Jun 2027 07:05:04.532             1.683           841.500
       417   12 Jun 2027 07:05:36.772   12 Jun 2027 07:05:51.563            14.791          7395.500
       418   12 Jun 2027 07:07:13.832   12 Jun 2027 07:07:19.114             5.282          2641.000
       419   12 Jun 2027 07:07:36.991   12 Jun 2027 07:07:37.203             0.212           106.000
       420   12 Jun 2027 07:07:46.575   12 Jun 2027 07:07:49.861             3.286          1643.000
       421   12 Jun 2027 08:39:47.580   12 Jun 2027 08:39:49.798             2.218          1109.000
       422   12 Jun 2027 08:40:15.270   12 Jun 2027 08:40:16.810             1.540           770.000
       423   12 Jun 2027 08:40:25.503   12 Jun 2027 08:40:30.139             4.636          2318.000
       424   12 Jun 2027 08:40:59.995   12 Jun 2027 08:41:14.645            14.650          7325.000
       425   12 Jun 2027 08:42:49.794   12 Jun 2027 08:42:52.329             2.535          1267.500
       426   12 Jun 2027 08:43:51.204   12 Jun 2027 08:44:03.973            12.769          6384.500
       427   12 Jun 2027 10:18:02.032   12 Jun 2027 10:18:02.096             0.064            32.000
       428   12 Jun 2027 10:18:54.036   12 Jun 2027 10:18:55.076             1.040           520.000
       429   13 Jun 2027 04:02:13.947   13 Jun 2027 04:02:21.045             7.098          3549.000
       430   13 Jun 2027 04:02:43.283   13 Jun 2027 04:02:43.283             0.000             0.000
       431   13 Jun 2027 04:02:53.108   13 Jun 2027 04:02:56.140             3.032          1516.000
       432   13 Jun 2027 04:03:20.596   13 Jun 2027 04:03:36.652            16.056          8028.000
       433   13 Jun 2027 04:03:52.026   13 Jun 2027 04:03:55.256             3.230          1615.000
       434   13 Jun 2027 04:04:59.260   13 Jun 2027 04:05:03.144             3.884          1942.000
       435   13 Jun 2027 04:05:40.320   13 Jun 2027 04:05:40.743             0.423           211.500
       436   13 Jun 2027 04:05:51.133   13 Jun 2027 04:05:56.683             5.550          2775.000
       437   13 Jun 2027 04:06:21.588   13 Jun 2027 04:06:39.035            17.447          8723.500
       438   13 Jun 2027 04:08:16.659   13 Jun 2027 04:08:29.637            12.978          6489.000
       439   13 Jun 2027 05:38:35.896   13 Jun 2027 05:38:56.221            20.325         10162.500
       440   13 Jun 2027 05:40:25.978   13 Jun 2027 05:40:32.373             6.395          3197.500
       441   13 Jun 2027 05:41:05.615   13 Jun 2027 05:41:10.241             4.626          2313.000
       442   13 Jun 2027 05:41:49.542   13 Jun 2027 05:41:50.282             0.740           370.000
       443   13 Jun 2027 05:42:02.448   13 Jun 2027 05:42:06.316             3.868          1934.000
       444   13 Jun 2027 05:43:10.756   13 Jun 2027 05:43:11.926             1.170           585.000
       445   13 Jun 2027 05:43:48.793   13 Jun 2027 05:43:53.366             4.573          2286.500
       446   13 Jun 2027 05:44:10.835   13 Jun 2027 05:44:13.986             3.151          1575.500
       447   13 Jun 2027 07:16:03.411   13 Jun 2027 07:16:04.417             1.006           503.000
       448   13 Jun 2027 07:16:37.556   13 Jun 2027 07:16:46.397             8.841          4420.500
       449   13 Jun 2027 07:17:22.747   13 Jun 2027 07:17:28.195             5.448          2724.000
       450   13 Jun 2027 07:18:10.020   13 Jun 2027 07:18:18.510             8.490          4245.000
       451   13 Jun 2027 07:18:58.642   13 Jun 2027 07:19:01.645             3.003          1501.500
       452   13 Jun 2027 07:19:14.723   13 Jun 2027 07:19:27.786            13.063          6531.500
       453   13 Jun 2027 07:19:45.646   13 Jun 2027 07:19:48.727             3.081          1540.500
       454   13 Jun 2027 08:52:10.579   13 Jun 2027 08:52:15.501             4.922          2461.000
       455   13 Jun 2027 08:53:29.099   13 Jun 2027 08:53:33.399             4.300          2150.000
       456   13 Jun 2027 08:53:55.090   13 Jun 2027 08:54:03.665             8.575          4287.500
       457   13 Jun 2027 08:54:50.971   13 Jun 2027 08:54:51.037             0.066            33.000
       458   13 Jun 2027 08:55:47.926   13 Jun 2027 08:55:53.286             5.360          2680.000
