uniorb/output/strategy_2/Camera/Camera_KinoSat_111306.txt

KinoSat_111306
-------------------------
    Access    *     Start Time (UTCG)     *     Stop Time (UTCG)  *   Duration (s) *   Data (Mbytes)
         1   01 Jun 2027 03:17:48.996   01 Jun 2027 03:21:13.979           204.983        102491.500
         2   01 Jun 2027 03:23:21.395   01 Jun 2027 03:23:45.783            24.388         12194.000
         3   01 Jun 2027 03:24:38.181   01 Jun 2027 03:24:47.883             9.702          4851.000
         4   01 Jun 2027 04:42:01.762   01 Jun 2027 04:42:21.012            19.250          9625.000
         5   01 Jun 2027 04:42:44.381   01 Jun 2027 04:42:54.243             9.862          4931.000
         6   01 Jun 2027 04:44:13.122   01 Jun 2027 04:44:13.122             0.000             0.000
         7   01 Jun 2027 04:54:15.692   01 Jun 2027 04:54:47.747            32.055         16027.500
         8   01 Jun 2027 06:16:12.296   01 Jun 2027 06:17:32.653            80.357         40178.500
         9   01 Jun 2027 06:18:14.848   01 Jun 2027 06:19:25.482            70.634         35317.000
        10   01 Jun 2027 07:51:00.681   01 Jun 2027 07:53:25.008           144.327         72163.500
        11   01 Jun 2027 07:55:21.117   01 Jun 2027 07:55:32.070            10.953          5476.500
        12   01 Jun 2027 07:58:51.927   01 Jun 2027 07:58:56.039             4.112          2056.000
        13   01 Jun 2027 07:59:20.080   01 Jun 2027 07:59:42.887            22.807         11403.500
        14   01 Jun 2027 07:59:54.365   01 Jun 2027 08:00:00.187             5.822          2911.000
        15   01 Jun 2027 09:28:49.114   01 Jun 2027 09:30:55.302           126.188         63094.000
        16   01 Jun 2027 09:34:49.445   01 Jun 2027 09:35:24.728            35.283         17641.500
        17   01 Jun 2027 11:05:33.733   01 Jun 2027 11:07:16.241           102.508         51254.000
        18   01 Jun 2027 11:11:07.685   01 Jun 2027 11:11:22.392            14.707          7353.500
        19   01 Jun 2027 11:11:54.350   01 Jun 2027 11:12:14.157            19.807          9903.500
        20   02 Jun 2027 03:29:59.384   02 Jun 2027 03:33:10.051           190.667         95333.500
        21   02 Jun 2027 03:35:10.550   02 Jun 2027 03:35:13.080             2.530          1265.000
        22   02 Jun 2027 04:54:01.274   02 Jun 2027 04:54:40.362            39.088         19544.000
        23   02 Jun 2027 06:29:58.544   02 Jun 2027 06:32:36.304           157.760         78880.000
        24   02 Jun 2027 06:32:44.999   02 Jun 2027 06:32:49.310             4.311          2155.500
        25   02 Jun 2027 08:03:48.979   02 Jun 2027 08:06:14.611           145.632         72816.000
        26   02 Jun 2027 08:08:13.214   02 Jun 2027 08:08:25.852            12.638          6234.032
        27   02 Jun 2027 08:09:21.812   02 Jun 2027 08:09:26.621             4.809          1674.937
        28   02 Jun 2027 08:10:21.306   02 Jun 2027 08:10:24.275             2.969          1192.500
        29   02 Jun 2027 09:40:55.649   02 Jun 2027 09:41:11.884            16.235          8035.344
        30   02 Jun 2027 09:42:00.932   02 Jun 2027 09:42:06.514             5.582           853.969
        31   02 Jun 2027 09:44:58.651   02 Jun 2027 09:45:07.782             9.131          3904.875
        32   02 Jun 2027 09:45:51.977   02 Jun 2027 09:45:58.760             6.783           825.594
        33   02 Jun 2027 09:46:09.969   02 Jun 2027 09:46:11.556             1.587           238.687
        34   02 Jun 2027 09:47:19.671   02 Jun 2027 09:47:24.250             4.579          2109.719
        35   02 Jun 2027 09:47:31.241   02 Jun 2027 09:47:31.841             0.600           218.469
        36   02 Jun 2027 09:47:46.564   02 Jun 2027 09:47:47.521             0.957            64.031
        37   02 Jun 2027 09:48:02.237   02 Jun 2027 09:48:04.767             2.530           368.313
        38   02 Jun 2027 11:17:57.649   02 Jun 2027 11:18:11.852            14.203          6047.844
        39   02 Jun 2027 11:18:48.480   02 Jun 2027 11:18:49.014             0.534           267.000
        40   02 Jun 2027 11:19:18.513   02 Jun 2027 11:19:22.124             3.611          1761.906
        41   02 Jun 2027 11:20:02.811   02 Jun 2027 11:20:03.170             0.359           179.500
        42   02 Jun 2027 11:20:06.289   02 Jun 2027 11:20:07.096             0.807           287.938
        43   02 Jun 2027 11:20:29.782   02 Jun 2027 11:20:31.205             1.423           617.000
        44   02 Jun 2027 11:20:42.099   02 Jun 2027 11:20:47.159             5.060           340.438
        45   02 Jun 2027 11:21:44.760   02 Jun 2027 11:21:57.146            12.386          1800.031
        46   02 Jun 2027 11:22:12.472   02 Jun 2027 11:22:13.899             1.427           478.938
        47   02 Jun 2027 11:23:06.683   02 Jun 2027 11:23:10.673             3.990          1625.688
        48   02 Jun 2027 11:23:26.388   02 Jun 2027 11:23:27.345             0.957           265.375
        49   02 Jun 2027 11:23:47.220   02 Jun 2027 11:23:52.030             4.810           621.094
        50   03 Jun 2027 03:42:33.983   03 Jun 2027 03:45:45.408           191.425         95712.500
        51   03 Jun 2027 05:05:55.831   03 Jun 2027 05:06:58.192            62.361         31180.500
        52   03 Jun 2027 06:42:19.745   03 Jun 2027 06:43:11.035            51.290         24753.719
        53   03 Jun 2027 06:43:46.409   03 Jun 2027 06:43:50.118             3.709           485.781
        54   03 Jun 2027 06:44:36.628   03 Jun 2027 06:44:38.377             1.749           874.500
        55   03 Jun 2027 06:44:52.211   03 Jun 2027 06:44:54.446             2.235           605.656
        56   03 Jun 2027 06:45:18.617   03 Jun 2027 06:45:18.617             0.000             0.000
        57   03 Jun 2027 08:15:47.570   03 Jun 2027 08:16:02.310            14.740          5176.156
        58   03 Jun 2027 08:16:50.396   03 Jun 2027 08:16:50.945             0.549           181.125
        59   03 Jun 2027 08:17:48.957   03 Jun 2027 08:17:51.904             2.947          1471.969
        60   03 Jun 2027 08:19:25.810   03 Jun 2027 08:19:32.996             7.186          2423.844
        61   03 Jun 2027 08:19:55.325   03 Jun 2027 08:19:56.698             1.373           223.344
        62   03 Jun 2027 08:21:38.768   03 Jun 2027 08:21:43.304             4.536          1804.000
        63   03 Jun 2027 08:23:06.448   03 Jun 2027 08:23:07.239             0.791           395.500
        64   03 Jun 2027 08:23:30.106   03 Jun 2027 08:23:32.973             2.867          1353.875
        65   03 Jun 2027 08:23:33.722   03 Jun 2027 08:23:39.567             5.845            23.406
        66   03 Jun 2027 08:23:51.845   03 Jun 2027 08:23:52.926             1.081           383.687
        67   03 Jun 2027 09:53:21.502   03 Jun 2027 09:53:32.258            10.756          5259.281
        68   03 Jun 2027 09:54:14.653   03 Jun 2027 09:54:17.755             3.102           209.844
        69   03 Jun 2027 09:55:19.606   03 Jun 2027 09:55:22.636             3.030           571.031
        70   03 Jun 2027 09:56:24.523   03 Jun 2027 09:56:32.959             8.436          1614.656
        71   03 Jun 2027 09:56:36.593   03 Jun 2027 09:56:37.261             0.668           113.563
        72   03 Jun 2027 09:57:54.035   03 Jun 2027 09:57:57.402             3.367           605.344
        73   03 Jun 2027 09:58:13.003   03 Jun 2027 09:58:13.003             0.000             0.000
        74   03 Jun 2027 09:58:39.560   03 Jun 2027 09:58:46.723             7.163          1204.312
        75   03 Jun 2027 09:59:32.287   03 Jun 2027 09:59:36.760             4.473          1097.000
        76   03 Jun 2027 09:59:49.118   03 Jun 2027 09:59:50.138             1.020           354.625
        77   03 Jun 2027 11:30:15.319   03 Jun 2027 11:30:29.874            14.555          6400.719
        78   03 Jun 2027 11:31:24.115   03 Jun 2027 11:31:26.797             2.682          1017.000
        79   03 Jun 2027 11:33:03.356   03 Jun 2027 11:33:16.956            13.600          2743.188
        80   03 Jun 2027 11:33:21.403   03 Jun 2027 11:33:22.908             1.505           138.969
        81   03 Jun 2027 11:33:46.368   03 Jun 2027 11:33:47.909             1.541           733.125
        82   03 Jun 2027 11:34:27.424   03 Jun 2027 11:34:30.345             2.921          1229.844
        83   03 Jun 2027 11:35:39.431   03 Jun 2027 11:35:43.522             4.091          2045.500
        84   04 Jun 2027 03:54:11.848   04 Jun 2027 03:57:48.127           216.279        108139.500
        85   04 Jun 2027 03:58:24.733   04 Jun 2027 03:58:28.841             4.108          2054.000
        86   04 Jun 2027 05:17:43.284   04 Jun 2027 05:18:52.606            69.322         34661.000
        87   04 Jun 2027 06:54:21.210   04 Jun 2027 06:54:55.761            34.551         16884.187
        88   04 Jun 2027 06:55:19.954   04 Jun 2027 06:55:22.628             2.674           441.531
        89   04 Jun 2027 06:56:25.495   04 Jun 2027 06:56:30.876             5.381          1624.844
        90   04 Jun 2027 06:56:57.779   04 Jun 2027 06:57:00.008             2.229           840.719
        91   04 Jun 2027 08:29:16.387   04 Jun 2027 08:29:25.469             9.082          4096.844
        92   04 Jun 2027 08:29:32.412   04 Jun 2027 08:29:32.938             0.526           216.969
        93   04 Jun 2027 08:29:43.192   04 Jun 2027 08:29:44.739             1.547           283.375
        94   04 Jun 2027 08:30:09.067   04 Jun 2027 08:30:10.729             1.662           257.000
        95   04 Jun 2027 08:30:36.133   04 Jun 2027 08:30:41.599             5.466           325.719
        96   04 Jun 2027 08:31:49.069   04 Jun 2027 08:31:53.536             4.467          1193.344
        97   04 Jun 2027 08:33:21.775   04 Jun 2027 08:33:23.835             2.060          1030.000
        98   04 Jun 2027 08:33:34.939   04 Jun 2027 08:33:36.905             1.966           653.375
        99   04 Jun 2027 08:34:55.160   04 Jun 2027 08:35:00.079             4.919          2364.031
       100   04 Jun 2027 08:35:40.759   04 Jun 2027 08:35:46.586             5.827          1271.250
       101   04 Jun 2027 10:05:29.061   04 Jun 2027 10:05:46.302            17.241          8143.687
       102   04 Jun 2027 10:07:39.492   04 Jun 2027 10:07:45.967             6.475          2150.344
       103   04 Jun 2027 10:07:52.275   04 Jun 2027 10:07:56.221             3.946            49.937
       104   04 Jun 2027 10:08:25.759   04 Jun 2027 10:08:28.447             2.688           549.156
       105   04 Jun 2027 10:09:05.511   04 Jun 2027 10:09:08.348             2.837           916.313
       106   04 Jun 2027 10:09:42.441   04 Jun 2027 10:09:45.172             2.731           660.656
       107   04 Jun 2027 10:10:16.923   04 Jun 2027 10:10:19.503             2.580           808.281
       108   04 Jun 2027 10:11:23.135   04 Jun 2027 10:11:31.184             8.049          1575.844
       109   04 Jun 2027 10:12:02.395   04 Jun 2027 10:12:03.821             1.426           713.000
       110   04 Jun 2027 11:43:12.078   04 Jun 2027 11:43:27.332            15.254          7333.875
       111   04 Jun 2027 11:43:47.667   04 Jun 2027 11:43:50.148             2.481           635.469
       112   04 Jun 2027 11:44:16.046   04 Jun 2027 11:44:17.411             1.365           611.625
       113   04 Jun 2027 11:44:43.843   04 Jun 2027 11:44:44.494             0.651           315.969
       114   04 Jun 2027 11:46:31.312   04 Jun 2027 11:46:35.665             4.353          2176.500
       115   04 Jun 2027 11:47:25.623   04 Jun 2027 11:47:31.411             5.788          2358.031
       116   05 Jun 2027 04:06:34.817   05 Jun 2027 04:07:05.544            30.727         15363.500
       117   05 Jun 2027 04:07:24.067   05 Jun 2027 04:10:14.534           170.467         85233.500
       118   05 Jun 2027 05:29:57.332   05 Jun 2027 05:30:53.060            55.728         27864.000
       119   05 Jun 2027 05:32:35.707   05 Jun 2027 05:32:52.793            17.086          8543.000
       120   05 Jun 2027 07:06:29.217   05 Jun 2027 07:07:14.447            45.230         21787.094
       121   05 Jun 2027 07:07:43.956   05 Jun 2027 07:07:43.956             0.000             0.000
       122   05 Jun 2027 07:08:39.253   05 Jun 2027 07:08:41.652             2.399          1199.500
       123   05 Jun 2027 07:09:48.536   05 Jun 2027 07:09:54.562             6.026          2899.625
       124   05 Jun 2027 08:41:39.207   05 Jun 2027 08:41:52.519            13.312          5889.531
       125   05 Jun 2027 08:41:59.211   05 Jun 2027 08:42:00.069             0.858           209.125
       126   05 Jun 2027 08:42:10.826   05 Jun 2027 08:42:15.886             5.060           336.156
       127   05 Jun 2027 08:43:08.686   05 Jun 2027 08:43:11.166             2.480           281.625
       128   05 Jun 2027 08:44:35.970   05 Jun 2027 08:44:35.970             0.000             0.000
       129   05 Jun 2027 08:44:57.031   05 Jun 2027 08:45:05.284             8.253          3276.875
       130   05 Jun 2027 08:45:40.241   05 Jun 2027 08:45:43.907             3.666          1015.219
       131   05 Jun 2027 08:46:02.884   05 Jun 2027 08:46:05.570             2.686           534.312
       132   05 Jun 2027 08:46:17.836   05 Jun 2027 08:46:20.131             2.295           380.844
       133   05 Jun 2027 08:47:06.900   05 Jun 2027 08:47:11.998             5.098          1188.625
       134   05 Jun 2027 08:47:44.611   05 Jun 2027 08:47:49.643             5.032           921.906
       135   05 Jun 2027 08:47:53.274   05 Jun 2027 08:47:53.274             0.000             0.000
       136   05 Jun 2027 08:48:04.888   05 Jun 2027 08:48:06.288             1.400           476.406
       137   05 Jun 2027 10:18:04.628   05 Jun 2027 10:18:19.196            14.568          6543.219
       138   05 Jun 2027 10:18:42.066   05 Jun 2027 10:18:49.148             7.082           409.500
       139   05 Jun 2027 10:19:19.150   05 Jun 2027 10:19:19.354             0.204            35.812
       140   05 Jun 2027 10:19:56.885   05 Jun 2027 10:19:58.124             1.239           392.656
       141   05 Jun 2027 10:20:06.161   05 Jun 2027 10:20:08.395             2.234           251.156
       142   05 Jun 2027 10:20:37.703   05 Jun 2027 10:20:39.950             2.247           775.156
       143   05 Jun 2027 10:21:59.001   05 Jun 2027 10:22:05.478             6.477          2470.344
       144   05 Jun 2027 10:22:38.007   05 Jun 2027 10:22:42.649             4.642          1016.531
       145   05 Jun 2027 10:23:35.774   05 Jun 2027 10:23:38.321             2.547           940.281
       146   05 Jun 2027 11:55:19.197   05 Jun 2027 11:55:31.378            12.181          6090.500
       147   05 Jun 2027 11:55:37.393   05 Jun 2027 11:55:40.023             2.630           567.219
       148   05 Jun 2027 11:56:03.875   05 Jun 2027 11:56:03.937             0.062            31.000
       149   05 Jun 2027 11:56:12.085   05 Jun 2027 11:56:14.224             2.139           819.656
       150   05 Jun 2027 11:56:48.288   05 Jun 2027 11:56:58.837            10.549           865.406
       151   05 Jun 2027 11:57:05.219   05 Jun 2027 11:57:11.227             6.008           118.906
       152   05 Jun 2027 11:57:29.504   05 Jun 2027 11:57:31.282             1.778           571.156
       153   05 Jun 2027 11:57:50.792   05 Jun 2027 11:57:50.792             0.000             0.000
       154   05 Jun 2027 11:58:00.152   05 Jun 2027 11:58:01.260             1.108           554.000
       155   05 Jun 2027 11:58:06.543   05 Jun 2027 11:58:07.836             1.293           310.437
       156   05 Jun 2027 11:58:51.752   05 Jun 2027 11:58:55.772             4.020          1315.094
       157   05 Jun 2027 11:59:02.294   05 Jun 2027 11:59:02.294             0.000             0.000
       158   05 Jun 2027 11:59:23.232   05 Jun 2027 11:59:29.432             6.200           762.375
       159   05 Jun 2027 11:59:40.217   05 Jun 2027 11:59:45.316             5.099           337.031
       160   06 Jun 2027 04:18:31.602   06 Jun 2027 04:19:10.554            38.952         19476.000
       161   06 Jun 2027 04:19:34.567   06 Jun 2027 04:22:07.656           153.089         76544.500
       162   06 Jun 2027 05:42:00.152   06 Jun 2027 05:42:57.426            57.274         28637.000
       163   06 Jun 2027 05:43:06.619   06 Jun 2027 05:43:13.602             6.983          3491.500
       164   06 Jun 2027 05:44:58.058   06 Jun 2027 05:45:03.840             5.782          2891.000
       165   06 Jun 2027 07:18:22.328   06 Jun 2027 07:19:13.005            50.677         25160.531
       166   06 Jun 2027 07:19:33.567   06 Jun 2027 07:19:33.567             0.000             0.000
       167   06 Jun 2027 07:19:54.107   06 Jun 2027 07:20:02.462             8.355          1239.750
       168   06 Jun 2027 07:21:03.895   06 Jun 2027 07:21:03.895             0.000             0.000
       169   06 Jun 2027 07:21:33.113   06 Jun 2027 07:21:40.608             7.495          2562.938
       170   06 Jun 2027 07:22:13.487   06 Jun 2027 07:22:15.425             1.938           899.375
       171   06 Jun 2027 08:53:18.376   06 Jun 2027 08:53:27.714             9.338          4010.531
       172   06 Jun 2027 08:53:52.429   06 Jun 2027 08:53:52.934             0.505           252.500
       173   06 Jun 2027 08:55:13.044   06 Jun 2027 08:55:19.520             6.476          2891.656
       174   06 Jun 2027 08:55:59.819   06 Jun 2027 08:56:02.515             2.696          1020.219
       175   06 Jun 2027 08:57:10.109   06 Jun 2027 08:57:15.101             4.992          1745.094
       176   06 Jun 2027 08:59:42.775   06 Jun 2027 08:59:50.648             7.873          3727.812
       177   06 Jun 2027 10:29:37.252   06 Jun 2027 10:29:53.497            16.245          7400.719
       178   06 Jun 2027 10:30:14.910   06 Jun 2027 10:30:16.763             1.853           125.625
       179   06 Jun 2027 10:30:51.077   06 Jun 2027 10:30:52.354             1.277           445.469
       180   06 Jun 2027 10:31:46.660   06 Jun 2027 10:31:53.353             6.693          1328.906
       181   06 Jun 2027 10:32:05.161   06 Jun 2027 10:32:06.286             1.125           350.031
       182   06 Jun 2027 10:32:33.803   06 Jun 2027 10:32:37.432             3.629           779.687
       183   06 Jun 2027 10:33:02.745   06 Jun 2027 10:33:05.925             3.180           756.219
       184   06 Jun 2027 10:33:46.424   06 Jun 2027 10:33:49.217             2.793          1255.156
       185   06 Jun 2027 10:34:15.367   06 Jun 2027 10:34:16.979             1.612           706.656
       186   06 Jun 2027 10:34:27.276   06 Jun 2027 10:34:27.988             0.712           273.594
       187   06 Jun 2027 10:34:42.514   06 Jun 2027 10:34:45.692             3.178           330.313
       188   06 Jun 2027 10:35:14.149   06 Jun 2027 10:35:20.092             5.943           715.437
       189   07 Jun 2027 03:00:00.000   07 Jun 2027 03:01:04.728            64.728         32364.000
       190   07 Jun 2027 04:19:16.658   07 Jun 2027 04:19:54.075            37.417         18708.500
       191   07 Jun 2027 04:19:58.455   07 Jun 2027 04:20:06.814             8.359          4179.500
       192   07 Jun 2027 04:30:28.004   07 Jun 2027 04:32:09.043           101.039         50519.500
       193   07 Jun 2027 04:32:35.057   07 Jun 2027 04:33:24.573            49.516         24758.000
       194   07 Jun 2027 05:53:24.201   07 Jun 2027 05:53:44.647            20.446         10223.000
       195   07 Jun 2027 05:54:52.987   07 Jun 2027 05:54:59.239             6.252          3126.000
       196   07 Jun 2027 05:56:07.336   07 Jun 2027 05:56:12.496             5.160          2580.000
       197   07 Jun 2027 05:56:58.608   07 Jun 2027 05:57:00.404             1.796           898.000
       198   07 Jun 2027 05:57:39.140   07 Jun 2027 05:57:41.767             2.627          1313.500
       199   07 Jun 2027 07:28:41.047   07 Jun 2027 07:29:19.373            38.326         19163.000
       200   07 Jun 2027 07:30:06.323   07 Jun 2027 07:30:16.458            10.135          5067.500
       201   07 Jun 2027 07:30:59.041   07 Jun 2027 07:31:05.313             6.272          1593.406
       202   07 Jun 2027 07:31:17.262   07 Jun 2027 07:31:17.262             0.000             0.000
       203   07 Jun 2027 07:31:50.054   07 Jun 2027 07:31:52.568             2.514          1071.844
       204   07 Jun 2027 07:32:58.329   07 Jun 2027 07:33:01.161             2.832          1416.000
       205   07 Jun 2027 07:33:12.623   07 Jun 2027 07:33:12.623             0.000             0.000
       206   07 Jun 2027 07:33:18.704   07 Jun 2027 07:33:22.360             3.656          1025.219
       207   07 Jun 2027 07:34:22.803   07 Jun 2027 07:34:26.000             3.197          1495.938
       208   07 Jun 2027 09:04:51.814   07 Jun 2027 09:04:56.416             4.602          2301.000
       209   07 Jun 2027 09:05:15.383   07 Jun 2027 09:05:15.383             0.000             0.000
       210   07 Jun 2027 09:07:13.425   07 Jun 2027 09:07:28.748            15.323          5433.031
       211   07 Jun 2027 09:08:18.899   07 Jun 2027 09:08:20.923             2.024           735.469
       212   07 Jun 2027 09:09:03.283   07 Jun 2027 09:09:08.055             4.772          1170.781
       213   07 Jun 2027 09:09:49.319   07 Jun 2027 09:09:52.268             2.949          1159.969
       214   07 Jun 2027 09:10:09.122   07 Jun 2027 09:10:10.116             0.994           336.906
       215   07 Jun 2027 09:10:32.885   07 Jun 2027 09:10:33.565             0.680           340.000
       216   07 Jun 2027 09:10:50.737   07 Jun 2027 09:10:52.446             1.709           678.313
       217   07 Jun 2027 09:11:38.204   07 Jun 2027 09:11:44.189             5.985          1392.656
       218   07 Jun 2027 09:12:09.079   07 Jun 2027 09:12:14.389             5.310           708.406
       219   07 Jun 2027 09:12:24.986   07 Jun 2027 09:12:27.544             2.558            59.156
       220   07 Jun 2027 10:41:56.812   07 Jun 2027 10:42:16.002            19.190          7790.063
       221   07 Jun 2027 10:43:27.874   07 Jun 2027 10:43:33.598             5.724          2233.344
       222   07 Jun 2027 10:43:38.604   07 Jun 2027 10:43:40.038             1.434            24.250
       223   07 Jun 2027 10:43:58.633   07 Jun 2027 10:44:00.598             1.965           298.000
       224   07 Jun 2027 10:44:03.668   07 Jun 2027 10:44:06.046             2.378            38.656
       225   07 Jun 2027 10:44:46.321   07 Jun 2027 10:44:50.622             4.301          1103.375
       226   07 Jun 2027 10:45:03.444   07 Jun 2027 10:45:03.444             0.000             0.000
       227   07 Jun 2027 10:45:29.271   07 Jun 2027 10:45:34.255             4.984          1207.781
       228   07 Jun 2027 10:46:31.914   07 Jun 2027 10:46:35.695             3.781          1767.437
       229   07 Jun 2027 10:46:50.903   07 Jun 2027 10:46:52.153             1.250           198.875
       230   07 Jun 2027 10:47:36.448   07 Jun 2027 10:47:39.125             2.677          1119.031
       231   08 Jun 2027 03:05:56.311   08 Jun 2027 03:07:18.066            81.755         40877.500
       232   08 Jun 2027 03:07:46.789   08 Jun 2027 03:08:41.568            54.779         27389.500
       233   08 Jun 2027 03:10:43.091   08 Jun 2027 03:11:16.994            33.903         16951.500
       234   08 Jun 2027 03:12:06.691   08 Jun 2027 03:12:08.637             1.946           973.000
       235   08 Jun 2027 03:12:14.379   08 Jun 2027 03:12:35.843            21.464         10732.000
       236   08 Jun 2027 04:30:47.725   08 Jun 2027 04:31:19.413            31.688         15844.000
       237   08 Jun 2027 04:32:06.032   08 Jun 2027 04:32:20.370            14.338          7169.000
       238   08 Jun 2027 04:42:31.123   08 Jun 2027 04:43:43.884            72.761         36380.500
       239   08 Jun 2027 06:04:43.678   08 Jun 2027 06:05:25.496            41.818         18472.031
       240   08 Jun 2027 06:05:34.941   08 Jun 2027 06:05:34.941             0.000             0.000
       241   08 Jun 2027 06:05:38.700   08 Jun 2027 06:05:44.318             5.618           358.312
       242   08 Jun 2027 06:07:13.588   08 Jun 2027 06:07:21.257             7.669          2749.719
       243   08 Jun 2027 06:07:34.738   08 Jun 2027 06:07:36.225             1.487           233.938
       244   08 Jun 2027 06:09:01.711   08 Jun 2027 06:09:01.711             0.000             0.000
       245   08 Jun 2027 06:09:38.256   08 Jun 2027 06:09:40.005             1.749           874.500
       246   08 Jun 2027 07:39:47.486   08 Jun 2027 07:40:00.056            12.570          5737.031
       247   08 Jun 2027 07:40:43.356   08 Jun 2027 07:40:44.539             1.183           588.656
       248   08 Jun 2027 07:41:11.607   08 Jun 2027 07:41:16.146             4.539           494.188
       249   08 Jun 2027 07:41:52.151   08 Jun 2027 07:41:55.308             3.157          1125.156
       250   08 Jun 2027 07:42:22.867   08 Jun 2027 07:42:22.867             0.000             0.000
       251   08 Jun 2027 07:43:37.951   08 Jun 2027 07:43:43.970             6.019          2797.938
       252   08 Jun 2027 07:44:58.910   08 Jun 2027 07:45:05.604             6.694          2204.844
       253   08 Jun 2027 07:45:35.346   08 Jun 2027 07:45:35.926             0.580           290.000
       254   08 Jun 2027 07:45:36.648   08 Jun 2027 07:45:36.648             0.000             0.000
       255   08 Jun 2027 07:46:34.393   08 Jun 2027 07:46:39.754             5.361          2294.125
       256   08 Jun 2027 07:47:56.717   08 Jun 2027 07:47:59.707             2.990          1402.562
       257   08 Jun 2027 09:17:10.210   08 Jun 2027 09:17:17.920             7.710          3855.000
       258   08 Jun 2027 09:20:17.925   08 Jun 2027 09:20:30.513            12.588          5631.406
       259   08 Jun 2027 09:20:36.333   08 Jun 2027 09:20:37.958             1.625            33.281
       260   08 Jun 2027 09:21:50.200   08 Jun 2027 09:21:54.519             4.319          1879.188
       261   08 Jun 2027 09:22:51.589   08 Jun 2027 09:23:02.936            11.347          1679.281
       262   08 Jun 2027 09:23:22.870   08 Jun 2027 09:23:24.741             1.871           513.656
       263   08 Jun 2027 09:23:59.821   08 Jun 2027 09:24:03.117             3.296          1009.844
       264   08 Jun 2027 09:24:29.104   08 Jun 2027 09:24:29.323             0.219           109.500
       265   08 Jun 2027 10:53:58.475   08 Jun 2027 10:54:11.539            13.064          6274.938
       266   08 Jun 2027 10:54:59.057   08 Jun 2027 10:55:03.533             4.476          1369.281
       267   08 Jun 2027 10:55:33.918   08 Jun 2027 10:55:35.195             1.277           609.438
       268   08 Jun 2027 10:56:09.994   08 Jun 2027 10:56:12.616             2.622          1049.344
       269   08 Jun 2027 10:56:22.560   08 Jun 2027 10:56:24.409             1.849           310.750
       270   08 Jun 2027 10:56:50.897   08 Jun 2027 10:56:52.055             1.158           579.000
       271   08 Jun 2027 10:57:01.759   08 Jun 2027 10:57:02.785             1.026           331.125
       272   08 Jun 2027 10:58:00.148   08 Jun 2027 10:58:02.725             2.577          1256.094
       273   08 Jun 2027 10:58:49.604   08 Jun 2027 10:58:52.917             3.313          1293.719
       274   08 Jun 2027 10:59:25.169   08 Jun 2027 10:59:28.180             3.011          1007.875
       275   08 Jun 2027 11:00:08.489   08 Jun 2027 11:00:15.136             6.647           935.969
       276   09 Jun 2027 03:18:03.199   09 Jun 2027 03:19:59.813           116.614         58307.000
       277   09 Jun 2027 03:20:13.862   09 Jun 2027 03:21:35.269            81.407         40703.500
       278   09 Jun 2027 03:22:52.275   09 Jun 2027 03:23:19.304            27.029         13514.500
       279   09 Jun 2027 04:42:18.401   09 Jun 2027 04:43:00.214            41.813         20906.500
       280   09 Jun 2027 04:43:52.150   09 Jun 2027 04:43:52.150             0.000             0.000
       281   09 Jun 2027 04:54:31.764   09 Jun 2027 04:55:03.509            31.745         15872.500
       282   09 Jun 2027 06:16:27.612   09 Jun 2027 06:16:59.414            31.802         15492.438
       283   09 Jun 2027 06:18:37.917   09 Jun 2027 06:18:41.805             3.888          1944.000
       284   09 Jun 2027 06:19:45.700   09 Jun 2027 06:19:51.032             5.332          2575.594
       285   09 Jun 2027 06:20:21.727   09 Jun 2027 06:20:22.216             0.489           200.563
       286   09 Jun 2027 06:20:40.064   09 Jun 2027 06:20:41.167             1.103           118.938
       287   09 Jun 2027 06:21:45.484   09 Jun 2027 06:21:49.719             4.235          1437.906
       288   09 Jun 2027 07:51:15.717   09 Jun 2027 07:51:26.572            10.855          4852.813
       289   09 Jun 2027 07:51:50.780   09 Jun 2027 07:51:52.633             1.853           755.187
       290   09 Jun 2027 07:53:06.791   09 Jun 2027 07:53:11.175             4.384          1685.656
       291   09 Jun 2027 07:53:25.605   09 Jun 2027 07:53:25.605             0.000             0.000
       292   09 Jun 2027 07:53:43.088   09 Jun 2027 07:53:47.903             4.815           920.625
       293   09 Jun 2027 07:54:10.445   09 Jun 2027 07:54:13.077             2.632           704.438
       294   09 Jun 2027 07:55:38.277   09 Jun 2027 07:55:44.550             6.273          2096.625
       295   09 Jun 2027 07:56:58.983   09 Jun 2027 07:57:06.786             7.803          2184.625
       296   09 Jun 2027 07:58:08.459   09 Jun 2027 07:58:08.459             0.000             0.000
       297   09 Jun 2027 07:58:09.441   09 Jun 2027 07:58:13.383             3.942          1722.875
       298   09 Jun 2027 07:58:21.654   09 Jun 2027 07:58:25.925             4.271           195.656
       299   09 Jun 2027 07:59:35.851   09 Jun 2027 07:59:40.548             4.697          1558.500
       300   09 Jun 2027 09:29:05.028   09 Jun 2027 09:29:17.675            12.647          5473.656
       301   09 Jun 2027 09:29:59.281   09 Jun 2027 09:30:02.577             3.296          1221.063
       302   09 Jun 2027 09:30:45.459   09 Jun 2027 09:30:47.800             2.341           705.844
       303   09 Jun 2027 09:31:01.014   09 Jun 2027 09:31:02.601             1.587           270.531
       304   09 Jun 2027 09:31:13.980   09 Jun 2027 09:31:15.778             1.798           206.750
       305   09 Jun 2027 09:31:56.250   09 Jun 2027 09:32:01.400             5.150          1210.469
       306   09 Jun 2027 09:32:21.339   09 Jun 2027 09:32:22.596             1.257           467.500
       307   09 Jun 2027 09:32:46.295   09 Jun 2027 09:32:47.907             1.612           735.844
       308   09 Jun 2027 09:33:16.262   09 Jun 2027 09:33:18.981             2.719           623.719
       309   09 Jun 2027 09:34:09.207   09 Jun 2027 09:34:09.207             0.000             0.000
       310   09 Jun 2027 09:34:48.497   09 Jun 2027 09:34:53.740             5.243          2621.500
       311   09 Jun 2027 09:35:08.218   09 Jun 2027 09:35:12.929             4.711           608.531
       312   09 Jun 2027 09:35:39.314   09 Jun 2027 09:35:41.276             1.962           824.531
       313   09 Jun 2027 09:35:49.108   09 Jun 2027 09:35:49.998             0.890            96.938
       314   09 Jun 2027 09:35:58.018   09 Jun 2027 09:36:01.793             3.775           250.625
       315   09 Jun 2027 09:36:25.701   09 Jun 2027 09:36:28.329             2.628           688.188
       316   09 Jun 2027 11:05:49.435   09 Jun 2027 11:05:56.049             6.614          3307.000
       317   09 Jun 2027 11:06:14.833   09 Jun 2027 11:06:25.156            10.323          3980.531
       318   09 Jun 2027 11:07:03.122   09 Jun 2027 11:07:05.355             2.233           298.625
       319   09 Jun 2027 11:07:33.169   09 Jun 2027 11:07:35.098             1.929           857.656
       320   09 Jun 2027 11:07:53.385   09 Jun 2027 11:07:58.183             4.798            30.719
       321   09 Jun 2027 11:08:17.793   09 Jun 2027 11:08:18.799             1.006           265.031
       322   09 Jun 2027 11:08:38.623   09 Jun 2027 11:08:41.476             2.853           619.500
       323   09 Jun 2027 11:10:02.747   09 Jun 2027 11:10:09.339             6.592          2442.469
       324   09 Jun 2027 11:10:41.705   09 Jun 2027 11:10:43.809             2.104           837.344
       325   09 Jun 2027 11:11:12.918   09 Jun 2027 11:11:16.190             3.272           909.656
       326   09 Jun 2027 11:11:41.030   09 Jun 2027 11:11:42.552             1.522           744.875
       327   09 Jun 2027 11:11:51.115   09 Jun 2027 11:11:54.525             3.410           229.750
       328   09 Jun 2027 11:12:35.363   09 Jun 2027 11:12:35.674             0.311           155.500
       329   10 Jun 2027 03:30:15.590   10 Jun 2027 03:33:39.889           204.299        102149.500
       330   10 Jun 2027 04:54:17.139   10 Jun 2027 04:55:03.044            45.905         22952.500
       331   10 Jun 2027 04:56:05.446   10 Jun 2027 04:56:05.446             0.000             0.000
       332   10 Jun 2027 06:30:13.829   10 Jun 2027 06:31:10.508            56.679         28015.625
       333   10 Jun 2027 06:31:47.472   10 Jun 2027 06:31:50.309             2.837          1154.875
       334   10 Jun 2027 06:32:48.632   10 Jun 2027 06:32:48.943             0.311           155.500
       335   10 Jun 2027 06:32:56.229   10 Jun 2027 06:33:00.544             4.315          1894.781
       336   10 Jun 2027 06:33:09.206   10 Jun 2027 06:33:09.206             0.000             0.000
       337   10 Jun 2027 06:33:18.895   10 Jun 2027 06:33:20.834             1.939           391.062
       338   10 Jun 2027 08:04:04.528   10 Jun 2027 08:04:19.431            14.903          4181.656
       339   10 Jun 2027 08:05:34.174   10 Jun 2027 08:05:35.178             1.004           493.875
       340   10 Jun 2027 08:06:16.629   10 Jun 2027 08:06:17.817             1.188           404.187
       341   10 Jun 2027 08:07:24.580   10 Jun 2027 08:07:28.065             3.485          1561.219
       342   10 Jun 2027 08:07:31.447   10 Jun 2027 08:07:33.498             2.051           104.031
       343   10 Jun 2027 08:08:43.967   10 Jun 2027 08:08:48.829             4.862          2057.594
       344   10 Jun 2027 08:09:17.389   10 Jun 2027 08:09:19.086             1.697           591.750
       345   10 Jun 2027 08:09:21.917   10 Jun 2027 08:09:22.869             0.952             9.312
       346   10 Jun 2027 08:11:04.816   10 Jun 2027 08:11:10.371             5.555          2662.937
       347   10 Jun 2027 08:11:50.568   10 Jun 2027 08:11:53.207             2.639          1256.156
       348   10 Jun 2027 09:41:11.635   10 Jun 2027 09:41:25.844            14.209          6299.000
       349   10 Jun 2027 09:41:58.595   10 Jun 2027 09:41:59.290             0.695           211.406
       350   10 Jun 2027 09:43:52.769   10 Jun 2027 09:43:52.769             0.000             0.000
       351   10 Jun 2027 09:45:16.403   10 Jun 2027 09:45:32.336            15.933          5886.625
       352   10 Jun 2027 09:46:23.538   10 Jun 2027 09:46:27.172             3.634          1219.969
       353   10 Jun 2027 09:47:36.563   10 Jun 2027 09:47:39.686             3.123          1561.500
       354   10 Jun 2027 09:47:43.739   10 Jun 2027 09:47:50.262             6.523           733.625
       355   10 Jun 2027 09:48:00.262   10 Jun 2027 09:48:02.738             2.476            35.437
       356   10 Jun 2027 11:18:14.631   10 Jun 2027 11:18:29.873            15.242          7077.719
       357   10 Jun 2027 11:18:50.248   10 Jun 2027 11:18:56.452             6.204           636.719
       358   10 Jun 2027 11:20:13.900   10 Jun 2027 11:20:17.468             3.568          1784.000
       359   10 Jun 2027 11:20:20.904   10 Jun 2027 11:20:22.258             1.354           490.312
       360   10 Jun 2027 11:21:19.421   10 Jun 2027 11:21:25.221             5.800          1764.625
       361   10 Jun 2027 11:21:43.608   10 Jun 2027 11:21:51.721             8.113           574.594
       362   10 Jun 2027 11:22:17.864   10 Jun 2027 11:22:20.568             2.704           816.969
       363   10 Jun 2027 11:23:04.733   10 Jun 2027 11:23:07.687             2.954          1113.781
       364   10 Jun 2027 11:23:37.511   10 Jun 2027 11:23:43.108             5.597           486.469
       365   10 Jun 2027 11:24:04.483   10 Jun 2027 11:24:06.524             2.041           667.969
       366   11 Jun 2027 03:42:50.274   11 Jun 2027 03:46:07.514           197.240         98620.000
       367   11 Jun 2027 05:06:11.497   11 Jun 2027 05:07:05.787            54.290         27145.000
       368   11 Jun 2027 06:42:35.710   11 Jun 2027 06:43:29.884            54.174         26444.906
       369   11 Jun 2027 06:44:02.284   11 Jun 2027 06:44:08.845             6.561           493.250
       370   11 Jun 2027 06:44:34.993   11 Jun 2027 06:44:35.677             0.684           191.906
       371   11 Jun 2027 06:44:51.742   11 Jun 2027 06:44:53.093             1.351           495.750
       372   11 Jun 2027 06:45:08.602   11 Jun 2027 06:45:11.006             2.404           458.969
       373   11 Jun 2027 06:45:34.708   11 Jun 2027 06:45:34.708             0.000             0.000
       374   11 Jun 2027 08:16:23.618   11 Jun 2027 08:16:34.323            10.705          4707.594
       375   11 Jun 2027 08:17:42.692   11 Jun 2027 08:17:45.426             2.734           828.375
       376   11 Jun 2027 08:18:25.188   11 Jun 2027 08:18:26.634             1.446           599.875
       377   11 Jun 2027 08:18:33.439   11 Jun 2027 08:18:33.439             0.000             0.000
       378   11 Jun 2027 08:19:26.528   11 Jun 2027 08:19:36.621            10.093          1691.969
       379   11 Jun 2027 08:20:33.161   11 Jun 2027 08:20:44.372            11.211          1742.594
       380   11 Jun 2027 08:21:13.117   11 Jun 2027 08:21:15.516             2.399           647.156
       381   11 Jun 2027 08:22:06.131   11 Jun 2027 08:22:12.408             6.277          1581.719
       382   11 Jun 2027 08:22:39.462   11 Jun 2027 08:22:43.905             4.443           109.719
       383   11 Jun 2027 08:23:04.321   11 Jun 2027 08:23:07.954             3.633            98.312
       384   11 Jun 2027 08:23:35.917   11 Jun 2027 08:23:44.079             8.162           873.844
       385   11 Jun 2027 08:24:25.050   11 Jun 2027 08:24:32.085             7.035          1181.844
       386   11 Jun 2027 09:53:38.081   11 Jun 2027 09:53:51.626            13.545          6474.187
       387   11 Jun 2027 09:54:10.423   11 Jun 2027 09:54:12.559             2.136            86.937
       388   11 Jun 2027 09:54:26.739   11 Jun 2027 09:54:29.899             3.160           122.250
       389   11 Jun 2027 09:55:54.479   11 Jun 2027 09:56:03.637             9.158          2204.469
       390   11 Jun 2027 09:56:30.609   11 Jun 2027 09:56:35.068             4.459           670.281
       391   11 Jun 2027 09:56:49.694   11 Jun 2027 09:56:51.668             1.974           297.156
       392   11 Jun 2027 09:57:00.341   11 Jun 2027 09:57:01.117             0.776           271.031
       393   11 Jun 2027 09:58:29.843   11 Jun 2027 09:58:35.701             5.858          2228.344
       394   11 Jun 2027 09:59:11.415   11 Jun 2027 09:59:15.563             4.148           859.594
       395   11 Jun 2027 09:59:53.259   11 Jun 2027 09:59:56.309             3.050           927.469
       396   11 Jun 2027 11:30:34.886   11 Jun 2027 11:30:54.440            19.554          8097.375
       397   11 Jun 2027 11:31:41.496   11 Jun 2027 11:31:43.854             2.358          1018.750
       398   11 Jun 2027 11:33:19.421   11 Jun 2027 11:33:31.637            12.216          2765.312
       399   11 Jun 2027 11:33:37.487   11 Jun 2027 11:33:39.003             1.516           182.812
       400   11 Jun 2027 11:34:04.818   11 Jun 2027 11:34:09.128             4.310           806.719
       401   11 Jun 2027 11:34:20.115   11 Jun 2027 11:34:29.801             9.686           343.344
       402   11 Jun 2027 11:34:39.940   11 Jun 2027 11:34:42.207             2.267           232.281
       403   11 Jun 2027 11:34:54.436   11 Jun 2027 11:34:54.872             0.436           218.000
       404   11 Jun 2027 11:35:11.237   11 Jun 2027 11:35:14.322             3.085           675.563
       405   11 Jun 2027 11:35:49.400   11 Jun 2027 11:35:53.356             3.956          1096.188
       406   12 Jun 2027 03:54:28.174   12 Jun 2027 03:58:03.241           215.067        107533.500
       407   12 Jun 2027 05:17:58.758   12 Jun 2027 05:19:08.414            69.656         34828.000
       408   12 Jun 2027 06:54:38.700   12 Jun 2027 06:55:14.050            35.350         17669.313
       409   12 Jun 2027 06:55:50.773   12 Jun 2027 06:55:54.006             3.233           869.500
       410   12 Jun 2027 06:56:45.706   12 Jun 2027 06:56:49.963             4.257           889.219
       411   12 Jun 2027 06:57:53.033   12 Jun 2027 06:57:57.210             4.177          1940.063
       412   12 Jun 2027 08:29:37.980   12 Jun 2027 08:29:47.423             9.443          4279.812
       413   12 Jun 2027 08:30:21.279   12 Jun 2027 08:30:23.653             2.374           751.969
       414   12 Jun 2027 08:30:42.964   12 Jun 2027 08:30:42.964             0.000             0.000
       415   12 Jun 2027 08:30:53.569   12 Jun 2027 08:30:55.632             2.063           912.250
       416   12 Jun 2027 08:32:06.610   12 Jun 2027 08:32:12.555             5.945          1201.750
       417   12 Jun 2027 08:33:23.094   12 Jun 2027 08:33:26.154             3.060           873.750
       418   12 Jun 2027 08:33:36.510   12 Jun 2027 08:33:37.368             0.858            84.781
       419   12 Jun 2027 08:33:57.039   12 Jun 2027 08:33:59.900             2.861           614.719
       420   12 Jun 2027 08:34:14.494   12 Jun 2027 08:34:20.125             5.631           456.063
       421   12 Jun 2027 08:34:39.407   12 Jun 2027 08:34:41.240             1.833           572.062
       422   12 Jun 2027 08:34:53.478   12 Jun 2027 08:34:54.909             1.431           382.438
       423   12 Jun 2027 08:35:20.210   12 Jun 2027 08:35:26.239             6.029           790.656
       424   12 Jun 2027 08:35:37.090   12 Jun 2027 08:35:37.090             0.000             0.000
       425   12 Jun 2027 08:36:15.708   12 Jun 2027 08:36:17.970             2.262          1131.000
       426   12 Jun 2027 08:36:27.152   12 Jun 2027 08:36:30.408             3.256           615.625
       427   12 Jun 2027 10:05:45.783   12 Jun 2027 10:06:04.586            18.803          8543.031
       428   12 Jun 2027 10:06:25.081   12 Jun 2027 10:06:25.946             0.865           283.750
       429   12 Jun 2027 10:06:56.735   12 Jun 2027 10:07:00.220             3.485           947.625
       430   12 Jun 2027 10:07:19.739   12 Jun 2027 10:07:23.541             3.802           606.188
       431   12 Jun 2027 10:08:26.147   12 Jun 2027 10:08:28.238             2.091           831.750
       432   12 Jun 2027 10:08:38.511   12 Jun 2027 10:08:40.747             2.236           321.031
       433   12 Jun 2027 10:08:56.470   12 Jun 2027 10:08:58.389             1.919           491.344
       434   12 Jun 2027 10:09:58.170   12 Jun 2027 10:10:00.044             1.874           635.750
       435   12 Jun 2027 10:10:33.088   12 Jun 2027 10:10:36.757             3.669           794.094
       436   12 Jun 2027 10:11:39.255   12 Jun 2027 10:11:46.947             7.692          1539.781
       437   12 Jun 2027 10:12:19.520   12 Jun 2027 10:12:21.681             2.161          1017.906
       438   12 Jun 2027 11:43:29.962   12 Jun 2027 11:43:46.959            16.997          8498.500
       439   12 Jun 2027 11:44:04.454   12 Jun 2027 11:44:04.454             0.000             0.000
       440   12 Jun 2027 11:44:19.797   12 Jun 2027 11:44:22.948             3.151          1190.875
       441   12 Jun 2027 11:45:42.379   12 Jun 2027 11:45:50.575             8.196          2442.656
       442   12 Jun 2027 11:46:56.927   12 Jun 2027 11:46:59.146             2.219          1109.500
       443   12 Jun 2027 11:47:27.564   12 Jun 2027 11:47:33.947             6.383          1699.375
       444   12 Jun 2027 11:47:50.481   12 Jun 2027 11:47:53.265             2.784           516.687
       445   13 Jun 2027 04:06:50.949   13 Jun 2027 04:07:22.088            31.139         15569.500
       446   13 Jun 2027 04:07:40.560   13 Jun 2027 04:10:32.086           171.526         85763.000
       447   13 Jun 2027 05:30:13.342   13 Jun 2027 05:31:21.030            67.688         33844.000
       448   13 Jun 2027 05:32:51.104   13 Jun 2027 05:32:51.104             0.000             0.000
       449   13 Jun 2027 05:33:09.245   13 Jun 2027 05:33:16.589             7.344          3672.000
       450   13 Jun 2027 07:06:45.178   13 Jun 2027 07:07:23.518            38.340         18737.687
       451   13 Jun 2027 07:08:09.174   13 Jun 2027 07:08:16.823             7.649          1259.281
       452   13 Jun 2027 07:08:54.554   13 Jun 2027 07:08:57.151             2.597          1179.094
       453   13 Jun 2027 07:09:21.865   13 Jun 2027 07:09:24.124             2.259           772.312
       454   13 Jun 2027 07:09:24.845   13 Jun 2027 07:09:25.079             0.234            10.312
       455   13 Jun 2027 08:41:55.521   13 Jun 2027 08:42:07.543            12.022          4878.875
       456   13 Jun 2027 08:42:13.945   13 Jun 2027 08:42:14.789             0.844           186.281
       457   13 Jun 2027 08:42:26.163   13 Jun 2027 08:42:31.401             5.238           349.500
       458   13 Jun 2027 08:44:17.929   13 Jun 2027 08:44:22.337             4.408          1894.344
       459   13 Jun 2027 08:44:59.661   13 Jun 2027 08:45:05.043             5.382           863.656
       460   13 Jun 2027 08:45:25.662   13 Jun 2027 08:45:28.303             2.641           445.406
       461   13 Jun 2027 08:47:12.152   13 Jun 2027 08:47:19.417             7.265          2322.031
       462   13 Jun 2027 08:47:50.077   13 Jun 2027 08:47:51.480             1.403           643.125
       463   13 Jun 2027 08:48:27.522   13 Jun 2027 08:48:30.658             3.136          1015.406
       464   13 Jun 2027 10:18:18.877   13 Jun 2027 10:18:34.839            15.962          7023.125
       465   13 Jun 2027 10:18:56.212   13 Jun 2027 10:18:58.823             2.611           360.875
       466   13 Jun 2027 10:19:33.601   13 Jun 2027 10:19:38.222             4.621          1057.281
       467   13 Jun 2027 10:20:02.303   13 Jun 2027 10:20:09.189             6.886           752.531
       468   13 Jun 2027 10:20:25.121   13 Jun 2027 10:20:29.133             4.012           439.563
       469   13 Jun 2027 10:20:39.749   13 Jun 2027 10:20:41.390             1.641           331.750
       470   13 Jun 2027 10:20:54.711   13 Jun 2027 10:20:55.394             0.683            70.687
       471   13 Jun 2027 10:20:57.230   13 Jun 2027 10:21:02.831             5.601            57.375
       472   13 Jun 2027 10:22:15.561   13 Jun 2027 10:22:18.959             3.398          1689.344
       473   13 Jun 2027 10:22:55.222   13 Jun 2027 10:22:57.618             2.396          1079.000
       474   13 Jun 2027 10:23:50.761   13 Jun 2027 10:23:55.791             5.030           924.906
       475   13 Jun 2027 11:55:35.888   13 Jun 2027 11:55:46.824            10.936          5468.000
       476   13 Jun 2027 11:55:51.312   13 Jun 2027 11:55:54.234             2.922          1392.313
       477   13 Jun 2027 11:56:44.707   13 Jun 2027 11:56:47.417             2.710          1355.000
       478   13 Jun 2027 11:57:27.184   13 Jun 2027 11:57:29.678             2.494          1247.000
       479   13 Jun 2027 11:57:34.533   13 Jun 2027 11:57:38.283             3.750           369.719
       480   13 Jun 2027 11:58:50.711   13 Jun 2027 11:58:54.789             4.078          2039.000
       481   13 Jun 2027 11:58:55.882   13 Jun 2027 11:58:58.858             2.976           145.906
