uniorb/output/strategy_2/Camera/Camera_KinoSat_111309.txt

KinoSat_111309
-------------------------
    Access    *     Start Time (UTCG)     *     Stop Time (UTCG)  *   Duration (s) *   Data (Mbytes)
         1   01 Jun 2027 04:14:35.621   01 Jun 2027 04:15:01.062            25.441         12720.500
         2   01 Jun 2027 04:25:30.032   01 Jun 2027 04:28:57.715           207.683        103841.500
         3   01 Jun 2027 05:49:27.424   01 Jun 2027 05:50:08.280            40.856         20428.000
         4   01 Jun 2027 05:50:23.507   01 Jun 2027 05:50:31.226             7.719          3859.500
         5   01 Jun 2027 07:25:12.219   01 Jun 2027 07:28:06.708           174.489         87244.500
         6   01 Jun 2027 07:28:44.269   01 Jun 2027 07:29:18.055            33.786         16893.000
         7   01 Jun 2027 08:59:55.874   01 Jun 2027 09:02:13.308           137.434         68717.000
         8   01 Jun 2027 09:05:54.468   01 Jun 2027 09:06:25.110            30.642         15321.000
         9   01 Jun 2027 09:06:39.029   01 Jun 2027 09:06:39.508             0.479           239.500
        10   01 Jun 2027 09:06:50.610   01 Jun 2027 09:06:54.684             4.074          2037.000
        11   01 Jun 2027 10:36:43.435   01 Jun 2027 10:38:40.775           117.340         58670.000
        12   01 Jun 2027 10:38:50.564   01 Jun 2027 10:39:17.922            27.358         13679.000
        13   01 Jun 2027 10:40:48.931   01 Jun 2027 10:40:53.803             4.872          2436.000
        14   01 Jun 2027 10:42:37.051   01 Jun 2027 10:42:41.609             4.558          2279.000
        15   02 Jun 2027 03:00:45.722   02 Jun 2027 03:01:11.758            26.036         13018.000
        16   02 Jun 2027 03:01:14.879   02 Jun 2027 03:01:24.153             9.274          4637.000
        17   02 Jun 2027 03:01:39.095   02 Jun 2027 03:02:01.732            22.637         11318.500
        18   02 Jun 2027 03:03:02.802   02 Jun 2027 03:03:37.542            34.740         17370.000
        19   02 Jun 2027 03:03:45.618   02 Jun 2027 03:03:53.468             7.850          3925.000
        20   02 Jun 2027 03:04:45.170   02 Jun 2027 03:04:45.170             0.000             0.000
        21   02 Jun 2027 03:05:00.826   02 Jun 2027 03:05:28.201            27.375         13687.500
        22   02 Jun 2027 03:06:51.704   02 Jun 2027 03:07:15.789            24.085         12042.500
        23   02 Jun 2027 04:25:50.865   02 Jun 2027 04:26:49.720            58.855         29427.500
        24   02 Jun 2027 04:37:30.247   02 Jun 2027 04:38:30.177            59.930         29965.000
        25   02 Jun 2027 06:00:03.258   02 Jun 2027 06:00:44.570            41.312         20656.000
        26   02 Jun 2027 06:01:47.930   02 Jun 2027 06:02:14.906            26.976         13488.000
        27   02 Jun 2027 06:03:43.818   02 Jun 2027 06:03:43.818             0.000             0.000
        28   02 Jun 2027 07:35:06.978   02 Jun 2027 07:36:28.065            81.087         40543.500
        29   02 Jun 2027 07:36:56.758   02 Jun 2027 07:38:17.530            80.772         40386.000
        30   02 Jun 2027 07:39:22.452   02 Jun 2027 07:39:37.986            15.534          7767.000
        31   02 Jun 2027 09:12:04.131   02 Jun 2027 09:13:58.834           114.703         54747.001
        32   02 Jun 2027 09:15:19.898   02 Jun 2027 09:15:19.898             0.000             0.000
        33   02 Jun 2027 09:16:12.822   02 Jun 2027 09:16:21.361             8.539          3732.344
        34   02 Jun 2027 09:17:00.907   02 Jun 2027 09:17:04.662             3.755           882.094
        35   02 Jun 2027 09:17:08.994   02 Jun 2027 09:17:12.319             3.325             4.469
        36   02 Jun 2027 09:17:34.625   02 Jun 2027 09:17:38.933             4.308           602.344
        37   02 Jun 2027 09:17:53.886   02 Jun 2027 09:17:57.251             3.365           467.281
        38   02 Jun 2027 09:18:12.320   02 Jun 2027 09:18:13.911             1.591           470.906
        39   02 Jun 2027 09:18:18.742   02 Jun 2027 09:18:19.238             0.496           114.406
        40   02 Jun 2027 09:18:28.742   02 Jun 2027 09:18:32.439             3.697           273.906
        41   02 Jun 2027 09:18:36.405   02 Jun 2027 09:18:38.379             1.974             6.938
        42   02 Jun 2027 09:19:18.761   02 Jun 2027 09:19:21.335             2.574          1261.938
        43   02 Jun 2027 10:49:02.849   02 Jun 2027 10:49:19.177            16.328          8164.000
        44   02 Jun 2027 10:49:56.944   02 Jun 2027 10:50:01.056             4.112          1673.500
        45   02 Jun 2027 10:51:32.631   02 Jun 2027 10:51:37.828             5.197          2120.219
        46   02 Jun 2027 10:52:07.131   02 Jun 2027 10:52:09.258             2.127           915.719
        47   02 Jun 2027 10:53:01.534   02 Jun 2027 10:53:07.942             6.408          1166.781
        48   02 Jun 2027 10:53:51.666   02 Jun 2027 10:53:57.416             5.750          1366.375
        49   02 Jun 2027 10:54:38.824   02 Jun 2027 10:54:39.081             0.257           128.500
        50   02 Jun 2027 10:55:02.204   02 Jun 2027 10:55:07.465             5.261          1888.094
        51   03 Jun 2027 03:13:01.594   03 Jun 2027 03:14:35.709            94.115         47057.500
        52   03 Jun 2027 03:14:41.391   03 Jun 2027 03:16:21.179            99.788         49894.000
        53   03 Jun 2027 03:18:23.599   03 Jun 2027 03:18:23.599             0.000             0.000
        54   03 Jun 2027 03:18:41.890   03 Jun 2027 03:19:01.386            19.496          9748.000
        55   03 Jun 2027 04:37:12.199   03 Jun 2027 04:37:39.733            27.534         13767.000
        56   03 Jun 2027 04:38:53.987   03 Jun 2027 04:39:12.594            18.607          9303.500
        57   03 Jun 2027 04:49:28.024   03 Jun 2027 04:50:23.661            55.637         27818.500
        58   03 Jun 2027 06:11:29.500   03 Jun 2027 06:12:01.392            31.892         15918.281
        59   03 Jun 2027 06:13:36.297   03 Jun 2027 06:13:40.446             4.149          2074.500
        60   03 Jun 2027 06:15:13.002   03 Jun 2027 06:15:22.826             9.824          3738.219
        61   03 Jun 2027 06:15:38.321   03 Jun 2027 06:15:41.579             3.258           484.219
        62   03 Jun 2027 06:16:16.192   03 Jun 2027 06:16:21.139             4.947           972.000
        63   03 Jun 2027 07:46:31.835   03 Jun 2027 07:46:42.711            10.876          4412.156
        64   03 Jun 2027 07:47:11.190   03 Jun 2027 07:47:13.878             2.688           889.969
        65   03 Jun 2027 07:48:17.124   03 Jun 2027 07:48:19.635             2.511           754.187
        66   03 Jun 2027 07:49:45.274   03 Jun 2027 07:49:51.930             6.656          2591.656
        67   03 Jun 2027 07:50:21.259   03 Jun 2027 07:50:26.023             4.764           916.531
        68   03 Jun 2027 07:51:54.953   03 Jun 2027 07:52:01.157             6.204          2399.188
        69   03 Jun 2027 07:53:14.402   03 Jun 2027 07:53:19.771             5.369          2039.750
        70   03 Jun 2027 07:54:58.384   03 Jun 2027 07:55:07.449             9.065          2737.625
        71   03 Jun 2027 09:24:08.159   03 Jun 2027 09:24:18.639            10.480          5222.750
        72   03 Jun 2027 09:26:12.839   03 Jun 2027 09:26:12.839             0.000             0.000
        73   03 Jun 2027 09:27:12.975   03 Jun 2027 09:27:24.090            11.115          5448.000
        74   03 Jun 2027 09:27:47.718   03 Jun 2027 09:27:49.706             1.988           738.375
        75   03 Jun 2027 09:28:05.128   03 Jun 2027 09:28:05.790             0.662           148.813
        76   03 Jun 2027 09:29:03.446   03 Jun 2027 09:29:08.021             4.575          1532.156
        77   03 Jun 2027 09:29:59.566   03 Jun 2027 09:30:01.528             1.962           981.000
        78   03 Jun 2027 09:30:44.713   03 Jun 2027 09:30:48.170             3.457          1643.187
        79   03 Jun 2027 11:00:52.054   03 Jun 2027 11:01:09.773            17.719          8734.875
        80   03 Jun 2027 11:01:35.184   03 Jun 2027 11:01:38.668             3.484           713.312
        81   03 Jun 2027 11:02:22.675   03 Jun 2027 11:02:33.297            10.622           293.750
        82   03 Jun 2027 11:03:39.355   03 Jun 2027 11:03:43.848             4.493          2064.313
        83   03 Jun 2027 11:03:54.695   03 Jun 2027 11:03:55.667             0.972           338.969
        84   03 Jun 2027 11:04:15.283   03 Jun 2027 11:04:15.283             0.000             0.000
        85   03 Jun 2027 11:05:02.155   03 Jun 2027 11:05:05.668             3.513          1756.500
        86   03 Jun 2027 11:05:50.680   03 Jun 2027 11:06:03.809            13.129          1661.219
        87   03 Jun 2027 11:06:26.407   03 Jun 2027 11:06:28.817             2.410           259.906
        88   03 Jun 2027 11:07:01.225   03 Jun 2027 11:07:01.655             0.430           215.000
        89   03 Jun 2027 11:07:13.281   03 Jun 2027 11:07:15.931             2.650          1152.656
        90   03 Jun 2027 11:07:28.714   03 Jun 2027 11:07:32.581             3.867            67.937
        91   04 Jun 2027 03:25:07.685   04 Jun 2027 03:28:11.350           183.665         91832.500
        92   04 Jun 2027 03:28:42.603   04 Jun 2027 03:28:46.377             3.774          1887.000
        93   04 Jun 2027 03:30:28.308   04 Jun 2027 03:30:28.308             0.000             0.000
        94   04 Jun 2027 03:30:31.322   04 Jun 2027 03:30:52.861            21.539         10769.500
        95   04 Jun 2027 03:31:42.488   04 Jun 2027 03:31:55.275            12.787          6393.500
        96   04 Jun 2027 04:49:19.483   04 Jun 2027 04:49:33.293            13.810          6905.000
        97   04 Jun 2027 04:50:02.844   04 Jun 2027 04:50:09.809             6.965          3482.500
        98   04 Jun 2027 04:50:53.475   04 Jun 2027 04:51:08.104            14.629          7314.500
        99   04 Jun 2027 05:01:51.010   04 Jun 2027 05:01:55.202             4.192          2096.000
       100   04 Jun 2027 06:23:09.201   04 Jun 2027 06:24:08.632            59.431         29715.500
       101   04 Jun 2027 06:24:53.341   04 Jun 2027 06:24:58.536             5.195          1640.656
       102   04 Jun 2027 06:25:54.013   04 Jun 2027 06:25:54.013             0.000             0.000
       103   04 Jun 2027 06:26:04.824   04 Jun 2027 06:26:10.858             6.034          1976.938
       104   04 Jun 2027 06:27:40.278   04 Jun 2027 06:27:49.284             9.006          2794.375
       105   04 Jun 2027 06:28:05.949   04 Jun 2027 06:28:06.948             0.999           335.656
       106   04 Jun 2027 07:58:02.272   04 Jun 2027 07:58:15.781            13.509          5576.750
       107   04 Jun 2027 07:58:33.441   04 Jun 2027 07:58:34.351             0.910           268.375
       108   04 Jun 2027 08:00:22.973   04 Jun 2027 08:00:26.453             3.480           148.094
       109   04 Jun 2027 08:02:38.255   04 Jun 2027 08:02:47.692             9.437          3540.437
       110   04 Jun 2027 08:03:59.377   04 Jun 2027 08:04:11.850            12.473          2145.187
       111   04 Jun 2027 08:05:04.620   04 Jun 2027 08:05:08.057             3.437          1532.125
       112   04 Jun 2027 08:05:32.797   04 Jun 2027 08:05:32.797             0.000             0.000
       113   04 Jun 2027 08:05:34.120   04 Jun 2027 08:05:38.304             4.184           703.625
       114   04 Jun 2027 08:07:01.105   04 Jun 2027 08:07:06.537             5.432          2010.750
       115   04 Jun 2027 09:36:06.764   04 Jun 2027 09:36:20.780            14.016          6267.969
       116   04 Jun 2027 09:37:02.493   04 Jun 2027 09:37:02.493             0.000             0.000
       117   04 Jun 2027 09:38:11.548   04 Jun 2027 09:38:19.376             7.828          3088.062
       118   04 Jun 2027 09:39:23.333   04 Jun 2027 09:39:25.488             2.155           806.875
       119   04 Jun 2027 09:39:44.283   04 Jun 2027 09:39:44.763             0.480           240.000
       120   04 Jun 2027 09:40:20.439   04 Jun 2027 09:40:25.093             4.654          1462.219
       121   04 Jun 2027 09:40:55.688   04 Jun 2027 09:41:00.352             4.664           887.469
       122   04 Jun 2027 09:41:38.247   04 Jun 2027 09:41:42.119             3.872           957.844
       123   04 Jun 2027 09:41:44.354   04 Jun 2027 09:41:45.671             1.317            69.844
       124   04 Jun 2027 09:42:08.388   04 Jun 2027 09:42:10.531             2.143           669.094
       125   04 Jun 2027 11:13:03.178   04 Jun 2027 11:13:17.221            14.043          6214.281
       126   04 Jun 2027 11:13:52.957   04 Jun 2027 11:13:57.811             4.854           505.250
       127   04 Jun 2027 11:14:07.031   04 Jun 2027 11:14:13.588             6.557           228.219
       128   04 Jun 2027 11:14:54.395   04 Jun 2027 11:14:55.319             0.924           361.187
       129   04 Jun 2027 11:15:31.763   04 Jun 2027 11:15:36.994             5.231           601.094
       130   04 Jun 2027 11:15:47.906   04 Jun 2027 11:15:49.313             1.407           341.000
       131   04 Jun 2027 11:15:53.892   04 Jun 2027 11:15:56.271             2.379           143.094
       132   04 Jun 2027 11:17:02.838   04 Jun 2027 11:17:10.257             7.419          2080.219
       133   04 Jun 2027 11:18:35.549   04 Jun 2027 11:18:38.955             3.406          1703.000
       134   04 Jun 2027 11:18:51.248   04 Jun 2027 11:18:54.147             2.899           594.531
       135   04 Jun 2027 11:19:15.146   04 Jun 2027 11:19:23.920             8.774           479.844
       136   04 Jun 2027 11:19:28.264   04 Jun 2027 11:19:29.283             1.019           115.438
       137   05 Jun 2027 03:37:32.952   05 Jun 2027 03:40:09.214           156.262         78131.000
       138   05 Jun 2027 03:40:39.301   05 Jun 2027 03:41:29.252            49.951         24975.500
       139   05 Jun 2027 03:41:40.051   05 Jun 2027 03:42:20.093            40.042         20021.000
       140   05 Jun 2027 05:01:16.976   05 Jun 2027 05:01:51.150            34.174         17087.000
       141   05 Jun 2027 05:02:05.628   05 Jun 2027 05:02:14.474             8.846          4423.000
       142   05 Jun 2027 06:37:28.125   05 Jun 2027 06:38:03.974            35.849         16120.500
       143   05 Jun 2027 06:38:21.184   05 Jun 2027 06:38:22.202             1.018           477.750
       144   05 Jun 2027 06:38:58.059   05 Jun 2027 06:38:59.895             1.836           681.375
       145   05 Jun 2027 06:39:29.115   05 Jun 2027 06:39:32.876             3.761           160.656
       146   05 Jun 2027 06:39:47.499   05 Jun 2027 06:39:54.980             7.481           336.063
       147   05 Jun 2027 06:40:04.873   05 Jun 2027 06:40:08.267             3.394           299.656
       148   05 Jun 2027 06:40:34.692   05 Jun 2027 06:40:34.692             0.000             0.000
       149   05 Jun 2027 06:40:37.382   05 Jun 2027 06:40:39.858             2.476           909.844
       150   05 Jun 2027 08:11:01.560   05 Jun 2027 08:11:22.817            21.257          5667.156
       151   05 Jun 2027 08:12:19.589   05 Jun 2027 08:12:21.296             1.707            25.906
       152   05 Jun 2027 08:13:27.894   05 Jun 2027 08:13:32.293             4.399          1398.594
       153   05 Jun 2027 08:14:25.664   05 Jun 2027 08:14:32.825             7.161          1546.250
       154   05 Jun 2027 08:15:38.996   05 Jun 2027 08:15:44.245             5.249          1912.156
       155   05 Jun 2027 08:16:18.596   05 Jun 2027 08:16:23.819             5.223           628.906
       156   05 Jun 2027 08:16:33.048   05 Jun 2027 08:16:34.947             1.899           173.469
       157   05 Jun 2027 08:17:00.065   05 Jun 2027 08:17:02.687             2.622           660.813
       158   05 Jun 2027 08:18:11.505   05 Jun 2027 08:18:14.625             3.120          1560.000
       159   05 Jun 2027 08:18:37.420   05 Jun 2027 08:18:43.621             6.201           828.844
       160   05 Jun 2027 08:19:26.122   05 Jun 2027 08:19:30.282             4.160          1234.000
       161   05 Jun 2027 09:48:29.074   05 Jun 2027 09:48:42.475            13.401          6195.438
       162   05 Jun 2027 09:49:47.989   05 Jun 2027 09:49:48.982             0.993           259.969
       163   05 Jun 2027 09:52:16.371   05 Jun 2027 09:52:16.371             0.000             0.000
       164   05 Jun 2027 09:52:44.254   05 Jun 2027 09:52:55.095            10.841          4733.625
       165   05 Jun 2027 09:52:59.796   05 Jun 2027 09:53:02.186             2.390           116.594
       166   05 Jun 2027 09:53:17.671   05 Jun 2027 09:53:17.940             0.269           134.500
       167   05 Jun 2027 09:53:18.854   05 Jun 2027 09:53:19.590             0.736           210.562
       168   05 Jun 2027 09:53:32.213   05 Jun 2027 09:53:32.705             0.492           158.344
       169   05 Jun 2027 09:53:53.533   05 Jun 2027 09:53:54.930             1.397           490.781
       170   05 Jun 2027 09:54:28.178   05 Jun 2027 09:54:37.540             9.362           894.000
       171   05 Jun 2027 09:54:45.606   05 Jun 2027 09:54:46.752             1.146           146.000
       172   05 Jun 2027 09:54:56.135   05 Jun 2027 09:55:02.049             5.914           293.219
       173   05 Jun 2027 11:25:28.778   05 Jun 2027 11:25:39.837            11.059          5529.500
       174   05 Jun 2027 11:25:43.831   05 Jun 2027 11:25:48.181             4.350           407.094
       175   05 Jun 2027 11:26:59.428   05 Jun 2027 11:27:00.554             1.126           563.000
       176   05 Jun 2027 11:27:19.994   05 Jun 2027 11:27:26.050             6.056          1790.875
       177   05 Jun 2027 11:28:30.579   05 Jun 2027 11:28:38.539             7.960          2016.531
       178   05 Jun 2027 11:28:44.555   05 Jun 2027 11:28:46.745             2.190           188.000
       179   05 Jun 2027 11:29:53.202   05 Jun 2027 11:29:57.278             4.076          2019.969
       180   05 Jun 2027 11:30:43.039   05 Jun 2027 11:30:46.491             3.452          1335.188
       181   06 Jun 2027 03:49:27.656   06 Jun 2027 03:53:08.333           220.677        110338.500
       182   06 Jun 2027 05:13:06.936   06 Jun 2027 05:14:08.314            61.378         30689.000
       183   06 Jun 2027 05:14:16.927   06 Jun 2027 05:14:18.454             1.527           763.500
       184   06 Jun 2027 05:15:28.407   06 Jun 2027 05:15:28.407             0.000             0.000
       185   06 Jun 2027 06:49:33.831   06 Jun 2027 06:50:06.527            32.696         16348.000
       186   06 Jun 2027 06:50:08.794   06 Jun 2027 06:50:17.849             9.055           579.250
       187   06 Jun 2027 06:51:05.827   06 Jun 2027 06:51:11.739             5.912          1295.500
       188   06 Jun 2027 06:51:29.934   06 Jun 2027 06:51:29.934             0.000             0.000
       189   06 Jun 2027 06:51:40.795   06 Jun 2027 06:51:46.900             6.105           908.000
       190   06 Jun 2027 06:51:49.767   06 Jun 2027 06:51:49.941             0.174            18.187
       191   06 Jun 2027 06:52:10.354   06 Jun 2027 06:52:12.897             2.543           637.906
       192   06 Jun 2027 08:21:43.796   06 Jun 2027 08:21:53.012             9.216          4562.000
       193   06 Jun 2027 08:24:18.755   06 Jun 2027 08:24:26.390             7.635          2755.844
       194   06 Jun 2027 08:24:46.036   06 Jun 2027 08:24:50.805             4.769           448.781
       195   06 Jun 2027 08:25:27.483   06 Jun 2027 08:25:29.121             1.638           213.500
       196   06 Jun 2027 08:26:27.447   06 Jun 2027 08:26:33.685             6.238          1822.688
       197   06 Jun 2027 08:27:37.887   06 Jun 2027 08:27:43.864             5.977          1100.969
       198   06 Jun 2027 08:28:21.453   06 Jun 2027 08:28:24.418             2.965           771.062
       199   06 Jun 2027 08:29:16.063   06 Jun 2027 08:29:21.639             5.576          1417.313
       200   06 Jun 2027 08:30:02.197   06 Jun 2027 08:30:03.367             1.170           405.156
       201   06 Jun 2027 08:30:24.777   06 Jun 2027 08:30:24.777             0.000             0.000
       202   06 Jun 2027 08:31:08.290   06 Jun 2027 08:31:12.140             3.850          1758.156
       203   06 Jun 2027 08:31:30.131   06 Jun 2027 08:31:30.131             0.000             0.000
       204   06 Jun 2027 10:00:38.706   06 Jun 2027 10:00:53.834            15.128          6681.594
       205   06 Jun 2027 10:03:52.028   06 Jun 2027 10:04:01.689             9.661          3854.844
       206   06 Jun 2027 10:04:04.298   06 Jun 2027 10:04:09.102             4.804            35.344
       207   06 Jun 2027 10:05:34.690   06 Jun 2027 10:05:37.790             3.100           839.125
       208   06 Jun 2027 10:05:50.883   06 Jun 2027 10:05:51.500             0.617           104.188
       209   06 Jun 2027 10:07:03.672   06 Jun 2027 10:07:09.756             6.084          2255.375
       210   06 Jun 2027 11:37:56.298   06 Jun 2027 11:38:11.904            15.606          7388.687
       211   06 Jun 2027 11:39:27.812   06 Jun 2027 11:39:31.339             3.527          1294.094
       212   06 Jun 2027 11:40:24.346   06 Jun 2027 11:40:31.952             7.606          1656.469
       213   06 Jun 2027 11:41:47.420   06 Jun 2027 11:41:52.447             5.027          2135.219
       214   06 Jun 2027 11:42:31.465   06 Jun 2027 11:42:36.561             5.096          1219.313
       215   07 Jun 2027 04:02:41.202   07 Jun 2027 04:05:48.134           186.932         93466.000
       216   07 Jun 2027 05:25:14.913   07 Jun 2027 05:26:10.868            55.955         27977.500
       217   07 Jun 2027 05:27:07.581   07 Jun 2027 05:27:07.581             0.000             0.000
       218   07 Jun 2027 05:28:08.528   07 Jun 2027 05:28:17.255             8.727          4363.500
       219   07 Jun 2027 07:01:43.043   07 Jun 2027 07:02:41.614            58.571         29166.656
       220   07 Jun 2027 07:02:51.266   07 Jun 2027 07:02:51.786             0.520           179.000
       221   07 Jun 2027 07:03:28.519   07 Jun 2027 07:03:29.685             1.166           313.531
       222   07 Jun 2027 07:03:42.804   07 Jun 2027 07:03:42.804             0.000             0.000
       223   07 Jun 2027 07:04:12.183   07 Jun 2027 07:04:14.513             2.330          1000.000
       224   07 Jun 2027 08:36:53.834   07 Jun 2027 08:37:07.173            13.339          6462.313
       225   07 Jun 2027 08:37:18.162   07 Jun 2027 08:37:19.660             1.498           288.812
       226   07 Jun 2027 08:38:07.072   07 Jun 2027 08:38:10.132             3.060          1481.625
       227   07 Jun 2027 08:39:12.693   07 Jun 2027 08:39:12.693             0.000             0.000
       228   07 Jun 2027 08:39:54.147   07 Jun 2027 08:40:01.601             7.454          2664.531
       229   07 Jun 2027 08:40:51.855   07 Jun 2027 08:40:56.909             5.054          1570.437
       230   07 Jun 2027 08:42:12.372   07 Jun 2027 08:42:18.704             6.332          2358.219
       231   07 Jun 2027 08:43:01.106   07 Jun 2027 08:43:06.411             5.305          1211.844
       232   07 Jun 2027 10:13:12.881   07 Jun 2027 10:13:26.572            13.691          6178.219
       233   07 Jun 2027 10:14:02.809   07 Jun 2027 10:14:04.176             1.367           510.438
       234   07 Jun 2027 10:15:01.181   07 Jun 2027 10:15:08.822             7.641          1781.406
       235   07 Jun 2027 10:15:18.673   07 Jun 2027 10:15:20.303             1.630            62.219
       236   07 Jun 2027 10:15:54.495   07 Jun 2027 10:15:56.699             2.204          1068.500
       237   07 Jun 2027 10:17:13.932   07 Jun 2027 10:17:19.798             5.866          2413.531
       238   07 Jun 2027 10:17:44.196   07 Jun 2027 10:17:47.142             2.946           663.219
       239   07 Jun 2027 10:18:40.461   07 Jun 2027 10:18:46.019             5.558          1478.344
       240   07 Jun 2027 10:18:52.891   07 Jun 2027 10:18:53.713             0.822           122.062
       241   07 Jun 2027 11:50:36.374   07 Jun 2027 11:50:49.975            13.601          6561.250
       242   07 Jun 2027 11:50:54.828   07 Jun 2027 11:50:57.227             2.399            79.781
       243   07 Jun 2027 11:51:05.972   07 Jun 2027 11:51:08.122             2.150           257.312
       244   07 Jun 2027 11:51:36.111   07 Jun 2027 11:51:38.482             2.371           756.719
       245   07 Jun 2027 11:52:17.028   07 Jun 2027 11:52:24.801             7.773           946.344
       246   07 Jun 2027 11:52:27.688   07 Jun 2027 11:52:32.576             4.888            90.219
       247   07 Jun 2027 11:53:47.996   07 Jun 2027 11:53:56.127             8.131          2356.875
       248   07 Jun 2027 11:54:04.398   07 Jun 2027 11:54:04.398             0.000             0.000
       249   07 Jun 2027 11:54:59.554   07 Jun 2027 11:55:05.656             6.102          1956.875
       250   08 Jun 2027 04:13:48.965   08 Jun 2027 04:14:26.537            37.572         18786.000
       251   08 Jun 2027 04:14:55.288   08 Jun 2027 04:17:21.396           146.108         73054.000
       252   08 Jun 2027 05:37:16.290   08 Jun 2027 05:38:43.527            87.237         43618.500
       253   08 Jun 2027 07:13:44.114   08 Jun 2027 07:14:37.871            53.757         24932.844
       254   08 Jun 2027 07:15:27.139   08 Jun 2027 07:15:29.866             2.727          1069.156
       255   08 Jun 2027 07:15:48.616   08 Jun 2027 07:15:51.645             3.029           478.906
       256   08 Jun 2027 07:16:49.723   08 Jun 2027 07:16:52.934             3.211          1363.563
       257   08 Jun 2027 08:48:56.706   08 Jun 2027 08:49:06.876            10.170          4270.219
       258   08 Jun 2027 08:49:11.000   08 Jun 2027 08:49:11.000             0.000             0.000
       259   08 Jun 2027 08:50:33.001   08 Jun 2027 08:50:39.938             6.937          2691.406
       260   08 Jun 2027 08:51:25.628   08 Jun 2027 08:51:30.719             5.091           940.812
       261   08 Jun 2027 08:52:26.567   08 Jun 2027 08:52:30.202             3.635          1131.188
       262   08 Jun 2027 08:54:12.142   08 Jun 2027 08:54:19.913             7.771          2279.406
       263   08 Jun 2027 08:54:25.190   08 Jun 2027 08:54:26.213             1.023           164.906
       264   08 Jun 2027 08:55:34.784   08 Jun 2027 08:55:36.321             1.537           768.500
       265   08 Jun 2027 10:24:51.913   08 Jun 2027 10:25:06.416            14.503          6662.719
       266   08 Jun 2027 10:25:54.813   08 Jun 2027 10:25:58.020             3.207           875.156
       267   08 Jun 2027 10:27:05.389   08 Jun 2027 10:27:12.179             6.790          1937.844
       268   08 Jun 2027 10:27:26.716   08 Jun 2027 10:27:26.955             0.239            66.906
       269   08 Jun 2027 10:27:34.876   08 Jun 2027 10:27:36.136             1.260           114.875
       270   08 Jun 2027 10:28:25.970   08 Jun 2027 10:28:29.366             3.396          1557.312
       271   08 Jun 2027 10:29:00.347   08 Jun 2027 10:29:02.202             1.855           691.188
       272   08 Jun 2027 10:29:09.323   08 Jun 2027 10:29:10.929             1.606           222.531
       273   08 Jun 2027 10:29:37.417   08 Jun 2027 10:29:41.077             3.660           669.969
       274   08 Jun 2027 10:30:32.255   08 Jun 2027 10:30:36.207             3.952          1599.313
       275   08 Jun 2027 10:31:08.958   08 Jun 2027 10:31:10.199             1.241           620.500
       276   09 Jun 2027 04:14:49.744   09 Jun 2027 04:15:17.642            27.898         13949.000
       277   09 Jun 2027 04:25:45.835   09 Jun 2027 04:29:08.775           202.940        101470.000
       278   09 Jun 2027 05:49:42.743   09 Jun 2027 05:50:15.080            32.337         16168.500
       279   09 Jun 2027 05:50:25.720   09 Jun 2027 05:50:38.125            12.405          6202.500
       280   09 Jun 2027 05:50:46.715   09 Jun 2027 05:50:46.715             0.000             0.000
       281   09 Jun 2027 05:52:14.406   09 Jun 2027 05:52:19.980             5.574          2787.000
       282   09 Jun 2027 07:25:27.901   09 Jun 2027 07:26:10.313            42.412         20027.125
       283   09 Jun 2027 07:26:39.483   09 Jun 2027 07:26:43.504             4.021           191.219
       284   09 Jun 2027 07:27:37.657   09 Jun 2027 07:27:40.796             3.139          1552.563
       285   09 Jun 2027 07:28:19.214   09 Jun 2027 07:28:21.347             2.133          1025.781
       286   09 Jun 2027 07:28:59.073   09 Jun 2027 07:29:00.981             1.908           954.000
       287   09 Jun 2027 07:29:07.444   09 Jun 2027 07:29:12.333             4.889           426.906
       288   09 Jun 2027 09:00:11.793   09 Jun 2027 09:00:14.514             2.721          1360.500
       289   09 Jun 2027 09:00:31.762   09 Jun 2027 09:00:36.363             4.601          2300.500
       290   09 Jun 2027 09:01:11.378   09 Jun 2027 09:01:15.766             4.388          1727.469
       291   09 Jun 2027 09:01:55.991   09 Jun 2027 09:01:56.450             0.459            57.594
       292   09 Jun 2027 09:02:54.712   09 Jun 2027 09:03:00.304             5.592          1416.094
       293   09 Jun 2027 09:03:41.626   09 Jun 2027 09:03:44.583             2.957          1202.000
       294   09 Jun 2027 09:03:57.681   09 Jun 2027 09:03:59.323             1.642           409.313
       295   09 Jun 2027 09:06:11.245   09 Jun 2027 09:06:17.413             6.168          3084.000
       296   09 Jun 2027 09:06:41.149   09 Jun 2027 09:06:44.205             3.056           860.438
       297   09 Jun 2027 09:07:19.299   09 Jun 2027 09:07:22.136             2.837           773.875
       298   09 Jun 2027 10:37:01.419   09 Jun 2027 10:37:15.709            14.290          5745.969
       299   09 Jun 2027 10:37:32.959   09 Jun 2027 10:37:35.277             2.318            50.469
       300   09 Jun 2027 10:38:09.336   09 Jun 2027 10:38:12.711             3.375           861.219
       301   09 Jun 2027 10:39:16.511   09 Jun 2027 10:39:16.836             0.325           126.750
       302   09 Jun 2027 10:39:31.843   09 Jun 2027 10:39:33.472             1.629           153.000
       303   09 Jun 2027 10:39:40.711   09 Jun 2027 10:39:41.875             1.164           168.219
       304   09 Jun 2027 10:39:56.932   09 Jun 2027 10:40:00.768             3.836           470.531
       305   09 Jun 2027 10:40:31.921   09 Jun 2027 10:40:43.019            11.098           973.531
       306   09 Jun 2027 10:41:15.957   09 Jun 2027 10:41:20.352             4.395           809.000
       307   09 Jun 2027 10:41:23.328   09 Jun 2027 10:41:31.849             8.521            25.938
       308   09 Jun 2027 10:41:53.872   09 Jun 2027 10:41:56.027             2.155           688.219
       309   09 Jun 2027 10:42:01.986   09 Jun 2027 10:42:02.780             0.794           186.219
       310   09 Jun 2027 10:42:56.784   09 Jun 2027 10:43:06.729             9.945          1517.969
       311   09 Jun 2027 10:43:18.987   09 Jun 2027 10:43:20.575             1.588           247.156
       312   10 Jun 2027 03:01:02.233   10 Jun 2027 03:01:26.243            24.010         12005.000
       313   10 Jun 2027 03:01:39.182   10 Jun 2027 03:02:04.116            24.934         12467.000
       314   10 Jun 2027 03:02:40.001   10 Jun 2027 03:03:17.432            37.431         18715.500
       315   10 Jun 2027 03:05:16.904   10 Jun 2027 03:05:24.574             7.670          3835.000
       316   10 Jun 2027 03:06:32.870   10 Jun 2027 03:07:16.188            43.318         21659.000
       317   10 Jun 2027 03:07:30.515   10 Jun 2027 03:07:35.413             4.898          2449.000
       318   10 Jun 2027 04:26:06.593   10 Jun 2027 04:27:06.938            60.345         30172.500
       319   10 Jun 2027 04:37:46.484   10 Jun 2027 04:39:11.872            85.388         42694.000
       320   10 Jun 2027 06:00:17.966   10 Jun 2027 06:00:55.111            37.145         18572.500
       321   10 Jun 2027 06:03:26.009   10 Jun 2027 06:03:54.552            28.543         12988.313
       322   10 Jun 2027 06:04:39.875   10 Jun 2027 06:04:44.298             4.423          1416.344
       323   10 Jun 2027 07:35:21.201   10 Jun 2027 07:35:35.502            14.301          7004.156
       324   10 Jun 2027 07:35:51.951   10 Jun 2027 07:35:56.634             4.683           224.094
       325   10 Jun 2027 07:36:27.713   10 Jun 2027 07:36:32.562             4.849           971.219
       326   10 Jun 2027 07:38:03.570   10 Jun 2027 07:38:09.539             5.969          2844.000
       327   10 Jun 2027 07:39:02.808   10 Jun 2027 07:39:05.781             2.973          1246.406
       328   10 Jun 2027 07:40:15.623   10 Jun 2027 07:40:20.453             4.830          2182.563
       329   10 Jun 2027 07:40:39.998   10 Jun 2027 07:40:41.605             1.607           399.438
       330   10 Jun 2027 07:40:53.326   10 Jun 2027 07:40:55.730             2.404           277.375
       331   10 Jun 2027 07:41:37.845   10 Jun 2027 07:41:39.932             2.087           728.938
       332   10 Jun 2027 07:42:04.777   10 Jun 2027 07:42:04.777             0.000             0.000
       333   10 Jun 2027 09:12:19.958   10 Jun 2027 09:12:28.312             8.354          4151.938
       334   10 Jun 2027 09:13:10.866   10 Jun 2027 09:13:10.866             0.000             0.000
       335   10 Jun 2027 09:14:30.528   10 Jun 2027 09:14:37.810             7.282          3629.625
       336   10 Jun 2027 09:15:12.305   10 Jun 2027 09:15:15.534             3.229           781.156
       337   10 Jun 2027 09:15:41.715   10 Jun 2027 09:15:48.349             6.634           162.687
       338   10 Jun 2027 09:15:53.744   10 Jun 2027 09:16:00.756             7.012            86.063
       339   10 Jun 2027 09:17:11.559   10 Jun 2027 09:17:17.094             5.535          2208.406
       340   10 Jun 2027 09:17:25.381   10 Jun 2027 09:17:26.884             1.503            44.813
       341   10 Jun 2027 09:17:50.082   10 Jun 2027 09:17:54.089             4.007           534.844
       342   10 Jun 2027 09:18:09.790   10 Jun 2027 09:18:12.009             2.219           490.656
       343   10 Jun 2027 09:18:23.356   10 Jun 2027 09:18:24.328             0.972           354.594
       344   10 Jun 2027 09:18:55.962   10 Jun 2027 09:18:57.572             1.610           805.000
       345   10 Jun 2027 09:19:25.802   10 Jun 2027 09:19:30.193             4.391           910.594
       346   10 Jun 2027 09:19:36.406   10 Jun 2027 09:19:43.750             7.344           194.156
       347   10 Jun 2027 10:49:18.035   10 Jun 2027 10:49:31.662            13.627          6351.781
       348   10 Jun 2027 10:50:14.479   10 Jun 2027 10:50:17.236             2.757          1246.031
       349   10 Jun 2027 10:50:52.095   10 Jun 2027 10:50:52.997             0.902           366.781
       350   10 Jun 2027 10:51:03.514   10 Jun 2027 10:51:05.584             2.070           328.656
       351   10 Jun 2027 10:51:34.696   10 Jun 2027 10:51:38.721             4.025           883.344
       352   10 Jun 2027 10:52:13.968   10 Jun 2027 10:52:16.999             3.031           786.031
       353   10 Jun 2027 10:52:40.477   10 Jun 2027 10:52:44.303             3.826           575.281
       354   10 Jun 2027 10:52:57.556   10 Jun 2027 10:52:58.574             1.018           144.500
       355   10 Jun 2027 10:53:38.686   10 Jun 2027 10:53:49.848            11.162          1132.469
       356   10 Jun 2027 10:54:03.185   10 Jun 2027 10:54:04.031             0.846           416.781
       357   10 Jun 2027 10:54:33.140   10 Jun 2027 10:54:45.658            12.518           872.062
       358   10 Jun 2027 10:54:54.852   10 Jun 2027 10:54:55.489             0.637           287.312
       359   11 Jun 2027 03:13:18.489   11 Jun 2027 03:16:03.722           165.233         82616.500
       360   11 Jun 2027 03:16:54.846   11 Jun 2027 03:16:58.955             4.109          2054.500
       361   11 Jun 2027 03:18:39.210   11 Jun 2027 03:19:07.213            28.003         14001.500
       362   11 Jun 2027 04:37:27.594   11 Jun 2027 04:37:54.280            26.686         13343.000
       363   11 Jun 2027 04:38:15.812   11 Jun 2027 04:38:41.689            25.877         12938.500
       364   11 Jun 2027 04:49:43.848   11 Jun 2027 04:50:39.168            55.320         27660.000
       365   11 Jun 2027 06:11:42.511   11 Jun 2027 06:12:13.472            30.961         15203.563
       366   11 Jun 2027 06:13:50.562   11 Jun 2027 06:13:53.237             2.675          1337.500
       367   11 Jun 2027 06:14:29.662   11 Jun 2027 06:14:29.662             0.000             0.000
       368   11 Jun 2027 06:15:02.167   11 Jun 2027 06:15:07.068             4.901          2450.500
       369   11 Jun 2027 06:15:34.745   11 Jun 2027 06:15:36.901             2.156          1022.906
       370   11 Jun 2027 06:15:38.608   11 Jun 2027 06:15:39.861             1.253            27.719
       371   11 Jun 2027 06:15:53.145   11 Jun 2027 06:15:56.535             3.390           415.125
       372   11 Jun 2027 07:46:45.474   11 Jun 2027 07:46:58.853            13.379          4961.875
       373   11 Jun 2027 07:47:28.004   11 Jun 2027 07:47:32.710             4.706           910.969
       374   11 Jun 2027 07:48:07.322   11 Jun 2027 07:48:10.930             3.608           474.844
       375   11 Jun 2027 07:48:59.761   11 Jun 2027 07:49:02.985             3.224          1517.313
       376   11 Jun 2027 07:50:55.349   11 Jun 2027 07:51:05.080             9.731          3237.719
       377   11 Jun 2027 07:52:15.897   11 Jun 2027 07:52:22.579             6.682          2197.656
       378   11 Jun 2027 07:53:12.160   11 Jun 2027 07:53:15.280             3.120          1303.813
       379   11 Jun 2027 07:53:31.151   11 Jun 2027 07:53:33.482             2.331            80.031
       380   11 Jun 2027 07:54:53.857   11 Jun 2027 07:54:55.362             1.505           752.500
       381   11 Jun 2027 07:55:20.031   11 Jun 2027 07:55:23.626             3.595          1592.969
       382   11 Jun 2027 09:24:21.957   11 Jun 2027 09:24:33.185            11.228          5215.438
       383   11 Jun 2027 09:26:29.921   11 Jun 2027 09:26:29.921             0.000             0.000
       384   11 Jun 2027 09:27:28.637   11 Jun 2027 09:27:39.734            11.097          5371.156
       385   11 Jun 2027 09:28:04.874   11 Jun 2027 09:28:12.267             7.393           785.625
       386   11 Jun 2027 09:28:37.253   11 Jun 2027 09:28:40.720             3.467           732.406
       387   11 Jun 2027 09:28:48.530   11 Jun 2027 09:28:54.080             5.550           244.063
       388   11 Jun 2027 09:29:09.744   11 Jun 2027 09:29:13.590             3.846           149.750
       389   11 Jun 2027 09:29:42.279   11 Jun 2027 09:29:42.675             0.396           198.000
       390   11 Jun 2027 09:30:58.860   11 Jun 2027 09:31:07.870             9.010          2992.469
       391   11 Jun 2027 11:01:07.895   11 Jun 2027 11:01:09.804             1.909           954.500
       392   11 Jun 2027 11:01:13.433   11 Jun 2027 11:01:26.959            13.526          5500.219
       393   11 Jun 2027 11:02:18.276   11 Jun 2027 11:02:21.540             3.264           997.406
       394   11 Jun 2027 11:03:09.273   11 Jun 2027 11:03:10.259             0.986            27.094
       395   11 Jun 2027 11:03:34.937   11 Jun 2027 11:03:38.269             3.332           646.313
       396   11 Jun 2027 11:04:00.485   11 Jun 2027 11:04:04.145             3.660           625.625
       397   11 Jun 2027 11:05:17.008   11 Jun 2027 11:05:21.321             4.313          2114.094
       398   11 Jun 2027 11:05:31.064   11 Jun 2027 11:05:31.064             0.000             0.000
       399   11 Jun 2027 11:06:05.919   11 Jun 2027 11:06:20.470            14.551          1360.094
       400   11 Jun 2027 11:06:42.204   11 Jun 2027 11:06:43.533             1.329           284.344
       401   11 Jun 2027 11:07:24.804   11 Jun 2027 11:07:27.357             2.553          1034.031
       402   12 Jun 2027 03:25:24.879   12 Jun 2027 03:28:46.046           201.167        100583.500
       403   12 Jun 2027 03:31:15.626   12 Jun 2027 03:31:48.588            32.962         16481.000
       404   12 Jun 2027 04:49:35.475   12 Jun 2027 04:50:18.667            43.192         21596.000
       405   12 Jun 2027 04:51:23.218   12 Jun 2027 04:51:23.218             0.000             0.000
       406   12 Jun 2027 05:02:08.288   12 Jun 2027 05:02:10.699             2.411          1205.500
       407   12 Jun 2027 06:23:24.986   12 Jun 2027 06:24:10.188            45.202         22601.000
       408   12 Jun 2027 06:24:57.776   12 Jun 2027 06:25:05.069             7.293          3224.000
       409   12 Jun 2027 06:25:51.845   12 Jun 2027 06:25:56.268             4.423          1461.750
       410   12 Jun 2027 06:26:28.063   12 Jun 2027 06:26:35.380             7.317           933.344
       411   12 Jun 2027 06:27:03.044   12 Jun 2027 06:27:03.955             0.911           455.500
       412   12 Jun 2027 06:27:36.518   12 Jun 2027 06:27:39.649             3.131          1426.594
       413   12 Jun 2027 06:28:22.360   12 Jun 2027 06:28:22.360             0.000             0.000
       414   12 Jun 2027 06:28:45.595   12 Jun 2027 06:28:50.462             4.867          1557.375
       415   12 Jun 2027 07:58:17.052   12 Jun 2027 07:58:30.979            13.927          6167.781
       416   12 Jun 2027 07:58:51.114   12 Jun 2027 07:58:56.776             5.662           310.344
       417   12 Jun 2027 08:00:39.755   12 Jun 2027 08:00:41.104             1.349           153.312
       418   12 Jun 2027 08:01:44.403   12 Jun 2027 08:01:52.512             8.109          1454.469
       419   12 Jun 2027 08:02:40.922   12 Jun 2027 08:02:45.272             4.350          1512.813
       420   12 Jun 2027 08:04:04.098   12 Jun 2027 08:04:08.737             4.639          2147.313
       421   12 Jun 2027 08:04:33.563   12 Jun 2027 08:04:35.977             2.414           561.062
       422   12 Jun 2027 08:05:34.361   12 Jun 2027 08:05:38.285             3.924          1185.813
       423   12 Jun 2027 08:05:51.093   12 Jun 2027 08:05:53.270             2.177            48.250
       424   12 Jun 2027 08:06:11.712   12 Jun 2027 08:06:13.071             1.359           458.406
       425   12 Jun 2027 08:06:51.302   12 Jun 2027 08:06:53.656             2.354           596.125
       426   12 Jun 2027 08:07:13.006   12 Jun 2027 08:07:16.160             3.154           335.531
       427   12 Jun 2027 09:36:22.745   12 Jun 2027 09:36:38.874            16.129          7492.906
       428   12 Jun 2027 09:37:20.844   12 Jun 2027 09:37:23.550             2.706           892.281
       429   12 Jun 2027 09:37:47.290   12 Jun 2027 09:37:53.004             5.714            95.656
       430   12 Jun 2027 09:38:10.007   12 Jun 2027 09:38:12.787             2.780           465.344
       431   12 Jun 2027 09:38:30.453   12 Jun 2027 09:38:31.419             0.966           158.875
       432   12 Jun 2027 09:38:34.597   12 Jun 2027 09:38:35.305             0.708            99.313
       433   12 Jun 2027 09:39:40.596   12 Jun 2027 09:39:44.617             4.021          1900.594
       434   12 Jun 2027 09:40:42.808   12 Jun 2027 09:40:46.502             3.694          1291.313
       435   12 Jun 2027 09:41:35.028   12 Jun 2027 09:41:38.817             3.789          1396.563
       436   12 Jun 2027 09:41:49.470   12 Jun 2027 09:41:51.095             1.625           317.500
       437   12 Jun 2027 09:42:28.842   12 Jun 2027 09:42:37.396             8.554          1179.594
       438   12 Jun 2027 09:43:26.271   12 Jun 2027 09:43:29.715             3.444          1527.344
       439   12 Jun 2027 09:43:39.629   12 Jun 2027 09:43:46.248             6.619           309.812
       440   12 Jun 2027 11:13:17.018   12 Jun 2027 11:13:23.794             6.776          3388.000
       441   12 Jun 2027 11:13:49.327   12 Jun 2027 11:13:59.461            10.134          3907.437
       442   12 Jun 2027 11:15:30.576   12 Jun 2027 11:15:35.287             4.711          2353.281
       443   12 Jun 2027 11:15:37.420   12 Jun 2027 11:15:37.858             0.438            55.281
       444   12 Jun 2027 11:16:27.617   12 Jun 2027 11:16:32.700             5.083          1554.969
       445   12 Jun 2027 11:17:22.429   12 Jun 2027 11:17:25.911             3.482           735.594
       446   12 Jun 2027 11:17:43.612   12 Jun 2027 11:17:44.361             0.749           340.250
       447   12 Jun 2027 11:17:49.603   12 Jun 2027 11:17:53.507             3.904            63.375
       448   12 Jun 2027 11:18:50.442   12 Jun 2027 11:18:54.157             3.715           929.094
       449   12 Jun 2027 11:19:07.852   12 Jun 2027 11:19:09.256             1.404           427.969
       450   13 Jun 2027 03:38:02.437   13 Jun 2027 03:40:22.912           140.475         70237.500
       451   13 Jun 2027 03:40:55.692   13 Jun 2027 03:41:27.509            31.817         15908.500
       452   13 Jun 2027 03:41:54.783   13 Jun 2027 03:42:34.595            39.812         19906.000
       453   13 Jun 2027 05:01:31.669   13 Jun 2027 05:02:31.865            60.196         30098.000
       454   13 Jun 2027 06:37:44.341   13 Jun 2027 06:38:20.238            35.897         17298.062
       455   13 Jun 2027 06:38:38.611   13 Jun 2027 06:38:44.759             6.148           530.906
       456   13 Jun 2027 06:39:44.959   13 Jun 2027 06:39:49.156             4.197          1703.437
       457   13 Jun 2027 06:40:02.401   13 Jun 2027 06:40:03.387             0.986           338.125
       458   13 Jun 2027 06:40:20.351   13 Jun 2027 06:40:24.663             4.312           318.281
       459   13 Jun 2027 06:40:53.052   13 Jun 2027 06:40:56.875             3.823           887.156
       460   13 Jun 2027 08:11:17.631   13 Jun 2027 08:11:37.841            20.210          5387.500
       461   13 Jun 2027 08:13:09.776   13 Jun 2027 08:13:12.653             2.877          1076.063
       462   13 Jun 2027 08:14:00.809   13 Jun 2027 08:14:02.147             1.338           630.125
       463   13 Jun 2027 08:15:54.632   13 Jun 2027 08:16:04.801            10.169          3356.781
       464   13 Jun 2027 08:16:36.552   13 Jun 2027 08:16:38.136             1.584           684.063
       465   13 Jun 2027 08:16:55.753   13 Jun 2027 08:16:57.647             1.894           246.344
       466   13 Jun 2027 08:18:04.230   13 Jun 2027 08:18:04.230             0.000             0.000
       467   13 Jun 2027 08:18:32.272   13 Jun 2027 08:18:39.314             7.042          2957.031
       468   13 Jun 2027 08:19:46.555   13 Jun 2027 08:19:48.841             2.286          1143.000
       469   13 Jun 2027 08:19:50.393   13 Jun 2027 08:19:51.453             1.060           530.000
       470   13 Jun 2027 09:48:48.688   13 Jun 2027 09:49:07.863            19.175          7454.031
       471   13 Jun 2027 09:49:17.536   13 Jun 2027 09:49:19.938             2.402            40.000
       472   13 Jun 2027 09:49:38.603   13 Jun 2027 09:49:41.211             2.608           532.781
       473   13 Jun 2027 09:49:44.032   13 Jun 2027 09:49:45.316             1.284            88.156
       474   13 Jun 2027 09:50:59.539   13 Jun 2027 09:51:03.545             4.006          1745.375
       475   13 Jun 2027 09:52:06.185   13 Jun 2027 09:52:09.833             3.648          1121.187
       476   13 Jun 2027 09:53:19.029   13 Jun 2027 09:53:24.137             5.108          1927.500
       477   13 Jun 2027 09:53:31.994   13 Jun 2027 09:53:32.558             0.564           245.531
       478   13 Jun 2027 09:53:50.742   13 Jun 2027 09:53:53.903             3.161           568.250
       479   13 Jun 2027 09:54:10.984   13 Jun 2027 09:54:14.750             3.766           533.781
       480   13 Jun 2027 09:54:42.785   13 Jun 2027 09:54:53.283            10.498           862.281
       481   13 Jun 2027 09:55:33.862   13 Jun 2027 09:55:34.870             1.008           504.000
       482   13 Jun 2027 11:25:44.936   13 Jun 2027 11:25:59.331            14.395          7089.125
       483   13 Jun 2027 11:26:55.940   13 Jun 2027 11:27:02.936             6.996           960.563
       484   13 Jun 2027 11:27:25.981   13 Jun 2027 11:27:28.381             2.400           555.969
       485   13 Jun 2027 11:27:36.825   13 Jun 2027 11:27:36.825             0.000             0.000
       486   13 Jun 2027 11:27:56.953   13 Jun 2027 11:28:04.210             7.257           697.031
       487   13 Jun 2027 11:28:23.351   13 Jun 2027 11:28:27.410             4.059           598.156
       488   13 Jun 2027 11:28:53.250   13 Jun 2027 11:28:55.415             2.165           207.469
       489   13 Jun 2027 11:29:05.463   13 Jun 2027 11:29:11.159             5.696           152.781
       490   13 Jun 2027 11:29:18.913   13 Jun 2027 11:29:21.170             2.257           103.875
       491   13 Jun 2027 11:29:50.258   13 Jun 2027 11:29:51.511             1.253           573.969
       492   13 Jun 2027 11:30:09.428   13 Jun 2027 11:30:12.516             3.088           504.156
       493   13 Jun 2027 11:30:32.015   13 Jun 2027 11:30:33.442             1.427           477.531
       494   13 Jun 2027 11:30:57.668   13 Jun 2027 11:30:59.347             1.679           113.187
       495   13 Jun 2027 11:31:14.325   13 Jun 2027 11:31:17.514             3.189           432.125
