uniorb/output/strategy_2/Camera/Camera_KinoSat_111408.txt

KinoSat_111408
-------------------------
    Access    *     Start Time (UTCG)     *     Stop Time (UTCG)  *   Duration (s) *   Data (Mbytes)
         1   01 Jun 2027 04:31:28.045   01 Jun 2027 04:31:59.067            31.022         15511.000
         2   01 Jun 2027 04:32:17.613   01 Jun 2027 04:35:08.790           171.177         85588.500
         3   01 Jun 2027 05:54:50.532   01 Jun 2027 05:55:53.110            62.578         31289.000
         4   01 Jun 2027 05:56:00.148   01 Jun 2027 05:56:05.325             5.177          2588.500
         5   01 Jun 2027 05:57:43.634   01 Jun 2027 05:57:57.944            14.310          7155.000
         6   01 Jun 2027 07:31:22.415   01 Jun 2027 07:34:13.553           171.138         85569.000
         7   01 Jun 2027 07:34:52.345   01 Jun 2027 07:34:55.163             2.818          1409.000
         8   01 Jun 2027 09:06:32.423   01 Jun 2027 09:08:48.215           135.792         67896.000
         9   01 Jun 2027 09:09:29.304   01 Jun 2027 09:09:29.985             0.681           340.500
        10   01 Jun 2027 09:09:49.242   01 Jun 2027 09:09:49.242             0.000             0.000
        11   01 Jun 2027 09:11:47.707   01 Jun 2027 09:12:30.644            42.937         21468.500
        12   01 Jun 2027 10:42:57.678   01 Jun 2027 10:45:28.566           150.888         75444.000
        13   01 Jun 2027 10:48:43.268   01 Jun 2027 10:48:47.110             3.842          1921.000
        14   02 Jun 2027 03:05:14.907   02 Jun 2027 03:05:22.996             8.089          4044.500
        15   02 Jun 2027 03:06:16.187   02 Jun 2027 03:08:11.003           114.816         57408.000
        16   02 Jun 2027 03:08:14.529   02 Jun 2027 03:08:20.545             6.016          3008.000
        17   02 Jun 2027 03:08:53.726   02 Jun 2027 03:08:56.418             2.692          1346.000
        18   02 Jun 2027 03:10:14.581   02 Jun 2027 03:10:21.119             6.538          3269.000
        19   02 Jun 2027 03:12:49.774   02 Jun 2027 03:13:09.795            20.021         10010.500
        20   02 Jun 2027 04:43:24.852   02 Jun 2027 04:44:03.869            39.017         19508.500
        21   02 Jun 2027 04:44:26.754   02 Jun 2027 04:45:45.269            78.515         39257.500
        22   02 Jun 2027 06:06:53.372   02 Jun 2027 06:07:48.202            54.830         27415.000
        23   02 Jun 2027 06:08:58.672   02 Jun 2027 06:09:38.516            39.844         19922.000
        24   02 Jun 2027 07:43:15.564   02 Jun 2027 07:45:17.712           122.148         61074.000
        25   02 Jun 2027 09:18:11.543   02 Jun 2027 09:19:56.807           105.264         52322.281
        26   02 Jun 2027 09:20:40.238   02 Jun 2027 09:20:45.376             5.138          1325.688
        27   02 Jun 2027 09:20:51.231   02 Jun 2027 09:20:56.556             5.325            84.062
        28   02 Jun 2027 09:24:49.497   02 Jun 2027 09:25:03.844            14.347          6967.781
        29   02 Jun 2027 09:25:13.262   02 Jun 2027 09:25:16.198             2.936           130.344
        30   02 Jun 2027 10:54:30.565   02 Jun 2027 10:54:47.721            17.156          7962.375
        31   02 Jun 2027 10:55:16.373   02 Jun 2027 10:55:17.644             1.271           442.781
        32   02 Jun 2027 10:55:38.153   02 Jun 2027 10:55:39.724             1.571           640.906
        33   02 Jun 2027 10:56:37.259   02 Jun 2027 10:56:41.008             3.749          1761.938
        34   02 Jun 2027 10:56:43.164   02 Jun 2027 10:56:43.351             0.187            47.500
        35   02 Jun 2027 10:57:00.180   02 Jun 2027 10:57:01.434             1.254           525.906
        36   02 Jun 2027 10:57:11.056   02 Jun 2027 10:57:14.020             2.964           176.562
        37   02 Jun 2027 10:57:33.699   02 Jun 2027 10:57:34.219             0.520           252.406
        38   02 Jun 2027 10:58:49.287   02 Jun 2027 10:58:57.748             8.461          2171.719
        39   02 Jun 2027 10:59:49.268   02 Jun 2027 11:00:02.067            12.799          1610.000
        40   02 Jun 2027 11:00:46.628   02 Jun 2027 11:00:50.587             3.959          1392.531
        41   03 Jun 2027 03:18:19.867   03 Jun 2027 03:20:25.982           126.115         63057.500
        42   03 Jun 2027 03:20:31.966   03 Jun 2027 03:20:53.324            21.358         10679.000
        43   03 Jun 2027 03:22:15.384   03 Jun 2027 03:22:23.335             7.951          3975.500
        44   03 Jun 2027 03:24:22.370   03 Jun 2027 03:24:54.253            31.883         15941.500
        45   03 Jun 2027 03:25:29.691   03 Jun 2027 03:25:55.785            26.094         13047.000
        46   03 Jun 2027 04:44:10.040   03 Jun 2027 04:44:39.489            29.449         14724.500
        47   03 Jun 2027 04:55:21.177   03 Jun 2027 04:56:37.551            76.374         37990.375
        48   03 Jun 2027 04:57:37.304   03 Jun 2027 04:57:45.200             7.896           890.844
        49   03 Jun 2027 04:58:16.786   03 Jun 2027 04:58:18.698             1.912           783.812
        50   03 Jun 2027 06:18:17.265   03 Jun 2027 06:18:37.541            20.276          8888.281
        51   03 Jun 2027 06:19:01.221   03 Jun 2027 06:19:01.618             0.397           152.750
        52   03 Jun 2027 06:19:11.549   03 Jun 2027 06:19:14.535             2.986           168.562
        53   03 Jun 2027 06:19:40.374   03 Jun 2027 06:19:43.094             2.720           685.313
        54   03 Jun 2027 06:19:51.976   03 Jun 2027 06:19:52.741             0.765            33.000
        55   03 Jun 2027 06:20:19.328   03 Jun 2027 06:20:22.746             3.418           623.094
        56   03 Jun 2027 06:21:31.469   03 Jun 2027 06:21:42.302            10.833          1857.063
        57   03 Jun 2027 06:21:43.829   03 Jun 2027 06:21:43.829             0.000             0.000
        58   03 Jun 2027 06:21:52.587   03 Jun 2027 06:21:54.462             1.875           321.406
        59   03 Jun 2027 06:22:25.159   03 Jun 2027 06:22:28.367             3.208           959.281
        60   03 Jun 2027 07:53:34.236   03 Jun 2027 07:53:41.462             7.226          3613.000
        61   03 Jun 2027 07:54:59.601   03 Jun 2027 07:55:07.449             7.848          2522.031
        62   03 Jun 2027 07:56:27.386   03 Jun 2027 07:56:32.346             4.960          2220.094
        63   03 Jun 2027 07:57:49.763   03 Jun 2027 07:57:55.342             5.579          2077.781
        64   03 Jun 2027 07:58:17.367   03 Jun 2027 07:58:20.931             3.564           688.281
        65   03 Jun 2027 07:58:43.200   03 Jun 2027 07:58:47.605             4.405           350.187
        66   03 Jun 2027 07:59:18.934   03 Jun 2027 07:59:21.074             2.140           518.125
        67   03 Jun 2027 09:29:44.995   03 Jun 2027 09:29:50.222             5.227          2613.500
        68   03 Jun 2027 09:32:03.582   03 Jun 2027 09:32:22.799            19.217          5190.188
        69   03 Jun 2027 09:32:53.133   03 Jun 2027 09:32:53.612             0.479           143.062
        70   03 Jun 2027 09:33:51.988   03 Jun 2027 09:33:59.369             7.381          1808.250
        71   03 Jun 2027 09:34:30.745   03 Jun 2027 09:34:33.230             2.485           980.500
        72   03 Jun 2027 09:35:46.169   03 Jun 2027 09:35:46.169             0.000             0.000
        73   03 Jun 2027 09:36:37.649   03 Jun 2027 09:36:43.575             5.926          2963.000
        74   03 Jun 2027 09:37:17.941   03 Jun 2027 09:37:21.022             3.081          1540.500
        75   03 Jun 2027 11:06:50.238   03 Jun 2027 11:07:02.927            12.689          6344.500
        76   03 Jun 2027 11:07:26.540   03 Jun 2027 11:07:28.714             2.174          1016.125
        77   03 Jun 2027 11:08:00.933   03 Jun 2027 11:08:04.080             3.147          1006.844
        78   03 Jun 2027 11:08:28.152   03 Jun 2027 11:08:30.251             2.099           206.625
        79   03 Jun 2027 11:09:08.584   03 Jun 2027 11:09:12.343             3.759          1197.906
        80   03 Jun 2027 11:10:33.058   03 Jun 2027 11:10:38.424             5.366          2341.063
        81   03 Jun 2027 11:11:21.262   03 Jun 2027 11:11:28.891             7.629          1338.688
        82   03 Jun 2027 11:12:28.372   03 Jun 2027 11:12:34.045             5.673          1858.781
        83   03 Jun 2027 11:12:36.628   03 Jun 2027 11:12:37.118             0.490            80.719
        84   03 Jun 2027 11:12:52.898   03 Jun 2027 11:12:55.338             2.440           487.844
        85   03 Jun 2027 11:12:57.067   03 Jun 2027 11:12:58.793             1.726            54.031
        86   04 Jun 2027 03:30:49.471   04 Jun 2027 03:32:21.096            91.625         45812.500
        87   04 Jun 2027 03:32:29.280   04 Jun 2027 03:32:49.415            20.135         10067.500
        88   04 Jun 2027 03:32:53.540   04 Jun 2027 03:33:44.560            51.020         25510.000
        89   04 Jun 2027 03:36:07.014   04 Jun 2027 03:37:28.427            81.413         40706.500
        90   04 Jun 2027 04:55:41.037   04 Jun 2027 04:55:48.558             7.521          3760.500
        91   04 Jun 2027 04:56:21.310   04 Jun 2027 04:56:39.912            18.602          9301.000
        92   04 Jun 2027 04:56:53.856   04 Jun 2027 04:57:13.618            19.762          9881.000
        93   04 Jun 2027 05:07:23.827   04 Jun 2027 05:08:05.361            41.534         19423.719
        94   04 Jun 2027 05:08:20.033   04 Jun 2027 05:08:20.033             0.000             0.000
        95   04 Jun 2027 05:08:27.346   04 Jun 2027 05:08:30.103             2.757           287.812
        96   04 Jun 2027 06:29:37.037   04 Jun 2027 06:29:49.792            12.755          5684.906
        97   04 Jun 2027 06:30:12.642   04 Jun 2027 06:30:14.880             2.238           676.375
        98   04 Jun 2027 06:32:05.290   04 Jun 2027 06:32:14.090             8.800          3149.031
        99   04 Jun 2027 06:33:42.687   04 Jun 2027 06:33:45.002             2.315          1157.500
       100   04 Jun 2027 06:34:31.509   04 Jun 2027 06:34:39.959             8.450          2787.969
       101   04 Jun 2027 08:04:40.545   04 Jun 2027 08:04:49.635             9.090          3998.469
       102   04 Jun 2027 08:06:44.150   04 Jun 2027 08:06:46.489             2.339          1169.500
       103   04 Jun 2027 08:07:37.665   04 Jun 2027 08:07:43.745             6.080          2625.563
       104   04 Jun 2027 08:08:09.835   04 Jun 2027 08:08:09.835             0.000             0.000
       105   04 Jun 2027 08:08:25.114   04 Jun 2027 08:08:28.164             3.050          1210.781
       106   04 Jun 2027 08:09:51.418   04 Jun 2027 08:09:53.035             1.617           808.500
       107   04 Jun 2027 08:10:20.795   04 Jun 2027 08:10:26.860             6.065          2660.687
       108   04 Jun 2027 08:12:36.802   04 Jun 2027 08:12:45.004             8.202          3250.625
       109   04 Jun 2027 09:42:03.716   04 Jun 2027 09:42:14.031            10.315          4318.375
       110   04 Jun 2027 09:45:11.973   04 Jun 2027 09:45:23.388            11.415          4849.750
       111   04 Jun 2027 09:46:21.392   04 Jun 2027 09:46:27.507             6.115          1592.000
       112   04 Jun 2027 09:46:34.874   04 Jun 2027 09:46:35.478             0.604            34.187
       113   04 Jun 2027 09:47:11.915   04 Jun 2027 09:47:15.866             3.951           979.969
       114   04 Jun 2027 09:47:31.068   04 Jun 2027 09:47:31.950             0.882           429.031
       115   04 Jun 2027 09:47:48.391   04 Jun 2027 09:47:52.727             4.336           513.781
       116   04 Jun 2027 09:48:32.694   04 Jun 2027 09:48:42.512             9.818          1170.375
       117   04 Jun 2027 09:49:03.517   04 Jun 2027 09:49:06.462             2.945           532.250
       118   04 Jun 2027 11:18:51.898   04 Jun 2027 11:19:07.147            15.249          7191.375
       119   04 Jun 2027 11:20:04.290   04 Jun 2027 11:20:09.669             5.379          1125.812
       120   04 Jun 2027 11:20:28.128   04 Jun 2027 11:20:35.461             7.333           530.281
       121   04 Jun 2027 11:20:53.393   04 Jun 2027 11:20:55.158             1.765           301.000
       122   04 Jun 2027 11:21:04.097   04 Jun 2027 11:21:06.443             2.346           279.344
       123   04 Jun 2027 11:21:33.621   04 Jun 2027 11:21:35.136             1.515           497.500
       124   04 Jun 2027 11:21:48.625   04 Jun 2027 11:21:56.452             7.827           379.125
       125   04 Jun 2027 11:22:18.754   04 Jun 2027 11:22:19.615             0.861           206.156
       126   04 Jun 2027 11:22:41.603   04 Jun 2027 11:22:42.930             1.327           656.969
       127   04 Jun 2027 11:23:19.285   04 Jun 2027 11:23:27.247             7.962          1129.312
       128   04 Jun 2027 11:24:49.268   04 Jun 2027 11:24:54.273             5.005          2214.531
       129   04 Jun 2027 11:24:56.733   04 Jun 2027 11:24:57.618             0.885            76.875
       130   05 Jun 2027 03:42:49.931   05 Jun 2027 03:45:39.463           169.532         84766.000
       131   05 Jun 2027 03:46:07.690   05 Jun 2027 03:46:10.664             2.974          1487.000
       132   05 Jun 2027 03:47:03.690   05 Jun 2027 03:47:18.809            15.119          7559.500
       133   05 Jun 2027 03:48:06.053   05 Jun 2027 03:48:12.869             6.816          3408.000
       134   05 Jun 2027 03:49:01.264   05 Jun 2027 03:49:17.948            16.684          8342.000
       135   05 Jun 2027 03:49:41.464   05 Jun 2027 03:49:55.836            14.372          7186.000
       136   05 Jun 2027 05:07:11.784   05 Jun 2027 05:08:01.132            49.348         24674.000
       137   05 Jun 2027 05:19:25.182   05 Jun 2027 05:19:56.824            31.642         15821.000
       138   05 Jun 2027 06:41:20.839   05 Jun 2027 06:41:38.389            17.550          6643.094
       139   05 Jun 2027 06:42:33.956   05 Jun 2027 06:42:34.968             1.012           506.000
       140   05 Jun 2027 06:43:36.343   05 Jun 2027 06:43:43.138             6.795          1861.594
       141   05 Jun 2027 06:44:13.525   05 Jun 2027 06:44:15.398             1.873           593.281
       142   05 Jun 2027 06:45:40.753   05 Jun 2027 06:45:47.968             7.215          2237.812
       143   05 Jun 2027 06:45:58.054   05 Jun 2027 06:46:00.793             2.739           315.188
       144   05 Jun 2027 08:16:08.866   05 Jun 2027 08:16:18.596             9.730          4486.125
       145   05 Jun 2027 08:16:59.687   05 Jun 2027 08:17:02.687             3.000          1284.094
       146   05 Jun 2027 08:18:16.088   05 Jun 2027 08:18:22.874             6.786          1233.187
       147   05 Jun 2027 08:19:13.830   05 Jun 2027 08:19:23.739             9.909          1550.250
       148   05 Jun 2027 08:20:41.536   05 Jun 2027 08:20:47.197             5.661          2167.906
       149   05 Jun 2027 08:21:21.273   05 Jun 2027 08:21:23.692             2.419           317.094
       150   05 Jun 2027 08:21:56.364   05 Jun 2027 08:21:56.364             0.000             0.000
       151   05 Jun 2027 08:22:54.420   05 Jun 2027 08:22:56.419             1.999           999.500
       152   05 Jun 2027 08:23:05.164   05 Jun 2027 08:23:07.679             2.515          1188.469
       153   05 Jun 2027 08:23:19.068   05 Jun 2027 08:23:21.685             2.617           171.063
       154   05 Jun 2027 08:24:29.314   05 Jun 2027 08:24:32.887             3.573          1718.031
       155   05 Jun 2027 09:53:58.374   05 Jun 2027 09:54:10.126            11.752          5542.187
       156   05 Jun 2027 09:57:01.314   05 Jun 2027 09:57:11.492            10.178          4389.469
       157   05 Jun 2027 09:58:06.127   05 Jun 2027 09:58:08.618             2.491          1222.625
       158   05 Jun 2027 09:58:15.120   05 Jun 2027 09:58:16.978             1.858           203.188
       159   05 Jun 2027 09:58:50.174   05 Jun 2027 09:58:51.906             1.732           422.656
       160   05 Jun 2027 09:59:57.538   05 Jun 2027 10:00:05.887             8.349          1971.937
       161   05 Jun 2027 10:00:13.688   05 Jun 2027 10:00:15.743             2.055           243.781
       162   05 Jun 2027 10:00:51.986   05 Jun 2027 10:00:56.176             4.190          1093.281
       163   05 Jun 2027 11:30:42.785   05 Jun 2027 11:30:57.336            14.551          6667.625
       164   05 Jun 2027 11:31:19.681   05 Jun 2027 11:31:21.305             1.624           698.281
       165   05 Jun 2027 11:33:25.663   05 Jun 2027 11:33:31.766             6.103          2894.875
       166   05 Jun 2027 11:34:08.925   05 Jun 2027 11:34:25.637            16.712          1154.719
       167   05 Jun 2027 11:34:35.441   05 Jun 2027 11:34:35.570             0.129            64.500
       168   05 Jun 2027 11:34:57.182   05 Jun 2027 11:34:59.673             2.491           897.563
       169   05 Jun 2027 11:35:37.156   05 Jun 2027 11:35:43.826             6.670          1171.344
       170   05 Jun 2027 11:37:03.452   05 Jun 2027 11:37:08.618             5.166          2488.312
       171   05 Jun 2027 11:37:28.734   05 Jun 2027 11:37:29.081             0.347           173.500
       172   06 Jun 2027 03:55:09.483   06 Jun 2027 03:56:54.798           105.315         52657.500
       173   06 Jun 2027 03:57:02.184   06 Jun 2027 03:57:17.165            14.981          7490.500
       174   06 Jun 2027 03:57:47.356   06 Jun 2027 03:58:02.197            14.841          7420.500
       175   06 Jun 2027 03:58:19.612   06 Jun 2027 03:58:58.550            38.938         19469.000
       176   06 Jun 2027 04:00:17.083   06 Jun 2027 04:00:21.966             4.883          2441.500
       177   06 Jun 2027 05:19:10.524   06 Jun 2027 05:20:18.407            67.883         33941.500
       178   06 Jun 2027 05:20:36.709   06 Jun 2027 05:20:52.636            15.927          7963.500
       179   06 Jun 2027 06:55:07.216   06 Jun 2027 06:56:01.114            53.898         26675.188
       180   06 Jun 2027 06:56:37.582   06 Jun 2027 06:56:38.035             0.453           226.500
       181   06 Jun 2027 06:56:59.255   06 Jun 2027 06:57:06.200             6.945          1536.281
       182   06 Jun 2027 06:58:17.636   06 Jun 2027 06:58:22.977             5.341          1961.219
       183   06 Jun 2027 08:28:57.709   06 Jun 2027 08:29:15.227            17.518          3970.125
       184   06 Jun 2027 08:31:08.290   06 Jun 2027 08:31:11.115             2.825          1359.781
       185   06 Jun 2027 08:31:20.070   06 Jun 2027 08:31:21.805             1.735           279.844
       186   06 Jun 2027 08:32:28.503   06 Jun 2027 08:32:37.623             9.120          2078.844
       187   06 Jun 2027 08:33:08.650   06 Jun 2027 08:33:09.519             0.869           283.906
       188   06 Jun 2027 08:33:37.832   06 Jun 2027 08:33:38.198             0.366           183.000
       189   06 Jun 2027 08:35:20.590   06 Jun 2027 08:35:31.559            10.969          3438.656
       190   06 Jun 2027 08:36:00.994   06 Jun 2027 08:36:02.899             1.905           905.656
       191   06 Jun 2027 08:36:44.696   06 Jun 2027 08:36:47.432             2.736          1306.156
       192   06 Jun 2027 08:37:04.512   06 Jun 2027 08:37:05.827             1.315           409.781
       193   06 Jun 2027 10:06:05.124   06 Jun 2027 10:06:20.697            15.573          7570.094
       194   06 Jun 2027 10:07:07.805   06 Jun 2027 10:07:09.756             1.951           767.750
       195   06 Jun 2027 10:07:23.947   06 Jun 2027 10:07:24.936             0.989           355.563
       196   06 Jun 2027 10:07:52.859   06 Jun 2027 10:07:56.357             3.498           456.313
       197   06 Jun 2027 10:10:36.902   06 Jun 2027 10:10:46.718             9.816          4867.750
       198   06 Jun 2027 10:11:00.877   06 Jun 2027 10:11:02.201             1.324           380.500
       199   06 Jun 2027 10:11:18.465   06 Jun 2027 10:11:21.258             2.793           353.750
       200   06 Jun 2027 10:12:23.037   06 Jun 2027 10:12:28.128             5.091          1930.594
       201   06 Jun 2027 10:12:29.432   06 Jun 2027 10:12:35.029             5.597            40.750
       202   06 Jun 2027 10:13:02.911   06 Jun 2027 10:13:05.017             2.106           863.625
       203   06 Jun 2027 10:13:11.983   06 Jun 2027 10:13:13.762             1.779           217.687
       204   06 Jun 2027 11:43:08.196   06 Jun 2027 11:43:27.443            19.247          8231.344
       205   06 Jun 2027 11:43:58.567   06 Jun 2027 11:44:10.356            11.789           528.844
       206   06 Jun 2027 11:45:29.036   06 Jun 2027 11:45:34.119             5.083          1902.187
       207   06 Jun 2027 11:45:49.448   06 Jun 2027 11:45:52.740             3.292           340.875
       208   06 Jun 2027 11:46:06.591   06 Jun 2027 11:46:10.211             3.620           373.312
       209   06 Jun 2027 11:47:11.497   06 Jun 2027 11:47:17.023             5.526          1565.469
       210   06 Jun 2027 11:48:13.529   06 Jun 2027 11:48:19.688             6.159          1574.156
       211   06 Jun 2027 11:48:30.168   06 Jun 2027 11:48:32.587             2.419           239.313
       212   06 Jun 2027 11:48:52.547   06 Jun 2027 11:48:54.243             1.696           556.344
       213   07 Jun 2027 04:07:43.420   07 Jun 2027 04:09:58.139           134.719         67359.500
       214   07 Jun 2027 04:10:26.632   07 Jun 2027 04:11:30.796            64.164         32082.000
       215   07 Jun 2027 05:31:04.941   07 Jun 2027 05:32:01.300            56.359         28179.500
       216   07 Jun 2027 07:07:29.086   07 Jun 2027 07:08:25.912            56.826         27988.469
       217   07 Jun 2027 07:09:24.198   07 Jun 2027 07:09:28.264             4.066          1401.531
       218   07 Jun 2027 07:09:33.838   07 Jun 2027 07:09:36.742             2.904           168.188
       219   07 Jun 2027 07:09:54.380   07 Jun 2027 07:09:57.207             2.827           367.875
       220   07 Jun 2027 08:41:11.854   07 Jun 2027 08:41:29.259            17.405          4164.313
       221   07 Jun 2027 08:43:10.143   07 Jun 2027 08:43:17.838             7.695          1805.344
       222   07 Jun 2027 08:44:13.176   07 Jun 2027 08:44:14.101             0.925           462.500
       223   07 Jun 2027 08:44:27.872   07 Jun 2027 08:44:31.016             3.144          1490.719
       224   07 Jun 2027 08:44:47.391   07 Jun 2027 08:44:49.473             2.082           461.375
       225   07 Jun 2027 08:45:51.456   07 Jun 2027 08:45:56.114             4.658          1900.469
       226   07 Jun 2027 08:46:23.483   07 Jun 2027 08:46:23.521             0.038            19.000
       227   07 Jun 2027 08:47:51.865   07 Jun 2027 08:48:01.718             9.853          3597.031
       228   07 Jun 2027 08:48:19.537   07 Jun 2027 08:48:23.292             3.755           556.844
       229   07 Jun 2027 08:48:53.031   07 Jun 2027 08:48:53.031             0.000             0.000
       230   07 Jun 2027 08:49:05.108   07 Jun 2027 08:49:09.951             4.843          1047.187
       231   07 Jun 2027 10:18:31.649   07 Jun 2027 10:18:46.019            14.370          5561.531
       232   07 Jun 2027 10:19:03.544   07 Jun 2027 10:19:03.693             0.149            65.375
       233   07 Jun 2027 10:19:14.637   07 Jun 2027 10:19:19.174             4.537           342.000
       234   07 Jun 2027 10:20:26.838   07 Jun 2027 10:20:32.557             5.719          1505.625
       235   07 Jun 2027 10:20:53.535   07 Jun 2027 10:21:00.416             6.881           655.562
       236   07 Jun 2027 10:21:40.200   07 Jun 2027 10:21:41.712             1.512           634.625
       237   07 Jun 2027 10:22:11.977   07 Jun 2027 10:22:18.109             6.132           876.375
       238   07 Jun 2027 10:22:51.396   07 Jun 2027 10:22:52.468             1.072           247.469
       239   07 Jun 2027 10:23:08.135   07 Jun 2027 10:23:08.902             0.767           369.406
       240   07 Jun 2027 10:23:36.311   07 Jun 2027 10:23:38.690             2.379           539.594
       241   07 Jun 2027 10:24:49.847   07 Jun 2027 10:24:54.928             5.081          1925.125
       242   07 Jun 2027 10:25:04.481   07 Jun 2027 10:25:06.577             2.096           188.125
       243   07 Jun 2027 11:55:28.421   07 Jun 2027 11:55:43.287            14.866          7205.531
       244   07 Jun 2027 11:57:05.149   07 Jun 2027 11:57:10.843             5.694          2147.062
       245   07 Jun 2027 11:57:24.589   07 Jun 2027 11:57:27.773             3.184           429.563
       246   07 Jun 2027 11:57:58.333   07 Jun 2027 11:58:03.418             5.085           955.000
       247   07 Jun 2027 11:58:40.129   07 Jun 2027 11:58:45.615             5.486          1147.219
       248   07 Jun 2027 11:59:14.344   07 Jun 2027 11:59:21.589             7.245           897.781
       249   07 Jun 2027 11:59:42.333   07 Jun 2027 11:59:43.390             1.057           360.656
       250   08 Jun 2027 04:19:58.279   08 Jun 2027 04:22:15.324           137.045         68522.500
       251   08 Jun 2027 04:23:01.769   08 Jun 2027 04:23:17.953            16.184          8092.000
       252   08 Jun 2027 05:42:52.192   08 Jun 2027 05:44:29.353            97.161         48580.500
       253   08 Jun 2027 05:45:19.088   08 Jun 2027 05:45:31.692            12.604          6302.000
       254   08 Jun 2027 07:19:32.442   08 Jun 2027 07:20:32.391            59.949         28993.250
       255   08 Jun 2027 07:20:41.002   08 Jun 2027 07:20:45.310             4.308           269.094
       256   08 Jun 2027 07:21:04.460   08 Jun 2027 07:21:07.730             3.270           502.562
       257   08 Jun 2027 07:21:18.923   08 Jun 2027 07:21:20.686             1.763            33.375
       258   08 Jun 2027 07:22:04.835   08 Jun 2027 07:22:07.353             2.518          1139.969
       259   08 Jun 2027 08:54:31.454   08 Jun 2027 08:54:44.908            13.454          5597.469
       260   08 Jun 2027 08:55:16.572   08 Jun 2027 08:55:25.161             8.589           441.750
       261   08 Jun 2027 08:55:45.358   08 Jun 2027 08:55:47.057             1.699           563.344
       262   08 Jun 2027 08:57:48.304   08 Jun 2027 08:57:56.316             8.012          3743.000
       263   08 Jun 2027 08:58:27.714   08 Jun 2027 08:58:31.216             3.502           697.438
       264   08 Jun 2027 09:00:04.698   08 Jun 2027 09:00:04.698             0.000             0.000
       265   08 Jun 2027 09:00:30.968   08 Jun 2027 09:00:37.307             6.339          3169.500
       266   08 Jun 2027 09:01:20.736   08 Jun 2027 09:01:23.816             3.080          1529.937
       267   08 Jun 2027 10:30:39.706   08 Jun 2027 10:30:52.338            12.632          5743.500
       268   08 Jun 2027 10:31:18.896   08 Jun 2027 10:31:20.251             1.355           238.031
       269   08 Jun 2027 10:31:42.057   08 Jun 2027 10:31:42.313             0.256           124.281
       270   08 Jun 2027 10:32:03.065   08 Jun 2027 10:32:06.597             3.532           360.969
       271   08 Jun 2027 10:33:10.293   08 Jun 2027 10:33:14.142             3.849           933.719
       272   08 Jun 2027 10:33:24.164   08 Jun 2027 10:33:25.661             1.497           313.188
       273   08 Jun 2027 10:34:12.004   08 Jun 2027 10:34:15.240             3.236          1448.219
       274   08 Jun 2027 10:34:19.421   08 Jun 2027 10:34:26.078             6.657           130.656
       275   08 Jun 2027 10:34:42.474   08 Jun 2027 10:34:43.544             1.070           433.406
       276   08 Jun 2027 10:35:30.576   08 Jun 2027 10:35:40.551             9.975          1458.688
       277   08 Jun 2027 10:36:46.589   08 Jun 2027 10:36:51.221             4.632          2063.687
       278   08 Jun 2027 10:37:02.823   08 Jun 2027 10:37:05.389             2.566           362.563
       279   08 Jun 2027 10:37:09.717   08 Jun 2027 10:37:10.237             0.520            55.812
       280   09 Jun 2027 04:31:44.388   09 Jun 2027 04:32:15.957            31.569         15784.500
       281   09 Jun 2027 04:32:33.970   09 Jun 2027 04:35:18.809           164.839         82419.500
       282   09 Jun 2027 04:35:35.660   09 Jun 2027 04:35:35.683             0.023            11.500
       283   09 Jun 2027 05:55:06.765   09 Jun 2027 05:56:45.945            99.180         49273.344
       284   09 Jun 2027 07:31:38.723   09 Jun 2027 07:31:50.123            11.400          5342.375
       285   09 Jun 2027 07:32:42.514   09 Jun 2027 07:32:48.323             5.809          1637.219
       286   09 Jun 2027 07:33:49.751   09 Jun 2027 07:33:54.489             4.738          1804.844
       287   09 Jun 2027 07:34:42.670   09 Jun 2027 07:34:47.205             4.535          1318.562
       288   09 Jun 2027 07:34:58.782   09 Jun 2027 07:35:00.398             1.616             2.750
       289   09 Jun 2027 09:06:49.123   09 Jun 2027 09:06:57.003             7.880          3940.000
       290   09 Jun 2027 09:07:05.997   09 Jun 2027 09:07:10.292             4.295           828.031
       291   09 Jun 2027 09:08:21.675   09 Jun 2027 09:08:27.456             5.781          2230.719
       292   09 Jun 2027 09:09:05.149   09 Jun 2027 09:09:06.737             1.588            22.375
       293   09 Jun 2027 09:09:46.321   09 Jun 2027 09:09:49.087             2.766          1117.875
       294   09 Jun 2027 09:10:44.651   09 Jun 2027 09:10:51.736             7.085          1278.187
       295   09 Jun 2027 09:11:06.566   09 Jun 2027 09:11:07.869             1.303           463.438
       296   09 Jun 2027 09:11:14.077   09 Jun 2027 09:11:17.918             3.841            91.125
       297   09 Jun 2027 09:11:22.873   09 Jun 2027 09:11:23.184             0.311           120.312
       298   09 Jun 2027 09:11:57.208   09 Jun 2027 09:11:59.449             2.241          1063.250
       299   09 Jun 2027 09:12:31.059   09 Jun 2027 09:12:35.363             4.304           930.687
       300   09 Jun 2027 09:13:13.177   09 Jun 2027 09:13:16.701             3.524          1181.687
       301   09 Jun 2027 10:43:12.057   09 Jun 2027 10:43:28.091            16.034          6611.531
       302   09 Jun 2027 10:43:50.070   09 Jun 2027 10:43:50.476             0.406             0.250
       303   09 Jun 2027 10:45:03.669   09 Jun 2027 10:45:06.452             2.783          1326.469
       304   09 Jun 2027 10:45:13.538   09 Jun 2027 10:45:15.604             2.066           221.438
       305   09 Jun 2027 10:46:13.827   09 Jun 2027 10:46:17.155             3.328          1327.125
       306   09 Jun 2027 10:46:44.511   09 Jun 2027 10:46:49.746             5.235           744.562
       307   09 Jun 2027 10:46:58.475   09 Jun 2027 10:47:02.329             3.854           272.781
       308   09 Jun 2027 10:47:25.958   09 Jun 2027 10:47:33.624             7.666           738.406
       309   09 Jun 2027 10:47:44.142   09 Jun 2027 10:47:47.526             3.384           328.688
       310   10 Jun 2027 03:06:32.499   10 Jun 2027 03:08:35.300           122.801         61400.500
       311   10 Jun 2027 03:09:07.761   10 Jun 2027 03:09:08.239             0.478           239.000
       312   10 Jun 2027 03:09:12.593   10 Jun 2027 03:09:17.028             4.435          2217.500
       313   10 Jun 2027 03:09:32.422   10 Jun 2027 03:09:50.650            18.228          9114.000
       314   10 Jun 2027 04:43:41.187   10 Jun 2027 04:44:20.258            39.071         19535.500
       315   10 Jun 2027 04:44:42.181   10 Jun 2027 04:46:00.281            78.100         39050.000
       316   10 Jun 2027 06:07:36.393   10 Jun 2027 06:08:20.647            44.254         22127.000
       317   10 Jun 2027 06:09:14.289   10 Jun 2027 06:09:14.289             0.000             0.000
       318   10 Jun 2027 06:10:06.438   10 Jun 2027 06:10:18.237            11.799          3915.876
       319   10 Jun 2027 07:43:31.277   10 Jun 2027 07:43:39.697             8.420          2986.875
       320   10 Jun 2027 07:44:21.915   10 Jun 2027 07:44:25.965             4.050           782.500
       321   10 Jun 2027 07:45:03.281   10 Jun 2027 07:45:10.516             7.235           820.875
       322   10 Jun 2027 07:45:43.602   10 Jun 2027 07:45:53.385             9.783          1011.281
       323   10 Jun 2027 07:46:08.001   10 Jun 2027 07:46:08.001             0.000             0.000
       324   10 Jun 2027 09:18:26.715   10 Jun 2027 09:18:36.456             9.741          4012.750
       325   10 Jun 2027 09:20:20.604   10 Jun 2027 09:20:26.432             5.828          2782.219
       326   10 Jun 2027 09:21:07.680   10 Jun 2027 09:21:13.531             5.851           852.969
       327   10 Jun 2027 09:22:10.495   10 Jun 2027 09:22:13.427             2.932          1443.219
       328   10 Jun 2027 09:25:05.196   10 Jun 2027 09:25:14.464             9.268          4293.594
       329   10 Jun 2027 10:54:46.532   10 Jun 2027 10:55:02.818            16.286          7604.938
       330   10 Jun 2027 10:55:31.853   10 Jun 2027 10:55:33.448             1.595           388.594
       331   10 Jun 2027 10:55:55.218   10 Jun 2027 10:55:59.838             4.620           680.313
       332   10 Jun 2027 10:57:05.972   10 Jun 2027 10:57:11.162             5.190           302.438
       333   10 Jun 2027 10:57:45.809   10 Jun 2027 10:57:48.541             2.732           922.937
       334   10 Jun 2027 10:59:03.218   10 Jun 2027 10:59:13.755            10.537          2277.813
       335   10 Jun 2027 11:00:05.113   10 Jun 2027 11:00:17.359            12.246          1578.031
       336   10 Jun 2027 11:01:04.234   10 Jun 2027 11:01:07.612             3.378          1464.844
       337   10 Jun 2027 11:01:09.806   10 Jun 2027 11:01:10.527             0.721            20.062
       338   11 Jun 2027 03:18:36.144   11 Jun 2027 03:21:48.225           192.081         96040.500
       339   11 Jun 2027 03:25:20.108   11 Jun 2027 03:25:34.149            14.041          7020.500
       340   11 Jun 2027 04:44:23.864   11 Jun 2027 04:44:56.970            33.106         16553.000
       341   11 Jun 2027 04:55:37.220   11 Jun 2027 04:56:56.323            79.103         39211.687
       342   11 Jun 2027 06:18:13.805   11 Jun 2027 06:18:26.682            12.877          6020.750
       343   11 Jun 2027 06:19:16.609   11 Jun 2027 06:19:17.886             1.277           146.937
       344   11 Jun 2027 06:19:55.052   11 Jun 2027 06:19:58.360             3.308           822.125
       345   11 Jun 2027 06:20:17.127   11 Jun 2027 06:20:19.899             2.772           316.469
       346   11 Jun 2027 06:21:17.038   11 Jun 2027 06:21:17.038             0.000             0.000
       347   11 Jun 2027 06:21:46.414   11 Jun 2027 06:21:59.000            12.586          2646.781
       348   11 Jun 2027 06:22:32.935   11 Jun 2027 06:22:32.935             0.000             0.000
       349   11 Jun 2027 06:22:47.364   11 Jun 2027 06:22:52.020             4.656          1511.375
       350   11 Jun 2027 07:53:48.923   11 Jun 2027 07:53:58.377             9.454          4453.719
       351   11 Jun 2027 07:55:15.907   11 Jun 2027 07:55:16.739             0.832           416.000
       352   11 Jun 2027 07:55:31.689   11 Jun 2027 07:55:35.867             4.178          1178.219
       353   11 Jun 2027 07:56:18.927   11 Jun 2027 07:56:23.756             4.829           728.594
       354   11 Jun 2027 07:56:58.034   11 Jun 2027 07:57:01.498             3.464          1038.812
       355   11 Jun 2027 07:58:08.595   11 Jun 2027 07:58:09.033             0.438            18.344
       356   11 Jun 2027 07:58:52.356   11 Jun 2027 07:58:56.848             4.492          1353.844
       357   11 Jun 2027 07:59:32.273   11 Jun 2027 07:59:34.637             2.364          1025.906
       358   11 Jun 2027 09:30:00.622   11 Jun 2027 09:30:06.860             6.238          3119.000
       359   11 Jun 2027 09:33:12.815   11 Jun 2027 09:33:31.785            18.970          7877.000
       360   11 Jun 2027 09:34:11.313   11 Jun 2027 09:34:14.985             3.672          1103.531
       361   11 Jun 2027 09:35:19.235   11 Jun 2027 09:35:23.277             4.042          1024.531
       362   11 Jun 2027 09:35:37.201   11 Jun 2027 09:35:38.259             1.058           384.594
       363   11 Jun 2027 09:35:58.431   11 Jun 2027 09:35:59.248             0.817           408.500
       364   11 Jun 2027 09:35:59.908   11 Jun 2027 09:36:03.127             3.219            89.344
       365   11 Jun 2027 09:36:53.143   11 Jun 2027 09:36:57.930             4.787          1560.719
       366   11 Jun 2027 09:37:33.214   11 Jun 2027 09:37:35.594             2.380          1054.469
       367   11 Jun 2027 11:07:06.846   11 Jun 2027 11:07:24.804            17.958          8761.594
       368   11 Jun 2027 11:08:01.798   11 Jun 2027 11:08:05.266             3.468          1024.719
       369   11 Jun 2027 11:08:48.266   11 Jun 2027 11:08:49.396             1.130           174.125
       370   11 Jun 2027 11:08:58.161   11 Jun 2027 11:08:58.274             0.113            10.844
       371   11 Jun 2027 11:09:10.626   11 Jun 2027 11:09:12.341             1.715            22.000
       372   11 Jun 2027 11:09:42.761   11 Jun 2027 11:09:48.312             5.551           758.531
       373   11 Jun 2027 11:10:18.830   11 Jun 2027 11:10:27.229             8.399           891.062
       374   11 Jun 2027 11:10:37.920   11 Jun 2027 11:10:37.920             0.000             0.000
       375   11 Jun 2027 11:10:41.169   11 Jun 2027 11:10:45.901             4.732           424.375
       376   11 Jun 2027 11:10:53.678   11 Jun 2027 11:10:54.874             1.196           243.031
       377   11 Jun 2027 11:11:27.385   11 Jun 2027 11:11:29.026             1.641           709.313
       378   11 Jun 2027 11:12:40.179   11 Jun 2027 11:12:44.440             4.261          2000.969
       379   11 Jun 2027 11:12:49.871   11 Jun 2027 11:12:51.356             1.485           169.719
       380   11 Jun 2027 11:12:52.634   11 Jun 2027 11:12:54.805             2.171            39.938
       381   11 Jun 2027 11:13:10.865   11 Jun 2027 11:13:12.455             1.590           184.969
       382   12 Jun 2027 03:31:05.548   12 Jun 2027 03:33:08.368           122.820         61410.000
       383   12 Jun 2027 03:33:16.640   12 Jun 2027 03:34:05.751            49.111         24555.500
       384   12 Jun 2027 03:35:10.379   12 Jun 2027 03:35:38.354            27.975         13987.500
       385   12 Jun 2027 03:36:22.965   12 Jun 2027 03:36:30.182             7.217          3608.500
       386   12 Jun 2027 03:36:32.009   12 Jun 2027 03:36:59.688            27.679         13839.500
       387   12 Jun 2027 03:37:16.791   12 Jun 2027 03:37:19.116             2.325          1162.500
       388   12 Jun 2027 03:37:23.006   12 Jun 2027 03:37:48.341            25.335         12667.500
       389   12 Jun 2027 04:55:56.893   12 Jun 2027 04:56:31.628            34.735         17367.500
       390   12 Jun 2027 05:07:39.801   12 Jun 2027 05:08:20.034            40.233         19953.750
       391   12 Jun 2027 05:08:35.933   12 Jun 2027 05:08:35.933             0.000             0.000
       392   12 Jun 2027 06:29:54.280   12 Jun 2027 06:30:05.171            10.891          5160.687
       393   12 Jun 2027 06:30:24.674   12 Jun 2027 06:30:26.810             2.136           491.281
       394   12 Jun 2027 06:30:49.510   12 Jun 2027 06:30:54.825             5.315           632.156
       395   12 Jun 2027 06:32:51.484   12 Jun 2027 06:32:57.016             5.532          2518.031
       396   12 Jun 2027 06:33:36.577   12 Jun 2027 06:33:36.577             0.000             0.000
       397   12 Jun 2027 06:34:32.950   12 Jun 2027 06:34:39.589             6.639          2273.750
       398   12 Jun 2027 08:04:55.552   12 Jun 2027 08:05:04.745             9.193          4210.969
       399   12 Jun 2027 08:05:49.549   12 Jun 2027 08:05:51.093             1.544           713.937
       400   12 Jun 2027 08:06:26.922   12 Jun 2027 08:06:32.853             5.931          1119.656
       401   12 Jun 2027 08:07:16.160   12 Jun 2027 08:07:18.937             2.777          1297.312
       402   12 Jun 2027 08:08:45.634   12 Jun 2027 08:08:45.634             0.000             0.000
       403   12 Jun 2027 08:10:07.672   12 Jun 2027 08:10:20.149            12.477          5157.344
       404   12 Jun 2027 08:10:37.216   12 Jun 2027 08:10:37.715             0.499           225.437
       405   12 Jun 2027 08:11:21.950   12 Jun 2027 08:11:24.664             2.714          1357.000
       406   12 Jun 2027 08:12:52.564   12 Jun 2027 08:13:02.555             9.991          2483.656
       407   12 Jun 2027 09:42:20.661   12 Jun 2027 09:42:28.842             8.181          3940.813
       408   12 Jun 2027 09:44:20.869   12 Jun 2027 09:44:20.869             0.000             0.000
       409   12 Jun 2027 09:45:27.957   12 Jun 2027 09:45:38.103            10.146          4781.125
       410   12 Jun 2027 09:46:37.256   12 Jun 2027 09:46:41.364             4.108          1558.625
       411   12 Jun 2027 09:47:16.635   12 Jun 2027 09:47:18.495             1.860           821.031
       412   12 Jun 2027 09:47:24.601   12 Jun 2027 09:47:25.843             1.242           190.812
       413   12 Jun 2027 09:47:38.058   12 Jun 2027 09:47:40.300             2.242           256.406
       414   12 Jun 2027 09:48:01.137   12 Jun 2027 09:48:01.137             0.000             0.000
       415   12 Jun 2027 09:48:36.471   12 Jun 2027 09:48:41.902             5.431          1700.500
       416   12 Jun 2027 09:49:13.847   12 Jun 2027 09:49:16.361             2.514           785.000
       417   12 Jun 2027 09:49:33.479   12 Jun 2027 09:49:38.875             5.396           534.937
       418   12 Jun 2027 11:19:08.210   12 Jun 2027 11:19:32.360            24.150          7789.906
       419   12 Jun 2027 11:21:36.421   12 Jun 2027 11:21:43.295             6.874          2437.937
       420   12 Jun 2027 11:22:28.684   12 Jun 2027 11:22:33.338             4.654          1107.094
       421   12 Jun 2027 11:22:36.487   12 Jun 2027 11:22:37.149             0.662            98.406
       422   12 Jun 2027 11:23:03.813   12 Jun 2027 11:23:06.194             2.381           714.531
       423   12 Jun 2027 11:23:35.038   12 Jun 2027 11:23:37.408             2.370           901.375
       424   12 Jun 2027 11:24:29.035   12 Jun 2027 11:24:33.900             4.865           939.469
       425   12 Jun 2027 11:25:08.928   12 Jun 2027 11:25:13.414             4.486           934.594
       426   13 Jun 2027 03:43:06.724   13 Jun 2027 03:46:06.134           179.410         89705.000
       427   13 Jun 2027 03:46:24.941   13 Jun 2027 03:46:29.253             4.312          2156.000
       428   13 Jun 2027 03:47:21.235   13 Jun 2027 03:47:36.413            15.178          7589.000
       429   13 Jun 2027 03:48:20.631   13 Jun 2027 03:49:01.234            40.603         20301.500
       430   13 Jun 2027 03:49:18.267   13 Jun 2027 03:49:18.267             0.000             0.000
       431   13 Jun 2027 03:50:05.186   13 Jun 2027 03:50:10.812             5.626          2813.000
       432   13 Jun 2027 05:07:28.737   13 Jun 2027 05:08:18.763            50.026         25013.000
       433   13 Jun 2027 05:19:41.653   13 Jun 2027 05:20:13.138            31.485         15742.500
       434   13 Jun 2027 06:41:35.929   13 Jun 2027 06:41:53.179            17.250          7347.000
       435   13 Jun 2027 06:43:39.214   13 Jun 2027 06:43:43.389             4.175          1873.437
       436   13 Jun 2027 06:43:50.736   13 Jun 2027 06:43:52.707             1.971           145.688
       437   13 Jun 2027 06:44:20.110   13 Jun 2027 06:44:23.706             3.596           821.625
       438   13 Jun 2027 06:44:29.112   13 Jun 2027 06:44:30.742             1.630           168.938
       439   13 Jun 2027 06:45:55.876   13 Jun 2027 06:46:05.166             9.290          2210.656
       440   13 Jun 2027 06:46:11.989   13 Jun 2027 06:46:14.793             2.804           180.719
       441   13 Jun 2027 06:46:44.160   13 Jun 2027 06:46:44.160             0.000             0.000
       442   13 Jun 2027 06:46:50.237   13 Jun 2027 06:46:54.687             4.450          1107.625
       443   13 Jun 2027 08:16:24.356   13 Jun 2027 08:16:36.552            12.196          4640.969
       444   13 Jun 2027 08:17:15.636   13 Jun 2027 08:17:18.719             3.083          1221.375
       445   13 Jun 2027 08:18:05.334   13 Jun 2027 08:18:06.160             0.826           409.813
       446   13 Jun 2027 08:18:28.137   13 Jun 2027 08:18:29.625             1.488           422.250
       447   13 Jun 2027 08:18:39.314   13 Jun 2027 08:18:41.210             1.896           273.344
       448   13 Jun 2027 08:20:45.999   13 Jun 2027 08:20:54.191             8.192          3565.938
       449   13 Jun 2027 08:22:09.703   13 Jun 2027 08:22:14.586             4.883          2213.969
       450   13 Jun 2027 08:23:11.533   13 Jun 2027 08:23:20.532             8.999          1779.594
       451   13 Jun 2027 08:24:18.676   13 Jun 2027 08:24:18.676             0.000             0.000
       452   13 Jun 2027 08:24:52.669   13 Jun 2027 08:24:58.988             6.319          2879.281
       453   13 Jun 2027 09:54:14.750   13 Jun 2027 09:54:28.770            14.020          6158.156
       454   13 Jun 2027 09:55:30.536   13 Jun 2027 09:55:33.862             3.326          1583.812
       455   13 Jun 2027 09:55:57.721   13 Jun 2027 09:55:59.427             1.706           745.594
       456   13 Jun 2027 09:56:04.838   13 Jun 2027 09:56:05.809             0.971            68.594
       457   13 Jun 2027 09:57:17.091   13 Jun 2027 09:57:21.291             4.200          1783.031
       458   13 Jun 2027 09:58:21.400   13 Jun 2027 09:58:27.767             6.367          1237.813
       459   13 Jun 2027 09:58:34.597   13 Jun 2027 09:58:38.780             4.183           213.437
       460   13 Jun 2027 09:58:57.688   13 Jun 2027 09:58:58.772             1.084           237.344
       461   13 Jun 2027 09:59:21.553   13 Jun 2027 09:59:22.271             0.718           359.000
       462   13 Jun 2027 09:59:36.872   13 Jun 2027 09:59:38.808             1.936           704.281
       463   13 Jun 2027 10:00:46.686   13 Jun 2027 10:00:53.540             6.854          2114.594
       464   13 Jun 2027 10:00:54.587   13 Jun 2027 10:00:55.388             0.801            32.719
       465   13 Jun 2027 10:01:15.583   13 Jun 2027 10:01:18.021             2.438           477.625
       466   13 Jun 2027 10:01:31.127   13 Jun 2027 10:01:33.955             2.828           404.844
       467   13 Jun 2027 10:01:36.002   13 Jun 2027 10:01:38.759             2.757            63.969
       468   13 Jun 2027 11:30:59.475   13 Jun 2027 11:31:13.559            14.084          6759.344
       469   13 Jun 2027 11:31:30.621   13 Jun 2027 11:31:34.582             3.961           409.594
       470   13 Jun 2027 11:31:58.088   13 Jun 2027 11:31:59.515             1.427           663.438
       471   13 Jun 2027 11:32:42.877   13 Jun 2027 11:32:47.320             4.443          1003.187
       472   13 Jun 2027 11:33:02.210   13 Jun 2027 11:33:05.099             2.889           465.313
       473   13 Jun 2027 11:33:53.785   13 Jun 2027 11:33:58.558             4.773           982.438
       474   13 Jun 2027 11:34:45.250   13 Jun 2027 11:34:50.432             5.182          1142.438
       475   13 Jun 2027 11:35:15.576   13 Jun 2027 11:35:16.943             1.367           683.500
       476   13 Jun 2027 11:35:31.532   13 Jun 2027 11:35:33.430             1.898           558.156
       477   13 Jun 2027 11:36:38.295   13 Jun 2027 11:36:44.060             5.765          2027.031
       478   13 Jun 2027 11:37:19.389   13 Jun 2027 11:37:22.131             2.742          1016.156
