uniorb/output/strategy_2/Camera/Camera_KinoSat_111607.txt

KinoSat_111607
-------------------------
    Access    *     Start Time (UTCG)     *     Stop Time (UTCG)  *   Duration (s) *   Data (Mbytes)
         1   01 Jun 2027 03:00:00.000   01 Jun 2027 03:00:00.511             0.511           255.500
         2   01 Jun 2027 04:32:47.092   01 Jun 2027 04:36:51.718           244.626        122313.000
         3   01 Jun 2027 04:37:10.805   01 Jun 2027 04:37:32.663            21.858         10929.000
         4   01 Jun 2027 04:38:31.774   01 Jun 2027 04:38:33.429             1.655           827.500
         5   01 Jun 2027 04:39:45.234   01 Jun 2027 04:39:49.046             3.812          1906.000
         6   01 Jun 2027 05:57:08.449   01 Jun 2027 05:57:38.171            29.722         14861.000
         7   01 Jun 2027 05:58:55.576   01 Jun 2027 05:58:55.931             0.355           177.500
         8   01 Jun 2027 06:09:21.590   01 Jun 2027 06:09:52.706            31.116         15558.000
         9   01 Jun 2027 07:31:15.336   01 Jun 2027 07:32:28.955            73.619         36809.500
        10   01 Jun 2027 07:33:18.623   01 Jun 2027 07:34:52.345            93.722         46861.000
        11   01 Jun 2027 09:06:03.413   01 Jun 2027 09:08:02.165           118.752         59376.000
        12   01 Jun 2027 09:09:29.985   01 Jun 2027 09:09:49.242            19.257          9628.500
        13   01 Jun 2027 09:13:12.688   01 Jun 2027 09:13:12.688             0.000             0.000
        14   01 Jun 2027 09:13:46.674   01 Jun 2027 09:13:57.384            10.710          5355.000
        15   01 Jun 2027 09:14:58.932   01 Jun 2027 09:15:00.516             1.584           792.000
        16   01 Jun 2027 10:43:54.490   01 Jun 2027 10:45:41.650           107.160         53580.000
        17   01 Jun 2027 10:49:51.985   01 Jun 2027 10:50:44.399            52.414         26207.000
        18   01 Jun 2027 10:51:13.015   01 Jun 2027 10:51:20.268             7.253          3626.500
        19   02 Jun 2027 03:06:43.297   02 Jun 2027 03:07:02.969            19.672          9836.000
        20   02 Jun 2027 03:07:08.288   02 Jun 2027 03:08:20.876            72.588         36294.000
        21   02 Jun 2027 03:08:47.675   02 Jun 2027 03:09:15.262            27.587         13793.500
        22   02 Jun 2027 03:10:21.119   02 Jun 2027 03:10:29.582             8.463          4231.500
        23   02 Jun 2027 03:11:58.482   02 Jun 2027 03:12:15.888            17.406          8703.000
        24   02 Jun 2027 04:45:10.588   02 Jun 2027 04:46:49.146            98.558         49279.000
        25   02 Jun 2027 04:46:53.953   02 Jun 2027 04:47:02.204             8.251          4125.500
        26   02 Jun 2027 04:47:14.829   02 Jun 2027 04:47:45.439            30.610         15305.000
        27   02 Jun 2027 04:48:31.737   02 Jun 2027 04:48:31.737             0.000             0.000
        28   02 Jun 2027 04:50:09.760   02 Jun 2027 04:50:17.891             8.131          4065.500
        29   02 Jun 2027 06:09:06.437   02 Jun 2027 06:10:25.265            78.828         39414.000
        30   02 Jun 2027 07:45:03.757   02 Jun 2027 07:46:59.212           115.455         57727.500
        31   02 Jun 2027 07:48:12.388   02 Jun 2027 07:48:54.467            42.079         21039.500
        32   02 Jun 2027 07:48:59.093   02 Jun 2027 07:48:59.825             0.732           366.000
        33   02 Jun 2027 09:18:52.283   02 Jun 2027 09:20:03.115            70.832         34473.156
        34   02 Jun 2027 09:24:49.497   02 Jun 2027 09:24:49.497             0.000             0.000
        35   02 Jun 2027 09:25:25.904   02 Jun 2027 09:25:46.547            20.643         10087.156
        36   02 Jun 2027 10:56:01.865   02 Jun 2027 10:56:18.668            16.803          7669.531
        37   02 Jun 2027 10:58:41.032   02 Jun 2027 10:58:47.381             6.349          2996.062
        38   02 Jun 2027 10:58:47.855   02 Jun 2027 10:58:49.287             1.432            14.813
        39   02 Jun 2027 10:58:57.748   02 Jun 2027 10:58:58.837             1.089           264.406
        40   02 Jun 2027 10:59:34.287   02 Jun 2027 10:59:39.492             5.205           511.187
        41   02 Jun 2027 11:00:07.798   02 Jun 2027 11:00:10.947             3.149           836.250
        42   02 Jun 2027 11:00:26.329   02 Jun 2027 11:00:27.691             1.362           270.094
        43   02 Jun 2027 11:00:51.706   02 Jun 2027 11:00:54.806             3.100           750.469
        44   02 Jun 2027 11:01:14.783   02 Jun 2027 11:01:16.166             1.383           618.969
        45   02 Jun 2027 11:01:51.375   02 Jun 2027 11:01:54.493             3.118           960.313
        46   02 Jun 2027 11:02:35.608   02 Jun 2027 11:02:36.523             0.915           457.500
        47   02 Jun 2027 11:02:49.042   02 Jun 2027 11:02:53.159             4.117           885.844
        48   02 Jun 2027 11:03:19.535   02 Jun 2027 11:03:20.137             0.602           301.000
        49   03 Jun 2027 03:19:28.455   03 Jun 2027 03:19:48.453            19.998          9999.000
        50   03 Jun 2027 03:20:05.394   03 Jun 2027 03:20:56.178            50.784         25392.000
        51   03 Jun 2027 03:20:58.037   03 Jun 2027 03:22:25.213            87.176         43588.000
        52   03 Jun 2027 03:22:52.175   03 Jun 2027 03:22:53.991             1.816           908.000
        53   03 Jun 2027 03:23:32.781   03 Jun 2027 03:23:59.461            26.680         13340.000
        54   03 Jun 2027 03:24:42.547   03 Jun 2027 03:24:47.680             5.133          2566.500
        55   03 Jun 2027 03:24:54.253   03 Jun 2027 03:24:58.609             4.356          2178.000
        56   03 Jun 2027 03:25:17.343   03 Jun 2027 03:25:29.014            11.671          5835.500
        57   03 Jun 2027 04:57:36.591   03 Jun 2027 04:58:20.235            43.644         21822.000
        58   03 Jun 2027 04:58:37.751   03 Jun 2027 04:59:10.535            32.784         16392.000
        59   03 Jun 2027 04:59:19.975   03 Jun 2027 04:59:39.669            19.694          9766.093
        60   03 Jun 2027 05:00:35.774   03 Jun 2027 05:00:35.774             0.000             0.000
        61   03 Jun 2027 05:00:53.969   03 Jun 2027 05:00:58.574             4.605          1716.563
        62   03 Jun 2027 05:02:12.450   03 Jun 2027 05:02:12.450             0.000             0.000
        63   03 Jun 2027 06:20:59.241   03 Jun 2027 06:21:12.804            13.563          5491.813
        64   03 Jun 2027 06:22:15.241   03 Jun 2027 06:22:15.241             0.000             0.000
        65   03 Jun 2027 06:23:07.055   03 Jun 2027 06:23:14.795             7.740          2987.062
        66   03 Jun 2027 07:57:21.554   03 Jun 2027 07:57:39.151            17.597          8751.375
        67   03 Jun 2027 07:57:51.846   03 Jun 2027 07:57:52.330             0.484            65.094
        68   03 Jun 2027 07:58:35.735   03 Jun 2027 07:58:41.086             5.351          1353.906
        69   03 Jun 2027 07:59:16.021   03 Jun 2027 07:59:16.021             0.000             0.000
        70   03 Jun 2027 07:59:16.760   03 Jun 2027 07:59:18.934             2.174          1072.063
        71   03 Jun 2027 07:59:57.409   03 Jun 2027 07:59:59.466             2.057          1014.656
        72   03 Jun 2027 09:31:13.990   03 Jun 2027 09:31:23.508             9.518          4308.656
        73   03 Jun 2027 09:31:31.911   03 Jun 2027 09:31:35.554             3.643           262.594
        74   03 Jun 2027 09:33:19.869   03 Jun 2027 09:33:23.766             3.897          1948.500
        75   03 Jun 2027 09:33:51.988   03 Jun 2027 09:33:54.563             2.575          1287.500
        76   03 Jun 2027 09:34:35.235   03 Jun 2027 09:34:40.110             4.875          1300.906
        77   03 Jun 2027 09:35:05.415   03 Jun 2027 09:35:08.432             3.017           658.906
        78   03 Jun 2027 09:35:21.449   03 Jun 2027 09:35:22.140             0.691           345.500
        79   03 Jun 2027 09:37:32.293   03 Jun 2027 09:37:40.664             8.371          4076.750
        80   03 Jun 2027 09:38:07.127   03 Jun 2027 09:38:09.227             2.100           594.094
        81   03 Jun 2027 09:39:21.658   03 Jun 2027 09:39:23.927             2.269          1134.500
        82   03 Jun 2027 11:08:28.557   03 Jun 2027 11:08:42.550            13.993          6791.812
        83   03 Jun 2027 11:09:04.746   03 Jun 2027 11:09:08.584             3.838           388.625
        84   03 Jun 2027 11:09:57.918   03 Jun 2027 11:10:01.092             3.174          1541.688
        85   03 Jun 2027 11:11:42.462   03 Jun 2027 11:11:46.083             3.621           122.250
        86   03 Jun 2027 11:12:26.188   03 Jun 2027 11:12:28.372             2.184           563.469
        87   03 Jun 2027 11:12:34.045   03 Jun 2027 11:12:36.530             2.485           177.281
        88   03 Jun 2027 11:12:51.958   03 Jun 2027 11:12:52.898             0.940           470.000
        89   03 Jun 2027 11:13:08.480   03 Jun 2027 11:13:11.234             2.754           496.000
        90   03 Jun 2027 11:13:20.726   03 Jun 2027 11:13:23.084             2.358           273.937
        91   03 Jun 2027 11:13:25.853   03 Jun 2027 11:13:27.538             1.685            51.750
        92   03 Jun 2027 11:13:45.654   03 Jun 2027 11:13:46.339             0.685           192.062
        93   03 Jun 2027 11:14:36.003   03 Jun 2027 11:14:37.328             1.325           392.500
        94   03 Jun 2027 11:14:58.854   03 Jun 2027 11:14:59.289             0.435           217.500
        95   04 Jun 2027 03:31:15.148   04 Jun 2027 03:31:16.561             1.413           706.500
        96   04 Jun 2027 03:31:37.244   04 Jun 2027 03:32:27.722            50.478         25239.000
        97   04 Jun 2027 03:32:34.057   04 Jun 2027 03:33:59.747            85.690         42845.000
        98   04 Jun 2027 03:34:10.149   04 Jun 2027 03:34:12.111             1.962           981.000
        99   04 Jun 2027 03:34:21.778   04 Jun 2027 03:34:22.856             1.078           539.000
       100   04 Jun 2027 03:34:31.994   04 Jun 2027 03:34:56.842            24.848         12424.000
       101   04 Jun 2027 03:35:27.250   04 Jun 2027 03:36:07.014            39.764         19882.000
       102   04 Jun 2027 03:36:15.592   04 Jun 2027 03:36:44.199            28.607         14303.500
       103   04 Jun 2027 03:36:59.801   04 Jun 2027 03:36:59.801             0.000             0.000
       104   04 Jun 2027 05:09:54.440   04 Jun 2027 05:11:09.334            74.894         37447.000
       105   04 Jun 2027 05:11:33.762   04 Jun 2027 05:11:41.302             7.540          2075.344
       106   04 Jun 2027 05:12:09.626   04 Jun 2027 05:12:09.626             0.000             0.000
       107   04 Jun 2027 05:12:56.126   04 Jun 2027 05:12:56.126             0.000             0.000
       108   04 Jun 2027 05:12:57.929   04 Jun 2027 05:13:03.539             5.610          1940.563
       109   04 Jun 2027 05:13:22.607   04 Jun 2027 05:13:26.147             3.540           269.969
       110   04 Jun 2027 06:32:48.274   04 Jun 2027 06:33:02.717            14.443          7180.906
       111   04 Jun 2027 06:34:22.425   04 Jun 2027 06:34:30.553             8.128          2490.875
       112   04 Jun 2027 06:35:14.952   04 Jun 2027 06:35:19.582             4.630          1357.594
       113   04 Jun 2027 08:09:25.099   04 Jun 2027 08:09:30.869             5.770          2862.062
       114   04 Jun 2027 08:10:11.179   04 Jun 2027 08:10:11.179             0.000             0.000
       115   04 Jun 2027 08:10:19.152   04 Jun 2027 08:10:20.795             1.643           821.500
       116   04 Jun 2027 08:10:57.249   04 Jun 2027 08:11:00.076             2.827          1184.375
       117   04 Jun 2027 08:11:59.544   04 Jun 2027 08:12:10.805            11.261          1700.656
       118   04 Jun 2027 09:45:11.973   04 Jun 2027 09:45:23.388            11.415          5589.625
       119   04 Jun 2027 09:45:56.469   04 Jun 2027 09:46:00.341             3.872           781.625
       120   04 Jun 2027 09:49:50.487   04 Jun 2027 09:50:02.397            11.910          5845.344
       121   04 Jun 2027 09:51:03.072   04 Jun 2027 09:51:06.104             3.032          1040.562
       122   04 Jun 2027 09:51:10.944   04 Jun 2027 09:51:11.491             0.547           118.594
       123   04 Jun 2027 11:20:52.523   04 Jun 2027 11:21:04.497            11.974          5987.000
       124   04 Jun 2027 11:21:20.978   04 Jun 2027 11:21:24.748             3.770           524.094
       125   04 Jun 2027 11:22:35.009   04 Jun 2027 11:22:41.314             6.305          2129.281
       126   04 Jun 2027 11:23:04.693   04 Jun 2027 11:23:05.893             1.200           569.187
       127   04 Jun 2027 11:23:20.556   04 Jun 2027 11:23:27.247             6.691           222.562
       128   04 Jun 2027 11:24:11.792   04 Jun 2027 11:24:17.609             5.817           943.156
       129   04 Jun 2027 11:24:54.273   04 Jun 2027 11:24:56.733             2.460           866.688
       130   04 Jun 2027 11:25:10.083   04 Jun 2027 11:25:17.504             7.421           417.188
       131   04 Jun 2027 11:25:35.512   04 Jun 2027 11:25:38.693             3.181           552.156
       132   04 Jun 2027 11:26:30.127   04 Jun 2027 11:26:32.926             2.799          1399.500
       133   04 Jun 2027 11:26:53.709   04 Jun 2027 11:27:01.515             7.806           857.281
       134   05 Jun 2027 03:43:22.139   05 Jun 2027 03:44:23.569            61.430         30715.000
       135   05 Jun 2027 03:44:30.300   05 Jun 2027 03:45:49.634            79.334         39667.000
       136   05 Jun 2027 03:46:10.664   05 Jun 2027 03:46:23.252            12.588          6294.000
       137   05 Jun 2027 03:47:18.809   05 Jun 2027 03:48:06.053            47.244         23622.000
       138   05 Jun 2027 03:48:26.491   05 Jun 2027 03:49:01.264            34.773         17386.500
       139   05 Jun 2027 05:21:39.633   05 Jun 2027 05:22:11.568            31.935         15967.500
       140   05 Jun 2027 05:22:12.739   05 Jun 2027 05:22:13.895             1.156           578.000
       141   05 Jun 2027 05:22:28.288   05 Jun 2027 05:23:07.382            39.094         19547.000
       142   05 Jun 2027 05:23:50.329   05 Jun 2027 05:23:50.329             0.000             0.000
       143   05 Jun 2027 05:24:20.565   05 Jun 2027 05:24:33.761            13.196          6207.782
       144   05 Jun 2027 05:25:01.527   05 Jun 2027 05:25:04.442             2.915           867.688
       145   05 Jun 2027 06:45:01.991   05 Jun 2027 06:45:07.905             5.914          2957.000
       146   05 Jun 2027 06:46:17.146   05 Jun 2027 06:46:28.008            10.862          4121.281
       147   05 Jun 2027 06:46:34.942   05 Jun 2027 06:46:34.942             0.000             0.000
       148   05 Jun 2027 06:46:51.208   05 Jun 2027 06:46:51.208             0.000             0.000
       149   05 Jun 2027 06:47:40.894   05 Jun 2027 06:47:41.781             0.887           443.500
       150   05 Jun 2027 06:47:58.444   05 Jun 2027 06:48:05.882             7.438          2354.906
       151   05 Jun 2027 08:21:35.940   05 Jun 2027 08:21:43.296             7.356          2812.594
       152   05 Jun 2027 08:22:20.808   05 Jun 2027 08:22:27.506             6.698          1090.937
       153   05 Jun 2027 08:23:33.246   05 Jun 2027 08:23:33.246             0.000             0.000
       154   05 Jun 2027 08:24:11.280   05 Jun 2027 08:24:19.962             8.682          2533.781
       155   05 Jun 2027 08:25:03.286   05 Jun 2027 08:25:06.140             2.854          1095.719
       156   05 Jun 2027 09:56:45.592   05 Jun 2027 09:56:57.037            11.445          5571.469
       157   05 Jun 2027 09:58:08.618   05 Jun 2027 09:58:14.154             5.536          2103.250
       158   05 Jun 2027 09:58:54.436   05 Jun 2027 09:59:01.072             6.636          1228.625
       159   05 Jun 2027 10:00:34.281   05 Jun 2027 10:00:39.924             5.643          2248.969
       160   05 Jun 2027 10:00:49.747   05 Jun 2027 10:00:51.562             1.815           306.969
       161   05 Jun 2027 10:01:03.317   05 Jun 2027 10:01:05.088             1.771           110.094
       162   05 Jun 2027 10:01:54.524   05 Jun 2027 10:01:57.062             2.538          1269.000
       163   05 Jun 2027 10:02:20.899   05 Jun 2027 10:02:27.543             6.644           906.063
       164   05 Jun 2027 10:02:42.093   05 Jun 2027 10:02:42.690             0.597           298.500
       165   05 Jun 2027 10:02:51.586   05 Jun 2027 10:02:57.740             6.154           285.406
       166   05 Jun 2027 10:03:20.595   05 Jun 2027 10:03:21.655             1.060           510.187
       167   05 Jun 2027 11:33:06.923   05 Jun 2027 11:33:22.316            15.393          6077.375
       168   05 Jun 2027 11:33:31.974   05 Jun 2027 11:33:37.284             5.310           197.219
       169   05 Jun 2027 11:34:03.072   05 Jun 2027 11:34:08.925             5.853           677.094
       170   05 Jun 2027 11:34:51.271   05 Jun 2027 11:34:56.425             5.154          1323.313
       171   05 Jun 2027 11:35:17.664   05 Jun 2027 11:35:18.595             0.931           329.094
       172   05 Jun 2027 11:35:43.826   05 Jun 2027 11:35:48.110             4.284           591.156
       173   05 Jun 2027 11:36:22.865   05 Jun 2027 11:36:25.307             2.442           276.531
       174   05 Jun 2027 11:36:53.428   05 Jun 2027 11:36:54.898             1.470           650.625
       175   05 Jun 2027 11:37:11.260   05 Jun 2027 11:37:11.260             0.000             0.000
       176   05 Jun 2027 11:37:28.734   05 Jun 2027 11:37:32.676             3.942          1039.625
       177   06 Jun 2027 03:56:28.774   06 Jun 2027 03:59:04.272           155.498         77749.000
       178   06 Jun 2027 03:59:59.006   06 Jun 2027 04:00:52.787            53.781         26890.500
       179   06 Jun 2027 04:01:06.557   06 Jun 2027 04:01:24.098            17.541          8770.500
       180   06 Jun 2027 05:33:36.602   06 Jun 2027 05:34:16.836            40.234         20117.000
       181   06 Jun 2027 05:34:34.727   06 Jun 2027 05:34:54.512            19.785          9892.500
       182   06 Jun 2027 05:35:08.910   06 Jun 2027 05:35:36.047            27.137         12356.188
       183   06 Jun 2027 05:37:01.646   06 Jun 2027 05:37:07.850             6.204          2435.937
       184   06 Jun 2027 06:57:31.936   06 Jun 2027 06:57:46.439            14.503          5397.875
       185   06 Jun 2027 06:58:00.532   06 Jun 2027 06:58:03.334             2.802           293.656
       186   06 Jun 2027 06:59:41.190   06 Jun 2027 06:59:49.098             7.908          2912.813
       187   06 Jun 2027 08:33:26.338   06 Jun 2027 08:33:34.439             8.101          3889.031
       188   06 Jun 2027 08:35:34.549   06 Jun 2027 08:35:49.398            14.849          3635.969
       189   06 Jun 2027 08:36:09.551   06 Jun 2027 08:36:09.551             0.000             0.000
       190   06 Jun 2027 08:36:45.131   06 Jun 2027 08:36:51.399             6.268          1741.656
       191   06 Jun 2027 08:37:30.359   06 Jun 2027 08:37:31.425             1.066           533.000
       192   06 Jun 2027 10:08:19.444   06 Jun 2027 10:08:27.143             7.699          3570.688
       193   06 Jun 2027 10:10:36.902   06 Jun 2027 10:10:45.609             8.707          3443.313
       194   06 Jun 2027 10:13:50.570   06 Jun 2027 10:14:08.526            17.956          5107.031
       195   06 Jun 2027 10:14:42.636   06 Jun 2027 10:14:47.222             4.586           260.937
       196   06 Jun 2027 10:15:26.373   06 Jun 2027 10:15:30.275             3.902           826.219
       197   06 Jun 2027 11:44:43.906   06 Jun 2027 11:45:05.102            21.196          9680.656
       198   06 Jun 2027 11:45:32.625   06 Jun 2027 11:45:34.119             1.494           112.156
       199   06 Jun 2027 11:46:27.206   06 Jun 2027 11:46:29.806             2.600           644.219
       200   06 Jun 2027 11:46:44.274   06 Jun 2027 11:46:45.784             1.510           240.094
       201   06 Jun 2027 11:47:38.787   06 Jun 2027 11:47:43.296             4.509           835.531
       202   06 Jun 2027 11:48:25.678   06 Jun 2027 11:48:28.715             3.037          1264.844
       203   06 Jun 2027 11:48:56.457   06 Jun 2027 11:49:01.351             4.894           845.531
       204   06 Jun 2027 11:49:22.718   06 Jun 2027 11:49:25.166             2.448           528.500
       205   06 Jun 2027 11:50:25.567   06 Jun 2027 11:50:29.967             4.400          1566.437
       206   06 Jun 2027 11:50:40.891   06 Jun 2027 11:50:40.891             0.000             0.000
       207   07 Jun 2027 04:08:32.784   07 Jun 2027 04:10:26.632           113.848         56924.000
       208   07 Jun 2027 04:11:15.543   07 Jun 2027 04:11:54.665            39.122         19561.000
       209   07 Jun 2027 04:11:58.245   07 Jun 2027 04:12:19.723            21.478         10739.000
       210   07 Jun 2027 04:13:04.770   07 Jun 2027 04:13:58.125            53.355         26677.500
       211   07 Jun 2027 04:14:08.673   07 Jun 2027 04:14:11.388             2.715          1357.500
       212   07 Jun 2027 05:34:17.054   07 Jun 2027 05:34:55.451            38.397         19198.500
       213   07 Jun 2027 05:45:33.109   07 Jun 2027 05:46:32.016            58.907         29196.781
       214   07 Jun 2027 05:48:14.324   07 Jun 2027 05:48:16.309             1.985           992.500
       215   07 Jun 2027 07:08:09.055   07 Jun 2027 07:08:27.060            18.005          8700.438
       216   07 Jun 2027 07:09:28.456   07 Jun 2027 07:09:31.801             3.345          1209.281
       217   07 Jun 2027 07:09:42.608   07 Jun 2027 07:09:45.708             3.100           274.062
       218   07 Jun 2027 07:10:02.805   07 Jun 2027 07:10:03.913             1.108           263.281
       219   07 Jun 2027 07:11:02.685   07 Jun 2027 07:11:07.260             4.575          1405.187
       220   07 Jun 2027 08:43:43.518   07 Jun 2027 08:43:55.493            11.975          4474.000
       221   07 Jun 2027 08:44:16.657   07 Jun 2027 08:44:20.891             4.234           108.781
       222   07 Jun 2027 08:46:23.521   07 Jun 2027 08:46:31.458             7.937          3614.031
       223   07 Jun 2027 08:48:01.718   07 Jun 2027 08:48:06.848             5.130          2420.813
       224   07 Jun 2027 08:48:25.828   07 Jun 2027 08:48:31.598             5.770           593.125
       225   07 Jun 2027 08:49:06.868   07 Jun 2027 08:49:09.951             3.083           627.281
       226   07 Jun 2027 08:49:35.100   07 Jun 2027 08:49:37.487             2.387           785.906
       227   07 Jun 2027 10:19:57.845   07 Jun 2027 10:20:06.746             8.901          4288.250
       228   07 Jun 2027 10:21:32.763   07 Jun 2027 10:21:40.200             7.437          1225.875
       229   07 Jun 2027 10:21:49.706   07 Jun 2027 10:21:53.267             3.561           143.281
       230   07 Jun 2027 10:23:25.483   07 Jun 2027 10:23:30.888             5.405          2676.031
       231   07 Jun 2027 10:25:49.602   07 Jun 2027 10:26:00.190            10.588          4334.813
       232   07 Jun 2027 10:26:36.282   07 Jun 2027 10:26:38.685             2.403          1080.000
       233   07 Jun 2027 10:27:06.538   07 Jun 2027 10:27:08.878             2.340           721.156
       234   07 Jun 2027 10:27:13.326   07 Jun 2027 10:27:15.968             2.642           139.000
       235   07 Jun 2027 11:57:03.863   07 Jun 2027 11:57:24.138            20.275          8712.375
       236   08 Jun 2027 04:21:02.607   08 Jun 2027 04:21:41.188            38.581         19290.500
       237   08 Jun 2027 04:22:04.177   08 Jun 2027 04:23:42.514            98.337         49168.500
       238   08 Jun 2027 04:24:20.847   08 Jun 2027 04:24:49.473            28.626         14313.000
       239   08 Jun 2027 04:25:06.111   08 Jun 2027 04:25:50.439            44.328         22164.000
       240   08 Jun 2027 04:26:47.830   08 Jun 2027 04:27:00.685            12.855          6427.500
       241   08 Jun 2027 04:27:50.254   08 Jun 2027 04:28:10.595            20.341         10170.500
       242   08 Jun 2027 05:45:52.897   08 Jun 2027 05:46:27.577            34.680         17340.000
       243   08 Jun 2027 05:57:34.994   08 Jun 2027 05:58:31.498            56.504         28252.000
       244   08 Jun 2027 07:19:51.973   08 Jun 2027 07:20:08.241            16.268          7359.063
       245   08 Jun 2027 07:20:32.391   08 Jun 2027 07:20:35.742             3.351           593.750
       246   08 Jun 2027 07:21:48.853   08 Jun 2027 07:21:52.340             3.487          1712.000
       247   08 Jun 2027 07:22:04.835   08 Jun 2027 07:22:04.835             0.000             0.000
       248   08 Jun 2027 07:23:40.073   08 Jun 2027 07:23:46.848             6.775          3196.125
       249   08 Jun 2027 07:24:43.525   08 Jun 2027 07:24:47.354             3.829          1139.531
       250   08 Jun 2027 08:54:50.467   08 Jun 2027 08:55:00.247             9.780          3865.437
       251   08 Jun 2027 08:55:16.572   08 Jun 2027 08:55:25.161             8.589           441.750
       252   08 Jun 2027 08:58:53.082   08 Jun 2027 08:59:07.911            14.829          6076.594
       253   08 Jun 2027 08:59:32.579   08 Jun 2027 08:59:32.866             0.287            90.344
       254   08 Jun 2027 09:01:17.525   08 Jun 2027 09:01:20.736             3.211          1605.500
       255   08 Jun 2027 09:02:02.559   08 Jun 2027 09:02:08.003             5.444          2722.000
       256   08 Jun 2027 10:32:18.051   08 Jun 2027 10:32:28.564            10.513          5101.781
       257   08 Jun 2027 10:33:45.586   08 Jun 2027 10:33:51.123             5.537           669.437
       258   08 Jun 2027 10:35:22.829   08 Jun 2027 10:35:28.088             5.259          2588.875
       259   08 Jun 2027 10:36:32.943   08 Jun 2027 10:36:37.388             4.445          1577.781
       260   08 Jun 2027 10:37:07.931   08 Jun 2027 10:37:10.237             2.306           917.344
       261   08 Jun 2027 10:37:55.025   08 Jun 2027 10:38:02.378             7.353          1291.750
       262   08 Jun 2027 10:38:26.452   08 Jun 2027 10:38:31.291             4.839           752.313
       263   08 Jun 2027 10:38:44.548   08 Jun 2027 10:38:45.636             1.088           196.531
       264   08 Jun 2027 10:39:34.296   08 Jun 2027 10:39:35.964             1.668           834.000
       265   09 Jun 2027 03:00:00.000   09 Jun 2027 03:00:18.178            18.178          9089.000
       266   09 Jun 2027 04:33:04.795   09 Jun 2027 04:37:08.743           243.948        121974.000
       267   09 Jun 2027 04:37:41.782   09 Jun 2027 04:38:16.899            35.117         17558.500
       268   09 Jun 2027 04:39:05.425   09 Jun 2027 04:39:09.402             3.977          1988.500
       269   09 Jun 2027 04:40:03.018   09 Jun 2027 04:40:04.680             1.662           831.000
       270   09 Jun 2027 05:57:25.795   09 Jun 2027 05:57:58.696            32.901         16450.500
       271   09 Jun 2027 05:59:12.791   09 Jun 2027 05:59:12.791             0.000             0.000
       272   09 Jun 2027 06:09:41.865   09 Jun 2027 06:09:56.707            14.842          5434.875
       273   09 Jun 2027 07:31:29.205   09 Jun 2027 07:31:46.226            17.021          7950.312
       274   09 Jun 2027 07:32:18.901   09 Jun 2027 07:32:22.980             4.079           670.750
       275   09 Jun 2027 07:33:34.232   09 Jun 2027 07:33:38.115             3.883           684.250
       276   09 Jun 2027 07:34:16.263   09 Jun 2027 07:34:16.263             0.000             0.000
       277   09 Jun 2027 07:35:09.489   09 Jun 2027 07:35:17.822             8.333          2491.812
       278   09 Jun 2027 07:36:00.445   09 Jun 2027 07:36:02.341             1.896           687.594
       279   09 Jun 2027 07:36:41.401   09 Jun 2027 07:36:45.822             4.421           986.906
       280   09 Jun 2027 09:06:18.329   09 Jun 2027 09:06:28.762            10.433          4926.437
       281   09 Jun 2027 09:07:05.997   09 Jun 2027 09:07:06.571             0.574           281.062
       282   09 Jun 2027 09:09:10.549   09 Jun 2027 09:09:22.223            11.674          1815.375
       283   09 Jun 2027 09:11:57.279   09 Jun 2027 09:12:04.855             7.576          3788.000
       284   09 Jun 2027 09:13:14.106   09 Jun 2027 09:13:22.850             8.744          3103.500
       285   09 Jun 2027 09:13:29.167   09 Jun 2027 09:13:30.940             1.773           157.750
       286   09 Jun 2027 09:14:44.028   09 Jun 2027 09:14:51.420             7.392          2284.000
       287   09 Jun 2027 09:15:05.088   09 Jun 2027 09:15:08.214             3.126           278.063
       288   09 Jun 2027 10:44:11.634   09 Jun 2027 10:44:31.663            20.029          5905.281
       289   09 Jun 2027 10:45:43.264   09 Jun 2027 10:45:47.154             3.890          1237.344
       290   09 Jun 2027 10:45:58.897   09 Jun 2027 10:45:59.470             0.573           286.500
       291   09 Jun 2027 10:48:32.532   09 Jun 2027 10:48:43.206            10.674          4805.406
       292   09 Jun 2027 10:48:58.778   09 Jun 2027 10:49:02.879             4.101            52.219
       293   09 Jun 2027 10:49:21.459   09 Jun 2027 10:49:23.513             2.054           381.719
       294   09 Jun 2027 10:49:31.249   09 Jun 2027 10:49:38.658             7.409           241.750
       295   09 Jun 2027 10:50:18.447   09 Jun 2027 10:50:24.049             5.602          1196.000
       296   09 Jun 2027 10:50:34.657   09 Jun 2027 10:50:36.502             1.845            44.187
       297   09 Jun 2027 10:50:45.870   09 Jun 2027 10:50:47.770             1.900           177.500
       298   09 Jun 2027 10:51:02.157   09 Jun 2027 10:51:02.157             0.000             0.000
       299   10 Jun 2027 03:07:00.807   10 Jun 2027 03:07:16.596            15.789          7894.500
       300   10 Jun 2027 03:07:24.925   10 Jun 2027 03:08:37.161            72.236         36118.000
       301   10 Jun 2027 03:09:11.317   10 Jun 2027 03:10:10.071            58.754         29377.000
       302   10 Jun 2027 03:10:34.501   10 Jun 2027 03:10:36.399             1.898           949.000
       303   10 Jun 2027 04:45:29.733   10 Jun 2027 04:47:20.040           110.307         55153.500
       304   10 Jun 2027 04:48:18.766   10 Jun 2027 04:48:43.865            25.099         12549.500
       305   10 Jun 2027 04:48:51.453   10 Jun 2027 04:49:10.006            18.553          8648.750
       306   10 Jun 2027 06:09:22.489   10 Jun 2027 06:09:48.190            25.701         12179.688
       307   10 Jun 2027 06:10:27.756   10 Jun 2027 06:10:30.593             2.837          1069.625
       308   10 Jun 2027 06:10:41.528   10 Jun 2027 06:10:45.847             4.319           341.719
       309   10 Jun 2027 06:11:35.192   10 Jun 2027 06:11:37.624             2.432          1064.031
       310   10 Jun 2027 07:45:21.980   10 Jun 2027 07:45:35.633            13.653          5208.656
       311   10 Jun 2027 07:46:04.147   10 Jun 2027 07:46:05.689             1.542           642.031
       312   10 Jun 2027 07:47:17.612   10 Jun 2027 07:47:25.387             7.775          2231.406
       313   10 Jun 2027 07:47:45.506   10 Jun 2027 07:47:45.506             0.000             0.000
       314   10 Jun 2027 07:48:12.388   10 Jun 2027 07:48:14.873             2.485          1140.094
       315   10 Jun 2027 07:48:39.727   10 Jun 2027 07:48:47.312             7.585           691.781
       316   10 Jun 2027 09:19:10.286   10 Jun 2027 09:19:18.921             8.635          4046.469
       317   10 Jun 2027 09:21:41.960   10 Jun 2027 09:21:44.731             2.771           551.500
       318   10 Jun 2027 09:22:47.801   10 Jun 2027 09:22:47.801             0.000             0.000
       319   10 Jun 2027 09:24:04.391   10 Jun 2027 09:24:12.879             8.488          3559.250
       320   10 Jun 2027 09:24:54.544   10 Jun 2027 09:24:57.397             2.853           324.438
       321   10 Jun 2027 09:25:52.971   10 Jun 2027 09:26:00.812             7.841          1492.969
       322   10 Jun 2027 10:56:19.087   10 Jun 2027 10:56:39.903            20.816          7672.594
       323   10 Jun 2027 10:57:42.468   10 Jun 2027 10:57:45.809             3.341           794.156
       324   10 Jun 2027 11:00:38.081   10 Jun 2027 11:00:51.812            13.731          5226.469
       325   10 Jun 2027 11:01:04.341   10 Jun 2027 11:01:06.059             1.718             3.344
       326   10 Jun 2027 11:01:17.458   10 Jun 2027 11:01:18.528             1.070           337.625
       327   10 Jun 2027 11:01:49.205   10 Jun 2027 11:01:53.455             4.250           771.063
       328   10 Jun 2027 11:02:51.376   10 Jun 2027 11:02:52.577             1.201           600.500
       329   10 Jun 2027 11:03:01.450   10 Jun 2027 11:03:03.767             2.317          1041.781
       330   11 Jun 2027 03:19:45.122   11 Jun 2027 03:20:04.298            19.176          9588.000
       331   11 Jun 2027 03:20:18.287   11 Jun 2027 03:21:13.170            54.883         27441.500
       332   11 Jun 2027 03:21:14.563   11 Jun 2027 03:22:10.928            56.365         28182.500
       333   11 Jun 2027 03:23:03.036   11 Jun 2027 03:23:19.380            16.344          8172.000
       334   11 Jun 2027 03:23:53.914   11 Jun 2027 03:24:15.478            21.564         10782.000
       335   11 Jun 2027 03:25:15.583   11 Jun 2027 03:25:37.470            21.887         10943.500
       336   11 Jun 2027 04:57:52.674   11 Jun 2027 04:58:59.544            66.870         33435.000
       337   11 Jun 2027 04:59:25.069   11 Jun 2027 04:59:34.744             9.675          4837.500
       338   11 Jun 2027 05:00:14.766   11 Jun 2027 05:00:51.208            36.442         17730.625
       339   11 Jun 2027 05:02:28.830   11 Jun 2027 05:02:33.497             4.667          2333.500
       340   11 Jun 2027 06:21:15.917   11 Jun 2027 06:21:29.965            14.048          6770.687
       341   11 Jun 2027 06:22:52.906   11 Jun 2027 06:22:52.906             0.000             0.000
       342   11 Jun 2027 06:23:23.472   11 Jun 2027 06:23:29.910             6.438          3033.062
       343   11 Jun 2027 07:57:38.469   11 Jun 2027 07:57:56.791            18.322          8532.219
       344   11 Jun 2027 07:58:09.033   11 Jun 2027 07:58:10.054             1.021            13.687
       345   11 Jun 2027 07:58:20.514   11 Jun 2027 07:58:20.514             0.000             0.000
       346   11 Jun 2027 07:58:26.535   11 Jun 2027 07:58:28.084             1.549           464.000
       347   11 Jun 2027 07:59:26.854   11 Jun 2027 07:59:31.169             4.315          1606.469
       348   11 Jun 2027 07:59:38.739   11 Jun 2027 07:59:39.316             0.577           202.062
       349   11 Jun 2027 09:32:21.025   11 Jun 2027 09:32:38.434            17.409          6934.531
       350   11 Jun 2027 09:33:36.000   11 Jun 2027 09:33:36.000             0.000             0.000
       351   11 Jun 2027 09:34:11.313   11 Jun 2027 09:34:14.985             3.672          1828.062
       352   11 Jun 2027 09:37:52.889   11 Jun 2027 09:38:07.409            14.520          6059.531
       353   11 Jun 2027 09:38:18.800   11 Jun 2027 09:38:21.967             3.167           355.969
       354   11 Jun 2027 09:38:39.583   11 Jun 2027 09:38:40.639             1.056           316.750
       355   11 Jun 2027 09:38:58.564   11 Jun 2027 09:38:59.852             1.288           463.656
       356   11 Jun 2027 09:39:38.224   11 Jun 2027 09:39:40.712             2.488           997.844
       357   11 Jun 2027 11:08:44.892   11 Jun 2027 11:09:02.690            17.798          6889.531
       358   11 Jun 2027 11:09:18.488   11 Jun 2027 11:09:19.178             0.690           245.688
       359   11 Jun 2027 11:09:34.490   11 Jun 2027 11:09:38.270             3.780           377.531
       360   11 Jun 2027 11:09:50.316   11 Jun 2027 11:09:50.723             0.407           203.500
       361   11 Jun 2027 11:10:45.901   11 Jun 2027 11:10:49.565             3.664          1756.906
       362   11 Jun 2027 11:11:56.013   11 Jun 2027 11:11:58.451             2.438           583.031
       363   11 Jun 2027 11:12:45.239   11 Jun 2027 11:12:46.958             1.719           627.000
       364   11 Jun 2027 11:13:09.443   11 Jun 2027 11:13:10.676             1.233           533.594
       365   11 Jun 2027 11:13:55.235   11 Jun 2027 11:13:58.466             3.231          1386.562
       366   11 Jun 2027 11:14:52.183   11 Jun 2027 11:14:57.626             5.443          1648.531
       367   11 Jun 2027 11:15:07.168   11 Jun 2027 11:15:07.547             0.379            92.656
       368   12 Jun 2027 03:31:50.042   12 Jun 2027 03:32:44.932            54.890         27445.000
       369   12 Jun 2027 03:32:50.688   12 Jun 2027 03:33:26.054            35.366         17683.000
       370   12 Jun 2027 03:33:27.811   12 Jun 2027 03:34:44.309            76.498         38249.000
       371   12 Jun 2027 03:35:01.547   12 Jun 2027 03:35:42.332            40.785         20392.500
       372   12 Jun 2027 03:36:21.693   12 Jun 2027 03:36:22.965             1.272           636.000
       373   12 Jun 2027 03:36:30.182   12 Jun 2027 03:36:59.688            29.506         14753.000
       374   12 Jun 2027 03:37:16.791   12 Jun 2027 03:37:23.006             6.215          3107.500
       375   12 Jun 2027 05:10:12.429   12 Jun 2027 05:10:28.221            15.792          7896.000
       376   12 Jun 2027 05:11:03.788   12 Jun 2027 05:11:48.699            44.911         22384.157
       377   12 Jun 2027 05:12:03.610   12 Jun 2027 05:12:11.344             7.734           362.156
       378   12 Jun 2027 05:13:10.894   12 Jun 2027 05:13:14.948             4.054          1860.938
       379   12 Jun 2027 05:13:37.365   12 Jun 2027 05:13:40.964             3.599           700.531
       380   12 Jun 2027 06:33:08.197   12 Jun 2027 06:33:20.190            11.993          5622.875
       381   12 Jun 2027 06:33:36.577   12 Jun 2027 06:33:38.008             1.431           512.094
       382   12 Jun 2027 06:34:28.693   12 Jun 2027 06:34:30.539             1.846           795.906
       383   12 Jun 2027 06:34:40.495   12 Jun 2027 06:34:40.495             0.000             0.000
       384   12 Jun 2027 08:09:42.001   12 Jun 2027 08:09:50.438             8.437          4187.531
       385   12 Jun 2027 08:10:30.002   12 Jun 2027 08:10:32.286             2.284           697.812
       386   12 Jun 2027 08:11:38.369   12 Jun 2027 08:11:38.369             0.000             0.000
       387   12 Jun 2027 08:12:29.328   12 Jun 2027 08:12:37.148             7.820          3503.500
       388   12 Jun 2027 09:44:50.928   12 Jun 2027 09:44:58.295             7.367          3565.031
       389   12 Jun 2027 09:46:03.226   12 Jun 2027 09:46:11.546             8.320          1102.156
       390   12 Jun 2027 09:47:42.055   12 Jun 2027 09:47:47.981             5.926          2734.969
       391   12 Jun 2027 09:48:09.885   12 Jun 2027 09:48:11.520             1.635           295.313
       392   12 Jun 2027 09:49:03.897   12 Jun 2027 09:49:07.270             3.373          1367.844
       393   12 Jun 2027 09:49:38.875   12 Jun 2027 09:49:41.739             2.864           987.656
       394   12 Jun 2027 09:50:09.392   12 Jun 2027 09:50:11.575             2.183           840.844
       395   12 Jun 2027 09:50:54.450   12 Jun 2027 09:50:58.455             4.005           225.312
       396   12 Jun 2027 09:51:11.919   12 Jun 2027 09:51:18.337             6.418           420.750
       397   12 Jun 2027 11:21:10.948   12 Jun 2027 11:21:22.192            11.244          5340.781
       398   12 Jun 2027 11:21:50.122   12 Jun 2027 11:21:52.658             2.536           428.156
       399   12 Jun 2027 11:22:33.338   12 Jun 2027 11:22:36.487             3.149          1107.594
       400   12 Jun 2027 11:22:56.647   12 Jun 2027 11:22:58.010             1.363           630.000
       401   12 Jun 2027 11:23:58.972   12 Jun 2027 11:24:02.938             3.966          1723.719
       402   12 Jun 2027 11:25:24.541   12 Jun 2027 11:25:31.792             7.251          1734.562
       403   12 Jun 2027 11:25:51.932   12 Jun 2027 11:25:54.931             2.999           596.313
       404   12 Jun 2027 11:26:45.348   12 Jun 2027 11:26:50.575             5.227          1575.531
       405   12 Jun 2027 11:27:25.257   12 Jun 2027 11:27:32.704             7.447          1083.812
       406   13 Jun 2027 03:43:39.216   13 Jun 2027 03:44:38.941            59.725         29862.500
       407   13 Jun 2027 03:44:46.700   13 Jun 2027 03:46:24.486            97.786         48893.000
       408   13 Jun 2027 03:47:01.439   13 Jun 2027 03:47:12.282            10.843          5421.500
       409   13 Jun 2027 03:47:36.413   13 Jun 2027 03:48:20.631            44.218         22109.000
       410   13 Jun 2027 03:49:01.234   13 Jun 2027 03:49:08.643             7.409          3704.500
       411   13 Jun 2027 05:21:56.237   13 Jun 2027 05:22:31.203            34.966         17483.000
       412   13 Jun 2027 05:22:44.855   13 Jun 2027 05:23:25.261            40.406         20203.000
       413   13 Jun 2027 05:24:05.798   13 Jun 2027 05:24:15.358             9.560          4606.250
       414   13 Jun 2027 05:24:59.284   13 Jun 2027 05:25:02.275             2.991          1372.688
       415   13 Jun 2027 05:25:26.536   13 Jun 2027 05:25:27.393             0.857           299.313
       416   13 Jun 2027 06:45:17.798   13 Jun 2027 06:45:28.747            10.949          5164.562
       417   13 Jun 2027 06:46:06.206   13 Jun 2027 06:46:08.380             2.174           322.813
       418   13 Jun 2027 06:46:14.793   13 Jun 2027 06:46:15.336             0.543            87.625
       419   13 Jun 2027 06:46:42.174   13 Jun 2027 06:46:42.174             0.000             0.000
       420   13 Jun 2027 06:47:20.177   13 Jun 2027 06:47:24.557             4.380          1450.937
       421   13 Jun 2027 06:48:15.834   13 Jun 2027 06:48:15.834             0.000             0.000
       422   13 Jun 2027 08:21:52.825   13 Jun 2027 08:22:02.034             9.209          3139.187
       423   13 Jun 2027 08:22:38.854   13 Jun 2027 08:22:42.698             3.844          1150.625
       424   13 Jun 2027 08:23:52.263   13 Jun 2027 08:23:52.263             0.000             0.000
       425   13 Jun 2027 08:24:28.315   13 Jun 2027 08:24:35.089             6.774          2468.812
       426   13 Jun 2027 08:25:09.649   13 Jun 2027 08:25:18.243             8.594           530.625
       427   13 Jun 2027 09:57:02.903   13 Jun 2027 09:57:12.068             9.165          4175.344
       428   13 Jun 2027 09:58:16.047   13 Jun 2027 09:58:21.400             5.353          1842.375
       429   13 Jun 2027 09:58:34.597   13 Jun 2027 09:58:34.597             0.000             0.000
       430   13 Jun 2027 09:59:13.234   13 Jun 2027 09:59:17.933             4.699          1420.844
       431   13 Jun 2027 09:59:54.598   13 Jun 2027 09:59:58.016             3.418            72.875
       432   13 Jun 2027 10:02:08.510   13 Jun 2027 10:02:23.805            15.295          4077.937
       433   13 Jun 2027 10:02:47.549   13 Jun 2027 10:02:48.624             1.075           415.500
       434   13 Jun 2027 10:03:25.735   13 Jun 2027 10:03:37.904            12.169           844.813
       435   13 Jun 2027 11:33:23.766   13 Jun 2027 11:33:38.311            14.545          6192.656
       436   13 Jun 2027 11:34:08.692   13 Jun 2027 11:34:15.976             7.284           949.406
       437   13 Jun 2027 11:35:42.698   13 Jun 2027 11:35:50.471             7.773          2465.000
       438   13 Jun 2027 11:36:18.763   13 Jun 2027 11:36:19.090             0.327           163.500
       439   13 Jun 2027 11:36:48.674   13 Jun 2027 11:36:52.312             3.638          1552.250
       440   13 Jun 2027 11:37:26.297   13 Jun 2027 11:37:26.297             0.000             0.000
       441   13 Jun 2027 11:37:45.204   13 Jun 2027 11:37:48.435             3.231          1342.437
       442   13 Jun 2027 11:38:01.487   13 Jun 2027 11:38:02.926             1.439           407.875
       443   13 Jun 2027 11:38:46.705   13 Jun 2027 11:38:47.949             1.244           622.000
       444   13 Jun 2027 11:38:54.403   13 Jun 2027 11:38:54.403             0.000             0.000
