uniorb/output/strategy_2/Camera/Camera_KinoSat_110608.txt

KinoSat_110608
-------------------------
    Access    *     Start Time (UTCG)     *     Stop Time (UTCG)  *   Duration (s) *   Data (Mbytes)
         1   01 Jun 2027 03:15:12.391   01 Jun 2027 03:15:13.067             0.676           338.000
         2   01 Jun 2027 03:15:40.641   01 Jun 2027 03:16:14.608            33.967         16983.500
         3   01 Jun 2027 03:16:26.047   01 Jun 2027 03:16:26.047             0.000             0.000
         4   01 Jun 2027 03:16:33.932   01 Jun 2027 03:16:37.644             3.712          1856.000
         5   01 Jun 2027 03:17:18.269   01 Jun 2027 03:17:18.269             0.000             0.000
         6   01 Jun 2027 03:17:18.499   01 Jun 2027 03:17:25.819             7.320          3660.000
         7   01 Jun 2027 03:17:29.651   01 Jun 2027 03:17:35.876             6.225          3112.500
         8   01 Jun 2027 04:48:44.848   01 Jun 2027 04:52:10.323           205.475        102737.500
         9   01 Jun 2027 04:55:58.760   01 Jun 2027 04:56:15.427            16.667          8333.500
        10   01 Jun 2027 04:56:18.718   01 Jun 2027 04:56:31.341            12.623          6311.500
        11   01 Jun 2027 04:57:18.073   01 Jun 2027 04:57:19.109             1.036           518.000
        12   01 Jun 2027 06:26:10.878   01 Jun 2027 06:28:07.496           116.618         58309.000
        13   01 Jun 2027 06:28:58.284   01 Jun 2027 06:30:16.562            78.278         39139.000
        14   01 Jun 2027 06:30:23.864   01 Jun 2027 06:30:24.757             0.893           446.500
        15   01 Jun 2027 06:30:34.197   01 Jun 2027 06:30:43.963             9.766          4883.000
        16   01 Jun 2027 06:32:25.195   01 Jun 2027 06:33:02.248            37.053         18526.500
        17   01 Jun 2027 08:03:13.479   01 Jun 2027 08:05:35.677           142.198         71099.000
        18   01 Jun 2027 08:06:26.552   01 Jun 2027 08:07:09.579            43.027         21513.500
        19   01 Jun 2027 08:07:17.314   01 Jun 2027 08:07:17.529             0.215           107.500
        20   01 Jun 2027 08:08:14.499   01 Jun 2027 08:08:23.542             9.043          4521.500
        21   01 Jun 2027 09:40:02.547   01 Jun 2027 09:41:25.584            83.037         41518.500
        22   01 Jun 2027 09:42:02.647   01 Jun 2027 09:42:52.487            49.840         24920.000
        23   01 Jun 2027 09:43:37.166   01 Jun 2027 09:43:37.166             0.000             0.000
        24   01 Jun 2027 09:43:42.892   01 Jun 2027 09:43:46.150             3.258          1629.000
        25   01 Jun 2027 11:15:16.511   01 Jun 2027 11:15:19.874             3.363          1681.500
        26   01 Jun 2027 11:16:59.648   01 Jun 2027 11:18:45.104           105.456         52728.000
        27   02 Jun 2027 03:27:18.434   02 Jun 2027 03:27:46.589            28.155         14077.500
        28   02 Jun 2027 03:28:56.210   02 Jun 2027 03:29:21.143            24.933         12466.500
        29   02 Jun 2027 03:29:57.860   02 Jun 2027 03:29:57.860             0.000             0.000
        30   02 Jun 2027 03:30:20.537   02 Jun 2027 03:30:31.115            10.578          5289.000
        31   02 Jun 2027 03:30:42.111   02 Jun 2027 03:30:51.308             9.197          4598.500
        32   02 Jun 2027 04:59:27.904   02 Jun 2027 04:59:37.959            10.055          5027.500
        33   02 Jun 2027 05:01:23.230   02 Jun 2027 05:04:17.342           174.112         87056.000
        34   02 Jun 2027 05:05:07.881   02 Jun 2027 05:05:09.671             1.790           895.000
        35   02 Jun 2027 05:06:43.762   02 Jun 2027 05:06:43.762             0.000             0.000
        36   02 Jun 2027 05:07:27.787   02 Jun 2027 05:07:38.395            10.608          5304.000
        37   02 Jun 2027 05:08:17.158   02 Jun 2027 05:08:52.417            35.259         17629.500
        38   02 Jun 2027 05:09:13.662   02 Jun 2027 05:09:13.869             0.207           103.500
        39   02 Jun 2027 06:38:21.995   02 Jun 2027 06:41:01.875           159.880         79940.000
        40   02 Jun 2027 06:41:14.936   02 Jun 2027 06:41:15.342             0.406           203.000
        41   02 Jun 2027 06:41:40.733   02 Jun 2027 06:42:16.611            35.878         17939.000
        42   02 Jun 2027 06:42:56.318   02 Jun 2027 06:43:02.444             6.126          3063.000
        43   02 Jun 2027 06:43:51.398   02 Jun 2027 06:44:19.133            27.735         13867.500
        44   02 Jun 2027 08:15:26.243   02 Jun 2027 08:17:26.582           120.339         60169.500
        45   02 Jun 2027 08:18:29.130   02 Jun 2027 08:18:35.997             6.867          3361.844
        46   02 Jun 2027 08:19:19.475   02 Jun 2027 08:19:22.596             3.121          1340.313
        47   02 Jun 2027 08:19:55.299   02 Jun 2027 08:19:58.883             3.584          1008.187
        48   02 Jun 2027 09:52:04.822   02 Jun 2027 09:52:18.614            13.792          6896.000
        49   02 Jun 2027 09:53:52.789   02 Jun 2027 09:54:06.726            13.937          5507.812
        50   02 Jun 2027 09:54:15.652   02 Jun 2027 09:54:18.028             2.376           219.344
        51   02 Jun 2027 09:54:45.022   02 Jun 2027 09:54:45.022             0.000             0.000
        52   02 Jun 2027 09:55:11.516   02 Jun 2027 09:55:19.522             8.006          1582.500
        53   02 Jun 2027 09:55:30.830   02 Jun 2027 09:55:31.598             0.768           343.375
        54   02 Jun 2027 09:55:49.803   02 Jun 2027 09:55:51.879             2.076           438.813
        55   02 Jun 2027 09:56:28.876   02 Jun 2027 09:56:32.523             3.647          1156.156
        56   02 Jun 2027 09:57:07.306   02 Jun 2027 09:57:08.893             1.587           700.281
        57   02 Jun 2027 11:30:24.251   02 Jun 2027 11:30:36.012            11.761          2572.656
        58   02 Jun 2027 11:30:44.632   02 Jun 2027 11:30:51.898             7.266           269.375
        59   03 Jun 2027 03:39:25.976   03 Jun 2027 03:40:52.182            86.206         43103.000
        60   03 Jun 2027 03:41:22.449   03 Jun 2027 03:41:22.903             0.454           227.000
        61   03 Jun 2027 03:41:25.697   03 Jun 2027 03:41:58.715            33.018         16509.000
        62   03 Jun 2027 03:42:25.243   03 Jun 2027 03:42:55.607            30.364         15182.000
        63   03 Jun 2027 05:14:33.640   03 Jun 2027 05:16:51.979           138.339         69169.500
        64   03 Jun 2027 05:16:56.862   03 Jun 2027 05:17:02.852             5.990          2995.000
        65   03 Jun 2027 05:17:48.257   03 Jun 2027 05:17:48.257             0.000             0.000
        66   03 Jun 2027 05:18:37.957   03 Jun 2027 05:18:37.957             0.000             0.000
        67   03 Jun 2027 05:19:50.490   03 Jun 2027 05:20:10.287            19.797          9898.500
        68   03 Jun 2027 05:20:20.378   03 Jun 2027 05:20:23.629             3.251          1625.500
        69   03 Jun 2027 05:21:07.729   03 Jun 2027 05:21:15.831             8.102          3919.781
        70   03 Jun 2027 06:50:55.254   03 Jun 2027 06:51:48.945            53.691         25514.156
        71   03 Jun 2027 06:52:03.921   03 Jun 2027 06:52:04.706             0.785            13.031
        72   03 Jun 2027 06:52:49.505   03 Jun 2027 06:52:52.390             2.885           959.406
        73   03 Jun 2027 06:53:55.723   03 Jun 2027 06:53:59.193             3.470          1594.250
        74   03 Jun 2027 06:55:34.517   03 Jun 2027 06:55:40.388             5.871          2689.219
        75   03 Jun 2027 06:56:17.169   03 Jun 2027 06:56:23.144             5.975          1054.031
        76   03 Jun 2027 08:28:20.909   03 Jun 2027 08:28:51.751            30.842         13332.656
        77   03 Jun 2027 08:29:19.592   03 Jun 2027 08:29:21.115             1.523           616.844
        78   03 Jun 2027 08:29:47.893   03 Jun 2027 08:29:55.566             7.673           781.719
        79   03 Jun 2027 08:30:55.270   03 Jun 2027 08:30:57.881             2.611          1305.500
        80   03 Jun 2027 08:30:58.406   03 Jun 2027 08:31:00.179             1.773           216.219
        81   03 Jun 2027 08:31:25.153   03 Jun 2027 08:31:25.153             0.000             0.000
        82   03 Jun 2027 08:31:38.405   03 Jun 2027 08:31:41.305             2.900          1052.844
        83   03 Jun 2027 08:31:50.208   03 Jun 2027 08:31:51.968             1.760           278.219
        84   03 Jun 2027 08:32:02.980   03 Jun 2027 08:32:09.692             6.712           111.906
        85   03 Jun 2027 10:04:31.825   03 Jun 2027 10:04:51.878            20.053          7503.281
        86   03 Jun 2027 10:05:32.045   03 Jun 2027 10:05:32.045             0.000             0.000
        87   03 Jun 2027 10:05:39.783   03 Jun 2027 10:05:44.122             4.339          1442.594
        88   03 Jun 2027 10:07:26.949   03 Jun 2027 10:07:34.798             7.849          2647.875
        89   03 Jun 2027 10:07:37.937   03 Jun 2027 10:07:39.783             1.846            98.094
        90   04 Jun 2027 03:51:28.825   04 Jun 2027 03:52:15.007            46.182         23091.000
        91   04 Jun 2027 03:52:53.670   04 Jun 2027 03:53:24.404            30.734         15367.000
        92   04 Jun 2027 03:54:20.246   04 Jun 2027 03:54:30.135             9.889          4944.500
        93   04 Jun 2027 03:54:32.579   04 Jun 2027 03:54:52.325            19.746          9873.000
        94   04 Jun 2027 05:26:40.492   04 Jun 2027 05:29:20.026           159.534         79767.000
        95   04 Jun 2027 05:30:26.548   04 Jun 2027 05:30:38.426            11.878          5939.000
        96   04 Jun 2027 05:32:57.261   04 Jun 2027 05:33:19.338            22.077         11038.500
        97   04 Jun 2027 07:02:36.476   04 Jun 2027 07:03:51.463            74.987         36589.781
        98   04 Jun 2027 07:04:30.244   04 Jun 2027 07:04:37.099             6.855           949.656
        99   04 Jun 2027 07:05:08.054   04 Jun 2027 07:05:08.960             0.906            40.250
       100   04 Jun 2027 07:05:39.443   04 Jun 2027 07:05:41.875             2.432           854.813
       101   04 Jun 2027 07:05:58.315   04 Jun 2027 07:05:59.194             0.879           112.250
       102   04 Jun 2027 07:07:11.465   04 Jun 2027 07:07:17.709             6.244          2134.906
       103   04 Jun 2027 07:08:03.038   04 Jun 2027 07:08:07.568             4.530          1262.625
       104   04 Jun 2027 07:08:31.915   04 Jun 2027 07:08:33.977             2.062           760.844
       105   04 Jun 2027 08:40:28.257   04 Jun 2027 08:40:52.430            24.173         12086.500
       106   04 Jun 2027 08:41:47.854   04 Jun 2027 08:41:54.340             6.486          1994.969
       107   04 Jun 2027 08:42:34.583   04 Jun 2027 08:42:37.417             2.834          1257.594
       108   04 Jun 2027 08:43:05.036   04 Jun 2027 08:43:09.722             4.686           756.687
       109   04 Jun 2027 08:43:33.090   04 Jun 2027 08:43:35.207             2.117           408.344
       110   04 Jun 2027 08:44:01.703   04 Jun 2027 08:44:06.887             5.184           803.875
       111   04 Jun 2027 08:44:51.090   04 Jun 2027 08:44:58.367             7.277          1381.344
       112   04 Jun 2027 10:16:26.254   04 Jun 2027 10:16:38.486            12.232          6116.000
       113   04 Jun 2027 10:16:40.429   04 Jun 2027 10:16:45.098             4.669          1876.594
       114   04 Jun 2027 10:17:33.281   04 Jun 2027 10:17:35.497             2.216          1108.000
       115   04 Jun 2027 10:17:43.756   04 Jun 2027 10:17:43.756             0.000             0.000
       116   04 Jun 2027 10:18:22.502   04 Jun 2027 10:18:27.804             5.302          1866.625
       117   04 Jun 2027 10:18:40.415   04 Jun 2027 10:18:42.175             1.760            17.531
       118   04 Jun 2027 10:19:10.212   04 Jun 2027 10:19:16.893             6.681           138.375
       119   04 Jun 2027 10:19:34.234   04 Jun 2027 10:19:34.234             0.000             0.000
       120   04 Jun 2027 10:19:43.745   04 Jun 2027 10:19:45.292             1.547           536.844
       121   04 Jun 2027 10:20:32.971   04 Jun 2027 10:20:35.710             2.739          1013.281
       122   04 Jun 2027 10:20:45.447   04 Jun 2027 10:20:49.674             4.227           115.344
       123   04 Jun 2027 10:20:56.629   04 Jun 2027 10:20:58.834             2.205            80.594
       124   04 Jun 2027 10:21:24.579   04 Jun 2027 10:21:29.808             5.229           578.469
       125   05 Jun 2027 04:03:12.806   05 Jun 2027 04:04:46.044            93.238         46619.000
       126   05 Jun 2027 04:06:22.582   05 Jun 2027 04:06:22.582             0.000             0.000
       127   05 Jun 2027 04:06:33.707   05 Jun 2027 04:06:53.247            19.540          9770.000
       128   05 Jun 2027 05:37:55.998   05 Jun 2027 05:39:24.266            88.268         44134.000
       129   05 Jun 2027 05:39:44.110   05 Jun 2027 05:40:17.723            33.613         16806.500
       130   05 Jun 2027 05:40:50.781   05 Jun 2027 05:41:49.065            58.284         29142.000
       131   05 Jun 2027 05:43:19.436   05 Jun 2027 05:43:28.525             9.089          4544.500
       132   05 Jun 2027 05:44:49.350   05 Jun 2027 05:44:49.442             0.092            46.000
       133   05 Jun 2027 05:45:22.853   05 Jun 2027 05:45:27.490             4.637          2318.500
       134   05 Jun 2027 07:14:42.012   05 Jun 2027 07:15:31.866            49.854         24927.000
       135   05 Jun 2027 07:15:43.061   05 Jun 2027 07:15:54.952            11.891          5945.500
       136   05 Jun 2027 07:16:32.142   05 Jun 2027 07:16:52.432            20.290          9042.062
       137   05 Jun 2027 07:17:08.874   05 Jun 2027 07:17:10.256             1.382           233.281
       138   05 Jun 2027 07:18:02.706   05 Jun 2027 07:18:05.858             3.152          1576.000
       139   05 Jun 2027 07:18:43.926   05 Jun 2027 07:18:45.007             1.081           540.500
       140   05 Jun 2027 07:19:00.177   05 Jun 2027 07:19:05.549             5.372          1136.281
       141   05 Jun 2027 07:20:21.740   05 Jun 2027 07:20:26.866             5.126          2037.094
       142   05 Jun 2027 07:20:46.717   05 Jun 2027 07:20:47.546             0.829           352.531
       143   05 Jun 2027 08:52:57.783   05 Jun 2027 08:53:21.777            23.994         11911.719
       144   05 Jun 2027 08:54:35.374   05 Jun 2027 08:54:43.868             8.494          2283.031
       145   05 Jun 2027 08:55:38.076   05 Jun 2027 08:55:41.321             3.245          1326.094
       146   05 Jun 2027 08:56:42.328   05 Jun 2027 08:56:46.846             4.518          1676.719
       147   05 Jun 2027 10:26:16.797   05 Jun 2027 10:26:31.067            14.270          6783.063
       148   05 Jun 2027 10:27:34.438   05 Jun 2027 10:27:34.438             0.000             0.000
       149   05 Jun 2027 10:27:38.333   05 Jun 2027 10:27:44.023             5.690           124.469
       150   05 Jun 2027 10:28:13.795   05 Jun 2027 10:28:15.407             1.612           489.812
       151   05 Jun 2027 10:29:31.867   05 Jun 2027 10:29:33.077             1.210           605.000
       152   05 Jun 2027 10:30:04.040   05 Jun 2027 10:30:13.846             9.806          2348.938
       153   05 Jun 2027 10:30:32.423   05 Jun 2027 10:30:34.167             1.744           527.969
       154   05 Jun 2027 10:31:19.348   05 Jun 2027 10:31:22.525             3.177          1349.719
       155   05 Jun 2027 10:31:49.656   05 Jun 2027 10:31:53.631             3.975           712.000
       156   05 Jun 2027 10:31:58.572   05 Jun 2027 10:32:04.469             5.897           138.594
       157   05 Jun 2027 10:33:05.987   05 Jun 2027 10:33:10.029             4.042          1879.250
       158   05 Jun 2027 10:33:47.101   05 Jun 2027 10:33:55.470             8.369           968.969
       159   06 Jun 2027 04:13:13.705   06 Jun 2027 04:14:27.831            74.126         37063.000
       160   06 Jun 2027 04:14:56.194   06 Jun 2027 04:15:15.352            19.158          9579.000
       161   06 Jun 2027 04:17:31.631   06 Jun 2027 04:17:55.020            23.389         11694.500
       162   06 Jun 2027 04:18:12.476   06 Jun 2027 04:18:40.311            27.835         13917.500
       163   06 Jun 2027 04:19:30.030   06 Jun 2027 04:19:32.004             1.974           987.000
       164   06 Jun 2027 05:50:01.384   06 Jun 2027 05:52:28.054           146.670         73335.000
       165   06 Jun 2027 05:53:04.883   06 Jun 2027 05:53:27.322            22.439         11219.500
       166   06 Jun 2027 05:53:39.424   06 Jun 2027 05:53:43.229             3.805          1902.500
       167   06 Jun 2027 05:54:32.375   06 Jun 2027 05:54:32.398             0.023            11.500
       168   06 Jun 2027 05:56:23.501   06 Jun 2027 05:56:24.624             1.123           561.500
       169   06 Jun 2027 05:56:33.036   06 Jun 2027 05:56:52.962            19.926          9963.000
       170   06 Jun 2027 05:57:17.501   06 Jun 2027 05:57:27.308             9.807          4887.125
       171   06 Jun 2027 07:27:02.397   06 Jun 2027 07:28:03.375            60.978         30159.344
       172   06 Jun 2027 07:28:26.262   06 Jun 2027 07:28:27.768             1.506           423.187
       173   06 Jun 2027 07:30:24.617   06 Jun 2027 07:30:32.527             7.910          2381.781
       174   06 Jun 2027 07:31:16.838   06 Jun 2027 07:31:19.209             2.371          1185.500
       175   06 Jun 2027 07:31:57.784   06 Jun 2027 07:32:02.209             4.425          1338.125
       176   06 Jun 2027 07:32:33.676   06 Jun 2027 07:32:38.913             5.237           917.625
       177   06 Jun 2027 07:33:08.690   06 Jun 2027 07:33:09.816             1.126           563.000
       178   06 Jun 2027 09:04:55.787   06 Jun 2027 09:05:21.150            25.363         11075.750
       179   06 Jun 2027 09:05:53.030   06 Jun 2027 09:05:55.407             2.377           727.656
       180   06 Jun 2027 09:06:02.411   06 Jun 2027 09:06:03.278             0.867           218.875
       181   06 Jun 2027 09:06:27.146   06 Jun 2027 09:06:29.727             2.581           653.812
       182   06 Jun 2027 09:07:22.741   06 Jun 2027 09:07:26.834             4.093          1656.688
       183   06 Jun 2027 09:07:48.896   06 Jun 2027 09:07:51.942             3.046           689.438
       184   06 Jun 2027 09:08:41.995   06 Jun 2027 09:08:45.464             3.469          1547.719
       185   06 Jun 2027 10:38:12.809   06 Jun 2027 10:38:26.421            13.612          6176.437
       186   06 Jun 2027 10:39:09.579   06 Jun 2027 10:39:10.193             0.614           193.781
       187   06 Jun 2027 10:39:26.209   06 Jun 2027 10:39:26.637             0.428           136.594
       188   06 Jun 2027 10:39:48.226   06 Jun 2027 10:39:49.655             1.429           457.906
       189   06 Jun 2027 10:40:04.144   06 Jun 2027 10:40:06.745             2.601           439.875
       190   06 Jun 2027 10:40:23.637   06 Jun 2027 10:40:27.396             3.759            85.219
       191   06 Jun 2027 10:41:28.844   06 Jun 2027 10:41:31.338             2.494          1247.000
       192   06 Jun 2027 10:42:01.718   06 Jun 2027 10:42:06.631             4.913          1507.844
       193   06 Jun 2027 10:43:05.598   06 Jun 2027 10:43:11.182             5.584          1272.313
       194   06 Jun 2027 10:44:09.538   06 Jun 2027 10:44:13.112             3.574          1547.094
       195   06 Jun 2027 10:45:07.602   06 Jun 2027 10:45:12.409             4.807          1702.813
       196   07 Jun 2027 04:24:33.646   07 Jun 2027 04:26:42.178           128.532         64266.000
       197   07 Jun 2027 04:26:44.170   07 Jun 2027 04:27:06.140            21.970         10985.000
       198   07 Jun 2027 04:27:15.898   07 Jun 2027 04:27:34.399            18.501          9250.500
       199   07 Jun 2027 04:27:54.893   07 Jun 2027 04:28:16.440            21.547         10773.500
       200   07 Jun 2027 04:30:27.980   07 Jun 2027 04:30:27.980             0.000             0.000
       201   07 Jun 2027 04:30:47.516   07 Jun 2027 04:30:56.627             9.111          4555.500
       202   07 Jun 2027 04:31:21.541   07 Jun 2027 04:31:28.377             6.836          3418.000
       203   07 Jun 2027 04:32:48.272   07 Jun 2027 04:32:50.043             1.771           885.500
       204   07 Jun 2027 04:32:52.876   07 Jun 2027 04:33:07.447            14.571          7285.500
       205   07 Jun 2027 06:02:08.338   07 Jun 2027 06:03:34.330            85.992         42996.000
       206   07 Jun 2027 06:04:00.852   07 Jun 2027 06:04:35.496            34.644         17322.000
       207   07 Jun 2027 06:04:53.987   07 Jun 2027 06:05:02.615             8.628          4310.219
       208   07 Jun 2027 06:05:49.332   07 Jun 2027 06:05:54.119             4.787          1428.937
       209   07 Jun 2027 06:07:13.680   07 Jun 2027 06:07:17.765             4.085          1973.187
       210   07 Jun 2027 06:09:27.796   07 Jun 2027 06:09:30.885             3.089          1544.500
       211   07 Jun 2027 07:38:51.605   07 Jun 2027 07:39:46.088            54.483         26647.719
       212   07 Jun 2027 07:41:07.823   07 Jun 2027 07:41:10.381             2.558           398.500
       213   07 Jun 2027 07:42:21.334   07 Jun 2027 07:42:24.922             3.588          1776.219
       214   07 Jun 2027 07:42:43.889   07 Jun 2027 07:42:46.690             2.801           561.500
       215   07 Jun 2027 07:43:05.956   07 Jun 2027 07:43:06.531             0.575           287.500
       216   07 Jun 2027 07:43:12.250   07 Jun 2027 07:43:12.250             0.000             0.000
       217   07 Jun 2027 07:43:34.129   07 Jun 2027 07:43:36.204             2.075          1028.750
       218   07 Jun 2027 07:43:42.664   07 Jun 2027 07:43:43.689             1.025           175.969
       219   07 Jun 2027 07:44:12.270   07 Jun 2027 07:44:15.983             3.713           596.969
       220   07 Jun 2027 07:44:23.219   07 Jun 2027 07:44:23.742             0.523           226.125
       221   07 Jun 2027 07:44:50.329   07 Jun 2027 07:44:53.032             2.703           605.781
       222   07 Jun 2027 09:16:55.143   07 Jun 2027 09:17:15.033            19.890          9752.250
       223   07 Jun 2027 09:17:51.024   07 Jun 2027 09:17:54.118             3.094           620.813
       224   07 Jun 2027 09:17:58.977   07 Jun 2027 09:18:02.503             3.526           125.875
       225   07 Jun 2027 09:18:19.238   07 Jun 2027 09:18:19.238             0.000             0.000
       226   07 Jun 2027 09:18:35.037   07 Jun 2027 09:18:37.990             2.953           936.844
       227   07 Jun 2027 09:19:18.248   07 Jun 2027 09:19:21.595             3.347          1258.062
       228   07 Jun 2027 09:19:42.572   07 Jun 2027 09:19:44.221             1.649           569.750
       229   07 Jun 2027 09:20:19.944   07 Jun 2027 09:20:22.284             2.340          1116.344
       230   07 Jun 2027 09:20:27.583   07 Jun 2027 09:20:27.967             0.384           165.594
       231   07 Jun 2027 09:20:49.263   07 Jun 2027 09:20:53.172             3.909           274.844
       232   07 Jun 2027 10:50:38.790   07 Jun 2027 10:50:43.803             5.013          1681.531
       233   07 Jun 2027 10:51:09.154   07 Jun 2027 10:51:14.547             5.393           125.500
       234   07 Jun 2027 10:51:33.102   07 Jun 2027 10:51:34.815             1.713           579.844
       235   07 Jun 2027 10:52:14.275   07 Jun 2027 10:52:19.477             5.202          1157.438
       236   07 Jun 2027 10:52:49.407   07 Jun 2027 10:52:49.407             0.000             0.000
       237   07 Jun 2027 10:53:26.393   07 Jun 2027 10:53:34.325             7.932          1895.938
       238   07 Jun 2027 10:53:48.716   07 Jun 2027 10:53:48.716             0.000             0.000
       239   07 Jun 2027 10:54:26.291   07 Jun 2027 10:54:27.730             1.439           719.500
       240   07 Jun 2027 10:54:38.163   07 Jun 2027 10:54:44.061             5.898          1198.031
       241   07 Jun 2027 10:55:24.374   07 Jun 2027 10:55:29.455             5.081           928.969
       242   07 Jun 2027 10:55:42.309   07 Jun 2027 10:55:42.309             0.000             0.000
       243   07 Jun 2027 10:55:43.530   07 Jun 2027 10:55:44.705             1.175           280.531
       244   07 Jun 2027 10:56:12.742   07 Jun 2027 10:56:20.145             7.403           688.812
       245   07 Jun 2027 10:56:34.368   07 Jun 2027 10:56:34.368             0.000             0.000
       246   07 Jun 2027 10:57:13.209   07 Jun 2027 10:57:14.138             0.929           464.500
       247   07 Jun 2027 10:57:18.192   07 Jun 2027 10:57:22.083             3.891          1191.156
       248   08 Jun 2027 03:01:09.010   08 Jun 2027 03:01:18.250             9.240          4620.000
       249   08 Jun 2027 03:01:40.952   08 Jun 2027 03:02:07.173            26.221         13110.500
       250   08 Jun 2027 03:02:29.937   08 Jun 2027 03:02:30.413             0.476           238.000
       251   08 Jun 2027 03:04:00.416   08 Jun 2027 03:04:00.416             0.000             0.000
       252   08 Jun 2027 03:04:28.272   08 Jun 2027 03:04:40.101            11.829          5914.500
       253   08 Jun 2027 03:04:55.545   08 Jun 2027 03:05:04.071             8.526          4263.000
       254   08 Jun 2027 04:36:03.552   08 Jun 2027 04:39:03.170           179.618         89809.000
       255   08 Jun 2027 04:39:06.696   08 Jun 2027 04:39:18.035            11.339          5669.500
       256   08 Jun 2027 04:40:59.665   08 Jun 2027 04:40:59.665             0.000             0.000
       257   08 Jun 2027 04:43:01.680   08 Jun 2027 04:43:27.170            25.490         12745.000
       258   08 Jun 2027 04:44:59.064   08 Jun 2027 04:45:12.910            13.846          6923.000
       259   08 Jun 2027 06:14:03.711   08 Jun 2027 06:15:40.957            97.246         48623.000
       260   08 Jun 2027 06:15:42.811   08 Jun 2027 06:15:42.811             0.000             0.000
       261   08 Jun 2027 06:16:26.535   08 Jun 2027 06:16:37.164            10.629          2902.562
       262   08 Jun 2027 06:17:35.228   08 Jun 2027 06:17:40.161             4.933          1814.500
       263   08 Jun 2027 06:18:09.456   08 Jun 2027 06:18:13.349             3.893           871.594
       264   08 Jun 2027 06:19:46.454   08 Jun 2027 06:19:52.380             5.926          2807.656
       265   08 Jun 2027 06:21:03.694   08 Jun 2027 06:21:03.694             0.000             0.000
       266   08 Jun 2027 07:50:58.644   08 Jun 2027 07:51:26.553            27.909         13954.500
       267   08 Jun 2027 07:51:29.540   08 Jun 2027 07:51:46.381            16.841          6844.531
       268   08 Jun 2027 07:52:52.493   08 Jun 2027 07:52:56.113             3.620            79.625
       269   08 Jun 2027 07:53:15.370   08 Jun 2027 07:53:23.035             7.665           287.031
       270   08 Jun 2027 07:55:02.527   08 Jun 2027 07:55:09.685             7.158          2606.687
       271   08 Jun 2027 07:55:44.204   08 Jun 2027 07:55:45.936             1.732           808.656
       272   08 Jun 2027 07:55:59.425   08 Jun 2027 07:56:00.387             0.962           339.312
       273   08 Jun 2027 07:57:05.750   08 Jun 2027 07:57:10.485             4.735          2042.594
       274   08 Jun 2027 09:28:32.618   08 Jun 2027 09:28:51.800            19.182          9503.219
       275   08 Jun 2027 09:29:42.322   08 Jun 2027 09:29:42.322             0.000             0.000
       276   08 Jun 2027 09:29:52.283   08 Jun 2027 09:29:56.877             4.594          1056.594
       277   08 Jun 2027 09:29:57.228   08 Jun 2027 09:30:03.374             6.146            10.969
       278   08 Jun 2027 09:31:15.607   08 Jun 2027 09:31:20.135             4.528          1984.875
       279   08 Jun 2027 09:31:23.915   08 Jun 2027 09:31:26.068             2.153            54.906
       280   08 Jun 2027 09:31:41.835   08 Jun 2027 09:31:49.883             8.048           492.719
       281   08 Jun 2027 09:32:30.659   08 Jun 2027 09:32:33.123             2.464          1150.156
       282   08 Jun 2027 11:02:55.684   08 Jun 2027 11:03:02.243             6.559          2519.219
       283   08 Jun 2027 11:03:15.597   08 Jun 2027 11:03:20.011             4.414           223.719
       284   08 Jun 2027 11:03:32.983   08 Jun 2027 11:03:35.534             2.551           190.781
       285   08 Jun 2027 11:04:07.265   08 Jun 2027 11:04:07.484             0.219           109.500
       286   08 Jun 2027 11:04:44.784   08 Jun 2027 11:04:51.090             6.306           564.469
       287   08 Jun 2027 11:05:12.430   08 Jun 2027 11:05:17.731             5.301           219.844
       288   08 Jun 2027 11:05:50.272   08 Jun 2027 11:05:52.488             2.216          1016.906
       289   08 Jun 2027 11:06:27.801   08 Jun 2027 11:06:29.020             1.219           609.500
       290   08 Jun 2027 11:06:47.395   08 Jun 2027 11:06:49.460             2.065           965.281
       291   08 Jun 2027 11:07:19.242   08 Jun 2027 11:07:21.466             2.224           930.687
       292   09 Jun 2027 03:15:26.785   09 Jun 2027 03:15:56.335            29.550         14775.000
       293   09 Jun 2027 03:16:48.775   09 Jun 2027 03:16:48.775             0.000             0.000
       294   09 Jun 2027 03:17:33.071   09 Jun 2027 03:18:32.385            59.314         29657.000
       295   09 Jun 2027 03:18:45.448   09 Jun 2027 03:18:56.128            10.680          5340.000
       296   09 Jun 2027 04:48:59.700   09 Jun 2027 04:51:31.109           151.409         75704.500
       297   09 Jun 2027 04:52:36.119   09 Jun 2027 04:52:36.119             0.000             0.000
       298   09 Jun 2027 04:54:33.901   09 Jun 2027 04:54:48.081            14.180          7090.000
       299   09 Jun 2027 04:55:03.239   09 Jun 2027 04:55:04.104             0.865           432.500
       300   09 Jun 2027 04:56:35.675   09 Jun 2027 04:57:03.331            27.656         13828.000
       301   09 Jun 2027 04:57:16.888   09 Jun 2027 04:57:33.702            16.814          8407.000
       302   09 Jun 2027 06:26:25.696   09 Jun 2027 06:27:44.329            78.633         37093.594
       303   09 Jun 2027 06:28:09.862   09 Jun 2027 06:28:12.499             2.637           797.906
       304   09 Jun 2027 06:30:17.404   09 Jun 2027 06:30:24.067             6.663          3331.500
       305   09 Jun 2027 06:30:40.275   09 Jun 2027 06:30:40.807             0.532           266.000
       306   09 Jun 2027 06:31:08.586   09 Jun 2027 06:31:17.286             8.700          1380.187
       307   09 Jun 2027 06:32:56.413   09 Jun 2027 06:33:01.709             5.296          2513.625
       308   09 Jun 2027 08:03:27.881   09 Jun 2027 08:04:03.527            35.646         17823.000
       309   09 Jun 2027 08:04:18.121   09 Jun 2027 08:04:20.833             2.712          1263.469
       310   09 Jun 2027 08:04:37.874   09 Jun 2027 08:04:38.988             1.114           443.844
       311   09 Jun 2027 08:04:54.101   09 Jun 2027 08:04:55.379             1.278           472.281
       312   09 Jun 2027 08:05:54.070   09 Jun 2027 08:05:59.085             5.015          1834.094
       313   09 Jun 2027 08:06:23.637   09 Jun 2027 08:06:23.637             0.000             0.000
       314   09 Jun 2027 08:06:55.335   09 Jun 2027 08:06:59.141             3.806          1649.875
       315   09 Jun 2027 08:07:23.961   09 Jun 2027 08:07:23.961             0.000             0.000
       316   09 Jun 2027 08:08:38.277   09 Jun 2027 08:08:42.901             4.624          2312.000
       317   09 Jun 2027 09:40:16.365   09 Jun 2027 09:40:37.251            20.886         10303.813
       318   09 Jun 2027 09:41:21.074   09 Jun 2027 09:41:24.906             3.832          1369.469
       319   09 Jun 2027 09:41:43.951   09 Jun 2027 09:41:44.535             0.584           292.000
       320   09 Jun 2027 09:42:28.022   09 Jun 2027 09:42:35.077             7.055          1568.062
       321   09 Jun 2027 09:43:25.458   09 Jun 2027 09:43:25.533             0.075            37.500
       322   09 Jun 2027 09:44:00.971   09 Jun 2027 09:44:07.031             6.060          2644.344
       323   09 Jun 2027 09:44:14.789   09 Jun 2027 09:44:18.129             3.340           218.875
       324   09 Jun 2027 09:44:39.923   09 Jun 2027 09:44:41.581             1.658           681.062
       325   09 Jun 2027 11:15:31.953   09 Jun 2027 11:15:34.125             2.172          1086.000
       326   09 Jun 2027 11:17:18.699   09 Jun 2027 11:17:23.041             4.342          2171.000
       327   09 Jun 2027 11:17:34.541   09 Jun 2027 11:17:37.667             3.126           813.000
       328   09 Jun 2027 11:18:03.403   09 Jun 2027 11:18:06.143             2.740           456.313
       329   09 Jun 2027 11:19:35.677   09 Jun 2027 11:19:45.812            10.135          2339.719
       330   10 Jun 2027 03:27:33.122   10 Jun 2027 03:27:50.826            17.704          8852.000
       331   10 Jun 2027 03:28:19.188   10 Jun 2027 03:28:45.709            26.521         13260.500
       332   10 Jun 2027 03:29:38.613   10 Jun 2027 03:30:12.820            34.207         17103.500
       333   10 Jun 2027 03:30:57.010   10 Jun 2027 03:31:06.188             9.178          4589.000
       334   10 Jun 2027 04:59:42.756   10 Jun 2027 04:59:51.637             8.881          4440.500
       335   10 Jun 2027 05:01:42.414   10 Jun 2027 05:04:20.806           158.392         79196.000
       336   10 Jun 2027 05:07:49.552   10 Jun 2027 05:08:20.270            30.718         15359.000
       337   10 Jun 2027 05:08:22.197   10 Jun 2027 05:08:26.317             4.120          2060.000
       338   10 Jun 2027 05:08:29.997   10 Jun 2027 05:08:32.677             2.680          1340.000
       339   10 Jun 2027 05:09:07.445   10 Jun 2027 05:09:07.445             0.000             0.000
       340   10 Jun 2027 05:09:10.433   10 Jun 2027 05:09:28.389            17.956          8978.000
       341   10 Jun 2027 06:38:36.590   10 Jun 2027 06:39:40.263            63.673         29574.656
       342   10 Jun 2027 06:40:55.987   10 Jun 2027 06:40:57.042             1.055           266.250
       343   10 Jun 2027 06:41:00.302   10 Jun 2027 06:41:04.792             4.490            73.750
       344   10 Jun 2027 06:41:28.168   10 Jun 2027 06:41:30.043             1.875           360.187
       345   10 Jun 2027 06:42:31.426   10 Jun 2027 06:42:34.233             2.807          1126.281
       346   10 Jun 2027 06:43:04.308   10 Jun 2027 06:43:06.594             2.286           939.844
       347   10 Jun 2027 06:44:06.615   10 Jun 2027 06:44:11.604             4.989          1738.875
       348   10 Jun 2027 06:44:48.132   10 Jun 2027 06:44:52.974             4.842           919.344
       349   10 Jun 2027 08:15:42.736   10 Jun 2027 08:16:12.305            29.569         13921.562
       350   10 Jun 2027 08:16:33.977   10 Jun 2027 08:16:36.051             2.074           551.250
       351   10 Jun 2027 08:16:56.249   10 Jun 2027 08:16:59.055             2.806           547.594
       352   10 Jun 2027 08:17:23.849   10 Jun 2027 08:17:27.757             3.908           774.812
       353   10 Jun 2027 08:17:39.947   10 Jun 2027 08:17:44.205             4.258             2.969
       354   10 Jun 2027 08:18:21.363   10 Jun 2027 08:18:24.381             3.018          1094.938
       355   10 Jun 2027 08:18:47.288   10 Jun 2027 08:18:50.869             3.581           483.594
       356   10 Jun 2027 08:20:35.879   10 Jun 2027 08:20:38.560             2.681          1340.500
       357   10 Jun 2027 09:52:19.549   10 Jun 2027 09:52:37.080            17.531          8174.688
       358   10 Jun 2027 09:53:10.792   10 Jun 2027 09:53:13.951             3.159           557.531
       359   10 Jun 2027 09:53:45.487   10 Jun 2027 09:53:48.770             3.283           868.156
       360   10 Jun 2027 09:54:23.262   10 Jun 2027 09:54:28.677             5.415          1077.875
       361   10 Jun 2027 09:54:35.920   10 Jun 2027 09:54:36.477             0.557           163.219
       362   10 Jun 2027 09:54:52.021   10 Jun 2027 09:54:56.258             4.237           407.000
       363   10 Jun 2027 09:55:29.805   10 Jun 2027 09:55:34.350             4.545           222.125
       364   10 Jun 2027 09:55:37.947   10 Jun 2027 09:55:41.537             3.590           101.688
       365   10 Jun 2027 09:55:43.950   10 Jun 2027 09:55:44.410             0.460            75.406
       366   10 Jun 2027 09:57:20.037   10 Jun 2027 09:57:25.859             5.822          2442.063
       367   10 Jun 2027 11:30:38.751   10 Jun 2027 11:30:44.360             5.609          2573.406
       368   10 Jun 2027 11:30:59.345   10 Jun 2027 11:31:07.962             8.617           226.625
       369   11 Jun 2027 03:39:40.647   11 Jun 2027 03:39:47.914             7.267          3633.500
       370   11 Jun 2027 03:40:22.834   11 Jun 2027 03:40:49.748            26.914         13457.000
       371   11 Jun 2027 03:41:07.943   11 Jun 2027 03:41:11.956             4.013          2006.500
       372   11 Jun 2027 03:41:37.646   11 Jun 2027 03:41:42.649             5.003          2501.500
       373   11 Jun 2027 03:41:49.844   11 Jun 2027 03:41:49.844             0.000             0.000
       374   11 Jun 2027 03:43:11.949   11 Jun 2027 03:43:19.878             7.929          3964.500
       375   11 Jun 2027 05:14:48.535   11 Jun 2027 05:17:44.913           176.378         88189.000
       376   11 Jun 2027 05:18:36.014   11 Jun 2027 05:19:45.907            69.893         34946.500
       377   11 Jun 2027 05:21:22.276   11 Jun 2027 05:21:30.450             8.174          3188.188
       378   11 Jun 2027 06:51:10.193   11 Jun 2027 06:52:05.690            55.497         26143.563
       379   11 Jun 2027 06:52:19.005   11 Jun 2027 06:52:19.149             0.144            15.781
       380   11 Jun 2027 06:53:03.918   11 Jun 2027 06:53:07.216             3.298           951.406
       381   11 Jun 2027 06:54:09.548   11 Jun 2027 06:54:14.965             5.417          1565.187
       382   11 Jun 2027 06:54:24.163   11 Jun 2027 06:54:26.809             2.646            30.625
       383   11 Jun 2027 06:55:51.443   11 Jun 2027 06:55:57.863             6.420          2597.219
       384   11 Jun 2027 06:56:32.468   11 Jun 2027 06:56:35.104             2.636          1007.156
       385   11 Jun 2027 06:56:54.028   11 Jun 2027 06:56:57.048             3.020           591.375
       386   11 Jun 2027 06:57:02.824   11 Jun 2027 06:57:04.515             1.691            14.531
       387   11 Jun 2027 06:57:24.357   11 Jun 2027 06:57:26.568             2.211           558.875
       388   11 Jun 2027 08:28:35.396   11 Jun 2027 08:29:07.401            32.005         15524.562
       389   11 Jun 2027 08:29:48.851   11 Jun 2027 08:29:48.851             0.000             0.000
       390   11 Jun 2027 08:30:02.535   11 Jun 2027 08:30:05.998             3.463           692.250
       391   11 Jun 2027 08:30:24.721   11 Jun 2027 08:30:24.803             0.082            41.000
       392   11 Jun 2027 08:30:35.006   11 Jun 2027 08:30:35.006             0.000             0.000
       393   11 Jun 2027 08:30:48.741   11 Jun 2027 08:30:54.083             5.342          1292.156
       394   11 Jun 2027 08:31:10.396   11 Jun 2027 08:31:10.557             0.161            80.500
       395   11 Jun 2027 08:31:52.281   11 Jun 2027 08:31:55.064             2.783          1391.500
       396   11 Jun 2027 10:04:46.335   11 Jun 2027 10:05:01.193            14.858          7429.000
       397   11 Jun 2027 10:05:08.295   11 Jun 2027 10:05:13.569             5.274           326.188
       398   11 Jun 2027 10:05:55.091   11 Jun 2027 10:05:56.774             1.683           255.969
       399   11 Jun 2027 10:06:36.238   11 Jun 2027 10:06:41.943             5.705          1233.250
       400   11 Jun 2027 10:07:14.764   11 Jun 2027 10:07:16.850             2.086           678.438
       401   11 Jun 2027 10:07:30.815   11 Jun 2027 10:07:31.766             0.951           207.625
       402   11 Jun 2027 10:07:36.970   11 Jun 2027 10:07:37.515             0.545            60.719
       403   11 Jun 2027 10:07:49.630   11 Jun 2027 10:07:49.630             0.000             0.000
       404   11 Jun 2027 10:07:54.054   11 Jun 2027 10:07:55.240             1.186           260.000
       405   12 Jun 2027 03:51:43.285   12 Jun 2027 03:52:14.074            30.789         15394.500
       406   12 Jun 2027 03:52:24.944   12 Jun 2027 03:52:28.388             3.444          1722.000
       407   12 Jun 2027 03:52:38.303   12 Jun 2027 03:53:06.276            27.973         13986.500
       408   12 Jun 2027 03:53:09.945   12 Jun 2027 03:53:39.042            29.097         14548.500
       409   12 Jun 2027 03:53:48.660   12 Jun 2027 03:53:48.660             0.000             0.000
       410   12 Jun 2027 05:26:55.435   12 Jun 2027 05:29:54.015           178.580         89290.000
       411   12 Jun 2027 05:31:06.428   12 Jun 2027 05:31:12.063             5.635          2817.500
       412   12 Jun 2027 05:31:24.336   12 Jun 2027 05:31:31.814             7.478          3739.000
       413   12 Jun 2027 05:32:08.259   12 Jun 2027 05:32:16.825             8.566          4283.000
       414   12 Jun 2027 05:33:12.556   12 Jun 2027 05:33:12.556             0.000             0.000
       415   12 Jun 2027 05:33:14.362   12 Jun 2027 05:33:34.182            19.820          9910.000
       416   12 Jun 2027 07:02:50.798   12 Jun 2027 07:04:00.190            69.392         34295.500
       417   12 Jun 2027 07:05:26.763   12 Jun 2027 07:05:32.931             6.168          2261.406
       418   12 Jun 2027 07:06:00.189   12 Jun 2027 07:06:02.106             1.917           193.219
       419   12 Jun 2027 07:06:13.013   12 Jun 2027 07:06:13.982             0.969           107.625
       420   12 Jun 2027 07:06:23.970   12 Jun 2027 07:06:23.970             0.000             0.000
       421   12 Jun 2027 07:07:26.425   12 Jun 2027 07:07:33.606             7.181          2150.125
       422   12 Jun 2027 07:08:49.647   12 Jun 2027 07:08:58.698             9.051          2263.875
       423   12 Jun 2027 07:09:02.613   12 Jun 2027 07:09:03.286             0.673           121.812
       424   12 Jun 2027 08:40:43.233   12 Jun 2027 08:41:08.344            25.111         12221.250
       425   12 Jun 2027 08:42:04.617   12 Jun 2027 08:42:12.893             8.276          1758.531
       426   12 Jun 2027 08:42:50.144   12 Jun 2027 08:42:52.329             2.185          1092.500
       427   12 Jun 2027 08:43:00.334   12 Jun 2027 08:43:01.468             1.134           321.750
       428   12 Jun 2027 08:43:35.257   12 Jun 2027 08:43:37.206             1.949           479.563
       429   12 Jun 2027 08:44:03.973   12 Jun 2027 08:44:06.021             2.048           500.250
       430   12 Jun 2027 08:44:13.117   12 Jun 2027 08:44:13.690             0.573           221.750
       431   12 Jun 2027 08:44:58.213   12 Jun 2027 08:45:02.356             4.143          1391.344
       432   12 Jun 2027 10:16:40.740   12 Jun 2027 10:16:59.741            19.001          8049.156
       433   12 Jun 2027 10:17:48.133   12 Jun 2027 10:17:50.828             2.695          1347.500
       434   12 Jun 2027 10:18:37.159   12 Jun 2027 10:18:44.018             6.859          1611.094
       435   12 Jun 2027 10:18:55.076   12 Jun 2027 10:18:56.971             1.895            32.500
       436   12 Jun 2027 10:19:25.095   12 Jun 2027 10:19:32.030             6.935           713.469
       437   12 Jun 2027 10:20:06.276   12 Jun 2027 10:20:08.177             1.901           740.781
       438   12 Jun 2027 10:20:47.615   12 Jun 2027 10:20:53.306             5.691           980.375
       439   12 Jun 2027 10:21:02.050   12 Jun 2027 10:21:04.465             2.415           172.937
       440   12 Jun 2027 10:21:22.813   12 Jun 2027 10:21:24.141             1.328           338.406
       441   12 Jun 2027 10:21:31.294   12 Jun 2027 10:21:32.488             1.194            14.719
       442   13 Jun 2027 04:03:27.062   13 Jun 2027 04:04:37.487            70.425         35212.500
       443   13 Jun 2027 04:05:03.144   13 Jun 2027 04:05:09.724             6.580          3290.000
       444   13 Jun 2027 04:05:40.320   13 Jun 2027 04:05:40.320             0.000             0.000
       445   13 Jun 2027 04:06:39.035   13 Jun 2027 04:07:09.236            30.201         15100.500
       446   13 Jun 2027 05:38:10.365   13 Jun 2027 05:40:57.693           167.328         83664.000
       447   13 Jun 2027 05:41:08.444   13 Jun 2027 05:41:08.444             0.000             0.000
       448   13 Jun 2027 05:41:15.346   13 Jun 2027 05:41:15.346             0.000             0.000
       449   13 Jun 2027 05:44:38.636   13 Jun 2027 05:44:46.975             8.339          4169.500
       450   13 Jun 2027 05:45:03.824   13 Jun 2027 05:45:04.079             0.255           127.500
       451   13 Jun 2027 05:45:37.558   13 Jun 2027 05:45:42.204             4.646          2323.000
       452   13 Jun 2027 07:14:56.739   13 Jun 2027 07:16:25.505            88.766         42089.531
       453   13 Jun 2027 07:17:15.608   13 Jun 2027 07:17:21.699             6.091          1484.312
       454   13 Jun 2027 07:18:35.328   13 Jun 2027 07:18:36.000             0.672           336.000
       455   13 Jun 2027 07:19:31.131   13 Jun 2027 07:19:41.829            10.698          3655.000
       456   13 Jun 2027 07:20:18.145   13 Jun 2027 07:20:20.796             2.651          1134.875
       457   13 Jun 2027 08:53:12.313   13 Jun 2027 08:53:37.742            25.429         11778.781
       458   13 Jun 2027 08:54:20.535   13 Jun 2027 08:54:23.048             2.513          1251.906
       459   13 Jun 2027 08:54:24.557   13 Jun 2027 08:54:25.717             1.160            36.906
       460   13 Jun 2027 08:55:47.926   13 Jun 2027 08:55:51.949             4.023          1779.844
       461   13 Jun 2027 08:56:10.379   13 Jun 2027 08:56:14.363             3.984           266.125
       462   13 Jun 2027 08:56:18.348   13 Jun 2027 08:56:20.249             1.901            45.906
       463   13 Jun 2027 08:56:57.315   13 Jun 2027 08:56:59.213             1.898           892.094
       464   13 Jun 2027 10:26:31.052   13 Jun 2027 10:26:52.569            21.517          8291.563
       465   13 Jun 2027 10:27:59.841   13 Jun 2027 10:28:01.214             1.373           686.500
       466   13 Jun 2027 10:28:27.544   13 Jun 2027 10:28:34.874             7.330           952.656
       467   13 Jun 2027 10:29:47.214   13 Jun 2027 10:29:47.597             0.383           191.500
       468   13 Jun 2027 10:30:18.313   13 Jun 2027 10:30:24.381             6.068          2737.688
       469   13 Jun 2027 10:30:52.162   13 Jun 2027 10:30:53.765             1.603           659.844
       470   13 Jun 2027 10:31:35.742   13 Jun 2027 10:31:41.695             5.953          1161.281
       471   13 Jun 2027 10:32:05.947   13 Jun 2027 10:32:07.767             1.820           700.969
       472   13 Jun 2027 10:32:13.505   13 Jun 2027 10:32:15.030             1.525           113.625
       473   13 Jun 2027 10:33:07.231   13 Jun 2027 10:33:17.409            10.178          1000.187
