uniorb/output/strategy_2/Camera/Camera_KinoSat_111008.txt

KinoSat_111008
-------------------------
    Access    *     Start Time (UTCG)     *     Stop Time (UTCG)  *   Duration (s) *   Data (Mbytes)
         1   01 Jun 2027 03:00:00.000   01 Jun 2027 03:00:18.248            18.248          9124.000
         2   01 Jun 2027 03:10:41.087   01 Jun 2027 03:13:15.174           154.087         77043.500
         3   01 Jun 2027 03:13:27.462   01 Jun 2027 03:13:30.123             2.661          1330.500
         4   01 Jun 2027 04:33:38.346   01 Jun 2027 04:34:25.139            46.793         23396.500
         5   01 Jun 2027 04:34:50.735   01 Jun 2027 04:35:01.079            10.344          5172.000
         6   01 Jun 2027 04:37:24.342   01 Jun 2027 04:37:40.474            16.132          8066.000
         7   01 Jun 2027 06:09:05.522   01 Jun 2027 06:09:22.304            16.782          8391.000
         8   01 Jun 2027 06:10:21.005   01 Jun 2027 06:13:01.737           160.732         80366.000
         9   01 Jun 2027 06:13:58.128   01 Jun 2027 06:14:07.992             9.864          4932.000
        10   01 Jun 2027 07:45:06.399   01 Jun 2027 07:47:08.315           121.916         60958.000
        11   01 Jun 2027 07:47:50.914   01 Jun 2027 07:48:16.008            25.094         12547.000
        12   01 Jun 2027 07:49:16.204   01 Jun 2027 07:49:38.711            22.507         11253.500
        13   01 Jun 2027 07:51:58.036   01 Jun 2027 07:52:25.893            27.857         13928.500
        14   01 Jun 2027 07:52:37.222   01 Jun 2027 07:52:40.808             3.586          1793.000
        15   01 Jun 2027 09:22:08.071   01 Jun 2027 09:24:15.985           127.914         63957.000
        16   01 Jun 2027 09:25:43.436   01 Jun 2027 09:25:45.843             2.407          1203.500
        17   01 Jun 2027 09:26:09.664   01 Jun 2027 09:26:10.610             0.946           473.000
        18   01 Jun 2027 09:26:54.336   01 Jun 2027 09:27:02.745             8.409          4204.500
        19   01 Jun 2027 09:27:10.010   01 Jun 2027 09:27:11.738             1.728           864.000
        20   01 Jun 2027 11:00:08.003   01 Jun 2027 11:02:10.467           122.464         61232.000
        21   01 Jun 2027 11:03:33.471   01 Jun 2027 11:03:43.110             9.639          4819.500
        22   02 Jun 2027 03:11:00.101   02 Jun 2027 03:11:22.358            22.257         11128.500
        23   02 Jun 2027 03:11:41.120   02 Jun 2027 03:11:41.120             0.000             0.000
        24   02 Jun 2027 03:12:13.297   02 Jun 2027 03:12:13.297             0.000             0.000
        25   02 Jun 2027 03:12:20.795   02 Jun 2027 03:12:30.806            10.011          5005.500
        26   02 Jun 2027 03:22:42.460   02 Jun 2027 03:24:02.691            80.231         40115.500
        27   02 Jun 2027 04:44:55.474   02 Jun 2027 04:46:08.768            73.294         36647.000
        28   02 Jun 2027 04:46:57.468   02 Jun 2027 04:47:23.730            26.262         13131.000
        29   02 Jun 2027 04:47:25.942   02 Jun 2027 04:47:37.336            11.394          5697.000
        30   02 Jun 2027 04:49:25.299   02 Jun 2027 04:49:43.914            18.615          9307.500
        31   02 Jun 2027 06:20:02.685   02 Jun 2027 06:21:31.776            89.091         44545.500
        32   02 Jun 2027 06:22:04.559   02 Jun 2027 06:22:52.693            48.134         24067.000
        33   02 Jun 2027 06:23:21.995   02 Jun 2027 06:23:30.399             8.404          4202.000
        34   02 Jun 2027 06:25:02.988   02 Jun 2027 06:25:14.919            11.931          5965.500
        35   02 Jun 2027 06:26:29.575   02 Jun 2027 06:26:39.133             9.558          4779.000
        36   02 Jun 2027 06:26:51.509   02 Jun 2027 06:26:57.183             5.674          2837.000
        37   02 Jun 2027 06:27:59.405   02 Jun 2027 06:28:09.797            10.392          5196.000
        38   02 Jun 2027 07:57:16.346   02 Jun 2027 07:59:22.752           126.406         63203.000
        39   02 Jun 2027 08:00:34.416   02 Jun 2027 08:00:51.198            16.782          8391.000
        40   02 Jun 2027 08:01:31.355   02 Jun 2027 08:01:39.064             7.709          3854.500
        41   02 Jun 2027 08:01:59.668   02 Jun 2027 08:02:06.656             6.988          3298.438
        42   02 Jun 2027 08:02:56.403   02 Jun 2027 08:03:01.353             4.950           316.281
        43   02 Jun 2027 08:03:17.235   02 Jun 2027 08:03:17.235             0.000             0.000
        44   02 Jun 2027 08:03:42.213   02 Jun 2027 08:03:45.695             3.482          1276.875
        45   02 Jun 2027 09:34:12.241   02 Jun 2027 09:34:38.116            25.875         12422.688
        46   02 Jun 2027 09:35:24.589   02 Jun 2027 09:35:27.520             2.931           408.125
        47   02 Jun 2027 09:35:30.740   02 Jun 2027 09:35:31.349             0.609           100.625
        48   02 Jun 2027 09:36:01.460   02 Jun 2027 09:36:02.589             1.129           449.250
        49   02 Jun 2027 09:37:35.683   02 Jun 2027 09:37:41.730             6.047          1833.844
        50   02 Jun 2027 09:39:08.480   02 Jun 2027 09:39:10.789             2.309          1154.500
        51   02 Jun 2027 09:39:33.416   02 Jun 2027 09:39:38.365             4.949          2053.969
        52   02 Jun 2027 11:12:06.632   02 Jun 2027 11:12:24.889            18.257          8793.531
        53   02 Jun 2027 11:12:53.478   02 Jun 2027 11:12:57.142             3.664           893.406
        54   02 Jun 2027 11:13:32.972   02 Jun 2027 11:13:35.156             2.184           988.969
        55   02 Jun 2027 11:14:34.463   02 Jun 2027 11:14:38.523             4.060          1730.813
        56   02 Jun 2027 11:14:43.484   02 Jun 2027 11:14:47.853             4.369           155.031
        57   02 Jun 2027 11:15:05.100   02 Jun 2027 11:15:07.864             2.764           538.969
        58   02 Jun 2027 11:15:51.686   02 Jun 2027 11:15:54.427             2.741          1019.750
        59   02 Jun 2027 11:16:04.874   02 Jun 2027 11:16:07.101             2.227           326.469
        60   03 Jun 2027 03:22:28.335   03 Jun 2027 03:23:21.289            52.954         26477.000
        61   03 Jun 2027 03:23:25.097   03 Jun 2027 03:23:41.419            16.322          8161.000
        62   03 Jun 2027 03:24:34.845   03 Jun 2027 03:24:38.342             3.497          1748.500
        63   03 Jun 2027 03:34:39.264   03 Jun 2027 03:35:18.578            39.314         19657.000
        64   03 Jun 2027 04:56:40.999   03 Jun 2027 04:58:01.945            80.946         40473.000
        65   03 Jun 2027 04:58:43.940   03 Jun 2027 04:59:35.945            52.005         26002.500
        66   03 Jun 2027 05:00:06.905   03 Jun 2027 05:00:10.773             3.868          1934.000
        67   03 Jun 2027 05:01:06.842   03 Jun 2027 05:01:06.842             0.000             0.000
        68   03 Jun 2027 05:01:11.009   03 Jun 2027 05:01:26.017            15.008          7504.000
        69   03 Jun 2027 06:31:32.118   03 Jun 2027 06:32:25.857            53.739         25804.500
        70   03 Jun 2027 06:33:28.406   03 Jun 2027 06:33:31.756             3.350          1397.250
        71   03 Jun 2027 06:34:02.255   03 Jun 2027 06:34:06.576             4.321           867.125
        72   03 Jun 2027 06:34:36.824   03 Jun 2027 06:34:38.694             1.870           700.219
        73   03 Jun 2027 06:36:46.093   03 Jun 2027 06:36:56.696            10.603          3678.437
        74   03 Jun 2027 06:37:17.973   03 Jun 2027 06:37:17.973             0.000             0.000
        75   03 Jun 2027 06:38:10.818   03 Jun 2027 06:38:15.836             5.018          2136.969
        76   03 Jun 2027 06:38:49.109   03 Jun 2027 06:38:52.944             3.835           555.187
        77   03 Jun 2027 06:39:22.601   03 Jun 2027 06:39:24.042             1.441           720.500
        78   03 Jun 2027 06:40:09.511   03 Jun 2027 06:40:12.361             2.850          1285.344
        79   03 Jun 2027 06:40:23.097   03 Jun 2027 06:40:29.642             6.545           285.031
        80   03 Jun 2027 06:40:35.181   03 Jun 2027 06:40:37.789             2.608           173.094
        81   03 Jun 2027 08:09:18.028   03 Jun 2027 08:09:31.111            13.083          5861.750
        82   03 Jun 2027 08:10:01.762   03 Jun 2027 08:10:06.094             4.332           886.219
        83   03 Jun 2027 08:10:34.117   03 Jun 2027 08:10:36.015             1.898           319.719
        84   03 Jun 2027 08:11:20.602   03 Jun 2027 08:11:22.290             1.688           844.000
        85   03 Jun 2027 08:11:53.717   03 Jun 2027 08:11:59.117             5.400          1042.406
        86   03 Jun 2027 08:12:31.488   03 Jun 2027 08:12:33.620             2.132           218.312
        87   03 Jun 2027 08:12:44.845   03 Jun 2027 08:12:46.273             1.428            39.281
        88   03 Jun 2027 08:13:06.682   03 Jun 2027 08:13:07.656             0.974           325.344
        89   03 Jun 2027 08:14:01.240   03 Jun 2027 08:14:05.649             4.409          1308.813
        90   03 Jun 2027 08:14:25.681   03 Jun 2027 08:14:26.963             1.282           626.000
        91   03 Jun 2027 08:14:56.727   03 Jun 2027 08:14:58.609             1.882           930.125
        92   03 Jun 2027 08:15:40.142   03 Jun 2027 08:15:44.681             4.539           904.813
        93   03 Jun 2027 09:46:05.604   03 Jun 2027 09:46:28.815            23.211         10825.656
        94   03 Jun 2027 09:48:42.028   03 Jun 2027 09:48:48.199             6.171          3018.813
        95   03 Jun 2027 09:49:11.884   03 Jun 2027 09:49:17.568             5.684           735.906
        96   03 Jun 2027 09:50:17.627   03 Jun 2027 09:50:17.830             0.203           101.500
        97   03 Jun 2027 09:50:44.200   03 Jun 2027 09:50:47.776             3.576          1766.281
        98   03 Jun 2027 09:51:57.990   03 Jun 2027 09:51:58.844             0.854           427.000
        99   03 Jun 2027 09:52:06.648   03 Jun 2027 09:52:12.079             5.431          1767.187
       100   03 Jun 2027 09:52:32.214   03 Jun 2027 09:52:36.895             4.681           339.375
       101   03 Jun 2027 11:24:08.920   03 Jun 2027 11:24:22.754            13.834          6431.719
       102   03 Jun 2027 11:24:54.610   03 Jun 2027 11:24:55.496             0.886           443.000
       103   03 Jun 2027 11:26:07.384   03 Jun 2027 11:26:13.197             5.813          2494.563
       104   03 Jun 2027 11:26:31.866   03 Jun 2027 11:26:33.625             1.759           583.406
       105   03 Jun 2027 11:26:41.547   03 Jun 2027 11:26:58.125            16.578           247.562
       106   03 Jun 2027 11:27:13.872   03 Jun 2027 11:27:15.005             1.133           333.875
       107   03 Jun 2027 11:27:21.935   03 Jun 2027 11:27:26.105             4.170           216.563
       108   03 Jun 2027 11:28:03.031   03 Jun 2027 11:28:10.353             7.322          1063.906
       109   03 Jun 2027 11:28:13.605   03 Jun 2027 11:28:14.097             0.492            47.031
       110   04 Jun 2027 03:34:30.548   04 Jun 2027 03:35:27.771            57.223         28611.500
       111   04 Jun 2027 03:35:41.657   04 Jun 2027 03:35:46.338             4.681          2340.500
       112   04 Jun 2027 03:36:22.016   04 Jun 2027 03:36:33.929            11.913          5956.500
       113   04 Jun 2027 03:36:38.855   04 Jun 2027 03:36:43.831             4.976          2488.000
       114   04 Jun 2027 05:10:27.937   04 Jun 2027 05:13:45.925           197.988         98994.000
       115   04 Jun 2027 06:44:17.723   04 Jun 2027 06:44:56.401            38.678         17958.688
       116   04 Jun 2027 06:45:31.614   04 Jun 2027 06:45:33.697             2.083           512.781
       117   04 Jun 2027 06:46:14.727   04 Jun 2027 06:46:17.731             3.004           387.375
       118   04 Jun 2027 06:47:53.595   04 Jun 2027 06:47:58.875             5.280          2238.562
       119   04 Jun 2027 06:49:44.514   04 Jun 2027 06:49:51.798             7.284          3233.656
       120   04 Jun 2027 06:50:03.386   04 Jun 2027 06:50:04.406             1.020           339.719
       121   04 Jun 2027 06:50:54.144   04 Jun 2027 06:50:57.780             3.636          1500.312
       122   04 Jun 2027 06:51:48.884   04 Jun 2027 06:51:49.000             0.116            58.000
       123   04 Jun 2027 06:52:16.311   04 Jun 2027 06:52:23.421             7.110          2192.437
       124   04 Jun 2027 08:21:21.180   04 Jun 2027 08:21:43.306            22.126          9044.969
       125   04 Jun 2027 08:23:06.324   04 Jun 2027 08:23:10.466             4.142          1821.812
       126   04 Jun 2027 08:23:28.355   04 Jun 2027 08:23:28.743             0.388           194.000
       127   04 Jun 2027 08:24:01.299   04 Jun 2027 08:24:06.401             5.102          1372.156
       128   04 Jun 2027 08:25:20.366   04 Jun 2027 08:25:26.455             6.089          2311.406
       129   04 Jun 2027 08:26:27.472   04 Jun 2027 08:26:32.201             4.729          1755.281
       130   04 Jun 2027 08:27:08.245   04 Jun 2027 08:27:11.719             3.474          1126.375
       131   04 Jun 2027 08:28:08.007   04 Jun 2027 08:28:11.578             3.571          1759.000
       132   04 Jun 2027 09:58:15.823   04 Jun 2027 09:58:37.291            21.468          9148.031
       133   04 Jun 2027 09:58:59.534   04 Jun 2027 09:59:06.724             7.190           405.031
       134   04 Jun 2027 10:00:14.779   04 Jun 2027 10:00:20.412             5.633          2037.094
       135   04 Jun 2027 10:00:26.295   04 Jun 2027 10:00:31.041             4.746           183.844
       136   04 Jun 2027 10:01:03.507   04 Jun 2027 10:01:08.175             4.668           852.594
       137   04 Jun 2027 10:02:08.331   04 Jun 2027 10:02:12.346             4.015          1101.687
       138   04 Jun 2027 10:02:52.822   04 Jun 2027 10:02:55.753             2.931          1214.937
       139   04 Jun 2027 10:03:28.555   04 Jun 2027 10:03:32.229             3.674           697.844
       140   04 Jun 2027 10:04:09.277   04 Jun 2027 10:04:15.870             6.593          1157.750
       141   04 Jun 2027 11:35:22.009   04 Jun 2027 11:35:46.264            24.255          8840.875
       142   04 Jun 2027 11:36:13.756   04 Jun 2027 11:36:13.805             0.049            24.500
       143   04 Jun 2027 11:36:55.686   04 Jun 2027 11:37:00.499             4.813          1993.344
       144   04 Jun 2027 11:37:19.416   04 Jun 2027 11:37:29.694            10.278           541.031
       145   04 Jun 2027 11:38:29.964   04 Jun 2027 11:38:32.288             2.324          1162.000
       146   04 Jun 2027 11:39:05.789   04 Jun 2027 11:39:07.934             2.145          1072.500
       147   04 Jun 2027 11:39:35.573   04 Jun 2027 11:39:46.488            10.915          1117.063
       148   04 Jun 2027 11:40:13.489   04 Jun 2027 11:40:14.861             1.372           686.000
       149   05 Jun 2027 03:46:24.555   05 Jun 2027 03:48:05.661           101.106         50553.000
       150   05 Jun 2027 05:22:46.585   05 Jun 2027 05:25:40.956           174.371         87185.500
       151   05 Jun 2027 05:25:46.679   05 Jun 2027 05:25:46.679             0.000             0.000
       152   05 Jun 2027 06:56:15.842   05 Jun 2027 06:56:58.179            42.337         20945.750
       153   05 Jun 2027 06:57:18.243   05 Jun 2027 06:57:19.836             1.593           618.625
       154   05 Jun 2027 06:58:34.670   05 Jun 2027 06:58:35.433             0.763           139.000
       155   05 Jun 2027 06:59:48.881   05 Jun 2027 06:59:48.881             0.000             0.000
       156   05 Jun 2027 07:01:00.868   05 Jun 2027 07:01:10.399             9.531          4525.656
       157   05 Jun 2027 07:01:34.060   05 Jun 2027 07:01:34.060             0.000             0.000
       158   05 Jun 2027 07:01:58.217   05 Jun 2027 07:02:01.340             3.123          1076.719
       159   05 Jun 2027 07:02:23.737   05 Jun 2027 07:02:28.184             4.447           495.844
       160   05 Jun 2027 07:02:54.250   05 Jun 2027 07:02:57.662             3.412           614.063
       161   05 Jun 2027 07:03:16.262   05 Jun 2027 07:03:17.027             0.765           342.187
       162   05 Jun 2027 07:03:53.485   05 Jun 2027 07:03:54.173             0.688           344.000
       163   05 Jun 2027 07:04:19.170   05 Jun 2027 07:04:19.170             0.000             0.000
       164   05 Jun 2027 07:04:35.212   05 Jun 2027 07:04:39.491             4.279          1994.031
       165   05 Jun 2027 07:04:42.054   05 Jun 2027 07:04:43.701             1.647            71.063
       166   05 Jun 2027 08:33:47.460   05 Jun 2027 08:34:07.941            20.481          7951.156
       167   05 Jun 2027 08:35:25.514   05 Jun 2027 08:35:26.167             0.653            18.281
       168   05 Jun 2027 08:35:49.901   05 Jun 2027 08:35:51.270             1.369           432.250
       169   05 Jun 2027 08:36:16.213   05 Jun 2027 08:36:20.303             4.090           742.469
       170   05 Jun 2027 08:36:45.870   05 Jun 2027 08:36:46.745             0.875           341.500
       171   05 Jun 2027 08:37:30.644   05 Jun 2027 08:37:31.265             0.621           310.500
       172   05 Jun 2027 08:38:01.142   05 Jun 2027 08:38:03.847             2.705          1352.500
       173   05 Jun 2027 08:38:20.133   05 Jun 2027 08:38:20.133             0.000             0.000
       174   05 Jun 2027 08:38:31.626   05 Jun 2027 08:38:34.824             3.198          1071.562
       175   05 Jun 2027 08:38:58.391   05 Jun 2027 08:39:00.027             1.636           736.469
       176   05 Jun 2027 08:39:51.562   05 Jun 2027 08:39:55.163             3.601          1417.750
       177   05 Jun 2027 10:10:42.663   05 Jun 2027 10:11:01.230            18.567          8416.187
       178   05 Jun 2027 10:11:32.132   05 Jun 2027 10:11:39.900             7.768           931.437
       179   05 Jun 2027 10:12:20.489   05 Jun 2027 10:12:24.554             4.065           601.406
       180   05 Jun 2027 10:12:26.759   05 Jun 2027 10:12:28.742             1.983            39.500
       181   05 Jun 2027 10:12:35.402   05 Jun 2027 10:12:35.922             0.520           208.125
       182   05 Jun 2027 10:13:47.292   05 Jun 2027 10:13:51.588             4.296          1491.750
       183   05 Jun 2027 10:14:27.969   05 Jun 2027 10:14:29.996             2.027           964.250
       184   05 Jun 2027 10:15:12.657   05 Jun 2027 10:15:12.657             0.000             0.000
       185   05 Jun 2027 10:15:13.480   05 Jun 2027 10:15:16.315             2.835          1205.969
       186   05 Jun 2027 10:16:24.698   05 Jun 2027 10:16:29.461             4.763          2005.187
       187   05 Jun 2027 11:47:33.224   05 Jun 2027 11:47:50.448            17.224          7841.063
       188   05 Jun 2027 11:49:09.570   05 Jun 2027 11:49:15.497             5.927          2430.406
       189   05 Jun 2027 11:49:28.044   05 Jun 2027 11:49:28.883             0.839           392.094
       190   05 Jun 2027 11:50:17.218   05 Jun 2027 11:50:20.985             3.767          1327.688
       191   05 Jun 2027 11:50:42.138   05 Jun 2027 11:50:44.923             2.785           661.031
       192   05 Jun 2027 11:51:35.091   05 Jun 2027 11:51:37.302             2.211          1058.438
       193   06 Jun 2027 03:58:15.530   06 Jun 2027 03:59:21.714            66.184         33092.000
       194   06 Jun 2027 03:59:48.431   06 Jun 2027 04:00:01.021            12.590          6295.000
       195   06 Jun 2027 05:34:48.236   06 Jun 2027 05:37:40.296           172.060         86030.000
       196   06 Jun 2027 05:38:10.885   06 Jun 2027 05:38:21.097            10.212          5106.000
       197   06 Jun 2027 07:09:17.251   06 Jun 2027 07:10:13.933            56.682         27008.938
       198   06 Jun 2027 07:10:24.644   06 Jun 2027 07:10:26.216             1.572           307.469
       199   06 Jun 2027 07:10:45.940   06 Jun 2027 07:10:46.475             0.535           263.312
       200   06 Jun 2027 07:10:48.945   06 Jun 2027 07:10:50.860             1.915            77.188
       201   06 Jun 2027 07:11:27.616   06 Jun 2027 07:11:30.746             3.130           479.469
       202   06 Jun 2027 07:12:25.213   06 Jun 2027 07:12:33.415             8.202          1464.844
       203   06 Jun 2027 07:13:17.594   06 Jun 2027 07:13:17.594             0.000             0.000
       204   06 Jun 2027 07:13:26.440   06 Jun 2027 07:13:30.865             4.425           858.781
       205   06 Jun 2027 07:14:26.523   06 Jun 2027 07:14:29.918             3.395          1291.406
       206   06 Jun 2027 07:15:18.915   06 Jun 2027 07:15:20.891             1.976           739.219
       207   06 Jun 2027 07:15:44.586   06 Jun 2027 07:15:45.652             1.066           533.000
       208   06 Jun 2027 07:16:36.299   06 Jun 2027 07:16:41.897             5.598          1725.719
       209   06 Jun 2027 08:45:54.869   06 Jun 2027 08:46:09.319            14.450          6773.281
       210   06 Jun 2027 08:47:09.920   06 Jun 2027 08:47:12.576             2.656           852.687
       211   06 Jun 2027 08:48:00.431   06 Jun 2027 08:48:06.450             6.019           957.813
       212   06 Jun 2027 08:48:32.764   06 Jun 2027 08:48:35.420             2.656           662.844
       213   06 Jun 2027 08:48:50.489   06 Jun 2027 08:48:52.900             2.411           393.406
       214   06 Jun 2027 08:49:33.202   06 Jun 2027 08:49:36.756             3.554          1195.000
       215   06 Jun 2027 08:50:07.709   06 Jun 2027 08:50:07.942             0.233           116.500
       216   06 Jun 2027 08:50:11.966   06 Jun 2027 08:50:13.765             1.799           512.281
       217   06 Jun 2027 08:50:56.784   06 Jun 2027 08:51:01.407             4.623          1301.406
       218   06 Jun 2027 08:51:17.028   06 Jun 2027 08:51:19.803             2.775           488.156
       219   06 Jun 2027 08:51:55.082   06 Jun 2027 08:52:01.495             6.413          1094.844
       220   06 Jun 2027 08:52:21.671   06 Jun 2027 08:52:23.245             1.574           430.781
       221   06 Jun 2027 10:23:36.333   06 Jun 2027 10:23:52.015            15.682          7839.188
       222   06 Jun 2027 10:24:18.436   06 Jun 2027 10:24:25.074             6.638           683.156
       223   06 Jun 2027 10:24:40.424   06 Jun 2027 10:24:49.035             8.611           479.688
       224   06 Jun 2027 10:25:22.076   06 Jun 2027 10:25:22.076             0.000             0.000
       225   06 Jun 2027 10:25:56.047   06 Jun 2027 10:26:05.289             9.242          2094.125
       226   06 Jun 2027 10:27:04.057   06 Jun 2027 10:27:07.908             3.851          1740.219
       227   06 Jun 2027 10:27:12.411   06 Jun 2027 10:27:15.050             2.639           140.719
       228   06 Jun 2027 10:27:23.802   06 Jun 2027 10:27:31.019             7.217           273.500
       229   06 Jun 2027 10:27:38.526   06 Jun 2027 10:27:40.071             1.545           234.594
       230   06 Jun 2027 10:27:54.155   06 Jun 2027 10:27:58.551             4.396           392.719
       231   06 Jun 2027 11:59:35.687   06 Jun 2027 11:59:52.628            16.941          8013.375
       232   07 Jun 2027 04:10:25.814   07 Jun 2027 04:11:49.762            83.948         41974.000
       233   07 Jun 2027 04:12:19.597   07 Jun 2027 04:12:23.231             3.634          1817.000
       234   07 Jun 2027 04:13:06.230   07 Jun 2027 04:13:06.230             0.000             0.000
       235   07 Jun 2027 05:46:57.330   07 Jun 2027 05:48:00.954            63.624         31812.000
       236   07 Jun 2027 05:48:25.198   07 Jun 2027 05:50:19.168           113.970         56985.000
       237   07 Jun 2027 07:22:06.477   07 Jun 2027 07:23:01.200            54.723         27299.782
       238   07 Jun 2027 07:23:23.186   07 Jun 2027 07:23:24.213             1.027           376.469
       239   07 Jun 2027 07:23:56.346   07 Jun 2027 07:23:57.948             1.602           792.812
       240   07 Jun 2027 07:24:56.103   07 Jun 2027 07:25:00.973             4.870          1594.000
       241   07 Jun 2027 07:25:28.925   07 Jun 2027 07:25:31.698             2.773           804.656
       242   07 Jun 2027 07:25:54.898   07 Jun 2027 07:25:57.929             3.031           725.000
       243   07 Jun 2027 07:26:28.095   07 Jun 2027 07:26:30.308             2.213           722.656
       244   07 Jun 2027 07:27:03.096   07 Jun 2027 07:27:06.267             3.171           968.344
       245   07 Jun 2027 07:27:26.120   07 Jun 2027 07:27:26.120             0.000             0.000
       246   07 Jun 2027 07:28:14.396   07 Jun 2027 07:28:19.012             4.616          2128.281
       247   07 Jun 2027 07:28:42.113   07 Jun 2027 07:28:43.639             1.526           663.656
       248   07 Jun 2027 08:58:29.938   07 Jun 2027 08:58:42.225            12.287          5833.719
       249   07 Jun 2027 08:59:07.870   07 Jun 2027 08:59:10.505             2.635           195.688
       250   07 Jun 2027 09:00:25.037   07 Jun 2027 09:00:27.734             2.697           380.281
       251   07 Jun 2027 09:00:50.456   07 Jun 2027 09:00:52.154             1.698           131.438
       252   07 Jun 2027 09:00:59.754   07 Jun 2027 09:01:01.879             2.125            79.406
       253   07 Jun 2027 09:01:39.075   07 Jun 2027 09:01:42.590             3.515           931.219
       254   07 Jun 2027 09:02:32.744   07 Jun 2027 09:02:32.744             0.000             0.000
       255   07 Jun 2027 09:02:41.993   07 Jun 2027 09:02:44.207             2.214          1064.250
       256   07 Jun 2027 09:02:55.216   07 Jun 2027 09:02:56.267             1.051           264.469
       257   07 Jun 2027 09:04:42.139   07 Jun 2027 09:04:42.144             0.005             2.500
       258   07 Jun 2027 10:35:43.966   07 Jun 2027 10:36:00.443            16.477          8099.062
       259   07 Jun 2027 10:36:22.813   07 Jun 2027 10:36:25.002             2.189           623.625
       260   07 Jun 2027 10:36:42.932   07 Jun 2027 10:36:45.799             2.867           560.313
       261   07 Jun 2027 10:37:18.387   07 Jun 2027 10:37:18.742             0.355           177.500
       262   07 Jun 2027 10:37:59.669   07 Jun 2027 10:38:03.505             3.836          1799.250
       263   07 Jun 2027 10:38:20.281   07 Jun 2027 10:38:21.623             1.342           433.813
       264   07 Jun 2027 10:38:25.652   07 Jun 2027 10:38:26.266             0.614           125.906
       265   07 Jun 2027 10:38:46.801   07 Jun 2027 10:38:50.438             3.637           604.031
       266   07 Jun 2027 10:38:54.898   07 Jun 2027 10:38:55.516             0.618           103.688
       267   07 Jun 2027 10:39:11.526   07 Jun 2027 10:39:14.724             3.198           500.312
       268   07 Jun 2027 10:39:16.516   07 Jun 2027 10:39:18.257             1.741            56.000
       269   07 Jun 2027 10:39:18.470   07 Jun 2027 10:39:18.652             0.182             6.656
       270   07 Jun 2027 10:40:02.642   07 Jun 2027 10:40:07.621             4.979          1374.687
       271   08 Jun 2027 03:00:07.671   08 Jun 2027 03:00:23.246            15.575          7787.500
       272   08 Jun 2027 03:00:38.685   08 Jun 2027 03:01:02.195            23.510         11755.000
       273   08 Jun 2027 03:01:38.757   08 Jun 2027 03:01:41.094             2.337          1168.500
       274   08 Jun 2027 03:02:16.394   08 Jun 2027 03:02:35.239            18.845          9422.500
       275   08 Jun 2027 04:23:02.897   08 Jun 2027 04:24:23.283            80.386         40193.000
       276   08 Jun 2027 04:25:14.541   08 Jun 2027 04:25:37.974            23.433         11716.500
       277   08 Jun 2027 05:58:50.567   08 Jun 2027 06:01:15.736           145.169         72306.562
       278   08 Jun 2027 07:33:48.211   08 Jun 2027 07:34:03.135            14.924          6437.188
       279   08 Jun 2027 07:34:15.196   08 Jun 2027 07:34:17.362             2.166           287.875
       280   08 Jun 2027 07:35:24.113   08 Jun 2027 07:35:28.209             4.096          2012.719
       281   08 Jun 2027 07:35:42.788   08 Jun 2027 07:35:44.244             1.456           451.969
       282   08 Jun 2027 07:36:40.611   08 Jun 2027 07:36:43.966             3.355          1033.063
       283   08 Jun 2027 07:37:31.198   08 Jun 2027 07:37:34.812             3.614          1316.406
       284   08 Jun 2027 07:39:05.988   08 Jun 2027 07:39:12.069             6.081          2159.250
       285   08 Jun 2027 07:40:08.381   08 Jun 2027 07:40:13.181             4.800          1759.750
       286   08 Jun 2027 09:10:01.647   08 Jun 2027 09:10:20.996            19.349          9468.250
       287   08 Jun 2027 09:11:19.248   08 Jun 2027 09:11:25.472             6.224           859.687
       288   08 Jun 2027 09:12:05.244   08 Jun 2027 09:12:06.712             1.468           113.125
       289   08 Jun 2027 09:12:26.800   08 Jun 2027 09:12:31.582             4.782           387.000
       290   08 Jun 2027 09:12:58.655   08 Jun 2027 09:13:00.342             1.687           672.687
       291   08 Jun 2027 09:13:23.263   08 Jun 2027 09:13:26.068             2.805            57.656
       292   08 Jun 2027 09:13:36.960   08 Jun 2027 09:13:37.871             0.911           340.375
       293   08 Jun 2027 09:14:04.757   08 Jun 2027 09:14:06.069             1.312           656.000
       294   08 Jun 2027 09:14:28.317   08 Jun 2027 09:14:30.508             2.191           789.406
       295   08 Jun 2027 09:14:51.485   08 Jun 2027 09:14:54.138             2.653           151.344
       296   08 Jun 2027 10:48:21.844   08 Jun 2027 10:48:37.567            15.723          6628.844
       297   08 Jun 2027 10:49:13.741   08 Jun 2027 10:49:16.002             2.261          1130.437
       298   08 Jun 2027 10:50:04.917   08 Jun 2027 10:50:05.447             0.530           265.000
       299   08 Jun 2027 10:50:05.820   08 Jun 2027 10:50:10.389             4.569          1275.250
       300   08 Jun 2027 10:50:32.201   08 Jun 2027 10:50:37.716             5.515           138.500
       301   08 Jun 2027 10:51:06.581   08 Jun 2027 10:51:07.675             1.094           547.000
       302   08 Jun 2027 10:52:02.330   08 Jun 2027 10:52:06.014             3.684          1842.000
       303   08 Jun 2027 10:52:09.754   08 Jun 2027 10:52:11.083             1.329           158.250
       304   09 Jun 2027 03:00:00.000   09 Jun 2027 03:00:28.508            28.508         14254.000
       305   09 Jun 2027 03:10:56.204   09 Jun 2027 03:13:45.761           169.557         84778.500
       306   09 Jun 2027 03:14:09.530   09 Jun 2027 03:14:15.381             5.851          2925.500
       307   09 Jun 2027 04:33:53.005   09 Jun 2027 04:34:14.327            21.322         10661.000
       308   09 Jun 2027 04:35:52.776   09 Jun 2027 04:36:17.540            24.764         12382.000
       309   09 Jun 2027 04:37:39.807   09 Jun 2027 04:37:57.692            17.885          8942.500
       310   09 Jun 2027 06:09:12.748   09 Jun 2027 06:09:38.195            25.447         12723.500
       311   09 Jun 2027 06:10:44.893   09 Jun 2027 06:11:08.838            23.945         11972.500
       312   09 Jun 2027 06:11:12.863   09 Jun 2027 06:11:42.360            29.497         12559.843
       313   09 Jun 2027 06:12:55.819   09 Jun 2027 06:13:03.742             7.923          2295.594
       314   09 Jun 2027 06:13:55.918   09 Jun 2027 06:13:55.918             0.000             0.000
       315   09 Jun 2027 06:14:07.734   09 Jun 2027 06:14:13.486             5.752          1652.125
       316   09 Jun 2027 06:14:48.044   09 Jun 2027 06:14:48.044             0.000             0.000
       317   09 Jun 2027 07:45:21.212   09 Jun 2027 07:45:33.181            11.969          5442.187
       318   09 Jun 2027 07:45:57.733   09 Jun 2027 07:46:03.767             6.034           361.844
       319   09 Jun 2027 07:47:24.595   09 Jun 2027 07:47:30.452             5.857          2206.469
       320   09 Jun 2027 07:48:32.763   09 Jun 2027 07:48:35.054             2.291           792.187
       321   09 Jun 2027 07:50:00.613   09 Jun 2027 07:50:06.780             6.167          2673.719
       322   09 Jun 2027 07:50:14.431   09 Jun 2027 07:50:23.300             8.869           239.094
       323   09 Jun 2027 07:50:44.512   09 Jun 2027 07:50:45.898             1.386           648.562
       324   09 Jun 2027 07:51:13.698   09 Jun 2027 07:51:15.717             2.019           366.875
       325   09 Jun 2027 07:52:03.308   09 Jun 2027 07:52:05.956             2.648          1310.750
       326   09 Jun 2027 07:52:50.474   09 Jun 2027 07:52:54.205             3.731          1391.187
       327   09 Jun 2027 09:22:23.455   09 Jun 2027 09:22:44.330            20.875         10282.094
       328   09 Jun 2027 09:23:03.103   09 Jun 2027 09:23:06.439             3.336           108.000
       329   09 Jun 2027 09:24:10.392   09 Jun 2027 09:24:12.314             1.922           601.500
       330   09 Jun 2027 09:24:33.537   09 Jun 2027 09:24:37.656             4.119           545.969
       331   09 Jun 2027 09:24:59.220   09 Jun 2027 09:25:03.404             4.184           367.750
       332   09 Jun 2027 09:25:14.684   09 Jun 2027 09:25:15.712             1.028           220.750
       333   09 Jun 2027 09:25:33.675   09 Jun 2027 09:25:35.258             1.583           520.500
       334   09 Jun 2027 09:25:43.066   09 Jun 2027 09:25:46.382             3.316           126.594
       335   09 Jun 2027 09:26:12.123   09 Jun 2027 09:26:16.541             4.418           804.406
       336   09 Jun 2027 09:27:09.225   09 Jun 2027 09:27:13.002             3.777          1344.906
       337   09 Jun 2027 09:27:24.566   09 Jun 2027 09:27:24.607             0.041            20.500
       338   09 Jun 2027 09:27:47.197   09 Jun 2027 09:27:51.297             4.100           897.156
       339   09 Jun 2027 09:28:27.509   09 Jun 2027 09:28:31.106             3.597           735.562
       340   09 Jun 2027 11:00:23.168   09 Jun 2027 11:00:36.543            13.375          6687.500
       341   09 Jun 2027 11:01:33.555   09 Jun 2027 11:01:44.689            11.134          2243.281
       342   09 Jun 2027 11:02:04.938   09 Jun 2027 11:02:07.453             2.515           491.687
       343   09 Jun 2027 11:02:25.873   09 Jun 2027 11:02:28.388             2.515           575.625
       344   09 Jun 2027 11:02:50.796   09 Jun 2027 11:02:54.232             3.436           700.250
       345   09 Jun 2027 11:02:54.673   09 Jun 2027 11:02:54.824             0.151            13.781
       346   09 Jun 2027 11:03:06.391   09 Jun 2027 11:03:07.028             0.637           217.125
       347   09 Jun 2027 11:03:18.959   09 Jun 2027 11:03:19.820             0.861           372.844
       348   09 Jun 2027 11:04:06.121   09 Jun 2027 11:04:08.241             2.120          1060.000
       349   10 Jun 2027 03:11:15.575   10 Jun 2027 03:11:56.052            40.477         20238.500
       350   10 Jun 2027 03:12:27.889   10 Jun 2027 03:12:46.047            18.158          9079.000
       351   10 Jun 2027 03:22:57.829   10 Jun 2027 03:24:17.541            79.712         39856.000
       352   10 Jun 2027 04:45:10.851   10 Jun 2027 04:46:23.519            72.668         36334.000
       353   10 Jun 2027 04:47:12.658   10 Jun 2027 04:47:52.299            39.641         19820.500
       354   10 Jun 2027 06:20:17.347   10 Jun 2027 06:21:23.208            65.861         32930.500
       355   10 Jun 2027 06:21:28.694   10 Jun 2027 06:21:36.932             8.238           904.813
       356   10 Jun 2027 06:22:42.286   10 Jun 2027 06:22:49.087             6.801          2019.188
       357   10 Jun 2027 06:23:30.100   10 Jun 2027 06:23:30.100             0.000             0.000
       358   10 Jun 2027 06:24:18.710   10 Jun 2027 06:24:23.666             4.956          1697.156
       359   10 Jun 2027 06:25:17.060   10 Jun 2027 06:25:17.770             0.710           355.000
       360   10 Jun 2027 06:25:32.025   10 Jun 2027 06:25:34.795             2.770          1220.188
       361   10 Jun 2027 06:25:57.513   10 Jun 2027 06:25:59.726             2.213           709.938
       362   10 Jun 2027 06:27:04.447   10 Jun 2027 06:27:07.034             2.587          1186.187
       363   10 Jun 2027 06:28:13.316   10 Jun 2027 06:28:17.482             4.166          2051.250
       364   10 Jun 2027 07:57:32.432   10 Jun 2027 07:57:42.882            10.450          5224.187
       365   10 Jun 2027 07:58:15.221   10 Jun 2027 07:58:15.221             0.000             0.000
       366   10 Jun 2027 07:59:24.551   10 Jun 2027 07:59:34.633            10.082          2999.719
       367   10 Jun 2027 08:00:28.427   10 Jun 2027 08:00:31.086             2.659          1104.625
       368   10 Jun 2027 08:00:39.267   10 Jun 2027 08:00:41.702             2.435           204.313
       369   10 Jun 2027 08:00:51.326   10 Jun 2027 08:00:52.097             0.771           273.750
       370   10 Jun 2027 08:01:53.599   10 Jun 2027 08:01:59.503             5.904          1866.344
       371   10 Jun 2027 08:03:03.291   10 Jun 2027 08:03:10.985             7.694          1709.438
       372   10 Jun 2027 08:03:24.961   10 Jun 2027 08:03:26.029             1.068           436.750
       373   10 Jun 2027 08:03:36.745   10 Jun 2027 08:03:41.169             4.424           311.031
       374   10 Jun 2027 08:04:19.431   10 Jun 2027 08:04:27.737             8.306          1195.687
       375   10 Jun 2027 09:34:26.968   10 Jun 2027 09:34:46.043            19.075          8738.437
       376   10 Jun 2027 09:35:21.140   10 Jun 2027 09:35:23.880             2.740           752.781
       377   10 Jun 2027 09:35:39.696   10 Jun 2027 09:35:41.414             1.718           494.250
       378   10 Jun 2027 09:35:46.527   10 Jun 2027 09:35:47.443             0.916           116.969
       379   10 Jun 2027 09:36:18.160   10 Jun 2027 09:36:21.773             3.613           508.344
       380   10 Jun 2027 09:37:00.647   10 Jun 2027 09:37:07.278             6.631           864.969
       381   10 Jun 2027 09:37:27.282   10 Jun 2027 09:37:29.716             2.434           335.906
       382   10 Jun 2027 09:38:03.024   10 Jun 2027 09:38:05.442             2.418           826.344
       383   10 Jun 2027 09:38:08.224   10 Jun 2027 09:38:10.553             2.329            86.125
       384   10 Jun 2027 09:38:19.170   10 Jun 2027 09:38:19.696             0.526            24.062
       385   10 Jun 2027 09:38:37.691   10 Jun 2027 09:38:46.961             9.270           550.625
       386   10 Jun 2027 09:39:00.936   10 Jun 2027 09:39:05.601             4.665           373.281
       387   10 Jun 2027 09:39:17.067   10 Jun 2027 09:39:17.505             0.438           119.000
       388   10 Jun 2027 09:39:48.046   10 Jun 2027 09:39:49.815             1.769           775.969
       389   10 Jun 2027 11:12:23.093   10 Jun 2027 11:12:41.328            18.235          7441.344
       390   10 Jun 2027 11:13:09.488   10 Jun 2027 11:13:14.313             4.825           880.000
       391   10 Jun 2027 11:13:45.909   10 Jun 2027 11:13:52.295             6.386           891.156
       392   10 Jun 2027 11:14:08.927   10 Jun 2027 11:14:15.966             7.039           502.375
       393   10 Jun 2027 11:14:49.427   10 Jun 2027 11:14:53.407             3.980          1032.875
       394   10 Jun 2027 11:14:59.709   10 Jun 2027 11:15:02.763             3.054           196.938
       395   10 Jun 2027 11:15:19.826   10 Jun 2027 11:15:28.212             8.386           533.219
       396   10 Jun 2027 11:16:08.064   10 Jun 2027 11:16:10.247             2.183          1032.562
       397   11 Jun 2027 03:22:44.152   11 Jun 2027 03:23:23.353            39.201         19600.500
       398   11 Jun 2027 03:23:40.168   11 Jun 2027 03:23:55.976            15.808          7904.000
       399   11 Jun 2027 03:24:49.417   11 Jun 2027 03:24:54.067             4.650          2325.000
       400   11 Jun 2027 03:24:56.769   11 Jun 2027 03:24:56.769             0.000             0.000
       401   11 Jun 2027 03:34:54.544   11 Jun 2027 03:35:33.419            38.875         19437.500
       402   11 Jun 2027 04:56:56.323   11 Jun 2027 04:58:16.899            80.576         40288.000
       403   11 Jun 2027 04:58:58.945   11 Jun 2027 05:00:18.327            79.382         39691.000
       404   11 Jun 2027 05:01:41.461   11 Jun 2027 05:01:47.281             5.820          2910.000
       405   11 Jun 2027 06:31:46.681   11 Jun 2027 06:32:42.099            55.418         25710.063
       406   11 Jun 2027 06:33:45.840   11 Jun 2027 06:33:50.071             4.231          1469.000
       407   11 Jun 2027 06:34:18.051   11 Jun 2027 06:34:18.051             0.000             0.000
       408   11 Jun 2027 06:35:11.508   11 Jun 2027 06:35:18.745             7.237          2544.906
       409   11 Jun 2027 06:35:59.135   11 Jun 2027 06:35:59.135             0.000             0.000
       410   11 Jun 2027 06:37:17.858   11 Jun 2027 06:37:28.169            10.311          3654.062
       411   11 Jun 2027 06:38:26.879   11 Jun 2027 06:38:33.769             6.890          1619.062
       412   11 Jun 2027 06:39:03.763   11 Jun 2027 06:39:04.979             1.216           522.219
       413   11 Jun 2027 06:39:21.669   11 Jun 2027 06:39:21.669             0.000             0.000
       414   11 Jun 2027 06:40:31.539   11 Jun 2027 06:40:35.722             4.183          1962.781
       415   11 Jun 2027 08:09:33.100   11 Jun 2027 08:09:45.598            12.498          5997.812
       416   11 Jun 2027 08:11:23.884   11 Jun 2027 08:11:35.979            12.095          2028.531
       417   11 Jun 2027 08:11:48.653   11 Jun 2027 08:11:50.294             1.641           396.062
       418   11 Jun 2027 08:12:39.213   11 Jun 2027 08:12:42.085             2.872           999.031
       419   11 Jun 2027 08:13:44.226   11 Jun 2027 08:13:48.571             4.345          1384.219
       420   11 Jun 2027 08:14:35.447   11 Jun 2027 08:14:41.854             6.407          1415.500
       421   11 Jun 2027 08:15:29.599   11 Jun 2027 08:15:32.035             2.436          1160.625
       422   11 Jun 2027 08:16:02.599   11 Jun 2027 08:16:06.735             4.136           629.531
       423   11 Jun 2027 08:16:30.178   11 Jun 2027 08:16:31.721             1.543           262.344
       424   11 Jun 2027 09:46:18.403   11 Jun 2027 09:46:35.548            17.145          8469.781
       425   11 Jun 2027 09:46:50.505   11 Jun 2027 09:46:51.347             0.842            75.281
       426   11 Jun 2027 09:48:19.701   11 Jun 2027 09:48:25.119             5.418          2231.469
       427   11 Jun 2027 09:48:52.768   11 Jun 2027 09:48:57.392             4.624           863.969
       428   11 Jun 2027 09:49:04.146   11 Jun 2027 09:49:04.407             0.261           130.500
       429   11 Jun 2027 09:49:27.494   11 Jun 2027 09:49:32.956             5.462           802.031
       430   11 Jun 2027 09:50:33.062   11 Jun 2027 09:50:36.720             3.658          1606.531
       431   11 Jun 2027 09:50:41.188   11 Jun 2027 09:50:43.498             2.310            47.406
       432   11 Jun 2027 09:51:16.042   11 Jun 2027 09:51:18.337             2.295           468.219
       433   11 Jun 2027 09:51:49.102   11 Jun 2027 09:51:49.102             0.000             0.000
       434   11 Jun 2027 09:52:02.452   11 Jun 2027 09:52:09.182             6.730          1173.562
       435   11 Jun 2027 09:52:46.896   11 Jun 2027 09:52:46.932             0.036            18.000
       436   11 Jun 2027 09:53:01.964   11 Jun 2027 09:53:03.427             1.463           731.500
       437   11 Jun 2027 11:24:23.730   11 Jun 2027 11:24:40.600            16.870          7086.156
       438   11 Jun 2027 11:25:11.640   11 Jun 2027 11:25:13.498             1.858           863.813
       439   11 Jun 2027 11:25:41.309   11 Jun 2027 11:25:44.490             3.181           213.125
       440   11 Jun 2027 11:26:03.008   11 Jun 2027 11:26:03.008             0.000             0.000
       441   11 Jun 2027 11:26:10.333   11 Jun 2027 11:26:15.284             4.951           783.125
       442   11 Jun 2027 11:26:20.876   11 Jun 2027 11:26:22.726             1.850           174.750
       443   11 Jun 2027 11:26:43.680   11 Jun 2027 11:26:45.881             2.201           654.813
       444   11 Jun 2027 11:26:53.783   11 Jun 2027 11:26:54.197             0.414           164.031
       445   11 Jun 2027 11:27:44.931   11 Jun 2027 11:27:46.673             1.742           871.000
       446   11 Jun 2027 11:28:03.666   11 Jun 2027 11:28:06.435             2.769          1245.469
       447   11 Jun 2027 11:28:17.883   11 Jun 2027 11:28:19.331             1.448           243.312
       448   11 Jun 2027 11:28:30.123   11 Jun 2027 11:28:30.702             0.579            15.438
       449   12 Jun 2027 03:34:45.451   12 Jun 2027 03:35:42.839            57.388         28694.000
       450   12 Jun 2027 03:35:56.573   12 Jun 2027 03:36:05.948             9.375          4687.500
       451   12 Jun 2027 03:36:37.804   12 Jun 2027 03:36:51.319            13.515          6757.500
       452   12 Jun 2027 05:10:43.374   12 Jun 2027 05:14:01.115           197.741         98870.500
       453   12 Jun 2027 06:44:32.698   12 Jun 2027 06:45:08.215            35.517         17324.719
       454   12 Jun 2027 06:45:49.041   12 Jun 2027 06:45:52.286             3.245           566.219
       455   12 Jun 2027 06:47:11.015   12 Jun 2027 06:47:14.673             3.658          1829.000
       456   12 Jun 2027 06:47:16.157   12 Jun 2027 06:47:17.314             1.157           161.156
       457   12 Jun 2027 06:47:53.849   12 Jun 2027 06:47:54.662             0.813           406.500
       458   12 Jun 2027 06:49:07.454   12 Jun 2027 06:49:17.381             9.927          2927.625
       459   12 Jun 2027 06:49:38.019   12 Jun 2027 06:49:40.978             2.959           644.937
       460   12 Jun 2027 06:50:19.582   12 Jun 2027 06:50:20.691             1.109           350.781
       461   12 Jun 2027 06:50:42.901   12 Jun 2027 06:50:44.708             1.807           610.156
       462   12 Jun 2027 06:51:11.717   12 Jun 2027 06:51:14.130             2.413           844.031
       463   12 Jun 2027 06:52:04.550   12 Jun 2027 06:52:11.845             7.295          1385.344
       464   12 Jun 2027 06:52:38.613   12 Jun 2027 06:52:41.254             2.641           697.219
       465   12 Jun 2027 08:21:36.921   12 Jun 2027 08:21:52.609            15.688          6471.937
       466   12 Jun 2027 08:23:22.488   12 Jun 2027 08:23:26.084             3.596          1778.437
       467   12 Jun 2027 08:24:46.205   12 Jun 2027 08:24:50.996             4.791          2102.500
       468   12 Jun 2027 08:25:42.823   12 Jun 2027 08:25:46.445             3.622          1619.594
       469   12 Jun 2027 08:26:35.874   12 Jun 2027 08:26:42.016             6.142          1544.656
       470   12 Jun 2027 08:26:55.544   12 Jun 2027 08:26:56.791             1.247           326.562
       471   12 Jun 2027 08:26:57.232   12 Jun 2027 08:26:59.300             2.068            13.781
       472   12 Jun 2027 08:28:01.600   12 Jun 2027 08:28:09.132             7.532          1941.156
       473   12 Jun 2027 08:28:20.393   12 Jun 2027 08:28:20.863             0.470           191.469
       474   12 Jun 2027 08:28:34.380   12 Jun 2027 08:28:35.436             1.056           354.531
       475   12 Jun 2027 09:58:35.508   12 Jun 2027 09:59:01.421            25.913          9091.563
       476   12 Jun 2027 09:59:24.871   12 Jun 2027 09:59:26.343             1.472           378.562
       477   12 Jun 2027 10:00:54.739   12 Jun 2027 10:00:59.773             5.034          2194.500
       478   12 Jun 2027 10:01:29.958   12 Jun 2027 10:01:36.111             6.153           594.750
       479   12 Jun 2027 10:01:42.526   12 Jun 2027 10:01:47.694             5.168            94.719
       480   12 Jun 2027 10:02:23.833   12 Jun 2027 10:02:26.468             2.635          1129.344
       481   12 Jun 2027 10:02:45.527   12 Jun 2027 10:02:45.929             0.402           201.000
       482   12 Jun 2027 10:03:03.886   12 Jun 2027 10:03:05.752             1.866           877.875
       483   12 Jun 2027 10:03:25.595   12 Jun 2027 10:03:26.573             0.978           489.000
       484   12 Jun 2027 10:03:27.408   12 Jun 2027 10:03:27.408             0.000             0.000
       485   12 Jun 2027 10:03:49.697   12 Jun 2027 10:03:49.697             0.000             0.000
       486   12 Jun 2027 10:03:50.323   12 Jun 2027 10:03:52.476             2.153           873.281
       487   12 Jun 2027 10:04:07.033   12 Jun 2027 10:04:07.033             0.000             0.000
       488   12 Jun 2027 10:04:46.025   12 Jun 2027 10:04:49.213             3.188          1465.156
       489   12 Jun 2027 11:35:37.527   12 Jun 2027 11:35:54.262            16.735          6959.094
       490   12 Jun 2027 11:36:02.395   12 Jun 2027 11:36:04.368             1.973           254.156
       491   12 Jun 2027 11:37:09.253   12 Jun 2027 11:37:16.127             6.874          2027.656
       492   12 Jun 2027 11:38:19.529   12 Jun 2027 11:38:24.782             5.253          1961.031
       493   12 Jun 2027 11:39:22.690   12 Jun 2027 11:39:32.616             9.926          1809.625
       494   12 Jun 2027 11:40:02.150   12 Jun 2027 11:40:03.970             1.820           434.469
       495   13 Jun 2027 03:46:39.663   13 Jun 2027 03:47:26.732            47.069         23534.500
       496   13 Jun 2027 03:47:33.540   13 Jun 2027 03:48:01.415            27.875         13937.500
       497   13 Jun 2027 03:48:10.111   13 Jun 2027 03:48:20.625            10.514          5257.000
       498   13 Jun 2027 03:48:30.257   13 Jun 2027 03:48:35.881             5.624          2812.000
       499   13 Jun 2027 05:23:02.366   13 Jun 2027 05:26:05.995           183.629         91814.500
       500   13 Jun 2027 06:56:30.813   13 Jun 2027 06:57:12.361            41.548         20524.594
       501   13 Jun 2027 06:57:52.177   13 Jun 2027 06:57:54.492             2.315           652.531
       502   13 Jun 2027 06:58:49.019   13 Jun 2027 06:58:50.079             1.060            87.656
       503   13 Jun 2027 06:58:51.773   13 Jun 2027 06:58:52.654             0.881            41.938
       504   13 Jun 2027 06:59:30.065   13 Jun 2027 06:59:32.269             2.204           637.594
       505   13 Jun 2027 07:00:05.111   13 Jun 2027 07:00:06.358             1.247           623.500
       506   13 Jun 2027 07:00:22.839   13 Jun 2027 07:00:25.250             2.411           783.125
       507   13 Jun 2027 07:00:27.842   13 Jun 2027 07:00:31.275             3.433            81.000
       508   13 Jun 2027 07:00:51.266   13 Jun 2027 07:00:53.584             2.318           296.250
       509   13 Jun 2027 07:01:09.004   13 Jun 2027 07:01:11.066             2.062           481.875
       510   13 Jun 2027 07:01:40.833   13 Jun 2027 07:01:40.833             0.000             0.000
       511   13 Jun 2027 07:01:50.064   13 Jun 2027 07:01:52.465             2.401          1056.969
       512   13 Jun 2027 07:01:54.516   13 Jun 2027 07:01:57.237             2.721            21.906
       513   13 Jun 2027 07:03:25.520   13 Jun 2027 07:03:29.422             3.902          1951.000
       514   13 Jun 2027 07:03:51.636   13 Jun 2027 07:03:56.934             5.298          1374.188
       515   13 Jun 2027 07:04:51.141   13 Jun 2027 07:04:55.621             4.480          1296.563
       516   13 Jun 2027 07:04:59.666   13 Jun 2027 07:05:01.748             2.082            43.531
       517   13 Jun 2027 08:34:03.421   13 Jun 2027 08:34:23.838            20.417          8132.781
       518   13 Jun 2027 08:35:42.154   13 Jun 2027 08:35:44.249             2.095            59.687
       519   13 Jun 2027 08:36:32.863   13 Jun 2027 08:36:35.507             2.644           690.562
       520   13 Jun 2027 08:37:00.948   13 Jun 2027 08:37:02.063             1.115           339.250
       521   13 Jun 2027 08:37:05.315   13 Jun 2027 08:37:05.791             0.476            77.281
       522   13 Jun 2027 08:37:15.178   13 Jun 2027 08:37:18.142             2.964           240.344
       523   13 Jun 2027 08:37:51.052   13 Jun 2027 08:37:54.211             3.159          1028.437
       524   13 Jun 2027 08:38:20.522   13 Jun 2027 08:38:21.803             1.281           148.438
       525   13 Jun 2027 08:38:47.073   13 Jun 2027 08:38:47.073             0.000             0.000
       526   13 Jun 2027 08:39:02.149   13 Jun 2027 08:39:03.982             1.833           811.031
       527   13 Jun 2027 08:39:23.159   13 Jun 2027 08:39:24.364             1.205           521.219
       528   13 Jun 2027 08:39:33.374   13 Jun 2027 08:39:37.164             3.790           281.563
       529   13 Jun 2027 08:39:53.867   13 Jun 2027 08:39:54.086             0.219            11.875
       530   13 Jun 2027 10:10:57.983   13 Jun 2027 10:11:13.203            15.220          7340.875
       531   13 Jun 2027 10:11:45.645   13 Jun 2027 10:11:47.944             2.299           841.156
       532   13 Jun 2027 10:12:42.400   13 Jun 2027 10:12:48.049             5.649          1688.750
       533   13 Jun 2027 10:13:16.817   13 Jun 2027 10:13:19.837             3.020           817.188
       534   13 Jun 2027 10:14:26.014   13 Jun 2027 10:14:29.305             3.291          1387.000
       535   13 Jun 2027 10:14:54.070   13 Jun 2027 10:14:56.284             2.214           594.594
       536   13 Jun 2027 10:15:03.403   13 Jun 2027 10:15:05.023             1.620           222.469
       537   13 Jun 2027 10:16:16.201   13 Jun 2027 10:16:21.939             5.738          2224.312
       538   13 Jun 2027 10:16:39.332   13 Jun 2027 10:16:40.207             0.875           437.500
       539   13 Jun 2027 11:47:48.934   13 Jun 2027 11:48:02.061            13.127          5966.281
       540   13 Jun 2027 11:49:25.024   13 Jun 2027 11:49:31.742             6.718          2592.594
       541   13 Jun 2027 11:49:40.964   13 Jun 2027 11:49:45.903             4.939           288.187
       542   13 Jun 2027 11:50:42.567   13 Jun 2027 11:50:46.809             4.242          1596.344
       543   13 Jun 2027 11:51:22.125   13 Jun 2027 11:51:24.181             2.056           953.313
