uniorb/output/strategy_2/Camera/Camera_KinoSat_111001.txt

KinoSat_111001
-------------------------
    Access    *     Start Time (UTCG)     *     Stop Time (UTCG)  *   Duration (s) *   Data (Mbytes)
         1   01 Jun 2027 04:05:26.076   01 Jun 2027 04:06:45.248            79.172         39586.000
         2   01 Jun 2027 05:41:55.226   01 Jun 2027 05:45:15.502           200.276        100138.000
         3   01 Jun 2027 07:17:02.124   01 Jun 2027 07:19:58.641           176.517         88258.500
         4   01 Jun 2027 07:20:28.016   01 Jun 2027 07:20:28.016             0.000             0.000
         5   01 Jun 2027 07:23:04.474   01 Jun 2027 07:23:17.047            12.573          6286.500
         6   01 Jun 2027 07:23:24.192   01 Jun 2027 07:23:47.187            22.995         11497.500
         7   01 Jun 2027 08:53:23.497   01 Jun 2027 08:56:10.248           166.751         83375.500
         8   01 Jun 2027 08:56:25.361   01 Jun 2027 08:56:35.050             9.689          4844.500
         9   01 Jun 2027 08:56:53.882   01 Jun 2027 08:57:05.113            11.231          5615.500
        10   01 Jun 2027 10:30:50.503   01 Jun 2027 10:32:40.611           110.108         55054.000
        11   01 Jun 2027 10:34:47.256   01 Jun 2027 10:35:18.965            31.709         15854.500
        12   02 Jun 2027 04:17:29.585   02 Jun 2027 04:19:24.581           114.996         57498.000
        13   02 Jun 2027 05:53:58.604   02 Jun 2027 05:56:16.010           137.406         68703.000
        14   02 Jun 2027 05:57:01.671   02 Jun 2027 05:57:01.671             0.000             0.000
        15   02 Jun 2027 07:29:09.433   02 Jun 2027 07:32:03.739           174.306         87153.000
        16   02 Jun 2027 07:32:56.095   02 Jun 2027 07:32:56.095             0.000             0.000
        17   02 Jun 2027 07:34:07.015   02 Jun 2027 07:34:26.467            19.452          9726.000
        18   02 Jun 2027 09:05:06.876   02 Jun 2027 09:07:13.150           126.274         62788.031
        19   02 Jun 2027 09:07:49.248   02 Jun 2027 09:07:51.781             2.533          1126.594
        20   02 Jun 2027 09:07:59.288   02 Jun 2027 09:07:59.338             0.050            25.000
        21   02 Jun 2027 09:08:45.434   02 Jun 2027 09:08:48.160             2.726          1363.000
        22   02 Jun 2027 09:09:02.362   02 Jun 2027 09:09:04.409             2.047           607.313
        23   02 Jun 2027 09:10:30.240   02 Jun 2027 09:10:31.376             1.136           568.000
        24   02 Jun 2027 10:42:57.158   02 Jun 2027 10:43:17.556            20.398          9472.844
        25   02 Jun 2027 10:44:01.971   02 Jun 2027 10:44:05.873             3.902          1387.969
        26   02 Jun 2027 10:45:00.179   02 Jun 2027 10:45:03.030             2.851          1425.500
        27   02 Jun 2027 10:45:25.169   02 Jun 2027 10:45:25.384             0.215           107.500
        28   02 Jun 2027 10:46:27.286   02 Jun 2027 10:46:39.198            11.912          2790.344
        29   02 Jun 2027 10:47:01.254   02 Jun 2027 10:47:04.165             2.911           689.250
        30   03 Jun 2027 03:06:46.761   03 Jun 2027 03:08:44.203           117.442         58721.000
        31   03 Jun 2027 03:09:15.257   03 Jun 2027 03:09:31.972            16.715          8357.500
        32   03 Jun 2027 04:29:56.303   03 Jun 2027 04:30:39.992            43.689         21844.500
        33   03 Jun 2027 04:31:26.067   03 Jun 2027 04:31:59.584            33.517         16758.500
        34   03 Jun 2027 04:32:10.348   03 Jun 2027 04:32:17.304             6.956          3478.000
        35   03 Jun 2027 04:32:21.691   03 Jun 2027 04:32:40.538            18.847          9423.500
        36   03 Jun 2027 06:05:43.000   03 Jun 2027 06:05:51.878             8.878          4439.000
        37   03 Jun 2027 06:07:22.267   03 Jun 2027 06:08:47.448            85.181         42185.781
        38   03 Jun 2027 06:09:29.911   03 Jun 2027 06:09:33.713             3.802          1079.656
        39   03 Jun 2027 07:40:26.410   03 Jun 2027 07:40:39.311            12.901          5218.719
        40   03 Jun 2027 07:41:09.423   03 Jun 2027 07:41:09.423             0.000             0.000
        41   03 Jun 2027 07:41:14.419   03 Jun 2027 07:41:17.256             2.837           920.063
        42   03 Jun 2027 07:42:20.719   03 Jun 2027 07:42:24.505             3.786           489.062
        43   03 Jun 2027 07:45:04.669   03 Jun 2027 07:45:13.166             8.497          3591.906
        44   03 Jun 2027 07:45:36.366   03 Jun 2027 07:45:36.959             0.593           115.188
        45   03 Jun 2027 07:46:29.879   03 Jun 2027 07:46:30.581             0.702           351.000
        46   03 Jun 2027 07:46:42.711   03 Jun 2027 07:46:44.127             1.416           708.000
        47   03 Jun 2027 07:47:52.552   03 Jun 2027 07:47:56.505             3.953          1976.500
        48   03 Jun 2027 09:17:11.157   03 Jun 2027 09:17:26.586            15.429          7714.500
        49   03 Jun 2027 09:18:26.315   03 Jun 2027 09:18:35.547             9.232          4221.969
        50   03 Jun 2027 09:19:07.278   03 Jun 2027 09:19:09.135             1.857           290.781
        51   03 Jun 2027 09:19:16.717   03 Jun 2027 09:19:20.613             3.896           155.313
        52   03 Jun 2027 09:19:51.411   03 Jun 2027 09:19:52.763             1.352           208.688
        53   03 Jun 2027 09:20:50.790   03 Jun 2027 09:20:54.667             3.877          1578.125
        54   03 Jun 2027 09:21:11.110   03 Jun 2027 09:21:13.572             2.462           444.469
        55   03 Jun 2027 09:21:45.700   03 Jun 2027 09:21:45.700             0.000             0.000
        56   03 Jun 2027 09:22:22.598   03 Jun 2027 09:22:25.555             2.957          1478.500
        57   03 Jun 2027 09:22:48.676   03 Jun 2027 09:22:53.071             4.395          1268.719
        58   03 Jun 2027 10:55:28.025   03 Jun 2027 10:55:43.430            15.405          7702.500
        59   03 Jun 2027 10:56:05.359   03 Jun 2027 10:56:12.233             6.874          1535.094
        60   03 Jun 2027 10:57:27.274   03 Jun 2027 10:57:35.564             8.290          2345.031
        61   03 Jun 2027 10:58:03.777   03 Jun 2027 10:58:09.826             6.049           840.625
        62   03 Jun 2027 10:59:10.509   03 Jun 2027 10:59:15.718             5.209          1896.344
        63   04 Jun 2027 03:06:22.520   04 Jun 2027 03:07:02.140            39.620         19810.000
        64   04 Jun 2027 03:17:56.983   04 Jun 2027 03:19:25.479            88.496         44248.000
        65   04 Jun 2027 04:40:34.569   04 Jun 2027 04:41:32.843            58.274         29137.000
        66   04 Jun 2027 04:42:11.549   04 Jun 2027 04:42:41.801            30.252         15126.000
        67   04 Jun 2027 04:43:56.471   04 Jun 2027 04:44:19.975            23.504         11752.000
        68   04 Jun 2027 04:44:23.889   04 Jun 2027 04:44:23.889             0.000             0.000
        69   04 Jun 2027 06:15:43.516   04 Jun 2027 06:16:57.128            73.612         36806.000
        70   04 Jun 2027 06:17:39.790   04 Jun 2027 06:17:46.087             6.297          2587.031
        71   04 Jun 2027 06:17:50.834   04 Jun 2027 06:17:51.197             0.363           148.344
        72   04 Jun 2027 06:18:49.013   04 Jun 2027 06:18:55.853             6.840          1762.594
        73   04 Jun 2027 06:20:26.966   04 Jun 2027 06:20:33.367             6.401          2756.000
        74   04 Jun 2027 06:21:39.334   04 Jun 2027 06:21:41.679             2.345          1172.500
        75   04 Jun 2027 06:22:01.126   04 Jun 2027 06:22:01.874             0.748           374.000
        76   04 Jun 2027 07:52:30.348   04 Jun 2027 07:52:38.940             8.592          4159.719
        77   04 Jun 2027 07:52:45.161   04 Jun 2027 07:52:47.483             2.322           107.938
        78   04 Jun 2027 07:53:14.549   04 Jun 2027 07:53:20.292             5.743           845.812
        79   04 Jun 2027 07:54:08.816   04 Jun 2027 07:54:13.716             4.900          1333.562
        80   04 Jun 2027 07:54:31.177   04 Jun 2027 07:54:35.194             4.017           210.469
        81   04 Jun 2027 07:55:41.001   04 Jun 2027 07:55:47.150             6.149          2056.469
        82   04 Jun 2027 07:56:09.961   04 Jun 2027 07:56:11.801             1.840           142.125
        83   04 Jun 2027 07:57:05.481   04 Jun 2027 07:57:11.619             6.138           971.531
        84   04 Jun 2027 07:57:57.642   04 Jun 2027 07:57:58.264             0.622           311.000
        85   04 Jun 2027 07:58:02.760   04 Jun 2027 07:58:04.970             2.210           884.563
        86   04 Jun 2027 07:58:24.853   04 Jun 2027 07:58:28.449             3.596           621.344
        87   04 Jun 2027 07:59:51.227   04 Jun 2027 07:59:56.866             5.639          2586.812
        88   04 Jun 2027 09:29:31.378   04 Jun 2027 09:29:54.623            23.245          9547.062
        89   04 Jun 2027 09:31:52.704   04 Jun 2027 09:32:00.319             7.615          2568.781
        90   04 Jun 2027 09:33:11.188   04 Jun 2027 09:33:17.383             6.195          2214.656
        91   04 Jun 2027 09:33:28.499   04 Jun 2027 09:33:29.606             1.107            57.125
        92   04 Jun 2027 09:33:49.933   04 Jun 2027 09:33:51.043             1.110           388.281
        93   04 Jun 2027 09:33:58.170   04 Jun 2027 09:34:01.954             3.784           207.812
        94   04 Jun 2027 09:34:22.407   04 Jun 2027 09:34:23.692             1.285           639.156
        95   04 Jun 2027 09:34:26.839   04 Jun 2027 09:34:29.101             2.262            81.375
        96   04 Jun 2027 11:07:25.165   04 Jun 2027 11:07:42.257            17.092          8286.437
        97   04 Jun 2027 11:08:47.996   04 Jun 2027 11:08:53.624             5.628          2009.250
        98   04 Jun 2027 11:09:04.824   04 Jun 2027 11:09:04.824             0.000             0.000
        99   04 Jun 2027 11:09:25.556   04 Jun 2027 11:09:26.552             0.996           498.000
       100   04 Jun 2027 11:09:36.878   04 Jun 2027 11:09:39.851             2.973           545.438
       101   04 Jun 2027 11:10:35.171   04 Jun 2027 11:10:43.104             7.933          1698.937
       102   05 Jun 2027 03:17:42.444   05 Jun 2027 03:18:40.530            58.086         29043.000
       103   05 Jun 2027 03:29:56.114   05 Jun 2027 03:30:54.756            58.642         29321.000
       104   05 Jun 2027 04:52:10.464   05 Jun 2027 04:53:17.819            67.355         33677.500
       105   05 Jun 2027 04:54:06.339   05 Jun 2027 04:55:18.004            71.665         35832.500
       106   05 Jun 2027 06:27:03.577   05 Jun 2027 06:27:59.351            55.774         26983.282
       107   05 Jun 2027 06:28:16.386   05 Jun 2027 06:28:16.386             0.000             0.000
       108   05 Jun 2027 06:28:30.644   05 Jun 2027 06:28:36.290             5.646           580.500
       109   05 Jun 2027 06:29:14.154   05 Jun 2027 06:29:14.804             0.650           325.000
       110   05 Jun 2027 06:30:16.313   05 Jun 2027 06:30:17.889             1.576           788.000
       111   05 Jun 2027 06:30:32.070   05 Jun 2027 06:30:40.903             8.833          2350.062
       112   05 Jun 2027 06:30:59.963   05 Jun 2027 06:31:01.264             1.301           595.625
       113   05 Jun 2027 06:32:15.507   05 Jun 2027 06:32:15.507             0.000             0.000
       114   05 Jun 2027 06:32:45.711   05 Jun 2027 06:32:53.223             7.512          3042.250
       115   05 Jun 2027 06:33:51.026   05 Jun 2027 06:33:51.026             0.000             0.000
       116   05 Jun 2027 06:33:53.521   05 Jun 2027 06:33:57.356             3.835          1718.375
       117   05 Jun 2027 08:04:38.188   05 Jun 2027 08:04:55.484            17.296          7207.531
       118   05 Jun 2027 08:06:24.875   05 Jun 2027 08:06:32.291             7.416          2115.875
       119   05 Jun 2027 08:07:48.066   05 Jun 2027 08:07:54.499             6.433          2367.969
       120   05 Jun 2027 08:08:50.138   05 Jun 2027 08:08:53.979             3.841          1622.094
       121   05 Jun 2027 08:08:58.858   05 Jun 2027 08:09:00.534             1.676           152.469
       122   05 Jun 2027 08:10:02.724   05 Jun 2027 08:10:07.238             4.514          1517.562
       123   05 Jun 2027 08:10:36.118   05 Jun 2027 08:10:40.367             4.249           847.062
       124   05 Jun 2027 08:11:04.903   05 Jun 2027 08:11:04.903             0.000             0.000
       125   05 Jun 2027 09:41:21.064   05 Jun 2027 09:41:46.092            25.028          8904.125
       126   05 Jun 2027 09:42:30.488   05 Jun 2027 09:42:31.726             1.238           600.250
       127   05 Jun 2027 09:42:35.501   05 Jun 2027 09:42:37.804             2.303           117.969
       128   05 Jun 2027 09:43:59.341   05 Jun 2027 09:44:06.775             7.434          2308.000
       129   05 Jun 2027 09:44:51.870   05 Jun 2027 09:44:57.909             6.039          1305.375
       130   05 Jun 2027 09:45:24.992   05 Jun 2027 09:45:26.701             1.709           846.344
       131   05 Jun 2027 09:45:29.617   05 Jun 2027 09:45:31.264             1.647            75.938
       132   05 Jun 2027 09:45:35.810   05 Jun 2027 09:45:35.810             0.000             0.000
       133   05 Jun 2027 09:46:25.911   05 Jun 2027 09:46:27.907             1.996           998.000
       134   05 Jun 2027 09:46:45.786   05 Jun 2027 09:46:50.417             4.631          1268.437
       135   05 Jun 2027 09:47:16.807   05 Jun 2027 09:47:19.123             2.316           824.687
       136   05 Jun 2027 09:47:54.031   05 Jun 2027 09:47:56.614             2.583          1090.875
       137   05 Jun 2027 11:19:25.100   05 Jun 2027 11:19:40.474            15.374          6200.313
       138   05 Jun 2027 11:20:20.824   05 Jun 2027 11:20:22.574             1.750           842.312
       139   05 Jun 2027 11:21:09.233   05 Jun 2027 11:21:11.417             2.184          1001.375
       140   05 Jun 2027 11:21:51.913   05 Jun 2027 11:21:55.145             3.232          1265.500
       141   05 Jun 2027 11:22:00.839   05 Jun 2027 11:22:07.593             6.754           129.656
       142   05 Jun 2027 11:22:31.719   05 Jun 2027 11:22:33.412             1.693           753.938
       143   05 Jun 2027 11:22:42.856   05 Jun 2027 11:22:44.483             1.627           295.125
       144   05 Jun 2027 11:23:09.811   05 Jun 2027 11:23:12.211             2.400           748.812
       145   05 Jun 2027 11:23:30.264   05 Jun 2027 11:23:34.436             4.172           349.656
       146   06 Jun 2027 03:29:48.195   06 Jun 2027 03:30:25.006            36.811         18405.500
       147   06 Jun 2027 03:30:27.882   06 Jun 2027 03:30:38.391            10.509          5254.500
       148   06 Jun 2027 03:30:49.561   06 Jun 2027 03:31:02.937            13.376          6688.000
       149   06 Jun 2027 03:42:11.029   06 Jun 2027 03:42:29.327            18.298          9149.000
       150   06 Jun 2027 05:03:39.191   06 Jun 2027 05:06:51.230           192.039         96019.500
       151   06 Jun 2027 05:07:44.234   06 Jun 2027 05:07:44.234             0.000             0.000
       152   06 Jun 2027 05:09:03.778   06 Jun 2027 05:09:20.946            17.168          8584.000
       153   06 Jun 2027 06:38:33.516   06 Jun 2027 06:38:55.370            21.854         10927.000
       154   06 Jun 2027 06:39:21.063   06 Jun 2027 06:39:31.621            10.558          3729.844
       155   06 Jun 2027 06:39:57.446   06 Jun 2027 06:39:58.879             1.433           455.469
       156   06 Jun 2027 06:40:47.570   06 Jun 2027 06:40:49.125             1.555           497.906
       157   06 Jun 2027 06:41:26.146   06 Jun 2027 06:41:31.810             5.664           586.375
       158   06 Jun 2027 06:42:49.683   06 Jun 2027 06:42:49.683             0.000             0.000
       159   06 Jun 2027 06:43:10.197   06 Jun 2027 06:43:16.070             5.873          2346.219
       160   06 Jun 2027 06:44:18.859   06 Jun 2027 06:44:18.859             0.000             0.000
       161   06 Jun 2027 06:44:36.889   06 Jun 2027 06:44:42.161             5.272          2525.594
       162   06 Jun 2027 06:45:46.761   06 Jun 2027 06:45:49.821             3.060          1464.031
       163   06 Jun 2027 06:46:09.644   06 Jun 2027 06:46:10.917             1.273           387.688
       164   06 Jun 2027 06:47:29.914   06 Jun 2027 06:47:34.253             4.339          1996.656
       165   06 Jun 2027 06:47:59.274   06 Jun 2027 06:48:00.601             1.327           522.125
       166   06 Jun 2027 08:16:33.199   06 Jun 2027 08:16:49.150            15.951          7932.625
       167   06 Jun 2027 08:17:16.124   06 Jun 2027 08:17:19.336             3.212           762.094
       168   06 Jun 2027 08:18:23.819   06 Jun 2027 08:18:27.018             3.199          1599.500
       169   06 Jun 2027 08:19:30.564   06 Jun 2027 08:19:37.553             6.989          2307.469
       170   06 Jun 2027 08:19:50.725   06 Jun 2027 08:19:53.230             2.505           187.750
       171   06 Jun 2027 08:20:23.326   06 Jun 2027 08:20:24.647             1.321           632.219
       172   06 Jun 2027 08:20:37.094   06 Jun 2027 08:20:39.065             1.971           273.906
       173   06 Jun 2027 08:20:48.979   06 Jun 2027 08:20:50.842             1.863           309.813
       174   06 Jun 2027 08:21:25.667   06 Jun 2027 08:21:28.543             2.876          1062.375
       175   06 Jun 2027 08:22:30.662   06 Jun 2027 08:22:38.238             7.576          1685.937
       176   06 Jun 2027 08:23:03.726   06 Jun 2027 08:23:07.214             3.488           796.500
       177   06 Jun 2027 08:23:28.155   06 Jun 2027 08:23:32.267             4.112           635.000
       178   06 Jun 2027 08:23:39.104   06 Jun 2027 08:23:40.625             1.521            99.563
       179   06 Jun 2027 09:53:29.173   06 Jun 2027 09:53:49.627            20.454         10005.938
       180   06 Jun 2027 09:54:37.985   06 Jun 2027 09:54:42.233             4.248          1506.906
       181   06 Jun 2027 09:55:43.629   06 Jun 2027 09:55:51.900             8.271          1842.000
       182   06 Jun 2027 09:56:23.459   06 Jun 2027 09:56:23.459             0.000             0.000
       183   06 Jun 2027 09:56:52.204   06 Jun 2027 09:57:02.379            10.175          1698.625
       184   06 Jun 2027 09:57:44.829   06 Jun 2027 09:57:49.856             5.027          1208.781
       185   06 Jun 2027 09:58:17.482   06 Jun 2027 09:58:25.542             8.060           863.312
       186   06 Jun 2027 09:58:30.687   06 Jun 2027 09:58:31.433             0.746           160.781
       187   06 Jun 2027 09:59:15.343   06 Jun 2027 09:59:19.511             4.168          1205.531
       188   06 Jun 2027 09:59:54.148   06 Jun 2027 09:59:56.424             2.276          1082.406
       189   06 Jun 2027 11:31:02.590   06 Jun 2027 11:31:21.718            19.128          6307.781
       190   06 Jun 2027 11:31:46.734   06 Jun 2027 11:31:49.017             2.283           552.875
       191   06 Jun 2027 11:32:11.975   06 Jun 2027 11:32:15.001             3.026           322.062
       192   06 Jun 2027 11:32:23.966   06 Jun 2027 11:32:28.381             4.415            98.156
       193   06 Jun 2027 11:33:04.371   06 Jun 2027 11:33:06.692             2.321           756.875
       194   06 Jun 2027 11:33:24.777   06 Jun 2027 11:33:25.356             0.579            78.625
       195   06 Jun 2027 11:33:45.917   06 Jun 2027 11:33:47.753             1.836           460.250
       196   06 Jun 2027 11:34:22.200   06 Jun 2027 11:34:24.471             2.271          1076.469
       197   06 Jun 2027 11:34:27.910   06 Jun 2027 11:34:28.641             0.731           107.469
       198   06 Jun 2027 11:35:03.741   06 Jun 2027 11:35:05.942             2.201           448.656
       199   07 Jun 2027 03:41:44.415   07 Jun 2027 03:43:03.779            79.364         39682.000
       200   07 Jun 2027 05:17:57.692   07 Jun 2027 05:21:05.420           187.728         93864.000
       201   07 Jun 2027 06:51:29.040   07 Jun 2027 06:52:20.527            51.487         25706.125
       202   07 Jun 2027 06:52:50.742   07 Jun 2027 06:52:55.512             4.770           579.000
       203   07 Jun 2027 06:54:14.155   07 Jun 2027 06:54:15.823             1.668           834.000
       204   07 Jun 2027 06:54:16.587   07 Jun 2027 06:54:19.509             2.922           323.969
       205   07 Jun 2027 06:54:29.619   07 Jun 2027 06:54:30.701             1.082            10.469
       206   07 Jun 2027 06:54:53.843   07 Jun 2027 06:54:56.981             3.138           723.188
       207   07 Jun 2027 06:56:39.770   07 Jun 2027 06:56:46.614             6.844          2999.719
       208   07 Jun 2027 06:56:54.990   07 Jun 2027 06:56:57.402             2.412           261.750
       209   07 Jun 2027 06:57:46.507   07 Jun 2027 06:57:52.852             6.345          1516.188
       210   07 Jun 2027 06:58:27.509   07 Jun 2027 06:58:32.421             4.912           182.781
       211   07 Jun 2027 06:58:43.218   07 Jun 2027 06:58:45.515             2.297           337.406
       212   07 Jun 2027 06:59:05.687   07 Jun 2027 06:59:05.761             0.074            37.000
       213   07 Jun 2027 06:59:34.987   07 Jun 2027 06:59:37.410             2.423          1211.500
       214   07 Jun 2027 08:28:55.084   07 Jun 2027 08:29:15.169            20.085          8359.906
       215   07 Jun 2027 08:30:30.791   07 Jun 2027 08:30:33.985             3.194           171.406
       216   07 Jun 2027 08:30:41.476   07 Jun 2027 08:30:46.772             5.296           199.906
       217   07 Jun 2027 08:31:22.603   07 Jun 2027 08:31:26.566             3.963          1087.719
       218   07 Jun 2027 08:32:07.182   07 Jun 2027 08:32:09.090             1.908           701.906
       219   07 Jun 2027 08:32:24.343   07 Jun 2027 08:32:25.475             1.132           432.906
       220   07 Jun 2027 08:32:54.534   07 Jun 2027 08:32:56.485             1.951           784.031
       221   07 Jun 2027 08:33:20.585   07 Jun 2027 08:33:25.090             4.505           753.125
       222   07 Jun 2027 08:34:29.253   07 Jun 2027 08:34:34.167             4.914          2005.094
       223   07 Jun 2027 10:05:58.072   07 Jun 2027 10:06:14.591            16.519          7892.875
       224   07 Jun 2027 10:07:53.784   07 Jun 2027 10:07:58.047             4.263          2083.531
       225   07 Jun 2027 10:08:13.604   07 Jun 2027 10:08:14.466             0.862           430.656
       226   07 Jun 2027 10:09:07.151   07 Jun 2027 10:09:12.963             5.812          1646.406
       227   07 Jun 2027 10:09:45.400   07 Jun 2027 10:09:47.884             2.484          1007.875
       228   07 Jun 2027 10:10:06.300   07 Jun 2027 10:10:15.944             9.644           485.406
       229   07 Jun 2027 10:10:39.322   07 Jun 2027 10:10:40.343             1.021           510.500
       230   07 Jun 2027 10:10:50.494   07 Jun 2027 10:10:52.880             2.386           537.281
       231   07 Jun 2027 10:11:01.569   07 Jun 2027 10:11:01.569             0.000             0.000
       232   07 Jun 2027 10:11:43.598   07 Jun 2027 10:11:48.195             4.597          1584.938
       233   07 Jun 2027 11:42:45.223   07 Jun 2027 11:42:58.470            13.247          6007.656
       234   07 Jun 2027 11:43:31.035   07 Jun 2027 11:43:32.840             1.805           271.812
       235   07 Jun 2027 11:43:47.693   07 Jun 2027 11:43:50.160             2.467           363.469
       236   07 Jun 2027 11:45:13.316   07 Jun 2027 11:45:16.160             2.844          1422.000
       237   07 Jun 2027 11:46:03.173   07 Jun 2027 11:46:05.644             2.471          1235.500
       238   07 Jun 2027 11:46:22.047   07 Jun 2027 11:46:22.122             0.075            37.500
       239   07 Jun 2027 11:46:55.906   07 Jun 2027 11:47:00.890             4.984          2343.250
       240   07 Jun 2027 11:47:12.135   07 Jun 2027 11:47:14.040             1.905           301.281
       241   07 Jun 2027 11:47:19.955   07 Jun 2027 11:47:22.820             2.865           184.844
       242   08 Jun 2027 03:53:36.237   08 Jun 2027 03:54:48.381            72.144         36072.000
       243   08 Jun 2027 03:54:59.726   08 Jun 2027 03:55:04.852             5.126          2563.000
       244   08 Jun 2027 03:55:08.906   08 Jun 2027 03:55:25.341            16.435          8217.500
       245   08 Jun 2027 05:30:02.796   08 Jun 2027 05:32:16.284           133.488         66744.000
       246   08 Jun 2027 05:32:17.844   08 Jun 2027 05:32:56.457            38.613         19306.500
       247   08 Jun 2027 05:33:25.205   08 Jun 2027 05:33:34.980             9.775          4887.500
       248   08 Jun 2027 07:02:12.260   08 Jun 2027 07:02:22.585            10.325          5162.500
       249   08 Jun 2027 07:04:06.951   08 Jun 2027 07:04:44.457            37.506         15753.781
       250   08 Jun 2027 07:05:44.530   08 Jun 2027 07:05:46.675             2.145           147.031
       251   08 Jun 2027 07:05:49.795   08 Jun 2027 07:05:52.749             2.954            88.688
       252   08 Jun 2027 07:07:11.750   08 Jun 2027 07:07:18.182             6.432          2456.500
       253   08 Jun 2027 07:07:35.562   08 Jun 2027 07:07:36.401             0.839            82.938
       254   08 Jun 2027 07:08:07.345   08 Jun 2027 07:08:11.482             4.137           967.000
       255   08 Jun 2027 07:08:39.340   08 Jun 2027 07:08:40.772             1.432           716.000
       256   08 Jun 2027 07:08:42.510   08 Jun 2027 07:08:43.126             0.616            72.125
       257   08 Jun 2027 07:08:55.116   08 Jun 2027 07:08:55.590             0.474           140.031
       258   08 Jun 2027 07:09:14.059   08 Jun 2027 07:09:15.463             1.404           540.719
       259   08 Jun 2027 07:10:19.650   08 Jun 2027 07:10:23.749             4.099          1596.813
       260   08 Jun 2027 07:11:16.496   08 Jun 2027 07:11:19.544             3.048          1260.562
       261   08 Jun 2027 07:11:36.424   08 Jun 2027 07:11:36.716             0.292           146.000
       262   08 Jun 2027 08:41:06.435   08 Jun 2027 08:41:26.099            19.664          8695.437
       263   08 Jun 2027 08:42:19.074   08 Jun 2027 08:42:24.818             5.744           697.469
       264   08 Jun 2027 08:43:21.249   08 Jun 2027 08:43:27.281             6.032          1698.031
       265   08 Jun 2027 08:44:04.400   08 Jun 2027 08:44:05.707             1.307            46.625
       266   08 Jun 2027 08:44:34.705   08 Jun 2027 08:44:38.065             3.360           904.469
       267   08 Jun 2027 08:44:57.829   08 Jun 2027 08:44:59.575             1.746           340.688
       268   08 Jun 2027 08:45:40.968   08 Jun 2027 08:45:47.635             6.667           873.594
       269   08 Jun 2027 08:45:55.450   08 Jun 2027 08:45:57.751             2.301           244.219
       270   08 Jun 2027 08:47:01.396   08 Jun 2027 08:47:02.574             1.178           589.000
       271   08 Jun 2027 10:18:09.395   08 Jun 2027 10:18:24.970            15.575          7606.219
       272   08 Jun 2027 10:18:52.858   08 Jun 2027 10:18:54.574             1.716            63.562
       273   08 Jun 2027 10:19:40.619   08 Jun 2027 10:19:47.829             7.210          1401.656
       274   08 Jun 2027 10:20:19.904   08 Jun 2027 10:20:24.426             4.522           972.625
       275   08 Jun 2027 10:21:01.333   08 Jun 2027 10:21:04.307             2.974           617.406
       276   08 Jun 2027 10:21:28.763   08 Jun 2027 10:21:29.250             0.487           144.219
       277   08 Jun 2027 10:21:44.237   08 Jun 2027 10:21:48.312             4.075           387.031
       278   08 Jun 2027 10:22:07.512   08 Jun 2027 10:22:08.738             1.226           456.594
       279   08 Jun 2027 10:22:29.076   08 Jun 2027 10:22:29.636             0.560           280.000
       280   08 Jun 2027 10:22:33.175   08 Jun 2027 10:22:40.009             6.834           355.563
       281   08 Jun 2027 10:22:51.616   08 Jun 2027 10:22:54.318             2.702           234.469
       282   08 Jun 2027 11:54:49.233   08 Jun 2027 11:55:07.250            18.017          8860.250
       283   08 Jun 2027 11:55:23.971   08 Jun 2027 11:55:30.497             6.526           487.594
       284   08 Jun 2027 11:56:31.217   08 Jun 2027 11:56:32.266             1.049           524.500
       285   08 Jun 2027 11:57:02.845   08 Jun 2027 11:57:09.160             6.315          2267.813
       286   08 Jun 2027 11:57:44.590   08 Jun 2027 11:57:48.583             3.993          1107.187
       287   08 Jun 2027 11:58:20.616   08 Jun 2027 11:58:21.286             0.670           335.000
       288   08 Jun 2027 11:58:52.308   08 Jun 2027 11:58:57.064             4.756          1635.469
       289   09 Jun 2027 04:05:41.620   09 Jun 2027 04:07:01.242            79.622         39811.000
       290   09 Jun 2027 04:07:37.624   09 Jun 2027 04:07:37.624             0.000             0.000
       291   09 Jun 2027 04:07:41.125   09 Jun 2027 04:08:09.131            28.006         14003.000
       292   09 Jun 2027 04:08:27.270   09 Jun 2027 04:08:35.864             8.594          4297.000
       293   09 Jun 2027 04:08:42.921   09 Jun 2027 04:08:43.798             0.877           438.500
       294   09 Jun 2027 05:42:10.435   09 Jun 2027 05:44:42.139           151.704         75852.000
       295   09 Jun 2027 07:17:17.979   09 Jun 2027 07:18:18.674            60.695         29270.500
       296   09 Jun 2027 07:18:39.604   09 Jun 2027 07:18:39.604             0.000             0.000
       297   09 Jun 2027 07:18:47.036   09 Jun 2027 07:18:50.677             3.641           886.312
       298   09 Jun 2027 07:19:06.356   09 Jun 2027 07:19:07.451             1.095           470.969
       299   09 Jun 2027 07:19:27.035   09 Jun 2027 07:19:29.613             2.578           612.000
       300   09 Jun 2027 07:20:25.576   09 Jun 2027 07:20:29.264             3.688           362.750
       301   09 Jun 2027 07:20:53.546   09 Jun 2027 07:20:55.226             1.680           713.281
       302   09 Jun 2027 07:21:11.763   09 Jun 2027 07:21:11.763             0.000             0.000
       303   09 Jun 2027 07:22:23.047   09 Jun 2027 07:22:28.690             5.643          2518.281
       304   09 Jun 2027 07:23:35.008   09 Jun 2027 07:23:39.978             4.970          1746.156
       305   09 Jun 2027 07:23:41.644   09 Jun 2027 07:23:41.644             0.000             0.000
       306   09 Jun 2027 07:23:52.553   09 Jun 2027 07:23:54.258             1.705           392.969
       307   09 Jun 2027 08:53:39.559   09 Jun 2027 08:53:54.366            14.807          7029.906
       308   09 Jun 2027 08:54:25.315   09 Jun 2027 08:54:32.722             7.407           652.062
       309   09 Jun 2027 08:55:35.065   09 Jun 2027 08:55:39.645             4.580          1818.500
       310   09 Jun 2027 08:55:48.817   09 Jun 2027 08:55:49.791             0.974            91.719
       311   09 Jun 2027 08:56:02.928   09 Jun 2027 08:56:06.644             3.716           290.750
       312   09 Jun 2027 08:56:10.461   09 Jun 2027 08:56:11.871             1.410            35.250
       313   09 Jun 2027 08:56:52.926   09 Jun 2027 08:57:00.076             7.150          1245.719
       314   09 Jun 2027 08:57:16.945   09 Jun 2027 08:57:19.025             2.080           511.906
       315   09 Jun 2027 08:57:21.874   09 Jun 2027 08:57:23.287             1.413            66.688
       316   09 Jun 2027 08:57:53.568   09 Jun 2027 08:57:53.568             0.000             0.000
       317   09 Jun 2027 08:57:59.903   09 Jun 2027 08:58:04.802             4.899           960.563
       318   09 Jun 2027 08:58:16.195   09 Jun 2027 08:58:17.325             1.130           155.750
       319   09 Jun 2027 10:31:05.485   09 Jun 2027 10:31:22.431            16.946          7670.750
       320   09 Jun 2027 10:31:41.448   09 Jun 2027 10:31:44.700             3.252           549.719
       321   09 Jun 2027 10:32:56.592   09 Jun 2027 10:32:59.812             3.220          1574.406
       322   09 Jun 2027 10:33:44.603   09 Jun 2027 10:33:46.412             1.809           723.063
       323   09 Jun 2027 10:34:07.490   09 Jun 2027 10:34:09.450             1.960           438.219
       324   09 Jun 2027 10:35:01.989   09 Jun 2027 10:35:05.892             3.903          1641.844
       325   10 Jun 2027 04:17:44.617   10 Jun 2027 04:19:38.802           114.185         57092.500
       326   10 Jun 2027 05:54:13.484   10 Jun 2027 05:56:32.363           138.879         69439.500
       327   10 Jun 2027 05:56:41.595   10 Jun 2027 05:56:42.375             0.780           390.000
       328   10 Jun 2027 05:56:53.213   10 Jun 2027 05:57:17.106            23.893         11946.500
       329   10 Jun 2027 07:29:56.073   10 Jun 2027 07:30:32.163            36.090         18045.000
       330   10 Jun 2027 07:31:24.245   10 Jun 2027 07:31:29.106             4.861          2008.500
       331   10 Jun 2027 07:31:43.585   10 Jun 2027 07:31:44.209             0.624           312.000
       332   10 Jun 2027 07:32:52.365   10 Jun 2027 07:32:58.887             6.522          2270.344
       333   10 Jun 2027 07:33:11.773   10 Jun 2027 07:33:12.806             1.033           340.812
       334   10 Jun 2027 07:34:22.969   10 Jun 2027 07:34:32.109             9.140          2192.594
       335   10 Jun 2027 07:34:40.925   10 Jun 2027 07:34:43.539             2.614           275.500
       336   10 Jun 2027 07:35:12.230   10 Jun 2027 07:35:16.854             4.624           896.594
       337   10 Jun 2027 07:35:33.696   10 Jun 2027 07:35:35.502             1.806           475.656
       338   10 Jun 2027 09:05:21.151   10 Jun 2027 09:05:37.741            16.590          7853.781
       339   10 Jun 2027 09:06:00.462   10 Jun 2027 09:06:03.236             2.774           710.031
       340   10 Jun 2027 09:06:38.259   10 Jun 2027 09:06:42.285             4.026           891.344
       341   10 Jun 2027 09:07:28.095   10 Jun 2027 09:07:30.362             2.267           414.750
       342   10 Jun 2027 09:07:37.422   10 Jun 2027 09:07:39.399             1.977           220.625
       343   10 Jun 2027 09:08:27.701   10 Jun 2027 09:08:32.114             4.413           731.156
       344   10 Jun 2027 09:08:51.835   10 Jun 2027 09:08:53.150             1.315           615.438
       345   10 Jun 2027 09:10:06.550   10 Jun 2027 09:10:12.519             5.969          2293.750
       346   10 Jun 2027 10:43:12.659   10 Jun 2027 10:43:30.087            17.428          7726.125
       347   10 Jun 2027 10:43:36.382   10 Jun 2027 10:43:38.271             1.889           196.719
       348   10 Jun 2027 10:43:56.356   10 Jun 2027 10:43:58.793             2.437           462.156
       349   10 Jun 2027 10:44:49.297   10 Jun 2027 10:44:53.876             4.579          1433.500
       350   10 Jun 2027 10:45:45.634   10 Jun 2027 10:45:54.059             8.425          1527.844
       351   10 Jun 2027 10:46:16.742   10 Jun 2027 10:46:18.285             1.543           476.219
       352   10 Jun 2027 10:46:21.856   10 Jun 2027 10:46:23.588             1.732           108.812
       353   10 Jun 2027 10:46:27.106   10 Jun 2027 10:46:32.253             5.147            29.281
       354   10 Jun 2027 10:47:11.544   10 Jun 2027 10:47:13.385             1.841           920.500
       355   11 Jun 2027 03:06:14.087   11 Jun 2027 03:06:56.112            42.025         21012.500
       356   11 Jun 2027 03:07:01.637   11 Jun 2027 03:08:08.677            67.040         33520.000
       357   11 Jun 2027 03:08:17.404   11 Jun 2027 03:08:18.102             0.698           349.000
       358   11 Jun 2027 03:08:24.378   11 Jun 2027 03:08:58.795            34.417         17208.500
       359   11 Jun 2027 04:30:11.287   11 Jun 2027 04:30:55.037            43.750         21875.000
       360   11 Jun 2027 04:32:14.260   11 Jun 2027 04:32:56.005            41.745         20872.500
       361   11 Jun 2027 06:05:57.616   11 Jun 2027 06:07:34.008            96.392         47542.657
       362   11 Jun 2027 06:08:24.679   11 Jun 2027 06:08:30.470             5.791           913.281
       363   11 Jun 2027 06:09:27.263   11 Jun 2027 06:09:33.528             6.265          1680.469
       364   11 Jun 2027 06:09:51.611   11 Jun 2027 06:09:52.496             0.885           158.437
       365   11 Jun 2027 07:40:40.664   11 Jun 2027 07:40:55.919            15.255          4723.938
       366   11 Jun 2027 07:41:31.224   11 Jun 2027 07:41:38.151             6.927           902.469
       367   11 Jun 2027 07:42:53.667   11 Jun 2027 07:42:58.822             5.155           384.969
       368   11 Jun 2027 07:43:24.599   11 Jun 2027 07:43:30.862             6.263           588.031
       369   11 Jun 2027 07:44:01.480   11 Jun 2027 07:44:03.962             2.482           569.187
       370   11 Jun 2027 07:44:49.541   11 Jun 2027 07:44:52.601             3.060          1374.469
       371   11 Jun 2027 07:46:22.272   11 Jun 2027 07:46:26.618             4.346          2059.844
       372   11 Jun 2027 07:46:42.743   11 Jun 2027 07:46:43.592             0.849           339.844
       373   11 Jun 2027 07:47:22.657   11 Jun 2027 07:47:28.004             5.347          1220.781
       374   11 Jun 2027 07:47:34.395   11 Jun 2027 07:47:36.011             1.616           199.719
       375   11 Jun 2027 07:47:51.759   11 Jun 2027 07:47:54.287             2.528           488.313
       376   11 Jun 2027 09:17:26.596   11 Jun 2027 09:17:45.054            18.458          9086.844
       377   11 Jun 2027 09:19:12.050   11 Jun 2027 09:19:19.570             7.520          1681.000
       378   11 Jun 2027 09:19:59.326   11 Jun 2027 09:20:02.548             3.222          1102.281
       379   11 Jun 2027 09:21:26.596   11 Jun 2027 09:21:32.377             5.781          2214.281
       380   11 Jun 2027 09:22:00.773   11 Jun 2027 09:22:03.221             2.448           887.375
       381   11 Jun 2027 09:22:19.875   11 Jun 2027 09:22:25.856             5.981           283.469
       382   11 Jun 2027 09:22:43.381   11 Jun 2027 09:22:44.311             0.930           251.219
       383   11 Jun 2027 10:55:42.480   11 Jun 2027 10:56:01.199            18.719          8376.531
       384   11 Jun 2027 10:56:01.202   11 Jun 2027 10:56:01.218             0.016             0.094
       385   11 Jun 2027 10:56:31.501   11 Jun 2027 10:56:31.633             0.132            66.000
       386   11 Jun 2027 10:56:41.864   11 Jun 2027 10:56:44.771             2.907          1200.062
       387   11 Jun 2027 10:57:53.399   11 Jun 2027 10:57:58.265             4.866          1113.813
       388   11 Jun 2027 10:58:14.132   11 Jun 2027 10:58:15.470             1.338           495.844
       389   11 Jun 2027 10:58:59.099   11 Jun 2027 10:59:10.049            10.950          1264.906
       390   12 Jun 2027 03:06:36.314   12 Jun 2027 03:07:18.440            42.126         21063.000
       391   12 Jun 2027 03:07:19.507   12 Jun 2027 03:07:25.563             6.056          3028.000
       392   12 Jun 2027 03:18:12.276   12 Jun 2027 03:19:40.501            88.225         44112.500
       393   12 Jun 2027 04:40:48.765   12 Jun 2027 04:41:47.516            58.751         29375.500
       394   12 Jun 2027 04:42:26.932   12 Jun 2027 04:42:56.838            29.906         14953.000
       395   12 Jun 2027 04:44:10.907   12 Jun 2027 04:44:35.506            24.599         12299.500
       396   12 Jun 2027 04:44:40.984   12 Jun 2027 04:44:57.041            16.057          8028.500
       397   12 Jun 2027 06:15:58.382   12 Jun 2027 06:16:54.966            56.584         27003.407
       398   12 Jun 2027 06:16:58.528   12 Jun 2027 06:17:00.407             1.879            33.500
       399   12 Jun 2027 06:18:41.966   12 Jun 2027 06:18:44.902             2.936          1468.000
       400   12 Jun 2027 06:19:13.143   12 Jun 2027 06:19:17.559             4.416          1915.219
       401   12 Jun 2027 06:19:33.077   12 Jun 2027 06:19:35.137             2.060           484.938
       402   12 Jun 2027 06:20:34.228   12 Jun 2027 06:20:35.281             1.053           526.500
       403   12 Jun 2027 06:20:43.564   12 Jun 2027 06:20:45.809             2.245          1040.187
       404   12 Jun 2027 06:21:40.312   12 Jun 2027 06:21:44.683             4.371          1637.500
       405   12 Jun 2027 06:21:57.556   12 Jun 2027 06:21:59.594             2.038           284.438
       406   12 Jun 2027 06:22:30.946   12 Jun 2027 06:22:32.109             1.163           448.125
       407   12 Jun 2027 07:52:46.035   12 Jun 2027 07:52:55.512             9.477          4194.719
       408   12 Jun 2027 07:53:04.832   12 Jun 2027 07:53:12.296             7.464           291.250
       409   12 Jun 2027 07:54:41.516   12 Jun 2027 07:54:45.958             4.442          2187.312
       410   12 Jun 2027 07:57:13.020   12 Jun 2027 07:57:21.253             8.233          3275.875
       411   12 Jun 2027 07:57:42.790   12 Jun 2027 07:57:43.592             0.802           137.094
       412   12 Jun 2027 07:58:20.852   12 Jun 2027 07:58:23.128             2.276           496.188
       413   12 Jun 2027 07:59:01.028   12 Jun 2027 07:59:08.457             7.429           939.031
       414   12 Jun 2027 08:00:10.118   12 Jun 2027 08:00:12.079             1.961           980.500
       415   12 Jun 2027 09:29:47.065   12 Jun 2027 09:30:04.307            17.242          8529.937
       416   12 Jun 2027 09:30:23.205   12 Jun 2027 09:30:25.866             2.661           340.375
       417   12 Jun 2027 09:32:09.746   12 Jun 2027 09:32:10.203             0.457           228.500
       418   12 Jun 2027 09:33:27.820   12 Jun 2027 09:33:36.894             9.074          2810.531
       419   12 Jun 2027 09:33:43.043   12 Jun 2027 09:33:45.170             2.127           129.969
       420   12 Jun 2027 09:34:12.034   12 Jun 2027 09:34:14.297             2.263           839.500
       421   12 Jun 2027 09:34:44.880   12 Jun 2027 09:34:47.382             2.502           955.719
       422   12 Jun 2027 09:35:37.027   12 Jun 2027 09:35:37.410             0.383           191.500
       423   12 Jun 2027 09:35:47.301   12 Jun 2027 09:35:50.258             2.957           838.500
       424   12 Jun 2027 11:07:40.450   12 Jun 2027 11:07:58.433            17.983          8904.219
       425   12 Jun 2027 11:09:03.022   12 Jun 2027 11:09:05.947             2.925          1462.500
       426   12 Jun 2027 11:09:29.821   12 Jun 2027 11:09:35.427             5.606          1301.969
       427   12 Jun 2027 11:09:54.122   12 Jun 2027 11:09:55.746             1.624           380.625
       428   12 Jun 2027 11:10:50.903   12 Jun 2027 11:10:57.745             6.842          1723.656
       429   12 Jun 2027 11:11:15.347   12 Jun 2027 11:11:17.205             1.858           550.063
       430   12 Jun 2027 11:11:30.471   12 Jun 2027 11:11:33.057             2.586           387.906
       431   13 Jun 2027 03:17:57.618   13 Jun 2027 03:19:18.688            81.070         40535.000
       432   13 Jun 2027 03:19:20.814   13 Jun 2027 03:19:20.814             0.000             0.000
       433   13 Jun 2027 03:30:11.338   13 Jun 2027 03:31:09.526            58.188         29094.000
       434   13 Jun 2027 04:52:24.642   13 Jun 2027 04:53:33.138            68.496         34248.000
       435   13 Jun 2027 04:54:21.146   13 Jun 2027 04:55:02.294            41.148         20574.000
       436   13 Jun 2027 04:55:12.285   13 Jun 2027 04:55:35.693            23.408         11704.000
       437   13 Jun 2027 06:27:18.328   13 Jun 2027 06:28:01.729            43.401         20274.406
       438   13 Jun 2027 06:28:46.384   13 Jun 2027 06:28:50.429             4.045           600.906
       439   13 Jun 2027 06:29:30.036   13 Jun 2027 06:29:30.562             0.526           263.000
       440   13 Jun 2027 06:30:31.825   13 Jun 2027 06:30:36.040             4.215          2107.500
       441   13 Jun 2027 06:30:38.214   13 Jun 2027 06:30:38.926             0.712           356.000
       442   13 Jun 2027 06:31:06.233   13 Jun 2027 06:31:06.233             0.000             0.000
       443   13 Jun 2027 06:31:15.922   13 Jun 2027 06:31:26.210            10.288          1563.094
       444   13 Jun 2027 06:32:30.737   13 Jun 2027 06:32:34.513             3.776          1888.000
       445   13 Jun 2027 06:32:50.992   13 Jun 2027 06:32:57.643             6.651           643.438
       446   13 Jun 2027 06:33:05.219   13 Jun 2027 06:33:05.478             0.259            88.750
       447   13 Jun 2027 06:34:46.637   13 Jun 2027 06:34:51.309             4.672          2336.000
       448   13 Jun 2027 06:35:39.198   13 Jun 2027 06:35:44.008             4.810          1659.656
       449   13 Jun 2027 08:04:53.068   13 Jun 2027 08:05:10.662            17.594          7140.406
       450   13 Jun 2027 08:05:39.756   13 Jun 2027 08:05:43.255             3.499           909.187
       451   13 Jun 2027 08:06:40.751   13 Jun 2027 08:06:46.602             5.851          1088.969
       452   13 Jun 2027 08:08:03.119   13 Jun 2027 08:08:08.126             5.007          2391.156
       453   13 Jun 2027 08:09:31.353   13 Jun 2027 08:09:37.156             5.803          1201.875
       454   13 Jun 2027 08:10:42.884   13 Jun 2027 08:10:45.735             2.851          1425.500
       455   13 Jun 2027 08:11:02.903   13 Jun 2027 08:11:06.019             3.116           805.031
       456   13 Jun 2027 08:12:01.122   13 Jun 2027 08:12:06.753             5.631          1675.125
       457   13 Jun 2027 08:12:15.247   13 Jun 2027 08:12:15.699             0.452           226.000
       458   13 Jun 2027 09:41:36.367   13 Jun 2027 09:42:01.014            24.647          9662.375
       459   13 Jun 2027 09:42:06.212   13 Jun 2027 09:42:09.864             3.652            49.937
       460   13 Jun 2027 09:42:45.890   13 Jun 2027 09:42:47.067             1.177           565.625
       461   13 Jun 2027 09:42:50.659   13 Jun 2027 09:42:53.898             3.239           112.250
       462   13 Jun 2027 09:44:14.718   13 Jun 2027 09:44:22.801             8.083          2292.531
       463   13 Jun 2027 09:45:23.496   13 Jun 2027 09:45:31.290             7.794          1549.250
       464   13 Jun 2027 09:47:08.403   13 Jun 2027 09:47:15.151             6.748          2756.312
       465   13 Jun 2027 09:47:56.851   13 Jun 2027 09:48:03.486             6.635          1303.125
       466   13 Jun 2027 11:19:39.910   13 Jun 2027 11:19:54.838            14.928          6954.344
       467   13 Jun 2027 11:20:10.148   13 Jun 2027 11:20:16.912             6.764           478.438
       468   13 Jun 2027 11:21:28.792   13 Jun 2027 11:21:34.509             5.717          1992.125
       469   13 Jun 2027 11:22:22.598   13 Jun 2027 11:22:33.335            10.737          1466.625
       470   13 Jun 2027 11:23:21.099   13 Jun 2027 11:23:26.184             5.085          1390.313
       471   13 Jun 2027 11:23:34.069   13 Jun 2027 11:23:36.953             2.884           246.406
