uniorb/output/strategy_2/Camera/Camera_KinoSat_110302.txt

KinoSat_110302
-------------------------
    Access    *     Start Time (UTCG)     *     Stop Time (UTCG)  *   Duration (s) *   Data (Mbytes)
         1   01 Jun 2027 04:25:08.293   01 Jun 2027 04:25:31.957            23.664         11832.000
         2   01 Jun 2027 04:27:10.351   01 Jun 2027 04:27:17.176             6.825          3412.500
         3   01 Jun 2027 04:27:39.347   01 Jun 2027 04:27:45.234             5.887          2943.500
         4   01 Jun 2027 04:28:25.631   01 Jun 2027 04:28:29.907             4.276          2138.000
         5   01 Jun 2027 04:29:16.393   01 Jun 2027 04:29:21.817             5.424          2712.000
         6   01 Jun 2027 04:29:51.893   01 Jun 2027 04:29:53.992             2.099          1049.500
         7   01 Jun 2027 04:30:43.239   01 Jun 2027 04:30:44.770             1.531           765.500
         8   01 Jun 2027 04:30:53.167   01 Jun 2027 04:30:59.863             6.696          3348.000
         9   01 Jun 2027 04:31:33.565   01 Jun 2027 04:31:37.406             3.841          1920.500
        10   01 Jun 2027 04:31:58.620   01 Jun 2027 04:32:11.206            12.586          6293.000
        11   01 Jun 2027 06:02:02.746   01 Jun 2027 06:02:10.569             7.823          3911.500
        12   01 Jun 2027 06:03:37.559   01 Jun 2027 06:03:54.544            16.985          8492.500
        13   01 Jun 2027 06:05:11.626   01 Jun 2027 06:05:14.808             3.182          1591.000
        14   01 Jun 2027 06:05:40.351   01 Jun 2027 06:05:44.419             4.068          2034.000
        15   01 Jun 2027 06:06:04.995   01 Jun 2027 06:06:10.037             5.042          2521.000
        16   01 Jun 2027 06:06:46.818   01 Jun 2027 06:06:47.861             1.043           521.500
        17   01 Jun 2027 06:07:20.797   01 Jun 2027 06:07:22.898             2.101          1050.500
        18   01 Jun 2027 06:07:53.337   01 Jun 2027 06:08:06.545            13.208          6604.000
        19   01 Jun 2027 07:39:11.530   01 Jun 2027 07:39:27.876            16.346          8173.000
        20   01 Jun 2027 07:40:44.966   01 Jun 2027 07:40:51.972             7.006          3503.000
        21   01 Jun 2027 07:41:39.968   01 Jun 2027 07:41:53.739            13.771          6885.500
        22   01 Jun 2027 07:42:58.248   01 Jun 2027 07:43:00.520             2.272          1136.000
        23   01 Jun 2027 07:43:43.535   01 Jun 2027 07:44:00.167            16.632          8316.000
        24   01 Jun 2027 09:14:01.845   01 Jun 2027 09:14:01.898             0.053            26.500
        25   01 Jun 2027 09:14:18.373   01 Jun 2027 09:14:37.529            19.156          9578.000
        26   01 Jun 2027 09:16:25.267   01 Jun 2027 09:16:30.901             5.634          2817.000
        27   01 Jun 2027 09:16:57.006   01 Jun 2027 09:17:31.014            34.008         17004.000
        28   02 Jun 2027 03:00:03.047   02 Jun 2027 03:00:19.390            16.343          8171.500
        29   02 Jun 2027 03:01:18.357   02 Jun 2027 03:01:19.333             0.976           488.000
        30   02 Jun 2027 03:01:59.376   02 Jun 2027 03:02:24.910            25.534         12767.000
        31   02 Jun 2027 03:04:05.684   02 Jun 2027 03:04:09.183             3.499          1749.500
        32   02 Jun 2027 03:04:52.448   02 Jun 2027 03:04:57.707             5.259          2629.500
        33   02 Jun 2027 03:05:10.586   02 Jun 2027 03:05:16.081             5.495          2747.500
        34   02 Jun 2027 03:05:38.710   02 Jun 2027 03:05:38.710             0.000             0.000
        35   02 Jun 2027 03:05:54.467   02 Jun 2027 03:05:55.703             1.236           618.000
        36   02 Jun 2027 03:06:16.342   02 Jun 2027 03:06:17.498             1.156           578.000
        37   02 Jun 2027 03:06:36.128   02 Jun 2027 03:06:38.322             2.194          1097.000
        38   02 Jun 2027 03:06:51.331   02 Jun 2027 03:06:55.241             3.910          1955.000
        39   02 Jun 2027 03:07:19.124   02 Jun 2027 03:07:27.080             7.956          3978.000
        40   02 Jun 2027 03:08:11.003   02 Jun 2027 03:08:14.529             3.526          1763.000
        41   02 Jun 2027 03:08:28.812   02 Jun 2027 03:08:31.544             2.732          1366.000
        42   02 Jun 2027 04:37:34.282   02 Jun 2027 04:37:39.709             5.427          2713.500
        43   02 Jun 2027 04:38:04.690   02 Jun 2027 04:38:18.624            13.934          6967.000
        44   02 Jun 2027 04:39:01.374   02 Jun 2027 04:39:15.601            14.227          7113.500
        45   02 Jun 2027 04:39:54.889   02 Jun 2027 04:40:07.261            12.372          6186.000
        46   02 Jun 2027 04:41:34.052   02 Jun 2027 04:41:43.842             9.790          4895.000
        47   02 Jun 2027 04:42:53.101   02 Jun 2027 04:42:53.722             0.621           310.500
        48   02 Jun 2027 04:43:38.410   02 Jun 2027 04:43:41.003             2.593          1296.500
        49   02 Jun 2027 04:43:53.930   02 Jun 2027 04:43:56.828             2.898          1449.000
        50   02 Jun 2027 04:44:03.046   02 Jun 2027 04:44:08.866             5.820          2910.000
        51   02 Jun 2027 06:14:30.440   02 Jun 2027 06:14:41.966            11.526          5763.000
        52   02 Jun 2027 06:16:08.550   02 Jun 2027 06:16:14.173             5.623          2811.500
        53   02 Jun 2027 06:16:38.292   02 Jun 2027 06:16:46.012             7.720          3860.000
        54   02 Jun 2027 06:17:16.920   02 Jun 2027 06:17:18.192             1.272           636.000
        55   02 Jun 2027 06:17:19.318   02 Jun 2027 06:17:27.118             7.800          3900.000
        56   02 Jun 2027 06:18:24.861   02 Jun 2027 06:18:25.664             0.803           401.500
        57   02 Jun 2027 06:18:49.932   02 Jun 2027 06:18:56.164             6.232          3116.000
        58   02 Jun 2027 06:19:31.092   02 Jun 2027 06:19:31.489             0.397           198.500
        59   02 Jun 2027 06:19:58.281   02 Jun 2027 06:19:59.813             1.532           766.000
        60   02 Jun 2027 07:51:24.402   02 Jun 2027 07:51:37.821            13.419          6709.500
        61   02 Jun 2027 07:52:36.460   02 Jun 2027 07:52:52.156            15.696          7848.000
        62   02 Jun 2027 07:53:56.043   02 Jun 2027 07:54:03.730             7.687          3843.500
        63   02 Jun 2027 07:54:41.762   02 Jun 2027 07:54:50.252             8.490          4245.000
        64   02 Jun 2027 07:55:23.922   02 Jun 2027 07:55:37.664            13.742          6871.000
        65   02 Jun 2027 09:28:34.587   02 Jun 2027 09:28:51.424            16.837          8418.500
        66   02 Jun 2027 09:30:34.242   02 Jun 2027 09:30:48.752            14.510          7255.000
        67   03 Jun 2027 03:10:43.379   03 Jun 2027 03:10:54.090            10.711          5355.500
        68   03 Jun 2027 03:12:41.772   03 Jun 2027 03:12:41.863             0.091            45.500
        69   03 Jun 2027 03:12:46.360   03 Jun 2027 03:12:53.856             7.496          3748.000
        70   03 Jun 2027 03:13:05.518   03 Jun 2027 03:13:32.848            27.330         13665.000
        71   03 Jun 2027 03:15:55.593   03 Jun 2027 03:16:06.497            10.904          5452.000
        72   03 Jun 2027 03:16:51.231   03 Jun 2027 03:16:54.006             2.775          1387.500
        73   03 Jun 2027 03:17:17.435   03 Jun 2027 03:17:26.968             9.533          4766.500
        74   03 Jun 2027 03:18:42.866   03 Jun 2027 03:18:43.813             0.947           473.500
        75   03 Jun 2027 03:18:44.025   03 Jun 2027 03:18:45.214             1.189           594.500
        76   03 Jun 2027 03:19:00.480   03 Jun 2027 03:19:00.843             0.363           181.500
        77   03 Jun 2027 03:19:14.181   03 Jun 2027 03:19:20.054             5.873          2936.500
        78   03 Jun 2027 03:19:50.153   03 Jun 2027 03:19:53.144             2.991          1495.500
        79   03 Jun 2027 03:20:25.982   03 Jun 2027 03:20:30.875             4.893          2446.500
        80   03 Jun 2027 04:49:40.606   03 Jun 2027 04:49:41.765             1.159           579.500
        81   03 Jun 2027 04:49:49.321   03 Jun 2027 04:50:13.109            23.788         11894.000
        82   03 Jun 2027 04:50:56.727   03 Jun 2027 04:51:16.463            19.736          9868.000
        83   03 Jun 2027 04:53:28.098   03 Jun 2027 04:53:42.563            14.465          7232.500
        84   03 Jun 2027 04:53:44.103   03 Jun 2027 04:53:44.271             0.168            84.000
        85   03 Jun 2027 04:54:53.465   03 Jun 2027 04:54:55.932             2.467          1233.500
        86   03 Jun 2027 04:55:25.277   03 Jun 2027 04:55:33.395             8.118          4059.000
        87   03 Jun 2027 04:55:56.862   03 Jun 2027 04:56:01.362             4.500          2250.000
        88   03 Jun 2027 06:27:04.004   03 Jun 2027 06:27:14.515            10.511          5255.500
        89   03 Jun 2027 06:27:59.237   03 Jun 2027 06:28:00.323             1.086           543.000
        90   03 Jun 2027 06:28:34.070   03 Jun 2027 06:28:36.269             2.199          1099.500
        91   03 Jun 2027 06:28:54.990   03 Jun 2027 06:29:07.707            12.717          6358.500
        92   03 Jun 2027 06:30:34.525   03 Jun 2027 06:30:42.861             8.336          4168.000
        93   03 Jun 2027 06:31:39.088   03 Jun 2027 06:31:47.399             8.311          4155.500
        94   03 Jun 2027 08:03:26.481   03 Jun 2027 08:03:26.721             0.240           120.000
        95   03 Jun 2027 08:03:41.195   03 Jun 2027 08:03:42.677             1.482           741.000
        96   03 Jun 2027 08:03:48.884   03 Jun 2027 08:03:56.962             8.078          4039.000
        97   03 Jun 2027 08:04:21.801   03 Jun 2027 08:04:23.591             1.790           895.000
        98   03 Jun 2027 08:04:45.247   03 Jun 2027 08:04:56.903            11.656          5828.000
        99   03 Jun 2027 08:05:57.182   03 Jun 2027 08:06:01.026             3.844          1922.000
       100   03 Jun 2027 08:07:32.511   03 Jun 2027 08:07:37.430             4.919          2459.500
       101   03 Jun 2027 08:07:58.407   03 Jun 2027 08:08:02.680             4.273          2136.500
       102   03 Jun 2027 09:41:44.569   03 Jun 2027 09:41:59.075            14.506          7253.000
       103   04 Jun 2027 03:25:55.782   04 Jun 2027 03:26:00.423             4.641          2320.500
       104   04 Jun 2027 03:26:56.996   04 Jun 2027 03:27:00.910             3.914          1957.000
       105   04 Jun 2027 03:27:26.499   04 Jun 2027 03:27:27.822             1.323           661.500
       106   04 Jun 2027 03:27:40.477   04 Jun 2027 03:27:49.477             9.000          4500.000
       107   04 Jun 2027 03:28:25.916   04 Jun 2027 03:28:32.713             6.797          3398.500
       108   04 Jun 2027 03:29:28.300   04 Jun 2027 03:29:32.414             4.114          2057.000
       109   04 Jun 2027 03:30:25.772   04 Jun 2027 03:30:29.823             4.051          2025.500
       110   04 Jun 2027 03:31:05.620   04 Jun 2027 03:31:12.275             6.655          3327.500
       111   04 Jun 2027 03:31:42.489   04 Jun 2027 03:31:49.335             6.846          3423.000
       112   04 Jun 2027 05:02:14.355   04 Jun 2027 05:02:34.168            19.813          9906.500
       113   04 Jun 2027 05:03:54.098   04 Jun 2027 05:04:01.323             7.225          3612.500
       114   04 Jun 2027 05:04:27.910   04 Jun 2027 05:04:32.322             4.412          2206.000
       115   04 Jun 2027 05:04:57.131   04 Jun 2027 05:05:17.903            20.772         10386.000
       116   04 Jun 2027 05:07:01.758   04 Jun 2027 05:07:07.597             5.839          2919.500
       117   04 Jun 2027 05:07:55.449   04 Jun 2027 05:07:56.039             0.590           295.000
       118   04 Jun 2027 06:39:37.222   04 Jun 2027 06:39:38.154             0.932           466.000
       119   04 Jun 2027 06:40:11.101   04 Jun 2027 06:40:15.049             3.948          1974.000
       120   04 Jun 2027 06:40:42.201   04 Jun 2027 06:40:46.790             4.589          2294.500
       121   04 Jun 2027 06:41:20.866   04 Jun 2027 06:41:31.128            10.262          5131.000
       122   04 Jun 2027 06:42:31.032   04 Jun 2027 06:42:31.034             0.002             1.000
       123   04 Jun 2027 06:42:37.184   04 Jun 2027 06:42:39.115             1.931           965.500
       124   04 Jun 2027 06:42:49.457   04 Jun 2027 06:42:53.918             4.461          2230.500
       125   04 Jun 2027 06:43:12.370   04 Jun 2027 06:43:23.699            11.329          5664.500
       126   04 Jun 2027 08:15:47.571   04 Jun 2027 08:15:54.459             6.888          3444.000
       127   04 Jun 2027 08:16:23.611   04 Jun 2027 08:16:25.207             1.596           798.000
       128   04 Jun 2027 08:17:07.135   04 Jun 2027 08:17:08.666             1.531           765.500
       129   04 Jun 2027 08:17:38.221   04 Jun 2027 08:17:39.357             1.136           568.000
       130   04 Jun 2027 08:17:51.044   04 Jun 2027 08:18:13.224            22.180         11090.000
       131   04 Jun 2027 08:19:54.766   04 Jun 2027 08:20:06.068            11.302          5651.000
       132   05 Jun 2027 03:37:56.880   05 Jun 2027 03:38:11.649            14.769          7384.500
       133   05 Jun 2027 03:39:29.307   05 Jun 2027 03:39:29.789             0.482           241.000
       134   05 Jun 2027 03:39:45.992   05 Jun 2027 03:39:50.461             4.469          2234.500
       135   05 Jun 2027 03:39:54.240   05 Jun 2027 03:39:54.396             0.156            78.000
       136   05 Jun 2027 03:40:56.190   05 Jun 2027 03:40:59.474             3.284          1642.000
       137   05 Jun 2027 03:41:40.434   05 Jun 2027 03:41:42.156             1.722           861.000
       138   05 Jun 2027 03:42:01.761   05 Jun 2027 03:42:13.056            11.295          5647.500
       139   05 Jun 2027 03:43:36.334   05 Jun 2027 03:43:43.694             7.360          3680.000
       140   05 Jun 2027 03:44:27.857   05 Jun 2027 03:44:36.906             9.049          4524.500
       141   05 Jun 2027 03:44:39.088   05 Jun 2027 03:44:39.105             0.017             8.500
       142   05 Jun 2027 05:13:52.872   05 Jun 2027 05:13:59.150             6.278          3139.000
       143   05 Jun 2027 05:14:11.954   05 Jun 2027 05:14:34.641            22.687         11343.500
       144   05 Jun 2027 05:14:58.722   05 Jun 2027 05:15:14.702            15.980          7990.000
       145   05 Jun 2027 05:17:24.551   05 Jun 2027 05:17:35.450            10.899          5449.500
       146   05 Jun 2027 05:18:26.586   05 Jun 2027 05:18:31.747             5.161          2580.500
       147   05 Jun 2027 05:18:35.685   05 Jun 2027 05:18:37.360             1.675           837.500
       148   05 Jun 2027 05:18:59.756   05 Jun 2027 05:19:09.437             9.681          4840.500
       149   05 Jun 2027 05:20:07.023   05 Jun 2027 05:20:09.855             2.832          1416.000
       150   05 Jun 2027 06:51:51.056   05 Jun 2027 06:51:57.299             6.243          3121.500
       151   05 Jun 2027 06:52:25.440   05 Jun 2027 06:52:28.180             2.740          1370.000
       152   05 Jun 2027 06:53:03.422   05 Jun 2027 06:53:11.280             7.858          3929.000
       153   05 Jun 2027 06:53:50.257   05 Jun 2027 06:53:55.124             4.867          2433.500
       154   05 Jun 2027 06:54:24.390   05 Jun 2027 06:54:34.857            10.467          5233.500
       155   05 Jun 2027 06:55:18.013   05 Jun 2027 06:55:23.816             5.803          2901.500
       156   05 Jun 2027 06:55:40.977   05 Jun 2027 06:56:07.716            26.739         13369.500
       157   05 Jun 2027 08:27:42.613   05 Jun 2027 08:27:48.532             5.919          2959.500
       158   05 Jun 2027 08:28:26.619   05 Jun 2027 08:28:30.543             3.924          1962.000
       159   05 Jun 2027 08:28:39.298   05 Jun 2027 08:28:50.603            11.305          5652.500
       160   05 Jun 2027 08:30:48.560   05 Jun 2027 08:30:56.067             7.507          3753.500
       161   05 Jun 2027 08:31:40.094   05 Jun 2027 08:31:45.905             5.811          2905.500
       162   05 Jun 2027 08:32:22.106   05 Jun 2027 08:32:26.668             4.562          2281.000
       163   05 Jun 2027 08:32:50.892   05 Jun 2027 08:32:51.867             0.975           487.500
       164   06 Jun 2027 03:49:12.609   06 Jun 2027 03:49:30.529            17.920          8960.000
       165   06 Jun 2027 03:50:47.891   06 Jun 2027 03:50:54.558             6.667          3333.500
       166   06 Jun 2027 03:51:04.872   06 Jun 2027 03:51:04.872             0.000             0.000
       167   06 Jun 2027 03:51:23.735   06 Jun 2027 03:51:24.151             0.416           208.000
       168   06 Jun 2027 03:51:34.202   06 Jun 2027 03:51:36.333             2.131          1065.500
       169   06 Jun 2027 03:51:46.004   06 Jun 2027 03:51:56.914            10.910          5455.000
       170   06 Jun 2027 03:53:40.906   06 Jun 2027 03:53:46.221             5.315          2657.500
       171   06 Jun 2027 03:54:42.317   06 Jun 2027 03:54:46.251             3.934          1967.000
       172   06 Jun 2027 03:54:56.067   06 Jun 2027 03:54:56.067             0.000             0.000
       173   06 Jun 2027 03:55:26.809   06 Jun 2027 03:55:30.287             3.478          1739.000
       174   06 Jun 2027 03:56:05.319   06 Jun 2027 03:56:16.820            11.501          5750.500
       175   06 Jun 2027 05:26:02.313   06 Jun 2027 05:26:20.466            18.153          9076.500
       176   06 Jun 2027 05:27:46.676   06 Jun 2027 05:28:05.152            18.476          9238.000
       177   06 Jun 2027 05:29:47.446   06 Jun 2027 05:29:49.034             1.588           794.000
       178   06 Jun 2027 05:30:05.190   06 Jun 2027 05:30:26.405            21.215         10607.500
       179   06 Jun 2027 05:31:53.395   06 Jun 2027 05:31:56.525             3.130          1565.000
       180   06 Jun 2027 05:32:13.786   06 Jun 2027 05:32:15.338             1.552           776.000
       181   06 Jun 2027 07:04:13.609   06 Jun 2027 07:04:24.302            10.693          5346.500
       182   06 Jun 2027 07:05:19.907   06 Jun 2027 07:05:24.278             4.371          2185.500
       183   06 Jun 2027 07:05:46.838   06 Jun 2027 07:05:53.901             7.063          3531.500
       184   06 Jun 2027 07:06:43.730   06 Jun 2027 07:06:44.786             1.056           528.000
       185   06 Jun 2027 07:07:27.307   06 Jun 2027 07:07:28.638             1.331           665.500
       186   06 Jun 2027 08:37:31.579   06 Jun 2027 08:38:01.149            29.570         14785.000
       187   06 Jun 2027 08:40:08.821   06 Jun 2027 08:40:11.435             2.614          1307.000
       188   06 Jun 2027 08:40:43.279   06 Jun 2027 08:40:43.995             0.716           358.000
       189   06 Jun 2027 08:40:47.800   06 Jun 2027 08:40:54.725             6.925          3462.500
       190   06 Jun 2027 08:41:33.210   06 Jun 2027 08:41:41.472             8.262          4131.000
       191   06 Jun 2027 08:42:24.837   06 Jun 2027 08:42:25.067             0.230           115.000
       192   06 Jun 2027 08:43:15.261   06 Jun 2027 08:43:15.454             0.193            96.500
       193   06 Jun 2027 08:43:24.655   06 Jun 2027 08:43:26.965             2.310          1155.000
       194   06 Jun 2027 08:44:11.722   06 Jun 2027 08:44:18.207             6.485          3242.500
       195   06 Jun 2027 08:44:50.895   06 Jun 2027 08:44:56.722             5.827          2913.500
       196   07 Jun 2027 04:01:20.296   07 Jun 2027 04:01:25.091             4.795          2397.500
       197   07 Jun 2027 04:02:33.742   07 Jun 2027 04:02:44.308            10.566          5283.000
       198   07 Jun 2027 04:03:35.019   07 Jun 2027 04:03:44.243             9.224          4612.000
       199   07 Jun 2027 04:04:41.102   07 Jun 2027 04:04:41.727             0.625           312.500
       200   07 Jun 2027 04:04:50.233   07 Jun 2027 04:04:55.913             5.680          2840.000
       201   07 Jun 2027 04:05:20.009   07 Jun 2027 04:05:26.387             6.378          3189.000
       202   07 Jun 2027 04:06:01.605   07 Jun 2027 04:06:05.797             4.192          2096.000
       203   07 Jun 2027 04:06:58.972   07 Jun 2027 04:07:05.111             6.139          3069.500
       204   07 Jun 2027 04:07:32.978   07 Jun 2027 04:07:45.140            12.162          6081.000
       205   07 Jun 2027 05:38:18.266   07 Jun 2027 05:38:22.457             4.191          2095.500
       206   07 Jun 2027 05:38:59.673   07 Jun 2027 05:39:03.720             4.047          2023.500
       207   07 Jun 2027 05:39:28.297   07 Jun 2027 05:39:30.767             2.470          1235.000
       208   07 Jun 2027 05:40:06.898   07 Jun 2027 05:40:32.815            25.917         12958.500
       209   07 Jun 2027 05:42:30.358   07 Jun 2027 05:42:31.816             1.458           729.000
       210   07 Jun 2027 05:42:42.964   07 Jun 2027 05:42:45.561             2.597          1298.500
       211   07 Jun 2027 05:43:13.875   07 Jun 2027 05:43:15.269             1.394           697.000
       212   07 Jun 2027 05:43:46.689   07 Jun 2027 05:43:53.179             6.490          3245.000
       213   07 Jun 2027 07:16:14.749   07 Jun 2027 07:16:19.767             5.018          2509.000
       214   07 Jun 2027 07:16:55.977   07 Jun 2027 07:17:16.136            20.159         10079.500
       215   07 Jun 2027 07:17:53.421   07 Jun 2027 07:18:01.388             7.967          3983.500
       216   07 Jun 2027 07:19:21.456   07 Jun 2027 07:19:23.531             2.075          1037.500
       217   07 Jun 2027 07:20:12.109   07 Jun 2027 07:20:14.180             2.071          1035.500
       218   07 Jun 2027 08:49:34.859   07 Jun 2027 08:50:05.311            30.452         15226.000
       219   07 Jun 2027 08:52:07.947   07 Jun 2027 08:52:22.368            14.421          7210.500
       220   07 Jun 2027 08:53:29.806   07 Jun 2027 08:53:31.787             1.981           990.500
       221   07 Jun 2027 08:54:02.075   07 Jun 2027 08:54:10.347             8.272          4136.000
       222   07 Jun 2027 08:54:50.841   07 Jun 2027 08:54:52.218             1.377           688.500
       223   07 Jun 2027 08:55:24.887   07 Jun 2027 08:55:25.689             0.802           401.000
       224   07 Jun 2027 08:55:42.221   07 Jun 2027 08:55:52.022             9.801          4900.500
       225   07 Jun 2027 08:56:13.749   07 Jun 2027 08:56:32.259            18.510          9255.000
       226   08 Jun 2027 04:13:22.204   08 Jun 2027 04:13:39.933            17.729          8864.500
       227   08 Jun 2027 04:14:06.504   08 Jun 2027 04:14:19.224            12.720          6360.000
       228   08 Jun 2027 04:15:51.311   08 Jun 2027 04:15:59.148             7.837          3918.500
       229   08 Jun 2027 04:17:15.732   08 Jun 2027 04:17:16.528             0.796           398.000
       230   08 Jun 2027 04:17:24.462   08 Jun 2027 04:17:29.609             5.147          2573.500
       231   08 Jun 2027 04:17:55.893   08 Jun 2027 04:17:55.922             0.029            14.500
       232   08 Jun 2027 04:19:10.938   08 Jun 2027 04:19:16.353             5.415          2707.500
       233   08 Jun 2027 04:19:58.573   08 Jun 2027 04:20:11.304            12.731          6365.500
       234   08 Jun 2027 05:50:08.412   08 Jun 2027 05:50:16.338             7.926          3963.000
       235   08 Jun 2027 05:50:49.273   08 Jun 2027 05:50:58.518             9.245          4622.500
       236   08 Jun 2027 05:52:05.567   08 Jun 2027 05:52:08.657             3.090          1545.000
       237   08 Jun 2027 05:52:33.535   08 Jun 2027 05:52:38.983             5.448          2724.000
       238   08 Jun 2027 05:53:27.036   08 Jun 2027 05:53:30.273             3.237          1618.500
       239   08 Jun 2027 05:53:59.811   08 Jun 2027 05:54:07.621             7.810          3905.000
       240   08 Jun 2027 05:54:46.711   08 Jun 2027 05:54:51.324             4.613          2306.500
       241   08 Jun 2027 05:55:14.148   08 Jun 2027 05:55:17.304             3.156          1578.000
       242   08 Jun 2027 05:55:37.561   08 Jun 2027 05:55:42.014             4.453          2226.500
       243   08 Jun 2027 05:56:24.345   08 Jun 2027 05:56:32.011             7.666          3833.000
       244   08 Jun 2027 05:56:33.912   08 Jun 2027 05:56:34.844             0.932           466.000
       245   08 Jun 2027 07:28:13.546   08 Jun 2027 07:28:21.551             8.005          4002.500
       246   08 Jun 2027 07:28:55.954   08 Jun 2027 07:28:57.931             1.977           988.500
       247   08 Jun 2027 07:29:57.516   08 Jun 2027 07:29:59.646             2.130          1065.000
       248   08 Jun 2027 07:30:29.111   08 Jun 2027 07:30:36.186             7.075          3537.500
       249   08 Jun 2027 07:31:16.699   08 Jun 2027 07:31:19.645             2.946          1473.000
       250   08 Jun 2027 07:32:04.770   08 Jun 2027 07:32:14.680             9.910          4955.000
       251   08 Jun 2027 09:02:02.153   08 Jun 2027 09:02:15.223            13.070          6535.000
       252   08 Jun 2027 09:03:31.598   08 Jun 2027 09:03:53.699            22.101         11050.500
       253   08 Jun 2027 09:05:44.213   08 Jun 2027 09:05:47.497             3.284          1642.000
       254   08 Jun 2027 09:06:11.718   08 Jun 2027 09:06:18.446             6.728          3364.000
       255   08 Jun 2027 09:07:18.669   08 Jun 2027 09:07:22.105             3.436          1718.000
       256   08 Jun 2027 09:07:49.929   08 Jun 2027 09:07:56.650             6.721          3360.500
       257   08 Jun 2027 09:08:31.972   08 Jun 2027 09:08:39.296             7.324          3662.000
       258   09 Jun 2027 04:25:23.033   09 Jun 2027 04:25:33.463            10.430          5215.000
       259   09 Jun 2027 04:26:34.768   09 Jun 2027 04:26:38.073             3.305          1652.500
       260   09 Jun 2027 04:28:00.057   09 Jun 2027 04:28:04.525             4.468          2234.000
       261   09 Jun 2027 04:28:39.841   09 Jun 2027 04:28:44.866             5.025          2512.500
       262   09 Jun 2027 04:29:32.540   09 Jun 2027 04:29:36.548             4.008          2004.000
       263   09 Jun 2027 04:30:27.487   09 Jun 2027 04:30:29.131             1.644           822.000
       264   09 Jun 2027 04:31:18.374   09 Jun 2027 04:31:19.056             0.682           341.000
       265   09 Jun 2027 04:31:22.475   09 Jun 2027 04:31:25.175             2.700          1350.000
       266   09 Jun 2027 04:31:48.225   09 Jun 2027 04:31:55.470             7.245          3622.500
       267   09 Jun 2027 04:32:35.110   09 Jun 2027 04:32:42.142             7.032          3516.000
       268   09 Jun 2027 04:32:49.286   09 Jun 2027 04:32:49.541             0.255           127.500
       269   09 Jun 2027 06:02:17.755   09 Jun 2027 06:02:25.577             7.822          3911.000
       270   09 Jun 2027 06:03:50.908   09 Jun 2027 06:04:10.490            19.582          9791.000
       271   09 Jun 2027 06:05:33.246   09 Jun 2027 06:05:41.396             8.150          4075.000
       272   09 Jun 2027 06:06:20.817   09 Jun 2027 06:06:25.103             4.286          2143.000
       273   09 Jun 2027 06:07:07.344   09 Jun 2027 06:07:09.133             1.789           894.500
       274   09 Jun 2027 06:07:38.807   09 Jun 2027 06:07:55.345            16.538          8269.000
       275   09 Jun 2027 07:39:26.234   09 Jun 2027 07:39:44.799            18.565          9282.500
       276   09 Jun 2027 07:41:03.113   09 Jun 2027 07:41:06.514             3.401          1700.500
       277   09 Jun 2027 07:41:29.716   09 Jun 2027 07:41:35.747             6.031          3015.500
       278   09 Jun 2027 07:42:13.560   09 Jun 2027 07:42:16.696             3.136          1568.000
       279   09 Jun 2027 07:43:13.177   09 Jun 2027 07:43:17.054             3.877          1938.500
       280   09 Jun 2027 07:43:58.176   09 Jun 2027 07:44:16.180            18.004          9002.000
       281   09 Jun 2027 09:14:17.199   09 Jun 2027 09:14:26.757             9.558          4779.000
       282   09 Jun 2027 09:15:13.784   09 Jun 2027 09:15:22.541             8.757          4378.500
       283   09 Jun 2027 09:16:08.129   09 Jun 2027 09:16:20.258            12.129          6064.500
       284   09 Jun 2027 09:17:12.072   09 Jun 2027 09:17:45.747            33.675         16837.500
       285   10 Jun 2027 03:00:17.793   10 Jun 2027 03:00:42.067            24.274         12137.000
       286   10 Jun 2027 03:02:00.728   10 Jun 2027 03:02:00.728             0.000             0.000
       287   10 Jun 2027 03:02:47.548   10 Jun 2027 03:02:54.781             7.233          3616.500
       288   10 Jun 2027 03:03:28.672   10 Jun 2027 03:03:29.265             0.593           296.500
       289   10 Jun 2027 03:03:42.293   10 Jun 2027 03:03:44.621             2.328          1164.000
       290   10 Jun 2027 03:04:10.057   10 Jun 2027 03:04:12.519             2.462          1231.000
       291   10 Jun 2027 03:04:43.537   10 Jun 2027 03:04:45.590             2.053          1026.500
       292   10 Jun 2027 03:05:19.961   10 Jun 2027 03:05:26.159             6.198          3099.000
       293   10 Jun 2027 03:05:27.392   10 Jun 2027 03:05:28.520             1.128           564.000
       294   10 Jun 2027 03:06:36.729   10 Jun 2027 03:06:41.748             5.019          2509.500
       295   10 Jun 2027 03:07:15.535   10 Jun 2027 03:07:22.977             7.442          3721.000
       296   10 Jun 2027 03:08:10.847   10 Jun 2027 03:08:22.844            11.997          5998.500
       297   10 Jun 2027 03:08:31.121   10 Jun 2027 03:08:36.542             5.421          2710.500
       298   10 Jun 2027 04:37:49.566   10 Jun 2027 04:38:04.283            14.717          7358.500
       299   10 Jun 2027 04:38:35.877   10 Jun 2027 04:39:18.785            42.908         21454.000
       300   10 Jun 2027 04:42:39.304   10 Jun 2027 04:42:51.652            12.348          6174.000
       301   10 Jun 2027 04:43:08.109   10 Jun 2027 04:43:08.113             0.004             2.000
       302   10 Jun 2027 04:43:44.810   10 Jun 2027 04:43:52.299             7.489          3744.500
       303   10 Jun 2027 04:44:30.236   10 Jun 2027 04:44:35.242             5.006          2503.000
       304   10 Jun 2027 06:14:45.706   10 Jun 2027 06:14:54.442             8.736          4368.000
       305   10 Jun 2027 06:16:27.556   10 Jun 2027 06:16:35.639             8.083          4041.500
       306   10 Jun 2027 06:17:32.915   10 Jun 2027 06:17:34.532             1.617           808.500
       307   10 Jun 2027 06:17:42.372   10 Jun 2027 06:17:53.023            10.651          5325.500
       308   10 Jun 2027 06:18:39.164   10 Jun 2027 06:18:40.764             1.600           800.000
       309   10 Jun 2027 06:19:04.897   10 Jun 2027 06:19:13.147             8.250          4125.000
       310   10 Jun 2027 06:19:47.435   10 Jun 2027 06:20:00.260            12.825          6412.500
       311   10 Jun 2027 07:51:39.342   10 Jun 2027 07:51:52.213            12.871          6435.500
       312   10 Jun 2027 07:52:51.047   10 Jun 2027 07:52:51.754             0.707           353.500
       313   10 Jun 2027 07:53:26.205   10 Jun 2027 07:53:26.724             0.519           259.500
       314   10 Jun 2027 07:53:32.247   10 Jun 2027 07:53:42.894            10.647          5323.500
       315   10 Jun 2027 07:54:37.529   10 Jun 2027 07:54:45.537             8.008          4004.000
       316   10 Jun 2027 07:55:04.327   10 Jun 2027 07:55:06.899             2.572          1286.000
       317   10 Jun 2027 07:55:41.609   10 Jun 2027 07:55:52.312            10.703          5351.500
       318   10 Jun 2027 09:28:49.453   10 Jun 2027 09:29:06.508            17.055          8527.500
       319   10 Jun 2027 09:30:50.695   10 Jun 2027 09:30:57.550             6.855          3427.500
       320   10 Jun 2027 09:31:13.483   10 Jun 2027 09:31:13.483             0.000             0.000
       321   11 Jun 2027 03:10:57.739   11 Jun 2027 03:11:08.725            10.986          5493.000
       322   11 Jun 2027 03:12:56.429   11 Jun 2027 03:12:57.849             1.420           710.000
       323   11 Jun 2027 03:13:47.732   11 Jun 2027 03:13:49.196             1.464           732.000
       324   11 Jun 2027 03:14:03.492   11 Jun 2027 03:14:08.504             5.012          2506.000
       325   11 Jun 2027 03:14:08.785   11 Jun 2027 03:14:15.008             6.223          3111.500
       326   11 Jun 2027 03:15:26.229   11 Jun 2027 03:15:31.334             5.105          2552.500
       327   11 Jun 2027 03:16:01.513   11 Jun 2027 03:16:04.378             2.865          1432.500
       328   11 Jun 2027 03:16:20.268   11 Jun 2027 03:16:22.735             2.467          1233.500
       329   11 Jun 2027 03:16:37.840   11 Jun 2027 03:16:42.403             4.563          2281.500
       330   11 Jun 2027 03:17:18.937   11 Jun 2027 03:17:22.324             3.387          1693.500
       331   11 Jun 2027 03:17:49.718   11 Jun 2027 03:18:04.294            14.576          7288.000
       332   11 Jun 2027 03:19:17.726   11 Jun 2027 03:19:18.539             0.813           406.500
       333   11 Jun 2027 03:19:29.933   11 Jun 2027 03:19:34.663             4.730          2365.000
       334   11 Jun 2027 03:20:06.708   11 Jun 2027 03:20:09.919             3.211          1605.500
       335   11 Jun 2027 03:20:40.559   11 Jun 2027 03:20:45.580             5.021          2510.500
       336   11 Jun 2027 04:49:55.150   11 Jun 2027 04:49:59.172             4.022          2011.000
       337   11 Jun 2027 04:50:06.243   11 Jun 2027 04:50:29.625            23.382         11691.000
       338   11 Jun 2027 04:52:31.239   11 Jun 2027 04:52:47.426            16.187          8093.500
       339   11 Jun 2027 04:53:58.782   11 Jun 2027 04:53:58.810             0.028            14.000
       340   11 Jun 2027 04:54:19.998   11 Jun 2027 04:54:23.397             3.399          1699.500
       341   11 Jun 2027 04:54:41.608   11 Jun 2027 04:54:49.682             8.074          4037.000
       342   11 Jun 2027 04:54:59.064   11 Jun 2027 04:55:05.157             6.093          3046.500
       343   11 Jun 2027 04:56:10.761   11 Jun 2027 04:56:21.782            11.021          5510.500
       344   11 Jun 2027 06:27:20.408   11 Jun 2027 06:27:28.708             8.300          4150.000
       345   11 Jun 2027 06:27:45.175   11 Jun 2027 06:27:51.290             6.115          3057.500
       346   11 Jun 2027 06:28:50.936   11 Jun 2027 06:28:57.446             6.510          3255.000
       347   11 Jun 2027 06:29:41.637   11 Jun 2027 06:29:44.051             2.414          1207.000
       348   11 Jun 2027 06:30:10.665   11 Jun 2027 06:30:11.993             1.328           664.000
       349   11 Jun 2027 06:30:47.817   11 Jun 2027 06:30:49.101             1.284           642.000
       350   11 Jun 2027 06:31:14.627   11 Jun 2027 06:31:17.061             2.434          1217.000
       351   11 Jun 2027 06:31:37.900   11 Jun 2027 06:31:49.693            11.793          5896.500
       352   11 Jun 2027 08:03:41.869   11 Jun 2027 08:03:49.230             7.361          3680.500
       353   11 Jun 2027 08:04:36.438   11 Jun 2027 08:04:47.655            11.217          5608.500
       354   11 Jun 2027 08:05:16.724   11 Jun 2027 08:05:22.444             5.720          2860.000
       355   11 Jun 2027 08:06:19.505   11 Jun 2027 08:06:29.177             9.672          4836.000
       356   11 Jun 2027 08:07:47.169   11 Jun 2027 08:07:48.191             1.022           511.000
       357   11 Jun 2027 08:08:22.904   11 Jun 2027 08:08:32.614             9.710          4855.000
       358   11 Jun 2027 09:41:59.327   11 Jun 2027 09:42:13.704            14.377          7188.500
       359   12 Jun 2027 03:26:10.461   12 Jun 2027 03:26:14.976             4.515          2257.500
       360   12 Jun 2027 03:27:11.549   12 Jun 2027 03:27:15.562             4.013          2006.500
       361   12 Jun 2027 03:27:42.053   12 Jun 2027 03:27:42.591             0.538           269.000
       362   12 Jun 2027 03:27:58.957   12 Jun 2027 03:28:05.691             6.734          3367.000
       363   12 Jun 2027 03:28:48.154   12 Jun 2027 03:29:06.361            18.207          9103.500
       364   12 Jun 2027 03:30:25.398   12 Jun 2027 03:30:32.774             7.376          3688.000
       365   12 Jun 2027 03:31:09.461   12 Jun 2027 03:31:09.690             0.229           114.500
       366   12 Jun 2027 03:31:18.730   12 Jun 2027 03:31:20.221             1.491           745.500
       367   12 Jun 2027 03:31:41.657   12 Jun 2027 03:31:42.422             0.765           382.500
       368   12 Jun 2027 03:32:13.921   12 Jun 2027 03:32:15.016             1.095           547.500
       369   12 Jun 2027 03:32:45.335   12 Jun 2027 03:32:45.456             0.121            60.500
       370   12 Jun 2027 05:02:29.196   12 Jun 2027 05:02:38.047             8.851          4425.500
       371   12 Jun 2027 05:03:01.978   12 Jun 2027 05:03:14.872            12.894          6447.000
       372   12 Jun 2027 05:04:33.472   12 Jun 2027 05:04:42.715             9.243          4621.500
       373   12 Jun 2027 05:05:32.611   12 Jun 2027 05:05:33.130             0.519           259.500
       374   12 Jun 2027 05:05:37.461   12 Jun 2027 05:05:41.859             4.398          2199.000
       375   12 Jun 2027 05:06:07.247   12 Jun 2027 05:06:13.669             6.422          3211.000
       376   12 Jun 2027 05:06:50.304   12 Jun 2027 05:06:56.946             6.642          3321.000
       377   12 Jun 2027 05:07:22.674   12 Jun 2027 05:07:22.675             0.001             0.500
       378   12 Jun 2027 05:07:56.603   12 Jun 2027 05:08:10.774            14.171          7085.500
       379   12 Jun 2027 06:39:52.128   12 Jun 2027 06:39:52.714             0.586           293.000
       380   12 Jun 2027 06:40:25.189   12 Jun 2027 06:40:29.647             4.458          2229.000
       381   12 Jun 2027 06:41:00.142   12 Jun 2027 06:41:03.145             3.003          1501.500
       382   12 Jun 2027 06:41:18.165   12 Jun 2027 06:41:18.811             0.646           323.000
       383   12 Jun 2027 06:41:45.785   12 Jun 2027 06:41:47.539             1.754           877.000
       384   12 Jun 2027 06:42:14.300   12 Jun 2027 06:42:15.325             1.025           512.500
       385   12 Jun 2027 06:42:44.891   12 Jun 2027 06:42:45.425             0.534           267.000
       386   12 Jun 2027 06:42:52.688   12 Jun 2027 06:42:54.031             1.343           671.500
       387   12 Jun 2027 06:43:06.716   12 Jun 2027 06:43:08.469             1.753           876.500
       388   12 Jun 2027 06:43:17.488   12 Jun 2027 06:43:17.930             0.442           221.000
       389   12 Jun 2027 06:43:25.222   12 Jun 2027 06:43:26.193             0.971           485.500
       390   12 Jun 2027 06:43:52.095   12 Jun 2027 06:43:54.742             2.647          1323.500
       391   12 Jun 2027 08:16:02.118   12 Jun 2027 08:16:09.593             7.475          3737.500
       392   12 Jun 2027 08:16:46.047   12 Jun 2027 08:16:46.744             0.697           348.500
       393   12 Jun 2027 08:17:06.291   12 Jun 2027 08:17:16.604            10.313          5156.500
       394   12 Jun 2027 08:17:58.163   12 Jun 2027 08:17:58.901             0.738           369.000
       395   12 Jun 2027 08:18:47.517   12 Jun 2027 08:18:49.555             2.038          1019.000
       396   12 Jun 2027 08:19:42.704   12 Jun 2027 08:19:52.492             9.788          4894.000
       397   12 Jun 2027 08:20:28.684   12 Jun 2027 08:20:36.214             7.530          3765.000
       398   13 Jun 2027 03:38:11.351   13 Jun 2027 03:38:26.575            15.224          7612.000
       399   13 Jun 2027 03:39:44.859   13 Jun 2027 03:39:45.260             0.401           200.500
       400   13 Jun 2027 03:40:02.806   13 Jun 2027 03:40:08.985             6.179          3089.500
       401   13 Jun 2027 03:41:10.840   13 Jun 2027 03:41:14.052             3.212          1606.000
       402   13 Jun 2027 03:41:26.967   13 Jun 2027 03:41:37.421            10.454          5227.000
       403   13 Jun 2027 03:42:39.752   13 Jun 2027 03:42:42.660             2.908          1454.000
       404   13 Jun 2027 03:43:50.199   13 Jun 2027 03:43:53.158             2.959          1479.500
       405   13 Jun 2027 03:44:22.136   13 Jun 2027 03:44:26.037             3.901          1950.500
       406   13 Jun 2027 03:44:30.834   13 Jun 2027 03:44:33.669             2.835          1417.500
       407   13 Jun 2027 03:44:51.050   13 Jun 2027 03:44:53.936             2.886          1443.000
       408   13 Jun 2027 05:14:07.726   13 Jun 2027 05:14:21.733            14.007          7003.500
       409   13 Jun 2027 05:14:28.091   13 Jun 2027 05:14:50.766            22.675         11337.500
       410   13 Jun 2027 05:17:15.522   13 Jun 2027 05:17:33.523            18.001          9000.500
       411   13 Jun 2027 05:18:53.935   13 Jun 2027 05:18:57.262             3.327          1663.500
       412   13 Jun 2027 05:19:26.120   13 Jun 2027 05:19:29.810             3.690          1845.000
       413   13 Jun 2027 05:20:21.515   13 Jun 2027 05:20:27.704             6.189          3094.500
       414   13 Jun 2027 06:52:05.577   13 Jun 2027 06:52:12.893             7.316          3658.000
       415   13 Jun 2027 06:52:45.733   13 Jun 2027 06:52:52.994             7.261          3630.500
       416   13 Jun 2027 06:53:54.654   13 Jun 2027 06:54:00.856             6.202          3101.000
       417   13 Jun 2027 06:54:40.914   13 Jun 2027 06:54:49.201             8.287          4143.500
       418   13 Jun 2027 06:55:32.926   13 Jun 2027 06:55:38.377             5.451          2725.500
       419   13 Jun 2027 06:55:56.630   13 Jun 2027 06:56:02.893             6.263          3131.500
       420   13 Jun 2027 08:27:57.071   13 Jun 2027 08:28:03.130             6.059          3029.500
       421   13 Jun 2027 08:28:42.294   13 Jun 2027 08:28:53.695            11.401          5700.500
       422   13 Jun 2027 08:29:45.737   13 Jun 2027 08:29:53.040             7.303          3651.500
       423   13 Jun 2027 08:30:48.811   13 Jun 2027 08:30:54.760             5.949          2974.500
       424   13 Jun 2027 08:31:27.723   13 Jun 2027 08:31:36.191             8.468          4234.000
       425   13 Jun 2027 08:32:19.701   13 Jun 2027 08:32:23.618             3.917          1958.500
       426   13 Jun 2027 08:33:09.379   13 Jun 2027 08:33:09.649             0.270           135.000
