uniorb/output/strategy_2/Camera/Camera_KinoSat_110808.txt

KinoSat_110808
-------------------------
    Access    *     Start Time (UTCG)     *     Stop Time (UTCG)  *   Duration (s) *   Data (Mbytes)
         1   01 Jun 2027 03:06:20.817   01 Jun 2027 03:06:54.669            33.852         16926.000
         2   01 Jun 2027 03:07:19.043   01 Jun 2027 03:07:34.505            15.462          7731.000
         3   01 Jun 2027 04:42:49.844   01 Jun 2027 04:46:19.592           209.748        104874.000
         4   01 Jun 2027 06:17:54.840   01 Jun 2027 06:20:44.539           169.699         84849.500
         5   01 Jun 2027 06:20:47.538   01 Jun 2027 06:21:11.236            23.698         11849.000
         6   01 Jun 2027 06:22:41.291   01 Jun 2027 06:22:48.587             7.296          3648.000
         7   01 Jun 2027 06:24:33.069   01 Jun 2027 06:24:42.542             9.473          4736.500
         8   01 Jun 2027 07:54:16.838   01 Jun 2027 07:56:42.065           145.227         72613.500
         9   01 Jun 2027 07:57:32.391   01 Jun 2027 07:57:35.067             2.676          1338.000
        10   01 Jun 2027 07:57:42.788   01 Jun 2027 07:57:50.428             7.640          3820.000
        11   01 Jun 2027 07:58:28.765   01 Jun 2027 07:58:54.564            25.799         12899.500
        12   01 Jun 2027 09:31:46.999   01 Jun 2027 09:34:04.105           137.106         68553.000
        13   01 Jun 2027 09:34:37.688   01 Jun 2027 09:34:37.688             0.000             0.000
        14   01 Jun 2027 09:34:52.826   01 Jun 2027 09:34:57.356             4.530          2265.000
        15   01 Jun 2027 09:35:24.728   01 Jun 2027 09:35:31.114             6.386          3193.000
        16   01 Jun 2027 09:35:43.491   01 Jun 2027 09:35:55.767            12.276          6138.000
        17   01 Jun 2027 09:36:06.681   01 Jun 2027 09:36:10.707             4.026          2013.000
        18   01 Jun 2027 11:07:51.708   01 Jun 2027 11:09:27.529            95.821         47910.500
        19   01 Jun 2027 11:09:37.812   01 Jun 2027 11:09:46.007             8.195          4097.500
        20   01 Jun 2027 11:11:10.485   01 Jun 2027 11:11:10.485             0.000             0.000
        21   01 Jun 2027 11:11:22.635   01 Jun 2027 11:11:40.727            18.092          9046.000
        22   02 Jun 2027 03:18:16.657   02 Jun 2027 03:18:40.664            24.007         12003.500
        23   02 Jun 2027 03:18:51.566   02 Jun 2027 03:18:53.707             2.141          1070.500
        24   02 Jun 2027 03:18:59.795   02 Jun 2027 03:19:15.295            15.500          7750.000
        25   02 Jun 2027 03:19:50.697   02 Jun 2027 03:19:54.813             4.116          2058.000
        26   02 Jun 2027 03:20:01.355   02 Jun 2027 03:20:01.355             0.000             0.000
        27   02 Jun 2027 04:54:54.384   02 Jun 2027 04:55:39.393            45.009         22504.500
        28   02 Jun 2027 04:55:53.190   02 Jun 2027 04:58:19.212           146.022         73011.000
        29   02 Jun 2027 06:30:04.880   02 Jun 2027 06:32:33.304           148.424         74212.000
        30   02 Jun 2027 06:32:43.510   02 Jun 2027 06:33:13.483            29.973         14986.500
        31   02 Jun 2027 06:34:23.769   02 Jun 2027 06:34:35.776            12.007          6003.500
        32   02 Jun 2027 06:35:04.549   02 Jun 2027 06:35:35.695            31.146         15573.000
        33   02 Jun 2027 06:35:52.831   02 Jun 2027 06:35:56.562             3.731          1865.500
        34   02 Jun 2027 06:36:28.596   02 Jun 2027 06:36:39.564            10.968          5484.000
        35   02 Jun 2027 08:06:19.191   02 Jun 2027 08:08:03.736           104.545         52272.500
        36   02 Jun 2027 08:08:56.376   02 Jun 2027 08:09:18.467            22.091         10666.563
        37   02 Jun 2027 08:10:47.701   02 Jun 2027 08:10:51.556             3.855          1927.500
        38   02 Jun 2027 08:11:06.322   02 Jun 2027 08:11:06.361             0.039            19.500
        39   02 Jun 2027 08:11:51.545   02 Jun 2027 08:12:02.065            10.520          2383.906
        40   02 Jun 2027 08:12:25.683   02 Jun 2027 08:12:26.634             0.951           475.500
        41   02 Jun 2027 09:43:52.610   02 Jun 2027 09:44:22.697            30.087         11721.469
        42   02 Jun 2027 09:45:38.550   02 Jun 2027 09:45:41.458             2.908          1454.000
        43   02 Jun 2027 09:46:12.160   02 Jun 2027 09:46:16.863             4.703          1775.469
        44   02 Jun 2027 09:46:39.435   02 Jun 2027 09:46:44.107             4.672           705.375
        45   02 Jun 2027 09:47:14.146   02 Jun 2027 09:47:16.354             2.208           814.281
        46   02 Jun 2027 11:19:53.925   02 Jun 2027 11:20:07.613            13.688          6728.000
        47   02 Jun 2027 11:20:29.782   02 Jun 2027 11:20:29.782             0.000             0.000
        48   02 Jun 2027 11:20:47.159   02 Jun 2027 11:20:54.080             6.921          1160.031
        49   02 Jun 2027 11:21:20.505   02 Jun 2027 11:21:25.431             4.926           821.594
        50   02 Jun 2027 11:21:59.613   02 Jun 2027 11:22:03.779             4.166           988.094
        51   02 Jun 2027 11:22:28.778   02 Jun 2027 11:22:32.112             3.334           464.969
        52   02 Jun 2027 11:23:27.345   02 Jun 2027 11:23:30.084             2.739          1186.469
        53   02 Jun 2027 11:24:09.935   02 Jun 2027 11:24:13.024             3.089          1216.781
        54   02 Jun 2027 11:24:17.528   02 Jun 2027 11:24:17.528             0.000             0.000
        55   02 Jun 2027 11:24:40.096   02 Jun 2027 11:24:44.297             4.201           846.000
        56   03 Jun 2027 03:30:52.314   03 Jun 2027 03:31:46.993            54.679         27339.500
        57   03 Jun 2027 03:32:16.866   03 Jun 2027 03:32:42.694            25.828         12914.000
        58   03 Jun 2027 03:33:11.812   03 Jun 2027 03:33:20.548             8.736          4368.000
        59   03 Jun 2027 05:06:38.150   03 Jun 2027 05:06:50.795            12.645          6322.500
        60   03 Jun 2027 05:07:57.208   03 Jun 2027 05:10:36.584           159.376         79688.000
        61   03 Jun 2027 05:10:43.170   03 Jun 2027 05:10:43.170             0.000             0.000
        62   03 Jun 2027 05:10:46.961   03 Jun 2027 05:10:52.054             5.093          2546.500
        63   03 Jun 2027 06:41:29.091   03 Jun 2027 06:42:19.745            50.654         25106.187
        64   03 Jun 2027 06:43:05.238   03 Jun 2027 06:43:07.319             2.081           491.875
        65   03 Jun 2027 06:44:19.807   03 Jun 2027 06:44:29.053             9.246          1043.687
        66   03 Jun 2027 06:44:30.086   03 Jun 2027 06:44:33.482             3.396            32.281
        67   03 Jun 2027 06:44:52.211   03 Jun 2027 06:44:52.211             0.000             0.000
        68   03 Jun 2027 06:44:54.446   03 Jun 2027 06:44:58.183             3.737           549.219
        69   03 Jun 2027 06:45:30.342   03 Jun 2027 06:45:35.753             5.411           895.656
        70   03 Jun 2027 06:46:54.642   03 Jun 2027 06:47:02.931             8.289          2094.000
        71   03 Jun 2027 06:47:39.077   03 Jun 2027 06:47:47.282             8.205           256.875
        72   03 Jun 2027 06:48:46.914   03 Jun 2027 06:48:51.456             4.542          1863.500
        73   03 Jun 2027 08:18:04.921   03 Jun 2027 08:18:29.181            24.260         12130.000
        74   03 Jun 2027 08:18:30.274   03 Jun 2027 08:18:31.939             1.665           292.531
        75   03 Jun 2027 08:19:25.542   03 Jun 2027 08:19:29.071             3.529          1675.094
        76   03 Jun 2027 08:19:48.178   03 Jun 2027 08:19:51.705             3.527           474.437
        77   03 Jun 2027 08:20:09.384   03 Jun 2027 08:20:11.756             2.372           439.344
        78   03 Jun 2027 08:20:17.080   03 Jun 2027 08:20:17.621             0.541           166.375
        79   03 Jun 2027 08:20:36.068   03 Jun 2027 08:20:36.303             0.235            43.438
        80   03 Jun 2027 08:20:56.455   03 Jun 2027 08:20:58.374             1.919           352.719
        81   03 Jun 2027 08:22:04.338   03 Jun 2027 08:22:08.862             4.524          2061.375
        82   03 Jun 2027 08:23:07.111   03 Jun 2027 08:23:10.817             3.706          1799.031
        83   03 Jun 2027 08:24:08.952   03 Jun 2027 08:24:16.317             7.365          1213.937
        84   03 Jun 2027 08:24:21.028   03 Jun 2027 08:24:21.258             0.230            36.969
        85   03 Jun 2027 09:56:22.592   03 Jun 2027 09:56:39.473            16.881          8410.438
        86   03 Jun 2027 09:57:47.902   03 Jun 2027 09:57:53.426             5.524          1963.313
        87   03 Jun 2027 09:58:01.022   03 Jun 2027 09:58:04.653             3.631           218.344
        88   03 Jun 2027 09:59:30.171   03 Jun 2027 09:59:36.760             6.589          2430.969
        89   03 Jun 2027 09:59:54.418   03 Jun 2027 09:59:58.890             4.472           551.812
        90   03 Jun 2027 10:00:03.646   03 Jun 2027 10:00:05.687             2.041             9.375
        91   03 Jun 2027 11:29:43.219   03 Jun 2027 11:29:53.026             9.807          4903.500
        92   03 Jun 2027 11:31:42.451   03 Jun 2027 11:31:49.834             7.383          3280.000
        93   03 Jun 2027 11:32:22.753   03 Jun 2027 11:32:26.139             3.386           755.438
        94   03 Jun 2027 11:33:41.875   03 Jun 2027 11:33:46.368             4.493          1931.656
        95   03 Jun 2027 11:34:27.424   03 Jun 2027 11:34:30.345             2.921          1229.844
        96   03 Jun 2027 11:35:42.369   03 Jun 2027 11:35:48.567             6.198          2250.750
        97   03 Jun 2027 11:36:14.312   03 Jun 2027 11:36:16.483             2.171           451.500
        98   03 Jun 2027 11:37:04.542   03 Jun 2027 11:37:07.721             3.179          1438.594
        99   04 Jun 2027 03:41:31.235   04 Jun 2027 03:41:52.621            21.386         10693.000
       100   04 Jun 2027 03:42:02.163   04 Jun 2027 03:42:13.413            11.250          5625.000
       101   04 Jun 2027 03:42:22.062   04 Jun 2027 03:42:27.717             5.655          2827.500
       102   04 Jun 2027 03:43:44.890   04 Jun 2027 03:44:00.438            15.548          7774.000
       103   04 Jun 2027 03:45:21.436   04 Jun 2027 03:45:26.235             4.799          2399.500
       104   04 Jun 2027 03:45:44.070   04 Jun 2027 03:45:53.799             9.729          4864.500
       105   04 Jun 2027 03:46:05.918   04 Jun 2027 03:46:10.098             4.180          2090.000
       106   04 Jun 2027 05:16:50.482   04 Jun 2027 05:17:50.399            59.917         29958.500
       107   04 Jun 2027 05:18:22.783   04 Jun 2027 05:20:43.201           140.418         70209.000
       108   04 Jun 2027 05:22:45.075   04 Jun 2027 05:23:00.955            15.880          7940.000
       109   04 Jun 2027 06:53:21.912   04 Jun 2027 06:54:15.614            53.702         24387.469
       110   04 Jun 2027 06:55:08.400   04 Jun 2027 06:55:10.183             1.783           575.281
       111   04 Jun 2027 06:55:39.320   04 Jun 2027 06:55:45.063             5.743           888.625
       112   04 Jun 2027 06:56:00.489   04 Jun 2027 06:56:02.235             1.746           482.063
       113   04 Jun 2027 06:56:09.039   04 Jun 2027 06:56:09.489             0.450           212.625
       114   04 Jun 2027 06:56:54.205   04 Jun 2027 06:56:57.779             3.574           729.031
       115   04 Jun 2027 06:58:35.611   04 Jun 2027 06:58:41.986             6.375          3057.250
       116   04 Jun 2027 07:00:04.159   04 Jun 2027 07:00:09.823             5.664          2366.625
       117   04 Jun 2027 08:30:26.006   04 Jun 2027 08:30:50.804            24.798         11967.000
       118   04 Jun 2027 08:31:39.355   04 Jun 2027 08:31:41.720             2.365           487.000
       119   04 Jun 2027 08:33:11.713   04 Jun 2027 08:33:13.617             1.904           934.531
       120   04 Jun 2027 08:34:33.465   04 Jun 2027 08:34:36.181             2.716          1358.000
       121   04 Jun 2027 08:35:00.079   04 Jun 2027 08:35:05.001             4.922          1724.812
       122   04 Jun 2027 08:35:33.773   04 Jun 2027 08:35:39.263             5.490           899.125
       123   04 Jun 2027 08:35:42.127   04 Jun 2027 08:35:46.586             4.459            89.500
       124   04 Jun 2027 08:36:02.389   04 Jun 2027 08:36:07.801             5.412           382.969
       125   04 Jun 2027 08:36:11.227   04 Jun 2027 08:36:11.456             0.229           107.063
       126   04 Jun 2027 08:36:25.888   04 Jun 2027 08:36:27.950             2.062           322.563
       127   04 Jun 2027 10:08:20.288   04 Jun 2027 10:08:35.318            15.030          7415.719
       128   04 Jun 2027 10:09:43.363   04 Jun 2027 10:09:49.792             6.429          1945.312
       129   04 Jun 2027 10:10:11.836   04 Jun 2027 10:10:13.477             1.641           565.750
       130   04 Jun 2027 10:11:02.660   04 Jun 2027 10:11:06.249             3.589           964.813
       131   04 Jun 2027 10:11:21.075   04 Jun 2027 10:11:22.025             0.950           351.656
       132   04 Jun 2027 10:11:31.184   04 Jun 2027 10:11:32.577             1.393           286.219
       133   04 Jun 2027 10:11:55.783   04 Jun 2027 10:11:56.957             1.174           515.781
       134   04 Jun 2027 10:12:04.884   04 Jun 2027 10:12:05.672             0.788           142.469
       135   04 Jun 2027 11:41:32.575   04 Jun 2027 11:41:45.062            12.487          6112.625
       136   04 Jun 2027 11:42:57.784   04 Jun 2027 11:43:01.661             3.877           934.031
       137   04 Jun 2027 11:43:25.929   04 Jun 2027 11:43:27.332             1.403           248.875
       138   04 Jun 2027 11:44:05.147   04 Jun 2027 11:44:08.342             3.195          1181.719
       139   04 Jun 2027 11:44:33.732   04 Jun 2027 11:44:43.843            10.111           528.125
       140   04 Jun 2027 11:45:18.192   04 Jun 2027 11:45:18.192             0.000             0.000
       141   04 Jun 2027 11:45:39.556   04 Jun 2027 11:45:43.323             3.767          1741.031
       142   04 Jun 2027 11:46:41.083   04 Jun 2027 11:46:44.348             3.265          1632.500
       143   04 Jun 2027 11:47:10.824   04 Jun 2027 11:47:20.562             9.738           999.875
       144   04 Jun 2027 11:48:13.036   04 Jun 2027 11:48:15.677             2.641          1022.219
       145   04 Jun 2027 11:49:09.145   04 Jun 2027 11:49:12.830             3.685          1670.875
       146   04 Jun 2027 11:49:18.971   04 Jun 2027 11:49:20.028             1.057           130.000
       147   05 Jun 2027 03:53:06.966   05 Jun 2027 03:54:13.396            66.430         33215.000
       148   05 Jun 2027 03:55:19.547   05 Jun 2027 03:55:45.689            26.142         13071.000
       149   05 Jun 2027 03:57:29.637   05 Jun 2027 03:57:39.176             9.539          4769.500
       150   05 Jun 2027 05:28:00.467   05 Jun 2027 05:30:04.485           124.018         62009.000
       151   05 Jun 2027 05:30:10.256   05 Jun 2027 05:31:03.602            53.346         26673.000
       152   05 Jun 2027 05:32:52.793   05 Jun 2027 05:33:02.695             9.902          4951.000
       153   05 Jun 2027 05:34:35.910   05 Jun 2027 05:34:47.313            11.403          5701.500
       154   05 Jun 2027 07:05:34.421   05 Jun 2027 07:06:17.008            42.587         20954.156
       155   05 Jun 2027 07:07:32.557   05 Jun 2027 07:07:33.848             1.291           128.219
       156   05 Jun 2027 07:07:57.333   05 Jun 2027 07:07:59.790             2.457           635.031
       157   05 Jun 2027 07:09:01.140   05 Jun 2027 07:09:05.690             4.550          1896.406
       158   05 Jun 2027 07:10:33.873   05 Jun 2027 07:10:40.744             6.871          2044.969
       159   05 Jun 2027 07:11:20.250   05 Jun 2027 07:11:24.345             4.095          1203.250
       160   05 Jun 2027 07:11:42.500   05 Jun 2027 07:11:44.133             1.633           387.406
       161   05 Jun 2027 07:12:03.975   05 Jun 2027 07:12:06.162             2.187           620.063
       162   05 Jun 2027 07:12:29.569   05 Jun 2027 07:12:32.031             2.462           731.469
       163   05 Jun 2027 07:12:54.856   05 Jun 2027 07:12:55.324             0.468           234.000
       164   05 Jun 2027 08:42:17.087   05 Jun 2027 08:42:45.369            28.282         13321.563
       165   05 Jun 2027 08:43:17.620   05 Jun 2027 08:43:23.395             5.775           147.219
       166   05 Jun 2027 08:43:42.257   05 Jun 2027 08:43:49.048             6.791           249.844
       167   05 Jun 2027 08:45:00.659   05 Jun 2027 08:45:05.284             4.625          2237.844
       168   05 Jun 2027 08:46:03.885   05 Jun 2027 08:46:11.367             7.482          1722.375
       169   05 Jun 2027 08:46:24.977   05 Jun 2027 08:46:25.680             0.703           223.156
       170   05 Jun 2027 08:46:31.477   05 Jun 2027 08:46:31.477             0.000             0.000
       171   05 Jun 2027 08:47:15.110   05 Jun 2027 08:47:22.809             7.699          1544.687
       172   05 Jun 2027 08:48:14.384   05 Jun 2027 08:48:18.187             3.803          1434.312
       173   05 Jun 2027 08:48:51.289   05 Jun 2027 08:48:54.209             2.920          1034.437
       174   05 Jun 2027 10:20:20.125   05 Jun 2027 10:20:36.514            16.389          7931.469
       175   05 Jun 2027 10:20:39.950   05 Jun 2027 10:20:40.214             0.264           107.375
       176   05 Jun 2027 10:21:28.902   05 Jun 2027 10:21:33.287             4.385          1272.719
       177   05 Jun 2027 10:21:49.972   05 Jun 2027 10:21:51.773             1.801           518.500
       178   05 Jun 2027 10:22:15.495   05 Jun 2027 10:22:24.775             9.280           741.313
       179   05 Jun 2027 10:22:57.499   05 Jun 2027 10:23:04.012             6.513          1022.625
       180   05 Jun 2027 10:23:25.711   05 Jun 2027 10:23:27.527             1.816           515.625
       181   05 Jun 2027 10:23:47.011   05 Jun 2027 10:23:47.325             0.314           157.000
       182   05 Jun 2027 10:23:58.660   05 Jun 2027 10:24:00.059             1.399           635.344
       183   05 Jun 2027 10:24:17.719   05 Jun 2027 10:24:18.889             1.170           495.281
       184   05 Jun 2027 11:53:57.804   05 Jun 2027 11:54:10.031            12.227          2406.813
       185   05 Jun 2027 11:54:30.518   05 Jun 2027 11:54:34.532             4.014           274.812
       186   05 Jun 2027 11:55:16.346   05 Jun 2027 11:55:16.346             0.000             0.000
       187   05 Jun 2027 11:55:31.378   05 Jun 2027 11:55:35.479             4.101          1420.563
       188   05 Jun 2027 11:56:05.949   05 Jun 2027 11:56:08.206             2.257           918.656
       189   05 Jun 2027 11:56:28.158   05 Jun 2027 11:56:30.125             1.967           502.281
       190   05 Jun 2027 11:56:47.485   05 Jun 2027 11:56:48.288             0.803           119.687
       191   05 Jun 2027 11:58:31.620   05 Jun 2027 11:58:36.768             5.148          2389.812
       192   05 Jun 2027 11:58:50.689   05 Jun 2027 11:58:50.689             0.000             0.000
       193   05 Jun 2027 11:58:58.836   05 Jun 2027 11:59:02.294             3.458           689.625
       194   05 Jun 2027 11:59:23.232   05 Jun 2027 11:59:23.232             0.000             0.000
       195   05 Jun 2027 11:59:31.997   05 Jun 2027 11:59:33.327             1.330           665.000
       196   05 Jun 2027 11:59:47.671   05 Jun 2027 11:59:50.343             2.672           711.469
       197   06 Jun 2027 04:04:35.915   06 Jun 2027 04:05:57.451            81.536         40768.000
       198   06 Jun 2027 04:09:16.281   06 Jun 2027 04:09:23.849             7.568          3784.000
       199   06 Jun 2027 04:09:27.603   06 Jun 2027 04:09:42.999            15.396          7698.000
       200   06 Jun 2027 04:09:46.052   06 Jun 2027 04:09:54.621             8.569          4284.500
       201   06 Jun 2027 05:39:31.185   06 Jun 2027 05:41:58.740           147.555         73777.500
       202   06 Jun 2027 05:42:08.395   06 Jun 2027 05:42:43.715            35.320         17660.000
       203   06 Jun 2027 05:43:46.137   06 Jun 2027 05:44:01.378            15.241          7620.500
       204   06 Jun 2027 05:44:26.452   06 Jun 2027 05:44:44.746            18.294          8357.062
       205   06 Jun 2027 05:45:37.361   06 Jun 2027 05:45:43.561             6.200          1644.219
       206   06 Jun 2027 05:47:13.559   06 Jun 2027 05:47:13.559             0.000             0.000
       207   06 Jun 2027 05:48:44.109   06 Jun 2027 05:48:44.109             0.000             0.000
       208   06 Jun 2027 05:48:55.472   06 Jun 2027 05:48:55.472             0.000             0.000
       209   06 Jun 2027 07:17:28.359   06 Jun 2027 07:18:16.662            48.303         24016.000
       210   06 Jun 2027 07:18:50.300   06 Jun 2027 07:18:57.804             7.504           973.906
       211   06 Jun 2027 07:19:35.843   06 Jun 2027 07:19:39.041             3.198           710.656
       212   06 Jun 2027 07:20:40.787   06 Jun 2027 07:20:43.863             3.076          1458.750
       213   06 Jun 2027 07:21:21.329   06 Jun 2027 07:21:24.160             2.831           750.375
       214   06 Jun 2027 07:22:31.226   06 Jun 2027 07:22:38.096             6.870          1684.188
       215   06 Jun 2027 07:23:02.738   06 Jun 2027 07:23:04.394             1.656           702.312
       216   06 Jun 2027 07:23:44.418   06 Jun 2027 07:23:47.872             3.454           925.437
       217   06 Jun 2027 07:24:30.733   06 Jun 2027 07:24:33.174             2.441           864.063
       218   06 Jun 2027 08:54:22.960   06 Jun 2027 08:54:49.846            26.886         12909.875
       219   06 Jun 2027 08:55:14.560   06 Jun 2027 08:55:19.520             4.960           772.312
       220   06 Jun 2027 08:55:55.408   06 Jun 2027 08:55:56.829             1.421           312.844
       221   06 Jun 2027 08:56:30.734   06 Jun 2027 08:56:31.678             0.944           429.000
       222   06 Jun 2027 08:56:59.529   06 Jun 2027 08:56:59.541             0.012             6.000
       223   06 Jun 2027 08:57:44.624   06 Jun 2027 08:57:50.075             5.451          2082.406
       224   06 Jun 2027 08:57:56.570   06 Jun 2027 08:57:57.887             1.317           202.969
       225   06 Jun 2027 08:58:20.189   06 Jun 2027 08:58:22.306             2.117           144.625
       226   06 Jun 2027 08:58:31.276   06 Jun 2027 08:58:38.424             7.148           280.313
       227   06 Jun 2027 08:59:02.447   06 Jun 2027 08:59:05.092             2.645           709.281
       228   06 Jun 2027 08:59:31.988   06 Jun 2027 08:59:31.988             0.000             0.000
       229   06 Jun 2027 09:00:09.506   06 Jun 2027 09:00:15.990             6.484          1979.844
       230   06 Jun 2027 09:00:31.176   06 Jun 2027 09:00:32.367             1.191           346.531
       231   06 Jun 2027 10:32:06.361   06 Jun 2027 10:32:22.687            16.326          7839.719
       232   06 Jun 2027 10:33:00.591   06 Jun 2027 10:33:02.745             2.154          1077.000
       233   06 Jun 2027 10:34:03.759   06 Jun 2027 10:34:08.027             4.268          2014.188
       234   06 Jun 2027 10:34:56.110   06 Jun 2027 10:34:58.424             2.314          1157.000
       235   06 Jun 2027 10:35:32.844   06 Jun 2027 10:35:37.318             4.474          1421.219
       236   07 Jun 2027 04:18:39.958   07 Jun 2027 04:20:31.777           111.819         55909.500
       237   07 Jun 2027 04:20:33.953   07 Jun 2027 04:20:51.380            17.427          8713.500
       238   07 Jun 2027 05:52:24.480   07 Jun 2027 05:53:25.218            60.738         30369.000
       239   07 Jun 2027 05:54:04.509   07 Jun 2027 05:55:04.933            60.424         30212.000
       240   07 Jun 2027 05:55:24.391   07 Jun 2027 05:56:07.336            42.945         21472.500
       241   07 Jun 2027 05:56:48.200   07 Jun 2027 05:56:48.200             0.000             0.000
       242   07 Jun 2027 05:58:28.778   07 Jun 2027 05:58:42.970            14.192          7096.000
       243   07 Jun 2027 05:58:50.428   07 Jun 2027 05:58:57.181             6.753          3376.500
       244   07 Jun 2027 05:59:36.732   07 Jun 2027 05:59:53.313            16.581          8290.500
       245   07 Jun 2027 06:00:36.012   07 Jun 2027 06:00:39.245             3.233          1616.500
       246   07 Jun 2027 06:00:57.795   07 Jun 2027 06:00:58.780             0.985           492.500
       247   07 Jun 2027 07:29:49.377   07 Jun 2027 07:30:22.244            32.867         15986.687
       248   07 Jun 2027 07:31:14.755   07 Jun 2027 07:31:15.755             1.000           295.063
       249   07 Jun 2027 07:31:50.054   07 Jun 2027 07:31:52.568             2.514          1024.750
       250   07 Jun 2027 07:33:02.112   07 Jun 2027 07:33:05.993             3.881          1491.469
       251   07 Jun 2027 07:33:40.093   07 Jun 2027 07:33:42.107             2.014           928.406
       252   07 Jun 2027 07:33:46.879   07 Jun 2027 07:33:49.063             2.184           148.312
       253   07 Jun 2027 07:34:10.416   07 Jun 2027 07:34:11.270             0.854           380.781
       254   07 Jun 2027 07:34:21.446   07 Jun 2027 07:34:22.803             1.357           293.813
       255   07 Jun 2027 07:35:25.245   07 Jun 2027 07:35:25.245             0.000             0.000
       256   07 Jun 2027 07:36:03.758   07 Jun 2027 07:36:12.734             8.976          2868.937
       257   07 Jun 2027 07:36:39.675   07 Jun 2027 07:36:43.639             3.964           535.844
       258   07 Jun 2027 09:06:53.032   07 Jun 2027 09:07:14.371            21.339         10531.656
       259   07 Jun 2027 09:07:55.364   07 Jun 2027 09:07:58.250             2.886          1272.750
       260   07 Jun 2027 09:08:26.823   07 Jun 2027 09:08:30.262             3.439           247.625
       261   07 Jun 2027 09:08:39.813   07 Jun 2027 09:08:40.464             0.651           298.469
       262   07 Jun 2027 09:09:00.866   07 Jun 2027 09:09:03.283             2.417           307.594
       263   07 Jun 2027 09:09:40.361   07 Jun 2027 09:09:42.890             2.529          1009.562
       264   07 Jun 2027 09:09:58.341   07 Jun 2027 09:10:00.849             2.508           305.125
       265   07 Jun 2027 09:11:09.862   07 Jun 2027 09:11:14.721             4.859          1972.562
       266   07 Jun 2027 09:12:23.093   07 Jun 2027 09:12:27.544             4.451          2059.687
       267   07 Jun 2027 10:43:38.005   07 Jun 2027 10:43:53.648            15.643          6634.906
       268   07 Jun 2027 10:44:00.598   07 Jun 2027 10:44:02.431             1.833           210.937
       269   07 Jun 2027 10:44:11.013   07 Jun 2027 10:44:12.883             1.870           229.531
       270   07 Jun 2027 10:44:50.622   07 Jun 2027 10:44:53.219             2.597          1179.344
       271   07 Jun 2027 10:45:48.377   07 Jun 2027 10:45:51.776             3.399          1508.000
       272   07 Jun 2027 10:46:04.430   07 Jun 2027 10:46:08.022             3.592           395.437
       273   07 Jun 2027 10:46:46.001   07 Jun 2027 10:46:49.245             3.244          1186.844
       274   07 Jun 2027 10:48:00.546   07 Jun 2027 10:48:07.852             7.306          2228.062
       275   08 Jun 2027 04:30:54.362   08 Jun 2027 04:32:21.655            87.293         43646.500
       276   08 Jun 2027 04:32:34.703   08 Jun 2027 04:33:15.014            40.311         20155.500
       277   08 Jun 2027 04:34:23.906   08 Jun 2027 04:34:29.259             5.353          2676.500
       278   08 Jun 2027 06:04:58.408   08 Jun 2027 06:07:40.491           162.083         79536.781
       279   08 Jun 2027 06:09:01.353   08 Jun 2027 06:09:01.711             0.358           179.000
       280   08 Jun 2027 06:10:13.560   08 Jun 2027 06:10:18.002             4.442          2221.000
       281   08 Jun 2027 06:11:22.879   08 Jun 2027 06:11:32.665             9.786          4399.625
       282   08 Jun 2027 06:11:47.428   08 Jun 2027 06:11:47.428             0.000             0.000
       283   08 Jun 2027 06:12:25.054   08 Jun 2027 06:12:28.142             3.088          1339.406
       284   08 Jun 2027 06:12:46.264   08 Jun 2027 06:12:48.302             2.038           131.406
       285   08 Jun 2027 06:12:53.528   08 Jun 2027 06:12:53.908             0.380           144.594
       286   08 Jun 2027 07:42:02.814   08 Jun 2027 07:42:27.016            24.202         10326.031
       287   08 Jun 2027 07:44:58.358   08 Jun 2027 07:45:05.604             7.246          1361.375
       288   08 Jun 2027 07:47:11.306   08 Jun 2027 07:47:19.517             8.211          3928.187
       289   08 Jun 2027 07:48:06.003   08 Jun 2027 07:48:14.844             8.841          1328.656
       290   08 Jun 2027 07:48:33.580   08 Jun 2027 07:48:34.470             0.890           386.906
       291   08 Jun 2027 07:48:39.119   08 Jun 2027 07:48:39.690             0.571            71.875
       292   08 Jun 2027 09:18:58.668   08 Jun 2027 09:19:20.328            21.660         10770.937
       293   08 Jun 2027 09:20:08.592   08 Jun 2027 09:20:13.274             4.682          1471.125
       294   08 Jun 2027 09:20:16.730   08 Jun 2027 09:20:16.730             0.000             0.000
       295   08 Jun 2027 09:20:30.513   08 Jun 2027 09:20:33.927             3.414           532.000
       296   08 Jun 2027 09:21:28.177   08 Jun 2027 09:21:31.485             3.308          1620.125
       297   08 Jun 2027 09:22:08.888   08 Jun 2027 09:22:11.272             2.384           943.812
       298   08 Jun 2027 09:22:24.804   08 Jun 2027 09:22:30.022             5.218           422.875
       299   08 Jun 2027 09:23:09.849   08 Jun 2027 09:23:16.099             6.250          1177.500
       300   08 Jun 2027 09:23:39.798   08 Jun 2027 09:23:41.246             1.448           678.000
       301   08 Jun 2027 10:55:45.121   08 Jun 2027 10:56:00.869            15.748          7874.000
       302   08 Jun 2027 10:56:14.500   08 Jun 2027 10:56:16.389             1.889           667.063
       303   08 Jun 2027 10:56:35.697   08 Jun 2027 10:56:36.928             1.231           535.094
       304   08 Jun 2027 10:57:45.394   08 Jun 2027 10:57:50.266             4.872          1820.344
       305   08 Jun 2027 10:58:17.722   08 Jun 2027 10:58:19.272             1.550           696.875
       306   08 Jun 2027 10:58:52.917   08 Jun 2027 10:58:58.116             5.199          1051.406
       307   08 Jun 2027 10:59:38.538   08 Jun 2027 10:59:43.777             5.239          1081.906
       308   08 Jun 2027 11:00:20.653   08 Jun 2027 11:00:24.105             3.452           784.281
       309   09 Jun 2027 03:06:35.808   09 Jun 2027 03:07:09.249            33.441         16720.500
       310   09 Jun 2027 03:07:11.605   09 Jun 2027 03:07:11.605             0.000             0.000
       311   09 Jun 2027 03:08:04.348   09 Jun 2027 03:08:09.964             5.616          2808.000
       312   09 Jun 2027 03:08:14.776   09 Jun 2027 03:08:15.890             1.114           557.000
       313   09 Jun 2027 04:43:04.742   09 Jun 2027 04:46:25.779           201.037        100518.500
       314   09 Jun 2027 06:18:10.048   09 Jun 2027 06:19:12.432            62.384         31018.625
       315   09 Jun 2027 06:20:09.854   09 Jun 2027 06:20:13.299             3.445          1676.531
       316   09 Jun 2027 06:20:37.347   09 Jun 2027 06:20:38.426             1.079           539.500
       317   09 Jun 2027 06:21:25.571   09 Jun 2027 06:21:29.788             4.217          1644.094
       318   09 Jun 2027 06:22:52.147   09 Jun 2027 06:22:55.791             3.644          1822.000
       319   09 Jun 2027 06:23:08.854   09 Jun 2027 06:23:17.412             8.558          1006.563
       320   09 Jun 2027 06:24:02.957   09 Jun 2027 06:24:04.952             1.995           846.562
       321   09 Jun 2027 06:24:12.956   09 Jun 2027 06:24:12.956             0.000             0.000
       322   09 Jun 2027 06:24:29.716   09 Jun 2027 06:24:31.251             1.535           529.187
       323   09 Jun 2027 06:24:50.776   09 Jun 2027 06:24:52.278             1.502           418.844
       324   09 Jun 2027 07:54:32.163   09 Jun 2027 07:54:48.597            16.434          8217.000
       325   09 Jun 2027 07:55:13.411   09 Jun 2027 07:55:18.329             4.918          1390.437
       326   09 Jun 2027 07:56:14.488   09 Jun 2027 07:56:17.612             3.124          1562.000
       327   09 Jun 2027 07:56:23.721   09 Jun 2027 07:56:26.541             2.820           353.000
       328   09 Jun 2027 07:56:57.124   09 Jun 2027 07:56:58.983             1.859           878.969
       329   09 Jun 2027 07:58:09.353   09 Jun 2027 07:58:13.383             4.030          1898.094
       330   09 Jun 2027 07:59:29.720   09 Jun 2027 07:59:35.011             5.291          1955.344
       331   09 Jun 2027 07:59:58.000   09 Jun 2027 08:00:01.316             3.316           718.406
       332   09 Jun 2027 08:00:29.627   09 Jun 2027 08:00:33.409             3.782           613.062
       333   09 Jun 2027 08:00:42.765   09 Jun 2027 08:00:43.916             1.151           292.375
       334   09 Jun 2027 09:32:01.400   09 Jun 2027 09:32:22.596            21.196         10264.812
       335   09 Jun 2027 09:32:59.402   09 Jun 2027 09:33:00.376             0.974           382.844
       336   09 Jun 2027 09:33:44.820   09 Jun 2027 09:33:46.714             1.894           947.000
       337   09 Jun 2027 09:33:48.339   09 Jun 2027 09:33:51.006             2.667           492.656
       338   09 Jun 2027 09:34:26.296   09 Jun 2027 09:34:28.936             2.640          1102.812
       339   09 Jun 2027 09:34:33.454   09 Jun 2027 09:34:34.585             1.131           141.188
       340   09 Jun 2027 09:34:53.740   09 Jun 2027 09:34:56.231             2.491           598.594
       341   09 Jun 2027 09:35:07.525   09 Jun 2027 09:35:08.218             0.693           188.844
       342   09 Jun 2027 09:35:12.929   09 Jun 2027 09:35:19.542             6.613           147.219
       343   09 Jun 2027 09:35:25.078   09 Jun 2027 09:35:27.648             2.570            11.844
       344   09 Jun 2027 11:08:06.776   09 Jun 2027 11:08:23.262            16.486          8205.344
       345   09 Jun 2027 11:09:11.375   09 Jun 2027 11:09:15.703             4.328          1023.500
       346   09 Jun 2027 11:09:44.443   09 Jun 2027 11:09:46.213             1.770           279.937
       347   09 Jun 2027 11:10:07.124   09 Jun 2027 11:10:09.339             2.215           452.937
       348   09 Jun 2027 11:11:20.421   09 Jun 2027 11:11:24.781             4.360          1934.875
       349   09 Jun 2027 11:11:57.303   09 Jun 2027 11:11:59.538             2.235           993.437
       350   09 Jun 2027 11:12:12.250   09 Jun 2027 11:12:18.757             6.507           397.250
       351   10 Jun 2027 03:18:31.490   10 Jun 2027 03:19:01.436            29.946         14973.000
       352   10 Jun 2027 03:19:05.531   10 Jun 2027 03:19:14.438             8.907          4453.500
       353   10 Jun 2027 03:19:52.865   10 Jun 2027 03:20:11.822            18.957          9478.500
       354   10 Jun 2027 03:21:36.249   10 Jun 2027 03:21:36.957             0.708           354.000
       355   10 Jun 2027 04:55:09.088   10 Jun 2027 04:58:24.119           195.031         97515.500
       356   10 Jun 2027 06:30:19.553   10 Jun 2027 06:31:04.317            44.764         21870.938
       357   10 Jun 2027 06:31:19.427   10 Jun 2027 06:31:19.448             0.021            10.500
       358   10 Jun 2027 06:31:50.309   10 Jun 2027 06:31:55.380             5.071          1426.094
       359   10 Jun 2027 06:32:29.475   10 Jun 2027 06:32:32.452             2.977           120.875
       360   10 Jun 2027 06:33:05.003   10 Jun 2027 06:33:06.381             1.378           689.000
       361   10 Jun 2027 06:33:09.206   10 Jun 2027 06:33:15.406             6.200           323.156
       362   10 Jun 2027 06:34:52.340   10 Jun 2027 06:34:59.608             7.268          2920.156
       363   10 Jun 2027 06:36:03.002   10 Jun 2027 06:36:07.271             4.269          1695.031
       364   10 Jun 2027 06:36:17.749   10 Jun 2027 06:36:19.403             1.654           327.437
       365   10 Jun 2027 06:36:29.485   10 Jun 2027 06:36:30.482             0.997           315.062
       366   10 Jun 2027 08:06:33.186   10 Jun 2027 08:07:00.023            26.837         10963.031
       367   10 Jun 2027 08:07:59.715   10 Jun 2027 08:08:04.227             4.512           989.063
       368   10 Jun 2027 08:08:17.658   10 Jun 2027 08:08:18.357             0.699           134.469
       369   10 Jun 2027 08:08:57.639   10 Jun 2027 08:08:59.061             1.422           711.000
       370   10 Jun 2027 08:10:27.632   10 Jun 2027 08:10:36.285             8.653          2782.906
       371   10 Jun 2027 08:11:40.870   10 Jun 2027 08:11:46.603             5.733          1485.812
       372   10 Jun 2027 09:44:07.565   10 Jun 2027 09:44:30.033            22.468          9731.219
       373   10 Jun 2027 09:45:00.608   10 Jun 2027 09:45:06.949             6.341           955.469
       374   10 Jun 2027 09:45:51.615   10 Jun 2027 09:45:52.646             1.031           515.500
       375   10 Jun 2027 09:46:03.879   10 Jun 2027 09:46:07.141             3.262          1035.500
       376   10 Jun 2027 09:46:41.261   10 Jun 2027 09:46:41.261             0.000             0.000
       377   10 Jun 2027 09:47:03.693   10 Jun 2027 09:47:07.209             3.516          1454.438
       378   10 Jun 2027 09:47:13.918   10 Jun 2027 09:47:18.880             4.962           209.656
       379   10 Jun 2027 09:48:08.040   10 Jun 2027 09:48:14.523             6.483          1201.625
       380   10 Jun 2027 09:48:21.827   10 Jun 2027 09:48:24.090             2.263           228.250
       381   10 Jun 2027 09:48:31.312   10 Jun 2027 09:48:32.232             0.920           225.687
       382   10 Jun 2027 11:20:08.892   10 Jun 2027 11:20:26.727            17.835          8110.438
       383   10 Jun 2027 11:20:44.776   10 Jun 2027 11:20:48.199             3.423           564.031
       384   10 Jun 2027 11:20:58.305   10 Jun 2027 11:21:03.559             5.254           315.812
       385   10 Jun 2027 11:22:00.618   10 Jun 2027 11:22:04.215             3.597          1783.094
       386   10 Jun 2027 11:22:28.243   10 Jun 2027 11:22:29.092             0.849           335.531
       387   10 Jun 2027 11:23:21.944   10 Jun 2027 11:23:25.336             3.392          1641.344
       388   10 Jun 2027 11:24:24.484   10 Jun 2027 11:24:27.881             3.397          1450.344
       389   11 Jun 2027 03:31:06.879   11 Jun 2027 03:31:29.933            23.054         11527.000
       390   11 Jun 2027 03:31:32.375   11 Jun 2027 03:31:44.443            12.068          6034.000
       391   11 Jun 2027 03:32:03.861   11 Jun 2027 03:32:31.837            27.976         13988.000
       392   11 Jun 2027 03:33:26.719   11 Jun 2027 03:33:36.883            10.164          5082.000
       393   11 Jun 2027 05:06:53.180   11 Jun 2027 05:09:59.351           186.171         93085.500
       394   11 Jun 2027 06:41:43.628   11 Jun 2027 06:42:33.907            50.279         23784.844
       395   11 Jun 2027 06:43:22.663   11 Jun 2027 06:43:25.116             2.453           545.125
       396   11 Jun 2027 06:44:35.878   11 Jun 2027 06:44:44.224             8.346          1049.813
       397   11 Jun 2027 06:44:44.774   11 Jun 2027 06:44:49.275             4.501            17.188
       398   11 Jun 2027 06:44:53.915   11 Jun 2027 06:44:54.958             1.043            67.906
       399   11 Jun 2027 06:44:59.662   11 Jun 2027 06:45:00.681             1.019            49.625
       400   11 Jun 2027 06:45:34.708   11 Jun 2027 06:45:36.721             2.013           815.812
       401   11 Jun 2027 06:46:36.944   11 Jun 2027 06:46:40.885             3.941          1608.906
       402   11 Jun 2027 06:47:11.731   11 Jun 2027 06:47:13.690             1.959           616.938
       403   11 Jun 2027 06:48:29.902   11 Jun 2027 06:48:35.775             5.873          1351.219
       404   11 Jun 2027 08:18:19.716   11 Jun 2027 08:18:46.403            26.687         12920.000
       405   11 Jun 2027 08:19:41.649   11 Jun 2027 08:19:48.084             6.435          1726.437
       406   11 Jun 2027 08:20:11.282   11 Jun 2027 08:20:12.039             0.757           280.000
       407   11 Jun 2027 08:20:23.960   11 Jun 2027 08:20:26.276             2.316           365.969
       408   11 Jun 2027 08:20:52.408   11 Jun 2027 08:20:57.216             4.808            61.719
       409   11 Jun 2027 08:21:15.516   11 Jun 2027 08:21:20.326             4.810           479.188
       410   11 Jun 2027 08:21:35.686   11 Jun 2027 08:21:38.350             2.664           214.156
       411   11 Jun 2027 08:21:59.006   11 Jun 2027 08:22:03.590             4.584           645.500
       412   11 Jun 2027 08:22:37.319   11 Jun 2027 08:22:39.462             2.143           974.625
       413   11 Jun 2027 08:23:48.357   11 Jun 2027 08:23:55.258             6.901          1810.500
       414   11 Jun 2027 08:24:08.847   11 Jun 2027 08:24:13.442             4.595           424.656
       415   11 Jun 2027 09:56:37.556   11 Jun 2027 09:56:55.811            18.255          8419.156
       416   11 Jun 2027 09:58:04.527   11 Jun 2027 09:58:08.892             4.365          2005.812
       417   11 Jun 2027 09:58:15.848   11 Jun 2027 09:58:17.287             1.439           162.187
       418   11 Jun 2027 09:59:47.746   11 Jun 2027 09:59:53.259             5.513          2511.813
       419   11 Jun 2027 10:00:00.030   11 Jun 2027 10:00:00.030             0.000             0.000
       420   11 Jun 2027 11:29:57.642   11 Jun 2027 11:30:09.289            11.647          5823.500
       421   11 Jun 2027 11:31:57.247   11 Jun 2027 11:31:58.146             0.899           449.500
       422   11 Jun 2027 11:32:15.312   11 Jun 2027 11:32:18.588             3.276          1371.437
       423   11 Jun 2027 11:32:37.784   11 Jun 2027 11:32:37.784             0.000             0.000
       424   11 Jun 2027 11:32:55.596   11 Jun 2027 11:33:01.191             5.595          1151.969
       425   11 Jun 2027 11:33:55.150   11 Jun 2027 11:33:57.757             2.607          1288.250
       426   11 Jun 2027 11:34:02.930   11 Jun 2027 11:34:03.430             0.500           161.656
       427   11 Jun 2027 11:34:09.128   11 Jun 2027 11:34:14.317             5.189           134.687
       428   11 Jun 2027 11:34:36.358   11 Jun 2027 11:34:39.380             3.022           688.781
       429   11 Jun 2027 11:35:57.145   11 Jun 2027 11:36:04.200             7.055          2412.656
       430   11 Jun 2027 11:36:55.043   11 Jun 2027 11:36:58.180             3.137          1114.406
       431   11 Jun 2027 11:37:04.759   11 Jun 2027 11:37:06.290             1.531           205.594
       432   12 Jun 2027 03:41:46.013   12 Jun 2027 03:42:06.991            20.978         10489.000
       433   12 Jun 2027 03:42:17.414   12 Jun 2027 03:42:44.465            27.051         13525.500
       434   12 Jun 2027 03:43:21.498   12 Jun 2027 03:43:36.255            14.757          7378.500
       435   12 Jun 2027 03:45:06.698   12 Jun 2027 03:45:06.698             0.000             0.000
       436   12 Jun 2027 03:45:19.412   12 Jun 2027 03:45:37.782            18.370          9185.000
       437   12 Jun 2027 03:45:59.915   12 Jun 2027 03:46:09.287             9.372          4686.000
       438   12 Jun 2027 03:46:20.644   12 Jun 2027 03:46:24.330             3.686          1843.000
       439   12 Jun 2027 05:17:03.143   12 Jun 2027 05:18:05.676            62.533         31266.500
       440   12 Jun 2027 05:18:37.106   12 Jun 2027 05:20:22.990           105.884         52942.000
       441   12 Jun 2027 05:21:12.839   12 Jun 2027 05:21:20.759             7.920          3960.000
       442   12 Jun 2027 05:23:01.699   12 Jun 2027 05:23:16.373            14.674          7337.000
       443   12 Jun 2027 06:53:37.353   12 Jun 2027 06:54:27.970            50.617         24703.531
       444   12 Jun 2027 06:55:12.039   12 Jun 2027 06:55:14.050             2.011           764.781
       445   12 Jun 2027 06:56:52.877   12 Jun 2027 06:56:57.806             4.929          1135.906
       446   12 Jun 2027 06:57:26.170   12 Jun 2027 06:57:28.889             2.719           602.875
       447   12 Jun 2027 06:59:14.572   12 Jun 2027 06:59:23.158             8.586          3004.281
       448   12 Jun 2027 06:59:32.567   12 Jun 2027 06:59:35.445             2.878           143.625
       449   12 Jun 2027 07:00:16.118   12 Jun 2027 07:00:18.873             2.755           824.219
       450   12 Jun 2027 08:30:40.847   12 Jun 2027 08:31:09.949            29.102         14343.594
       451   12 Jun 2027 08:31:23.977   12 Jun 2027 08:31:28.154             4.177            50.719
       452   12 Jun 2027 08:32:08.104   12 Jun 2027 08:32:12.555             4.451           550.844
       453   12 Jun 2027 08:33:00.407   12 Jun 2027 08:33:11.741            11.334          1172.937
       454   12 Jun 2027 08:33:14.555   12 Jun 2027 08:33:15.316             0.761            46.656
       455   12 Jun 2027 08:33:19.156   12 Jun 2027 08:33:22.690             3.534            39.719
       456   12 Jun 2027 08:33:37.368   12 Jun 2027 08:33:37.957             0.589           273.125
       457   12 Jun 2027 08:33:40.790   12 Jun 2027 08:33:41.563             0.773            88.531
       458   12 Jun 2027 08:34:47.981   12 Jun 2027 08:34:50.944             2.963          1481.500
       459   12 Jun 2027 08:35:40.151   12 Jun 2027 08:35:45.750             5.599          2033.937
       460   12 Jun 2027 08:36:24.121   12 Jun 2027 08:36:27.152             3.031          1095.906
       461   12 Jun 2027 08:36:40.628   12 Jun 2027 08:36:42.403             1.775           304.906
       462   12 Jun 2027 08:36:46.769   12 Jun 2027 08:36:47.455             0.686           110.750
       463   12 Jun 2027 10:08:35.121   12 Jun 2027 10:08:51.548            16.427          7875.500
       464   12 Jun 2027 10:09:57.646   12 Jun 2027 10:10:02.063             4.417          1911.750
       465   12 Jun 2027 10:10:26.813   12 Jun 2027 10:10:28.789             1.976           515.500
       466   12 Jun 2027 10:11:17.290   12 Jun 2027 10:11:20.742             3.452           932.313
       467   12 Jun 2027 10:11:36.161   12 Jun 2027 10:11:39.255             3.094           344.312
       468   12 Jun 2027 10:12:19.363   12 Jun 2027 10:12:21.681             2.318           771.750
       469   12 Jun 2027 11:41:47.958   12 Jun 2027 11:42:02.294            14.336          6185.094
       470   12 Jun 2027 11:43:13.951   12 Jun 2027 11:43:16.190             2.239           975.125
       471   12 Jun 2027 11:45:10.947   12 Jun 2027 11:45:15.537             4.590          2295.000
       472   12 Jun 2027 11:45:28.982   12 Jun 2027 11:45:33.681             4.699          1324.906
       473   12 Jun 2027 11:46:56.927   12 Jun 2027 11:47:01.260             4.333          2166.500
       474   12 Jun 2027 11:47:27.564   12 Jun 2027 11:47:33.947             6.383          1256.938
       475   12 Jun 2027 11:48:27.419   12 Jun 2027 11:48:31.654             4.235          1236.750
       476   12 Jun 2027 11:49:25.267   12 Jun 2027 11:49:30.413             5.146          1639.719
       477   13 Jun 2027 03:53:21.749   13 Jun 2027 03:53:56.862            35.113         17556.500
       478   13 Jun 2027 03:55:16.901   13 Jun 2027 03:56:13.809            56.908         28454.000
       479   13 Jun 2027 03:57:33.027   13 Jun 2027 03:57:42.056             9.029          4514.500
       480   13 Jun 2027 05:28:14.800   13 Jun 2027 05:30:19.952           125.152         62576.000
       481   13 Jun 2027 05:30:24.847   13 Jun 2027 05:31:29.537            64.690         32345.000
       482   13 Jun 2027 05:33:16.589   13 Jun 2027 05:33:29.230            12.641          6320.500
       483   13 Jun 2027 05:33:34.119   13 Jun 2027 05:33:34.804             0.685           342.500
       484   13 Jun 2027 07:05:49.054   13 Jun 2027 07:06:38.194            49.140         24441.937
       485   13 Jun 2027 07:07:28.877   13 Jun 2027 07:07:31.832             2.955           725.625
       486   13 Jun 2027 07:08:56.777   13 Jun 2027 07:09:08.496            11.719          2171.312
       487   13 Jun 2027 07:09:14.369   13 Jun 2027 07:09:15.589             1.220           183.531
       488   13 Jun 2027 07:09:24.515   13 Jun 2027 07:09:24.845             0.330            12.219
       489   13 Jun 2027 07:10:15.118   13 Jun 2027 07:10:18.474             3.356          1571.031
       490   13 Jun 2027 07:12:10.711   13 Jun 2027 07:12:17.953             7.242          3056.719
       491   13 Jun 2027 07:12:44.301   13 Jun 2027 07:12:48.105             3.804           704.813
       492   13 Jun 2027 07:13:09.751   13 Jun 2027 07:13:10.262             0.511           255.500
       493   13 Jun 2027 08:42:31.889   13 Jun 2027 08:42:39.095             7.206          3603.000
       494   13 Jun 2027 08:42:43.865   13 Jun 2027 08:42:59.074            15.209          7484.313
       495   13 Jun 2027 08:44:11.773   13 Jun 2027 08:44:16.254             4.481          1435.844
       496   13 Jun 2027 08:44:51.230   13 Jun 2027 08:44:53.109             1.879           662.469
       497   13 Jun 2027 08:45:50.941   13 Jun 2027 08:45:57.847             6.906          1602.500
       498   13 Jun 2027 08:46:20.843   13 Jun 2027 08:46:24.710             3.867           667.094
       499   13 Jun 2027 08:46:40.188   13 Jun 2027 08:46:40.208             0.020            10.000
       500   13 Jun 2027 08:46:46.251   13 Jun 2027 08:46:50.694             4.443           430.219
       501   13 Jun 2027 08:47:42.630   13 Jun 2027 08:47:44.350             1.720           638.594
       502   13 Jun 2027 08:47:55.029   13 Jun 2027 08:47:57.151             2.122           110.906
       503   13 Jun 2027 08:48:35.496   13 Jun 2027 08:48:39.737             4.241          1088.656
       504   13 Jun 2027 08:48:51.902   13 Jun 2027 08:48:52.453             0.551           214.344
       505   13 Jun 2027 08:49:09.234   13 Jun 2027 08:49:09.849             0.615           307.500
       506   13 Jun 2027 10:20:34.954   13 Jun 2027 10:20:52.449            17.495          7599.625
       507   13 Jun 2027 10:21:21.502   13 Jun 2027 10:21:23.716             2.214           758.500
       508   13 Jun 2027 10:21:59.681   13 Jun 2027 10:22:04.236             4.555           929.563
       509   13 Jun 2027 10:22:26.955   13 Jun 2027 10:22:30.866             3.911           389.656
       510   13 Jun 2027 10:22:43.420   13 Jun 2027 10:22:45.300             1.880           365.500
       511   13 Jun 2027 10:23:58.463   13 Jun 2027 10:24:02.132             3.669          1447.375
       512   13 Jun 2027 10:24:19.022   13 Jun 2027 10:24:21.790             2.768           527.813
       513   13 Jun 2027 10:24:40.241   13 Jun 2027 10:24:42.582             2.341           212.594
       514   13 Jun 2027 11:54:15.906   13 Jun 2027 11:54:19.531             3.625          1580.563
       515   13 Jun 2027 11:54:36.593   13 Jun 2027 11:54:37.822             1.229           378.063
       516   13 Jun 2027 11:55:00.856   13 Jun 2027 11:55:00.856             0.000             0.000
       517   13 Jun 2027 11:55:31.828   13 Jun 2027 11:55:33.944             2.116          1058.000
       518   13 Jun 2027 11:56:00.409   13 Jun 2027 11:56:03.848             3.439          1250.906
       519   13 Jun 2027 11:56:58.342   13 Jun 2027 11:57:02.324             3.982          1619.813
       520   13 Jun 2027 11:57:29.678   13 Jun 2027 11:57:31.992             2.314           854.813
       521   13 Jun 2027 11:58:46.332   13 Jun 2027 11:58:52.120             5.788          2243.719
       522   13 Jun 2027 11:59:05.512   13 Jun 2027 11:59:08.300             2.788           418.500
       523   13 Jun 2027 11:59:55.453   13 Jun 2027 12:00:00.000             4.547          1457.750
