uniorb/output/strategy_2/Camera/Camera_KinoSat_110506.txt

KinoSat_110506
-------------------------
    Access    *     Start Time (UTCG)     *     Stop Time (UTCG)  *   Duration (s) *   Data (Mbytes)
         1   01 Jun 2027 03:36:56.272   01 Jun 2027 03:37:09.537            13.265          6632.500
         2   01 Jun 2027 03:38:33.833   01 Jun 2027 03:38:36.549             2.716          1358.000
         3   01 Jun 2027 03:38:50.012   01 Jun 2027 03:38:52.013             2.001          1000.500
         4   01 Jun 2027 03:39:10.202   01 Jun 2027 03:39:21.527            11.325          5662.500
         5   01 Jun 2027 03:40:48.867   01 Jun 2027 03:40:52.790             3.923          1961.500
         6   01 Jun 2027 03:41:43.973   01 Jun 2027 03:41:48.622             4.649          2324.500
         7   01 Jun 2027 03:42:12.223   01 Jun 2027 03:42:16.178             3.955          1977.500
         8   01 Jun 2027 03:42:48.276   01 Jun 2027 03:42:53.647             5.371          2685.500
         9   01 Jun 2027 05:13:25.959   01 Jun 2027 05:13:31.014             5.055          2527.500
        10   01 Jun 2027 05:14:52.724   01 Jun 2027 05:14:54.290             1.566           783.000
        11   01 Jun 2027 05:15:06.708   01 Jun 2027 05:15:07.418             0.710           355.000
        12   01 Jun 2027 05:15:35.585   01 Jun 2027 05:15:45.480             9.895          4947.500
        13   01 Jun 2027 05:17:20.155   01 Jun 2027 05:17:20.478             0.323           161.500
        14   01 Jun 2027 05:17:27.956   01 Jun 2027 05:17:31.225             3.269          1634.500
        15   01 Jun 2027 05:17:32.970   01 Jun 2027 05:17:35.254             2.284          1142.000
        16   01 Jun 2027 05:17:41.177   01 Jun 2027 05:17:48.287             7.110          3555.000
        17   01 Jun 2027 05:19:19.434   01 Jun 2027 05:19:21.967             2.533          1266.500
        18   01 Jun 2027 05:19:48.049   01 Jun 2027 05:19:51.797             3.748          1874.000
        19   01 Jun 2027 05:20:06.502   01 Jun 2027 05:20:09.635             3.133          1566.500
        20   01 Jun 2027 05:20:40.918   01 Jun 2027 05:20:42.853             1.935           967.500
        21   01 Jun 2027 05:20:53.702   01 Jun 2027 05:20:55.928             2.226          1113.000
        22   01 Jun 2027 06:50:30.873   01 Jun 2027 06:50:32.777             1.904           952.000
        23   01 Jun 2027 06:51:15.253   01 Jun 2027 06:51:23.605             8.352          4176.000
        24   01 Jun 2027 06:52:31.023   01 Jun 2027 06:52:51.605            20.582         10291.000
        25   01 Jun 2027 06:53:57.446   01 Jun 2027 06:54:06.926             9.480          4740.000
        26   01 Jun 2027 06:55:16.770   01 Jun 2027 06:55:19.550             2.780          1390.000
        27   01 Jun 2027 06:55:27.535   01 Jun 2027 06:55:27.535             0.000             0.000
        28   01 Jun 2027 06:56:15.577   01 Jun 2027 06:56:21.298             5.721          2860.500
        29   01 Jun 2027 08:28:25.065   01 Jun 2027 08:28:30.790             5.725          2862.500
        30   01 Jun 2027 08:29:01.564   01 Jun 2027 08:29:08.337             6.773          3386.500
        31   01 Jun 2027 08:30:26.266   01 Jun 2027 08:30:35.080             8.814          4407.000
        32   01 Jun 2027 08:31:53.693   01 Jun 2027 08:31:56.805             3.112          1556.000
        33   01 Jun 2027 08:32:16.988   01 Jun 2027 08:32:21.949             4.961          2480.500
        34   01 Jun 2027 10:01:33.361   01 Jun 2027 10:02:01.743            28.382         14191.000
        35   01 Jun 2027 10:02:24.340   01 Jun 2027 10:02:32.639             8.299          4149.500
        36   01 Jun 2027 10:05:30.275   01 Jun 2027 10:05:30.480             0.205           102.500
        37   01 Jun 2027 10:05:48.156   01 Jun 2027 10:05:54.094             5.938          2969.000
        38   01 Jun 2027 10:06:47.120   01 Jun 2027 10:06:50.238             3.118          1559.000
        39   01 Jun 2027 10:07:11.700   01 Jun 2027 10:07:25.046            13.346          6673.000
        40   01 Jun 2027 10:07:26.641   01 Jun 2027 10:07:31.206             4.565          2282.500
        41   01 Jun 2027 10:08:44.496   01 Jun 2027 10:08:53.815             9.319          4659.500
        42   02 Jun 2027 03:48:05.792   02 Jun 2027 03:48:15.893            10.101          5050.500
        43   02 Jun 2027 03:49:28.118   02 Jun 2027 03:49:38.376            10.258          5129.000
        44   02 Jun 2027 03:50:28.018   02 Jun 2027 03:50:28.934             0.916           458.000
        45   02 Jun 2027 03:50:47.185   02 Jun 2027 03:50:56.964             9.779          4889.500
        46   02 Jun 2027 03:51:52.441   02 Jun 2027 03:51:52.612             0.171            85.500
        47   02 Jun 2027 03:52:14.606   02 Jun 2027 03:52:21.413             6.807          3403.500
        48   02 Jun 2027 03:52:48.921   02 Jun 2027 03:52:49.199             0.278           139.000
        49   02 Jun 2027 03:53:31.549   02 Jun 2027 03:53:33.314             1.765           882.500
        50   02 Jun 2027 03:53:39.310   02 Jun 2027 03:53:49.974            10.664          5332.000
        51   02 Jun 2027 03:56:07.127   02 Jun 2027 03:56:09.469             2.342          1171.000
        52   02 Jun 2027 05:25:39.329   02 Jun 2027 05:25:42.405             3.076          1538.000
        53   02 Jun 2027 05:25:53.077   02 Jun 2027 05:25:59.702             6.625          3312.500
        54   02 Jun 2027 05:26:34.812   02 Jun 2027 05:26:36.331             1.519           759.500
        55   02 Jun 2027 05:26:48.265   02 Jun 2027 05:26:53.033             4.768          2384.000
        56   02 Jun 2027 05:27:20.187   02 Jun 2027 05:27:26.817             6.630          3315.000
        57   02 Jun 2027 05:28:02.298   02 Jun 2027 05:28:05.021             2.723          1361.500
        58   02 Jun 2027 05:28:47.947   02 Jun 2027 05:28:48.762             0.815           407.500
        59   02 Jun 2027 05:29:06.276   02 Jun 2027 05:29:17.507            11.231          5615.500
        60   02 Jun 2027 05:29:57.499   02 Jun 2027 05:30:08.917            11.418          5709.000
        61   02 Jun 2027 05:31:17.324   02 Jun 2027 05:31:20.330             3.006          1503.000
        62   02 Jun 2027 05:31:47.507   02 Jun 2027 05:31:49.276             1.769           884.500
        63   02 Jun 2027 05:32:05.891   02 Jun 2027 05:32:13.131             7.240          3620.000
        64   02 Jun 2027 07:02:21.798   02 Jun 2027 07:02:30.858             9.060          4530.000
        65   02 Jun 2027 07:03:20.608   02 Jun 2027 07:03:21.376             0.768           384.000
        66   02 Jun 2027 07:03:43.894   02 Jun 2027 07:03:54.373            10.479          5239.500
        67   02 Jun 2027 07:04:15.553   02 Jun 2027 07:04:19.835             4.282          2141.000
        68   02 Jun 2027 07:05:12.539   02 Jun 2027 07:05:25.482            12.943          6471.500
        69   02 Jun 2027 07:06:49.487   02 Jun 2027 07:06:54.177             4.690          2345.000
        70   02 Jun 2027 07:07:14.445   02 Jun 2027 07:07:19.317             4.872          2436.000
        71   02 Jun 2027 07:07:40.530   02 Jun 2027 07:07:46.540             6.010          3005.000
        72   02 Jun 2027 07:08:11.858   02 Jun 2027 07:08:12.059             0.201           100.500
        73   02 Jun 2027 07:08:12.901   02 Jun 2027 07:08:31.186            18.285          9142.500
        74   02 Jun 2027 07:08:53.311   02 Jun 2027 07:08:59.689             6.378          3189.000
        75   02 Jun 2027 08:40:24.928   02 Jun 2027 08:40:25.098             0.170            85.000
        76   02 Jun 2027 08:40:36.751   02 Jun 2027 08:40:37.273             0.522           261.000
        77   02 Jun 2027 08:40:41.797   02 Jun 2027 08:40:46.998             5.201          2600.500
        78   02 Jun 2027 08:41:11.719   02 Jun 2027 08:41:22.624            10.905          5452.500
        79   02 Jun 2027 08:42:27.730   02 Jun 2027 08:42:33.588             5.858          2929.000
        80   02 Jun 2027 08:43:03.311   02 Jun 2027 08:43:06.255             2.944          1472.000
        81   02 Jun 2027 08:43:07.821   02 Jun 2027 08:43:08.082             0.261           130.500
        82   02 Jun 2027 08:43:25.351   02 Jun 2027 08:43:27.862             2.511          1255.500
        83   02 Jun 2027 08:43:47.118   02 Jun 2027 08:43:49.674             2.556          1278.000
        84   02 Jun 2027 08:44:02.902   02 Jun 2027 08:44:03.130             0.228           114.000
        85   02 Jun 2027 10:14:02.146   02 Jun 2027 10:14:26.428            24.282         12141.000
        86   02 Jun 2027 10:16:04.687   02 Jun 2027 10:16:18.311            13.624          6812.000
        87   02 Jun 2027 10:17:30.651   02 Jun 2027 10:17:31.906             1.255           627.500
        88   02 Jun 2027 10:17:49.763   02 Jun 2027 10:17:55.482             5.719          2859.500
        89   02 Jun 2027 10:18:41.412   02 Jun 2027 10:18:50.503             9.091          4545.500
        90   02 Jun 2027 10:19:47.225   02 Jun 2027 10:20:06.200            18.975          9487.500
        91   02 Jun 2027 10:21:22.999   02 Jun 2027 10:21:25.546             2.547          1273.500
        92   03 Jun 2027 03:59:36.414   03 Jun 2027 03:59:44.552             8.138          4069.000
        93   03 Jun 2027 04:00:22.361   03 Jun 2027 04:00:34.208            11.847          5923.500
        94   03 Jun 2027 04:01:30.320   03 Jun 2027 04:01:47.324            17.004          8502.000
        95   03 Jun 2027 04:02:36.193   03 Jun 2027 04:02:36.193             0.000             0.000
        96   03 Jun 2027 04:02:42.989   03 Jun 2027 04:02:46.803             3.814          1907.000
        97   03 Jun 2027 04:03:27.246   03 Jun 2027 04:03:35.751             8.505          4252.500
        98   03 Jun 2027 04:04:33.759   03 Jun 2027 04:04:39.157             5.398          2699.000
        99   03 Jun 2027 04:04:42.971   03 Jun 2027 04:04:44.234             1.263           631.500
       100   03 Jun 2027 04:05:17.150   03 Jun 2027 04:05:17.906             0.756           378.000
       101   03 Jun 2027 04:05:24.147   03 Jun 2027 04:05:25.160             1.013           506.500
       102   03 Jun 2027 04:05:38.092   03 Jun 2027 04:05:41.414             3.322          1661.000
       103   03 Jun 2027 04:07:39.415   03 Jun 2027 04:07:43.254             3.839          1919.500
       104   03 Jun 2027 04:08:11.170   03 Jun 2027 04:08:12.224             1.054           527.000
       105   03 Jun 2027 04:08:47.277   03 Jun 2027 04:08:50.304             3.027          1513.500
       106   03 Jun 2027 05:37:33.236   03 Jun 2027 05:37:46.129            12.893          6446.500
       107   03 Jun 2027 05:38:41.452   03 Jun 2027 05:38:45.931             4.479          2239.500
       108   03 Jun 2027 05:39:23.230   03 Jun 2027 05:39:25.122             1.892           946.000
       109   03 Jun 2027 05:39:37.168   03 Jun 2027 05:39:42.261             5.093          2546.500
       110   03 Jun 2027 05:41:14.675   03 Jun 2027 05:41:18.402             3.727          1863.500
       111   03 Jun 2027 05:41:27.688   03 Jun 2027 05:41:32.751             5.063          2531.500
       112   03 Jun 2027 05:42:06.385   03 Jun 2027 05:42:37.381            30.996         15498.000
       113   03 Jun 2027 05:44:49.450   03 Jun 2027 05:44:55.985             6.535          3267.500
       114   03 Jun 2027 07:14:26.409   03 Jun 2027 07:14:30.700             4.291          2145.500
       115   03 Jun 2027 07:14:42.697   03 Jun 2027 07:14:42.909             0.212           106.000
       116   03 Jun 2027 07:15:09.820   03 Jun 2027 07:15:14.134             4.314          2157.000
       117   03 Jun 2027 07:15:44.736   03 Jun 2027 07:15:46.969             2.233          1116.500
       118   03 Jun 2027 07:15:56.178   03 Jun 2027 07:15:59.451             3.273          1636.500
       119   03 Jun 2027 07:16:11.049   03 Jun 2027 07:16:17.973             6.924          3462.000
       120   03 Jun 2027 07:17:25.303   03 Jun 2027 07:17:31.083             5.780          2890.000
       121   03 Jun 2027 07:18:26.773   03 Jun 2027 07:18:30.715             3.942          1971.000
       122   03 Jun 2027 07:18:51.895   03 Jun 2027 07:18:52.602             0.707           353.500
       123   03 Jun 2027 07:18:55.991   03 Jun 2027 07:19:05.612             9.621          4810.500
       124   03 Jun 2027 07:20:08.660   03 Jun 2027 07:20:10.862             2.202          1101.000
       125   03 Jun 2027 07:20:21.701   03 Jun 2027 07:20:29.169             7.468          3734.000
       126   03 Jun 2027 08:52:11.315   03 Jun 2027 08:52:12.336             1.021           510.500
       127   03 Jun 2027 08:52:21.000   03 Jun 2027 08:52:22.053             1.053           526.500
       128   03 Jun 2027 08:53:20.529   03 Jun 2027 08:53:24.166             3.637          1818.500
       129   03 Jun 2027 08:53:54.771   03 Jun 2027 08:54:02.925             8.154          4077.000
       130   03 Jun 2027 08:54:44.247   03 Jun 2027 08:54:44.410             0.163            81.500
       131   03 Jun 2027 08:55:09.720   03 Jun 2027 08:55:11.018             1.298           649.000
       132   03 Jun 2027 08:55:16.849   03 Jun 2027 08:55:17.052             0.203           101.500
       133   03 Jun 2027 08:55:19.850   03 Jun 2027 08:55:26.762             6.912          3456.000
       134   03 Jun 2027 08:56:06.416   03 Jun 2027 08:56:09.475             3.059          1529.500
       135   03 Jun 2027 10:26:25.135   03 Jun 2027 10:26:27.971             2.836          1418.000
       136   03 Jun 2027 10:27:13.288   03 Jun 2027 10:27:39.375            26.087         13043.500
       137   03 Jun 2027 10:29:27.976   03 Jun 2027 10:29:30.291             2.315          1157.500
       138   03 Jun 2027 10:29:39.998   03 Jun 2027 10:29:46.746             6.748          3374.000
       139   03 Jun 2027 10:30:36.422   03 Jun 2027 10:30:51.042            14.620          7310.000
       140   04 Jun 2027 04:12:30.126   04 Jun 2027 04:12:35.004             4.878          2439.000
       141   04 Jun 2027 04:13:41.802   04 Jun 2027 04:13:53.596            11.794          5897.000
       142   04 Jun 2027 04:14:41.118   04 Jun 2027 04:15:02.513            21.395         10697.500
       143   04 Jun 2027 04:16:29.504   04 Jun 2027 04:16:32.804             3.300          1650.000
       144   04 Jun 2027 04:16:37.039   04 Jun 2027 04:16:37.435             0.396           198.000
       145   04 Jun 2027 04:16:49.548   04 Jun 2027 04:16:57.800             8.252          4126.000
       146   04 Jun 2027 04:17:33.161   04 Jun 2027 04:17:33.786             0.625           312.500
       147   04 Jun 2027 04:18:00.241   04 Jun 2027 04:18:04.038             3.797          1898.500
       148   04 Jun 2027 04:18:53.028   04 Jun 2027 04:18:57.014             3.986          1993.000
       149   04 Jun 2027 04:19:20.000   04 Jun 2027 04:19:22.137             2.137          1068.500
       150   04 Jun 2027 04:20:08.058   04 Jun 2027 04:20:10.698             2.640          1320.000
       151   04 Jun 2027 04:20:21.215   04 Jun 2027 04:20:23.740             2.525          1262.500
       152   04 Jun 2027 04:20:51.833   04 Jun 2027 04:20:55.138             3.305          1652.500
       153   04 Jun 2027 05:49:53.862   04 Jun 2027 05:50:04.331            10.469          5234.500
       154   04 Jun 2027 05:50:39.866   04 Jun 2027 05:50:42.022             2.156          1078.000
       155   04 Jun 2027 05:51:00.470   04 Jun 2027 05:51:15.143            14.673          7336.500
       156   04 Jun 2027 05:52:15.034   04 Jun 2027 05:52:26.221            11.187          5593.500
       157   04 Jun 2027 05:53:26.587   04 Jun 2027 05:53:28.295             1.708           854.000
       158   04 Jun 2027 05:53:35.606   04 Jun 2027 05:53:35.934             0.328           164.000
       159   04 Jun 2027 05:53:40.962   04 Jun 2027 05:53:41.228             0.266           133.000
       160   04 Jun 2027 05:53:46.837   04 Jun 2027 05:54:01.285            14.448          7224.000
       161   04 Jun 2027 05:55:39.795   04 Jun 2027 05:55:50.519            10.724          5362.000
       162   04 Jun 2027 05:56:12.416   04 Jun 2027 05:56:21.586             9.170          4585.000
       163   04 Jun 2027 07:26:57.876   04 Jun 2027 07:27:03.468             5.592          2796.000
       164   04 Jun 2027 07:27:14.165   04 Jun 2027 07:27:31.264            17.099          8549.500
       165   04 Jun 2027 07:29:14.830   04 Jun 2027 07:29:17.362             2.532          1266.000
       166   04 Jun 2027 07:30:07.128   04 Jun 2027 07:30:11.368             4.240          2120.000
       167   04 Jun 2027 07:30:40.303   04 Jun 2027 07:30:42.103             1.800           900.000
       168   04 Jun 2027 07:30:50.829   04 Jun 2027 07:30:50.969             0.140            70.000
       169   04 Jun 2027 07:30:54.719   04 Jun 2027 07:31:00.854             6.135          3067.500
       170   04 Jun 2027 07:32:06.947   04 Jun 2027 07:32:11.457             4.510          2255.000
       171   04 Jun 2027 07:32:27.901   04 Jun 2027 07:32:28.446             0.545           272.500
       172   04 Jun 2027 09:03:42.399   04 Jun 2027 09:03:45.275             2.876          1438.000
       173   04 Jun 2027 09:04:10.082   04 Jun 2027 09:04:22.177            12.095          6047.500
       174   04 Jun 2027 09:05:14.030   04 Jun 2027 09:05:14.076             0.046            23.000
       175   04 Jun 2027 09:06:31.054   04 Jun 2027 09:06:31.507             0.453           226.500
       176   04 Jun 2027 09:06:33.512   04 Jun 2027 09:06:49.983            16.471          8235.500
       177   04 Jun 2027 09:07:01.826   04 Jun 2027 09:07:06.281             4.455          2227.500
       178   04 Jun 2027 10:38:58.434   04 Jun 2027 10:38:59.500             1.066           533.000
       179   04 Jun 2027 10:40:39.426   04 Jun 2027 10:40:53.636            14.210          7105.000
       180   04 Jun 2027 10:42:33.538   04 Jun 2027 10:42:51.820            18.282          9141.000
       181   05 Jun 2027 04:25:02.784   05 Jun 2027 04:25:02.811             0.027            13.500
       182   05 Jun 2027 04:25:35.552   05 Jun 2027 04:25:51.496            15.944          7972.000
       183   05 Jun 2027 04:27:28.979   05 Jun 2027 04:27:31.180             2.201          1100.500
       184   05 Jun 2027 04:28:10.350   05 Jun 2027 04:28:22.779            12.429          6214.500
       185   05 Jun 2027 04:29:05.887   05 Jun 2027 04:29:17.764            11.877          5938.500
       186   05 Jun 2027 04:30:51.838   05 Jun 2027 04:30:53.262             1.424           712.000
       187   05 Jun 2027 04:31:03.734   05 Jun 2027 04:31:05.098             1.364           682.000
       188   05 Jun 2027 04:31:24.578   05 Jun 2027 04:31:30.413             5.835          2917.500
       189   05 Jun 2027 04:32:14.562   05 Jun 2027 04:32:16.509             1.947           973.500
       190   05 Jun 2027 04:32:26.977   05 Jun 2027 04:32:27.062             0.085            42.500
       191   05 Jun 2027 06:02:07.354   05 Jun 2027 06:02:08.189             0.835           417.500
       192   05 Jun 2027 06:02:24.128   05 Jun 2027 06:02:32.208             8.080          4040.000
       193   05 Jun 2027 06:03:13.494   05 Jun 2027 06:03:34.523            21.029         10514.500
       194   05 Jun 2027 06:05:25.889   05 Jun 2027 06:05:31.677             5.788          2894.000
       195   05 Jun 2027 06:06:20.988   05 Jun 2027 06:06:28.017             7.029          3514.500
       196   05 Jun 2027 06:06:59.867   05 Jun 2027 06:07:07.043             7.176          3588.000
       197   05 Jun 2027 06:07:21.905   05 Jun 2027 06:07:21.905             0.000             0.000
       198   05 Jun 2027 06:07:47.527   05 Jun 2027 06:07:50.675             3.148          1574.000
       199   05 Jun 2027 06:08:14.446   05 Jun 2027 06:08:15.125             0.679           339.500
       200   05 Jun 2027 06:08:26.878   05 Jun 2027 06:08:32.308             5.430          2715.000
       201   05 Jun 2027 07:39:03.343   05 Jun 2027 07:39:26.566            23.223         11611.500
       202   05 Jun 2027 07:41:16.245   05 Jun 2027 07:41:19.126             2.881          1440.500
       203   05 Jun 2027 07:41:43.311   05 Jun 2027 07:41:43.876             0.565           282.500
       204   05 Jun 2027 07:43:06.623   05 Jun 2027 07:43:09.561             2.938          1469.000
       205   05 Jun 2027 07:43:50.858   05 Jun 2027 07:43:55.573             4.715          2357.500
       206   05 Jun 2027 09:15:49.904   05 Jun 2027 09:15:55.857             5.953          2976.500
       207   05 Jun 2027 09:16:40.601   05 Jun 2027 09:16:52.451            11.850          5925.000
       208   05 Jun 2027 09:18:31.092   05 Jun 2027 09:18:32.874             1.782           891.000
       209   05 Jun 2027 09:19:05.588   05 Jun 2027 09:19:07.294             1.706           853.000
       210   05 Jun 2027 09:19:27.675   05 Jun 2027 09:19:30.947             3.272          1636.000
       211   05 Jun 2027 09:19:46.264   05 Jun 2027 09:19:58.126            11.862          5931.000
       212   05 Jun 2027 10:54:02.058   05 Jun 2027 10:54:17.508            15.450          7725.000
       213   06 Jun 2027 03:03:09.301   06 Jun 2027 03:03:10.437             1.136           568.000
       214   06 Jun 2027 03:03:33.375   06 Jun 2027 03:03:35.927             2.552          1276.000
       215   06 Jun 2027 03:04:10.222   06 Jun 2027 03:04:13.181             2.959          1479.500
       216   06 Jun 2027 03:04:29.867   06 Jun 2027 03:04:35.154             5.287          2643.500
       217   06 Jun 2027 03:05:12.648   06 Jun 2027 03:05:18.374             5.726          2863.000
       218   06 Jun 2027 03:05:20.115   06 Jun 2027 03:05:22.320             2.205          1102.500
       219   06 Jun 2027 03:05:36.270   06 Jun 2027 03:05:37.594             1.324           662.000
       220   06 Jun 2027 03:05:47.686   06 Jun 2027 03:05:47.686             0.000             0.000
       221   06 Jun 2027 03:06:01.911   06 Jun 2027 03:06:03.065             1.154           577.000
       222   06 Jun 2027 03:06:24.134   06 Jun 2027 03:06:24.925             0.791           395.500
       223   06 Jun 2027 04:38:14.244   06 Jun 2027 04:38:27.252            13.008          6504.000
       224   06 Jun 2027 04:38:51.984   06 Jun 2027 04:38:56.617             4.633          2316.500
       225   06 Jun 2027 04:40:14.782   06 Jun 2027 04:40:29.393            14.611          7305.500
       226   06 Jun 2027 04:41:42.796   06 Jun 2027 04:41:43.065             0.269           134.500
       227   06 Jun 2027 04:42:02.486   06 Jun 2027 04:42:07.995             5.509          2754.500
       228   06 Jun 2027 04:43:00.607   06 Jun 2027 04:43:11.626            11.019          5509.500
       229   06 Jun 2027 04:43:59.241   06 Jun 2027 04:43:59.810             0.569           284.500
       230   06 Jun 2027 04:44:14.603   06 Jun 2027 04:44:16.584             1.981           990.500
       231   06 Jun 2027 04:44:52.452   06 Jun 2027 04:44:52.458             0.006             3.000
       232   06 Jun 2027 04:44:57.222   06 Jun 2027 04:44:59.073             1.851           925.500
       233   06 Jun 2027 06:14:36.165   06 Jun 2027 06:14:46.006             9.841          4920.500
       234   06 Jun 2027 06:15:09.562   06 Jun 2027 06:15:51.435            41.873         20936.500
       235   06 Jun 2027 06:19:10.136   06 Jun 2027 06:19:11.051             0.915           457.500
       236   06 Jun 2027 06:19:39.263   06 Jun 2027 06:19:39.289             0.026            13.000
       237   06 Jun 2027 06:20:07.143   06 Jun 2027 06:20:12.953             5.810          2905.000
       238   06 Jun 2027 06:20:38.282   06 Jun 2027 06:20:42.417             4.135          2067.500
       239   06 Jun 2027 07:52:06.457   06 Jun 2027 07:52:06.951             0.494           247.000
       240   06 Jun 2027 07:52:21.351   06 Jun 2027 07:52:22.602             1.251           625.500
       241   06 Jun 2027 07:52:34.224   06 Jun 2027 07:52:41.173             6.949          3474.500
       242   06 Jun 2027 07:53:17.800   06 Jun 2027 07:53:19.091             1.291           645.500
       243   06 Jun 2027 07:53:35.301   06 Jun 2027 07:53:36.868             1.567           783.500
       244   06 Jun 2027 07:53:44.886   06 Jun 2027 07:53:45.463             0.577           288.500
       245   06 Jun 2027 07:53:53.074   06 Jun 2027 07:53:59.893             6.819          3409.500
       246   06 Jun 2027 07:54:32.103   06 Jun 2027 07:54:40.391             8.288          4144.000
       247   06 Jun 2027 07:54:48.986   06 Jun 2027 07:54:57.688             8.702          4351.000
       248   06 Jun 2027 09:28:11.127   06 Jun 2027 09:28:13.235             2.108          1054.000
       249   06 Jun 2027 09:28:23.562   06 Jun 2027 09:28:24.955             1.393           696.500
       250   06 Jun 2027 09:28:53.392   06 Jun 2027 09:28:58.967             5.575          2787.500
       251   06 Jun 2027 09:29:39.995   06 Jun 2027 09:29:41.413             1.418           709.000
       252   06 Jun 2027 09:30:27.920   06 Jun 2027 09:30:31.038             3.118          1559.000
       253   06 Jun 2027 09:31:01.456   06 Jun 2027 09:31:06.129             4.673          2336.500
       254   06 Jun 2027 09:31:39.389   06 Jun 2027 09:31:58.617            19.228          9614.000
       255   07 Jun 2027 03:15:13.856   07 Jun 2027 03:15:18.915             5.059          2529.500
       256   07 Jun 2027 03:16:03.838   07 Jun 2027 03:16:13.997            10.159          5079.500
       257   07 Jun 2027 03:16:59.511   07 Jun 2027 03:17:01.338             1.827           913.500
       258   07 Jun 2027 03:17:25.494   07 Jun 2027 03:17:34.457             8.963          4481.500
       259   07 Jun 2027 04:50:24.270   07 Jun 2027 04:50:24.795             0.525           262.500
       260   07 Jun 2027 04:50:50.169   07 Jun 2027 04:50:53.073             2.904          1452.000
       261   07 Jun 2027 04:51:38.174   07 Jun 2027 04:51:42.512             4.338          2169.000
       262   07 Jun 2027 04:52:06.440   07 Jun 2027 04:52:17.893            11.453          5726.500
       263   07 Jun 2027 04:53:29.466   07 Jun 2027 04:53:30.420             0.954           477.000
       264   07 Jun 2027 04:53:42.858   07 Jun 2027 04:53:50.951             8.093          4046.500
       265   07 Jun 2027 04:54:20.048   07 Jun 2027 04:54:25.580             5.532          2766.000
       266   07 Jun 2027 04:54:58.543   07 Jun 2027 04:55:00.075             1.532           766.000
       267   07 Jun 2027 04:55:29.742   07 Jun 2027 04:55:30.157             0.415           207.500
       268   07 Jun 2027 04:55:32.995   07 Jun 2027 04:55:34.296             1.301           650.500
       269   07 Jun 2027 04:55:44.427   07 Jun 2027 04:55:48.151             3.724          1862.000
       270   07 Jun 2027 04:56:24.772   07 Jun 2027 04:56:29.129             4.357          2178.500
       271   07 Jun 2027 06:26:38.936   07 Jun 2027 06:26:46.637             7.701          3850.500
       272   07 Jun 2027 06:28:12.480   07 Jun 2027 06:28:36.319            23.839         11919.500
       273   07 Jun 2027 06:30:42.035   07 Jun 2027 06:30:50.782             8.747          4373.500
       274   07 Jun 2027 06:31:28.017   07 Jun 2027 06:31:30.123             2.106          1053.000
       275   07 Jun 2027 06:31:57.903   07 Jun 2027 06:32:00.183             2.280          1140.000
       276   07 Jun 2027 06:32:37.697   07 Jun 2027 06:32:45.995             8.298          4149.000
       277   07 Jun 2027 08:04:11.997   07 Jun 2027 08:04:13.335             1.338           669.000
       278   07 Jun 2027 08:04:26.570   07 Jun 2027 08:04:29.121             2.551          1275.500
       279   07 Jun 2027 08:04:39.822   07 Jun 2027 08:04:45.220             5.398          2699.000
       280   07 Jun 2027 08:05:44.785   07 Jun 2027 08:05:45.967             1.182           591.000
       281   07 Jun 2027 08:06:08.502   07 Jun 2027 08:06:12.179             3.677          1838.500
       282   07 Jun 2027 08:07:13.951   07 Jun 2027 08:07:15.197             1.246           623.000
       283   07 Jun 2027 08:07:43.720   07 Jun 2027 08:07:52.108             8.388          4194.000
       284   07 Jun 2027 08:08:40.585   07 Jun 2027 08:08:43.115             2.530          1265.000
       285   07 Jun 2027 09:40:13.308   07 Jun 2027 09:40:19.482             6.174          3087.000
       286   07 Jun 2027 09:40:54.101   07 Jun 2027 09:40:55.748             1.647           823.500
       287   07 Jun 2027 09:41:05.781   07 Jun 2027 09:41:19.367            13.586          6793.000
       288   07 Jun 2027 09:42:31.326   07 Jun 2027 09:42:32.839             1.513           756.500
       289   07 Jun 2027 09:43:11.020   07 Jun 2027 09:43:16.210             5.190          2595.000
       290   07 Jun 2027 09:43:53.007   07 Jun 2027 09:44:03.195            10.188          5094.000
       291   07 Jun 2027 09:44:46.305   07 Jun 2027 09:44:46.366             0.061            30.500
       292   07 Jun 2027 09:44:59.327   07 Jun 2027 09:45:09.427            10.100          5050.000
       293   08 Jun 2027 03:26:57.529   08 Jun 2027 03:27:04.274             6.745          3372.500
       294   08 Jun 2027 03:27:34.277   08 Jun 2027 03:27:35.080             0.803           401.500
       295   08 Jun 2027 03:27:43.449   08 Jun 2027 03:27:57.816            14.367          7183.500
       296   08 Jun 2027 03:29:02.603   08 Jun 2027 03:29:09.929             7.326          3663.000
       297   08 Jun 2027 03:30:03.469   08 Jun 2027 03:30:03.529             0.060            30.000
       298   08 Jun 2027 03:30:06.904   08 Jun 2027 03:30:13.358             6.454          3227.000
       299   08 Jun 2027 03:30:42.440   08 Jun 2027 03:30:48.411             5.971          2985.500
       300   08 Jun 2027 05:01:48.630   08 Jun 2027 05:01:51.933             3.303          1651.500
       301   08 Jun 2027 05:02:15.134   08 Jun 2027 05:02:30.603            15.469          7734.500
       302   08 Jun 2027 05:03:57.789   08 Jun 2027 05:04:01.284             3.495          1747.500
       303   08 Jun 2027 05:04:19.343   08 Jun 2027 05:04:20.143             0.800           400.000
       304   08 Jun 2027 05:04:27.322   08 Jun 2027 05:04:34.905             7.583          3791.500
       305   08 Jun 2027 05:05:25.257   08 Jun 2027 05:05:25.723             0.466           233.000
       306   08 Jun 2027 05:05:30.030   08 Jun 2027 05:05:33.381             3.351          1675.500
       307   08 Jun 2027 05:06:03.398   08 Jun 2027 05:06:07.886             4.488          2244.000
       308   08 Jun 2027 05:06:47.304   08 Jun 2027 05:06:48.463             1.159           579.500
       309   08 Jun 2027 05:07:15.411   08 Jun 2027 05:07:15.662             0.251           125.500
       310   08 Jun 2027 05:07:48.707   08 Jun 2027 05:08:03.407            14.700          7350.000
       311   08 Jun 2027 05:09:05.815   08 Jun 2027 05:09:07.519             1.704           852.000
       312   08 Jun 2027 06:38:24.371   08 Jun 2027 06:38:25.175             0.804           402.000
       313   08 Jun 2027 06:39:03.430   08 Jun 2027 06:39:06.488             3.058          1529.000
       314   08 Jun 2027 06:39:55.143   08 Jun 2027 06:39:59.560             4.417          2208.500
       315   08 Jun 2027 06:40:08.812   08 Jun 2027 06:40:14.664             5.852          2926.000
       316   08 Jun 2027 06:40:40.254   08 Jun 2027 06:40:45.066             4.812          2406.000
       317   08 Jun 2027 06:41:42.388   08 Jun 2027 06:41:52.582            10.194          5097.000
       318   08 Jun 2027 06:42:37.331   08 Jun 2027 06:42:37.969             0.638           319.000
       319   08 Jun 2027 06:42:50.413   08 Jun 2027 06:42:52.676             2.263          1131.500
       320   08 Jun 2027 06:43:30.389   08 Jun 2027 06:43:31.602             1.213           606.500
       321   08 Jun 2027 06:43:37.071   08 Jun 2027 06:43:39.585             2.514          1257.000
       322   08 Jun 2027 06:44:02.314   08 Jun 2027 06:44:13.080            10.766          5383.000
       323   08 Jun 2027 08:16:41.995   08 Jun 2027 08:16:43.742             1.747           873.500
       324   08 Jun 2027 08:17:12.956   08 Jun 2027 08:17:15.195             2.239          1119.500
       325   08 Jun 2027 08:17:27.433   08 Jun 2027 08:17:43.790            16.357          8178.500
       326   08 Jun 2027 08:18:51.494   08 Jun 2027 08:19:05.959            14.465          7232.500
       327   08 Jun 2027 08:20:24.273   08 Jun 2027 08:20:25.068             0.795           397.500
       328   08 Jun 2027 09:50:02.708   08 Jun 2027 09:50:09.525             6.817          3408.500
       329   08 Jun 2027 09:52:01.864   08 Jun 2027 09:52:11.497             9.633          4816.500
       330   08 Jun 2027 09:53:43.340   08 Jun 2027 09:53:44.918             1.578           789.000
       331   08 Jun 2027 09:54:07.478   08 Jun 2027 09:54:17.341             9.863          4931.500
       332   08 Jun 2027 09:55:05.002   08 Jun 2027 09:55:09.031             4.029          2014.500
       333   08 Jun 2027 09:56:07.080   08 Jun 2027 09:56:08.594             1.514           757.000
       334   08 Jun 2027 09:56:37.264   08 Jun 2027 09:56:39.863             2.599          1299.500
       335   08 Jun 2027 09:57:07.125   08 Jun 2027 09:57:09.770             2.645          1322.500
       336   08 Jun 2027 09:57:31.015   08 Jun 2027 09:57:31.940             0.925           462.500
       337   09 Jun 2027 03:37:10.248   09 Jun 2027 03:37:25.556            15.308          7654.000
       338   09 Jun 2027 03:38:49.031   09 Jun 2027 03:38:52.346             3.315          1657.500
       339   09 Jun 2027 03:39:07.306   09 Jun 2027 03:39:07.648             0.342           171.000
       340   09 Jun 2027 03:39:24.557   09 Jun 2027 03:39:37.083            12.526          6263.000
       341   09 Jun 2027 03:41:03.516   09 Jun 2027 03:41:07.385             3.869          1934.500
       342   09 Jun 2027 03:41:59.759   09 Jun 2027 03:42:04.675             4.916          2458.000
       343   09 Jun 2027 03:42:27.057   09 Jun 2027 03:42:32.465             5.408          2704.000
       344   09 Jun 2027 03:43:02.982   09 Jun 2027 03:43:17.168            14.186          7093.000
       345   09 Jun 2027 05:13:40.987   09 Jun 2027 05:13:46.422             5.435          2717.500
       346   09 Jun 2027 05:14:46.111   09 Jun 2027 05:15:02.270            16.159          8079.500
       347   09 Jun 2027 05:16:11.069   09 Jun 2027 05:16:15.454             4.385          2192.500
       348   09 Jun 2027 05:16:39.492   09 Jun 2027 05:16:48.924             9.432          4716.000
       349   09 Jun 2027 05:17:42.876   09 Jun 2027 05:17:43.824             0.948           474.000
       350   09 Jun 2027 05:17:47.925   09 Jun 2027 05:17:49.872             1.947           973.500
       351   09 Jun 2027 05:18:22.048   09 Jun 2027 05:18:33.651            11.603          5801.500
       352   09 Jun 2027 05:19:48.649   09 Jun 2027 05:19:51.823             3.174          1587.000
       353   09 Jun 2027 05:20:56.967   09 Jun 2027 05:21:00.903             3.936          1968.000
       354   09 Jun 2027 06:50:45.420   09 Jun 2027 06:50:50.346             4.926          2463.000
       355   09 Jun 2027 06:51:30.515   09 Jun 2027 06:51:38.143             7.628          3814.000
       356   09 Jun 2027 06:52:45.673   09 Jun 2027 06:53:06.340            20.667         10333.500
       357   09 Jun 2027 06:54:12.145   09 Jun 2027 06:54:21.580             9.435          4717.500
       358   09 Jun 2027 06:55:31.977   09 Jun 2027 06:55:34.431             2.454          1227.000
       359   09 Jun 2027 06:56:31.140   09 Jun 2027 06:56:36.036             4.896          2448.000
       360   09 Jun 2027 08:28:39.671   09 Jun 2027 08:28:47.809             8.138          4069.000
       361   09 Jun 2027 08:29:23.079   09 Jun 2027 08:29:37.297            14.218          7109.000
       362   09 Jun 2027 08:30:34.861   09 Jun 2027 08:30:37.514             2.653          1326.500
       363   09 Jun 2027 08:31:31.551   09 Jun 2027 08:31:39.422             7.871          3935.500
       364   09 Jun 2027 08:31:54.250   09 Jun 2027 08:32:07.919            13.669          6834.500
       365   09 Jun 2027 10:01:48.521   09 Jun 2027 10:02:21.716            33.195         16597.500
       366   09 Jun 2027 10:04:52.465   09 Jun 2027 10:04:54.298             1.833           916.500
       367   09 Jun 2027 10:05:09.042   09 Jun 2027 10:05:13.239             4.197          2098.500
       368   09 Jun 2027 10:06:31.825   09 Jun 2027 10:06:32.790             0.965           482.500
       369   09 Jun 2027 10:06:40.606   09 Jun 2027 10:06:43.923             3.317          1658.500
       370   09 Jun 2027 10:07:06.673   09 Jun 2027 10:07:10.855             4.182          2091.000
       371   09 Jun 2027 10:07:45.896   09 Jun 2027 10:07:51.892             5.996          2998.000
       372   09 Jun 2027 10:08:33.900   09 Jun 2027 10:08:35.210             1.310           655.000
       373   09 Jun 2027 10:08:53.485   09 Jun 2027 10:08:59.086             5.601          2800.500
       374   09 Jun 2027 10:09:30.303   09 Jun 2027 10:09:37.902             7.599          3799.500
       375   10 Jun 2027 03:48:20.080   10 Jun 2027 03:48:31.030            10.950          5475.000
       376   10 Jun 2027 03:49:44.557   10 Jun 2027 03:49:53.117             8.560          4280.000
       377   10 Jun 2027 03:50:43.375   10 Jun 2027 03:50:43.911             0.536           268.000
       378   10 Jun 2027 03:51:01.929   10 Jun 2027 03:51:02.945             1.016           508.000
       379   10 Jun 2027 03:52:04.717   10 Jun 2027 03:52:07.026             2.309          1154.500
       380   10 Jun 2027 03:53:04.035   10 Jun 2027 03:53:15.805            11.770          5885.000
       381   10 Jun 2027 03:54:08.714   10 Jun 2027 03:54:11.316             2.602          1301.000
       382   10 Jun 2027 03:54:19.127   10 Jun 2027 03:54:19.127             0.000             0.000
       383   10 Jun 2027 03:54:53.662   10 Jun 2027 03:55:03.438             9.776          4888.000
       384   10 Jun 2027 03:55:46.383   10 Jun 2027 03:55:49.973             3.590          1795.000
       385   10 Jun 2027 05:25:53.848   10 Jun 2027 05:25:55.886             2.038          1019.000
       386   10 Jun 2027 05:26:35.638   10 Jun 2027 05:26:51.869            16.231          8115.500
       387   10 Jun 2027 05:28:12.604   10 Jun 2027 05:28:16.368             3.764          1882.000
       388   10 Jun 2027 05:29:33.470   10 Jun 2027 05:29:34.772             1.302           651.000
       389   10 Jun 2027 05:29:45.622   10 Jun 2027 05:29:47.855             2.233          1116.500
       390   10 Jun 2027 05:30:02.215   10 Jun 2027 05:30:07.699             5.484          2742.000
       391   10 Jun 2027 05:30:33.517   10 Jun 2027 05:30:42.600             9.083          4541.500
       392   10 Jun 2027 05:30:59.475   10 Jun 2027 05:31:02.930             3.455          1727.500
       393   10 Jun 2027 05:32:03.774   10 Jun 2027 05:32:12.240             8.466          4233.000
       394   10 Jun 2027 07:02:36.415   10 Jun 2027 07:02:47.844            11.429          5714.500
       395   10 Jun 2027 07:04:45.349   10 Jun 2027 07:04:57.254            11.905          5952.500
       396   10 Jun 2027 07:06:15.846   10 Jun 2027 07:06:16.195             0.349           174.500
       397   10 Jun 2027 07:06:31.978   10 Jun 2027 07:06:44.090            12.112          6056.000
       398   10 Jun 2027 07:08:01.255   10 Jun 2027 07:08:02.105             0.850           425.000
       399   10 Jun 2027 07:08:48.389   10 Jun 2027 07:08:49.668             1.279           639.500
       400   10 Jun 2027 07:08:56.506   10 Jun 2027 07:09:07.975            11.469          5734.500
       401   10 Jun 2027 08:40:39.506   10 Jun 2027 08:40:42.398             2.892          1446.000
       402   10 Jun 2027 08:41:14.299   10 Jun 2027 08:41:19.015             4.716          2358.000
       403   10 Jun 2027 08:41:40.713   10 Jun 2027 08:41:48.835             8.122          4061.000
       404   10 Jun 2027 08:42:32.967   10 Jun 2027 08:42:42.763             9.796          4898.000
       405   10 Jun 2027 08:43:34.440   10 Jun 2027 08:43:34.811             0.371           185.500
       406   10 Jun 2027 08:43:44.492   10 Jun 2027 08:44:02.948            18.456          9228.000
       407   10 Jun 2027 10:14:16.953   10 Jun 2027 10:14:41.067            24.114         12057.000
       408   10 Jun 2027 10:16:19.885   10 Jun 2027 10:16:41.454            21.569         10784.500
       409   10 Jun 2027 10:18:23.221   10 Jun 2027 10:18:34.042            10.821          5410.500
       410   10 Jun 2027 10:20:20.659   10 Jun 2027 10:20:22.271             1.612           806.000
       411   10 Jun 2027 10:20:43.744   10 Jun 2027 10:20:45.995             2.251          1125.500
       412   10 Jun 2027 10:21:06.305   10 Jun 2027 10:21:06.742             0.437           218.500
       413   10 Jun 2027 10:21:12.978   10 Jun 2027 10:21:27.731            14.753          7376.500
       414   11 Jun 2027 03:59:50.793   11 Jun 2027 04:00:01.277            10.484          5242.000
       415   11 Jun 2027 04:00:31.293   11 Jun 2027 04:00:31.293             0.000             0.000
       416   11 Jun 2027 04:00:48.942   11 Jun 2027 04:01:07.062            18.120          9060.000
       417   11 Jun 2027 04:02:17.476   11 Jun 2027 04:02:17.476             0.000             0.000
       418   11 Jun 2027 04:02:52.426   11 Jun 2027 04:02:55.908             3.482          1741.000
       419   11 Jun 2027 04:04:09.545   11 Jun 2027 04:04:23.356            13.811          6905.500
       420   11 Jun 2027 04:05:33.152   11 Jun 2027 04:05:34.838             1.686           843.000
       421   11 Jun 2027 04:06:10.088   11 Jun 2027 04:06:13.231             3.143          1571.500
       422   11 Jun 2027 04:07:06.361   11 Jun 2027 04:07:12.543             6.182          3091.000
       423   11 Jun 2027 04:07:40.619   11 Jun 2027 04:07:54.973            14.354          7177.000
       424   11 Jun 2027 04:08:27.094   11 Jun 2027 04:08:35.054             7.960          3980.000
       425   11 Jun 2027 05:37:47.751   11 Jun 2027 05:37:50.286             2.535          1267.500
       426   11 Jun 2027 05:37:56.388   11 Jun 2027 05:38:01.618             5.230          2615.000
       427   11 Jun 2027 05:38:56.950   11 Jun 2027 05:39:06.689             9.739          4869.500
       428   11 Jun 2027 05:40:13.144   11 Jun 2027 05:40:14.265             1.121           560.500
       429   11 Jun 2027 05:40:19.250   11 Jun 2027 05:40:24.065             4.815          2407.500
       430   11 Jun 2027 05:41:00.708   11 Jun 2027 05:41:06.355             5.647          2823.500
       431   11 Jun 2027 05:41:12.408   11 Jun 2027 05:41:19.223             6.815          3407.500
       432   11 Jun 2027 05:42:03.698   11 Jun 2027 05:42:04.312             0.614           307.000
       433   11 Jun 2027 05:42:06.803   11 Jun 2027 05:42:10.775             3.972          1986.000
       434   11 Jun 2027 05:43:00.188   11 Jun 2027 05:43:02.781             2.593          1296.500
       435   11 Jun 2027 05:43:33.340   11 Jun 2027 05:43:49.148            15.808          7904.000
       436   11 Jun 2027 05:44:00.705   11 Jun 2027 05:44:13.678            12.973          6486.500
       437   11 Jun 2027 07:14:42.127   11 Jun 2027 07:14:45.439             3.312          1656.000
       438   11 Jun 2027 07:15:15.513   11 Jun 2027 07:15:26.422            10.909          5454.500
       439   11 Jun 2027 07:16:11.166   11 Jun 2027 07:16:14.188             3.022          1511.000
       440   11 Jun 2027 07:16:28.483   11 Jun 2027 07:16:33.423             4.940          2470.000
       441   11 Jun 2027 07:17:39.931   11 Jun 2027 07:17:48.098             8.167          4083.500
       442   11 Jun 2027 07:18:41.522   11 Jun 2027 07:18:46.163             4.641          2320.500
       443   11 Jun 2027 07:19:08.403   11 Jun 2027 07:19:09.181             0.778           389.000
       444   11 Jun 2027 07:19:23.718   11 Jun 2027 07:19:27.424             3.706          1853.000
       445   11 Jun 2027 07:20:01.623   11 Jun 2027 07:20:03.889             2.266          1133.000
       446   11 Jun 2027 07:20:52.705   11 Jun 2027 07:21:01.470             8.765          4382.500
       447   11 Jun 2027 08:52:25.789   11 Jun 2027 08:52:29.465             3.676          1838.000
       448   11 Jun 2027 08:53:09.909   11 Jun 2027 08:53:14.490             4.581          2290.500
       449   11 Jun 2027 08:53:32.924   11 Jun 2027 08:53:34.899             1.975           987.500
       450   11 Jun 2027 08:53:45.250   11 Jun 2027 08:53:50.138             4.888          2444.000
       451   11 Jun 2027 08:54:18.891   11 Jun 2027 08:54:22.454             3.563          1781.500
       452   11 Jun 2027 08:54:57.413   11 Jun 2027 08:54:58.935             1.522           761.000
       453   11 Jun 2027 08:55:24.587   11 Jun 2027 08:55:24.623             0.036            18.000
       454   11 Jun 2027 08:55:25.709   11 Jun 2027 08:55:30.114             4.405          2202.500
       455   11 Jun 2027 08:55:49.499   11 Jun 2027 08:55:50.135             0.636           318.000
       456   11 Jun 2027 08:56:07.692   11 Jun 2027 08:56:21.074            13.382          6691.000
       457   11 Jun 2027 10:26:40.012   11 Jun 2027 10:26:42.602             2.590          1295.000
       458   11 Jun 2027 10:27:28.071   11 Jun 2027 10:27:40.335            12.264          6132.000
       459   11 Jun 2027 10:29:02.990   11 Jun 2027 10:29:05.550             2.560          1280.000
       460   11 Jun 2027 10:29:31.750   11 Jun 2027 10:29:39.274             7.524          3762.000
       461   11 Jun 2027 10:30:11.614   11 Jun 2027 10:30:11.820             0.206           103.000
       462   11 Jun 2027 10:30:35.902   11 Jun 2027 10:30:47.370            11.468          5734.000
       463   11 Jun 2027 10:31:52.060   11 Jun 2027 10:31:54.035             1.975           987.500
       464   12 Jun 2027 04:12:44.246   12 Jun 2027 04:12:49.885             5.639          2819.500
       465   12 Jun 2027 04:13:56.227   12 Jun 2027 04:14:08.649            12.422          6211.000
       466   12 Jun 2027 04:15:45.633   12 Jun 2027 04:15:46.399             0.766           383.000
       467   12 Jun 2027 04:15:53.563   12 Jun 2027 04:15:54.894             1.331           665.500
       468   12 Jun 2027 04:16:16.170   12 Jun 2027 04:16:32.024            15.854          7927.000
       469   12 Jun 2027 04:17:19.472   12 Jun 2027 04:17:23.660             4.188          2094.000
       470   12 Jun 2027 04:18:04.493   12 Jun 2027 04:18:09.028             4.535          2267.500
       471   12 Jun 2027 04:18:35.574   12 Jun 2027 04:18:40.397             4.823          2411.500
       472   12 Jun 2027 04:20:04.318   12 Jun 2027 04:20:05.444             1.126           563.000
       473   12 Jun 2027 04:20:23.402   12 Jun 2027 04:20:33.103             9.701          4850.500
       474   12 Jun 2027 04:20:55.337   12 Jun 2027 04:20:58.185             2.848          1424.000
       475   12 Jun 2027 05:50:08.589   12 Jun 2027 05:50:19.700            11.111          5555.500
       476   12 Jun 2027 05:50:54.462   12 Jun 2027 05:50:56.524             2.062          1031.000
       477   12 Jun 2027 05:51:20.215   12 Jun 2027 05:51:31.211            10.996          5498.000
       478   12 Jun 2027 05:52:30.439   12 Jun 2027 05:52:40.848            10.409          5204.500
       479   12 Jun 2027 05:53:23.277   12 Jun 2027 05:53:29.210             5.933          2966.500
       480   12 Jun 2027 05:53:57.171   12 Jun 2027 05:53:58.108             0.937           468.500
       481   12 Jun 2027 05:54:17.889   12 Jun 2027 05:54:18.825             0.936           468.000
       482   12 Jun 2027 05:54:34.307   12 Jun 2027 05:54:34.618             0.311           155.500
       483   12 Jun 2027 05:54:41.180   12 Jun 2027 05:54:47.195             6.015          3007.500
       484   12 Jun 2027 05:55:17.797   12 Jun 2027 05:55:22.473             4.676          2338.000
       485   12 Jun 2027 05:55:44.820   12 Jun 2027 05:55:54.248             9.428          4714.000
       486   12 Jun 2027 05:56:36.220   12 Jun 2027 05:56:40.649             4.429          2214.500
       487   12 Jun 2027 07:27:12.390   12 Jun 2027 07:27:16.064             3.674          1837.000
       488   12 Jun 2027 07:27:46.147   12 Jun 2027 07:27:56.459            10.312          5156.000
       489   12 Jun 2027 07:28:38.125   12 Jun 2027 07:28:38.261             0.136            68.000
       490   12 Jun 2027 07:29:14.200   12 Jun 2027 07:29:29.566            15.366          7683.000
       491   12 Jun 2027 07:30:37.374   12 Jun 2027 07:30:43.477             6.103          3051.500
       492   12 Jun 2027 07:31:07.315   12 Jun 2027 07:31:07.315             0.000             0.000
       493   12 Jun 2027 07:31:25.741   12 Jun 2027 07:31:27.031             1.290           645.000
       494   12 Jun 2027 07:32:12.084   12 Jun 2027 07:32:22.413            10.329          5164.500
       495   12 Jun 2027 09:03:57.168   12 Jun 2027 09:03:59.439             2.271          1135.500
       496   12 Jun 2027 09:04:21.219   12 Jun 2027 09:04:26.116             4.897          2448.500
       497   12 Jun 2027 09:05:03.283   12 Jun 2027 09:05:08.257             4.974          2487.000
       498   12 Jun 2027 09:05:28.767   12 Jun 2027 09:05:30.991             2.224          1112.000
       499   12 Jun 2027 09:06:46.088   12 Jun 2027 09:06:47.762             1.674           837.000
       500   12 Jun 2027 09:07:26.525   12 Jun 2027 09:07:29.416             2.891          1445.500
       501   12 Jun 2027 09:07:57.602   12 Jun 2027 09:08:02.733             5.131          2565.500
       502   12 Jun 2027 09:08:34.085   12 Jun 2027 09:08:45.563            11.478          5739.000
       503   12 Jun 2027 10:39:13.370   12 Jun 2027 10:39:15.249             1.879           939.500
       504   12 Jun 2027 10:40:54.465   12 Jun 2027 10:41:26.956            32.491         16245.500
       505   13 Jun 2027 04:25:17.499   13 Jun 2027 04:25:17.573             0.074            37.000
       506   13 Jun 2027 04:25:31.949   13 Jun 2027 04:25:52.014            20.065         10032.500
       507   13 Jun 2027 04:27:43.639   13 Jun 2027 04:27:45.686             2.047          1023.500
       508   13 Jun 2027 04:27:55.108   13 Jun 2027 04:28:02.558             7.450          3725.000
       509   13 Jun 2027 04:28:38.130   13 Jun 2027 04:28:39.203             1.073           536.500
       510   13 Jun 2027 04:29:00.214   13 Jun 2027 04:29:02.465             2.251          1125.500
       511   13 Jun 2027 04:29:40.611   13 Jun 2027 04:29:43.882             3.271          1635.500
       512   13 Jun 2027 04:30:35.206   13 Jun 2027 04:30:38.554             3.348          1674.000
       513   13 Jun 2027 04:31:06.660   13 Jun 2027 04:31:15.595             8.935          4467.500
       514   13 Jun 2027 04:32:37.037   13 Jun 2027 04:32:40.532             3.495          1747.500
       515   13 Jun 2027 04:32:57.064   13 Jun 2027 04:32:58.683             1.619           809.500
       516   13 Jun 2027 04:33:03.203   13 Jun 2027 04:33:08.957             5.754          2877.000
       517   13 Jun 2027 06:02:22.088   13 Jun 2027 06:02:23.805             1.717           858.500
       518   13 Jun 2027 06:02:39.539   13 Jun 2027 06:02:46.815             7.276          3638.000
       519   13 Jun 2027 06:03:28.599   13 Jun 2027 06:03:50.247            21.648         10824.000
       520   13 Jun 2027 06:05:37.802   13 Jun 2027 06:05:40.603             2.801          1400.500
       521   13 Jun 2027 06:05:53.628   13 Jun 2027 06:06:02.344             8.716          4358.000
       522   13 Jun 2027 06:06:55.588   13 Jun 2027 06:07:00.445             4.857          2428.500
       523   13 Jun 2027 06:07:23.680   13 Jun 2027 06:07:28.506             4.826          2413.000
       524   13 Jun 2027 06:08:03.161   13 Jun 2027 06:08:25.474            22.313         11156.500
       525   13 Jun 2027 06:08:29.665   13 Jun 2027 06:08:29.731             0.066            33.000
       526   13 Jun 2027 07:39:17.905   13 Jun 2027 07:39:41.473            23.568         11784.000
       527   13 Jun 2027 07:41:30.982   13 Jun 2027 07:41:36.621             5.639          2819.500
       528   13 Jun 2027 07:41:43.214   13 Jun 2027 07:41:46.423             3.209          1604.500
       529   13 Jun 2027 07:43:21.967   13 Jun 2027 07:43:24.451             2.484          1242.000
       530   13 Jun 2027 07:43:27.638   13 Jun 2027 07:43:35.283             7.645          3822.500
       531   13 Jun 2027 09:16:04.422   13 Jun 2027 09:16:10.806             6.384          3192.000
       532   13 Jun 2027 09:16:56.191   13 Jun 2027 09:17:07.895            11.704          5852.000
       533   13 Jun 2027 09:18:47.365   13 Jun 2027 09:18:47.908             0.543           271.500
       534   13 Jun 2027 09:19:21.350   13 Jun 2027 09:19:21.997             0.647           323.500
       535   13 Jun 2027 09:19:24.833   13 Jun 2027 09:19:26.606             1.773           886.500
       536   13 Jun 2027 09:20:15.460   13 Jun 2027 09:20:29.134            13.674          6837.000
       537   13 Jun 2027 10:54:16.776   13 Jun 2027 10:54:32.082            15.306          7653.000
