uniorb/output/strategy_2/Camera/Camera_KinoSat_110204.txt

KinoSat_110204
-------------------------
    Access    *     Start Time (UTCG)     *     Stop Time (UTCG)  *   Duration (s) *   Data (Mbytes)
         1   01 Jun 2027 04:11:13.327   01 Jun 2027 04:11:36.993            23.666         11833.000
         2   01 Jun 2027 04:12:52.572   01 Jun 2027 04:12:56.020             3.448          1724.000
         3   01 Jun 2027 04:13:03.882   01 Jun 2027 04:13:06.668             2.786          1393.000
         4   01 Jun 2027 04:13:31.119   01 Jun 2027 04:13:37.812             6.693          3346.500
         5   01 Jun 2027 04:14:27.528   01 Jun 2027 04:14:36.799             9.271          4635.500
         6   01 Jun 2027 04:15:52.090   01 Jun 2027 04:15:52.372             0.282           141.000
         7   01 Jun 2027 04:16:14.671   01 Jun 2027 04:16:16.470             1.799           899.500
         8   01 Jun 2027 04:16:55.750   01 Jun 2027 04:17:09.703            13.953          6976.500
         9   01 Jun 2027 05:48:52.731   01 Jun 2027 05:49:13.451            20.720         10360.000
        10   01 Jun 2027 05:51:06.835   01 Jun 2027 05:51:07.191             0.356           178.000
        11   01 Jun 2027 05:51:08.024   01 Jun 2027 05:51:08.024             0.000             0.000
        12   01 Jun 2027 05:51:29.643   01 Jun 2027 05:51:39.383             9.740          4870.000
        13   01 Jun 2027 05:52:22.153   01 Jun 2027 05:52:23.517             1.364           682.000
        14   01 Jun 2027 05:52:34.955   01 Jun 2027 05:52:51.113            16.158          8079.000
        15   01 Jun 2027 07:24:57.207   01 Jun 2027 07:25:01.023             3.816          1908.000
        16   01 Jun 2027 07:25:27.932   01 Jun 2027 07:25:28.521             0.589           294.500
        17   01 Jun 2027 07:25:38.555   01 Jun 2027 07:25:53.568            15.013          7506.500
        18   01 Jun 2027 07:27:22.802   01 Jun 2027 07:27:25.970             3.168          1584.000
        19   01 Jun 2027 07:27:40.229   01 Jun 2027 07:27:52.501            12.272          6136.000
        20   01 Jun 2027 07:28:12.219   01 Jun 2027 07:28:24.098            11.879          5939.500
        21   01 Jun 2027 07:28:59.808   01 Jun 2027 07:29:02.190             2.382          1191.000
        22   01 Jun 2027 09:03:41.016   01 Jun 2027 09:03:43.749             2.733          1366.500
        23   02 Jun 2027 04:23:49.390   02 Jun 2027 04:23:59.220             9.830          4915.000
        24   02 Jun 2027 04:25:18.682   02 Jun 2027 04:25:26.035             7.353          3676.500
        25   02 Jun 2027 04:26:26.780   02 Jun 2027 04:26:33.567             6.787          3393.500
        26   02 Jun 2027 04:26:59.277   02 Jun 2027 04:27:00.338             1.061           530.500
        27   02 Jun 2027 04:27:59.213   02 Jun 2027 04:28:04.649             5.436          2718.000
        28   02 Jun 2027 04:28:43.240   02 Jun 2027 04:28:48.004             4.764          2382.000
        29   02 Jun 2027 04:29:27.196   02 Jun 2027 04:29:37.168             9.972          4986.000
        30   02 Jun 2027 06:01:06.906   02 Jun 2027 06:01:07.208             0.302           151.000
        31   02 Jun 2027 06:01:16.395   02 Jun 2027 06:01:17.939             1.544           772.000
        32   02 Jun 2027 06:01:26.303   02 Jun 2027 06:01:32.900             6.597          3298.500
        33   02 Jun 2027 06:02:22.858   02 Jun 2027 06:02:26.964             4.106          2053.000
        34   02 Jun 2027 06:03:05.470   02 Jun 2027 06:03:10.029             4.559          2279.500
        35   02 Jun 2027 06:03:53.177   02 Jun 2027 06:03:56.176             2.999          1499.500
        36   02 Jun 2027 06:04:24.250   02 Jun 2027 06:04:35.440            11.190          5595.000
        37   02 Jun 2027 06:05:32.260   02 Jun 2027 06:05:40.497             8.237          4118.500
        38   02 Jun 2027 07:37:19.433   02 Jun 2027 07:37:27.745             8.312          4156.000
        39   02 Jun 2027 07:38:26.749   02 Jun 2027 07:38:33.260             6.511          3255.500
        40   02 Jun 2027 07:39:08.450   02 Jun 2027 07:39:09.244             0.794           397.000
        41   02 Jun 2027 07:39:12.506   02 Jun 2027 07:39:16.479             3.973          1986.500
        42   02 Jun 2027 07:40:05.924   02 Jun 2027 07:40:05.972             0.048            24.000
        43   02 Jun 2027 07:40:17.566   02 Jun 2027 07:40:32.614            15.048          7524.000
        44   02 Jun 2027 07:41:35.960   02 Jun 2027 07:41:43.793             7.833          3916.500
        45   02 Jun 2027 07:41:50.558   02 Jun 2027 07:41:51.402             0.844           422.000
        46   03 Jun 2027 03:00:00.000   03 Jun 2027 03:00:04.264             4.264          2132.000
        47   03 Jun 2027 03:00:24.027   03 Jun 2027 03:00:28.722             4.695          2347.500
        48   03 Jun 2027 03:01:27.965   03 Jun 2027 03:01:28.026             0.061            30.500
        49   03 Jun 2027 03:01:44.615   03 Jun 2027 03:01:44.962             0.347           173.500
        50   03 Jun 2027 03:01:56.495   03 Jun 2027 03:02:07.167            10.672          5336.000
        51   03 Jun 2027 03:02:58.425   03 Jun 2027 03:03:04.625             6.200          3100.000
        52   03 Jun 2027 03:03:33.614   03 Jun 2027 03:03:34.703             1.089           544.500
        53   03 Jun 2027 03:04:12.312   03 Jun 2027 03:04:20.172             7.860          3930.000
        54   03 Jun 2027 03:05:31.780   03 Jun 2027 03:05:33.492             1.712           856.000
        55   03 Jun 2027 04:35:22.049   03 Jun 2027 04:35:35.748            13.699          6849.500
        56   03 Jun 2027 04:35:42.691   03 Jun 2027 04:35:43.792             1.101           550.500
        57   03 Jun 2027 04:36:58.539   03 Jun 2027 04:37:03.194             4.655          2327.500
        58   03 Jun 2027 04:37:08.562   03 Jun 2027 04:37:10.284             1.722           861.000
        59   03 Jun 2027 04:37:33.220   03 Jun 2027 04:37:34.935             1.715           857.500
        60   03 Jun 2027 04:38:27.268   03 Jun 2027 04:38:36.059             8.791          4395.500
        61   03 Jun 2027 04:39:13.856   03 Jun 2027 04:39:19.985             6.129          3064.500
        62   03 Jun 2027 04:40:13.550   03 Jun 2027 04:40:18.459             4.909          2454.500
        63   03 Jun 2027 04:40:46.627   03 Jun 2027 04:40:55.457             8.830          4415.000
        64   03 Jun 2027 04:41:43.944   03 Jun 2027 04:41:48.897             4.953          2476.500
        65   03 Jun 2027 06:13:23.204   03 Jun 2027 06:13:24.766             1.562           781.000
        66   03 Jun 2027 06:13:56.103   03 Jun 2027 06:13:57.416             1.313           656.500
        67   03 Jun 2027 06:14:41.244   03 Jun 2027 06:14:42.281             1.037           518.500
        68   03 Jun 2027 06:15:09.809   03 Jun 2027 06:15:14.833             5.024          2512.000
        69   03 Jun 2027 06:15:47.314   03 Jun 2027 06:15:49.527             2.213          1106.500
        70   03 Jun 2027 06:16:07.270   03 Jun 2027 06:16:12.595             5.325          2662.500
        71   03 Jun 2027 06:16:42.583   03 Jun 2027 06:16:48.633             6.050          3025.000
        72   03 Jun 2027 07:49:03.057   03 Jun 2027 07:49:04.554             1.497           748.500
        73   03 Jun 2027 07:49:42.597   03 Jun 2027 07:49:57.424            14.827          7413.500
        74   03 Jun 2027 07:51:11.616   03 Jun 2027 07:51:12.960             1.344           672.000
        75   03 Jun 2027 07:52:15.626   03 Jun 2027 07:52:22.380             6.754          3377.000
        76   03 Jun 2027 07:52:55.304   03 Jun 2027 07:52:55.639             0.335           167.500
        77   03 Jun 2027 07:52:59.294   03 Jun 2027 07:53:13.578            14.284          7142.000
        78   03 Jun 2027 07:54:13.935   03 Jun 2027 07:54:21.810             7.875          3937.500
        79   04 Jun 2027 03:10:43.244   04 Jun 2027 03:10:44.077             0.833           416.500
        80   04 Jun 2027 03:11:06.344   04 Jun 2027 03:11:16.660            10.316          5158.000
        81   04 Jun 2027 03:12:06.539   04 Jun 2027 03:12:11.291             4.752          2376.000
        82   04 Jun 2027 03:12:34.676   04 Jun 2027 03:12:47.451            12.775          6387.500
        83   04 Jun 2027 03:13:50.337   04 Jun 2027 03:13:50.614             0.277           138.500
        84   04 Jun 2027 03:14:09.736   04 Jun 2027 03:14:14.684             4.948          2474.000
        85   04 Jun 2027 03:14:44.131   04 Jun 2027 03:14:53.670             9.539          4769.500
        86   04 Jun 2027 03:15:42.961   04 Jun 2027 03:15:58.504            15.543          7771.500
        87   04 Jun 2027 03:17:34.495   04 Jun 2027 03:17:34.701             0.206           103.000
        88   04 Jun 2027 03:17:49.447   04 Jun 2027 03:17:57.630             8.183          4091.500
        89   04 Jun 2027 04:47:43.517   04 Jun 2027 04:47:48.569             5.052          2526.000
        90   04 Jun 2027 04:48:12.379   04 Jun 2027 04:48:29.202            16.823          8411.500
        91   04 Jun 2027 04:49:36.650   04 Jun 2027 04:49:41.395             4.745          2372.500
        92   04 Jun 2027 04:51:01.749   04 Jun 2027 04:51:03.501             1.752           876.000
        93   04 Jun 2027 04:51:17.825   04 Jun 2027 04:51:20.870             3.045          1522.500
        94   04 Jun 2027 04:53:45.591   04 Jun 2027 04:53:46.025             0.434           217.000
        95   04 Jun 2027 06:25:44.770   04 Jun 2027 06:25:46.198             1.428           714.000
        96   04 Jun 2027 06:25:57.871   04 Jun 2027 06:26:23.919            26.048         13024.000
        97   04 Jun 2027 06:28:14.618   04 Jun 2027 06:28:26.459            11.841          5920.500
        98   04 Jun 2027 06:29:16.886   04 Jun 2027 06:29:18.717             1.831           915.500
        99   04 Jun 2027 06:29:28.891   04 Jun 2027 06:29:32.929             4.038          2019.000
       100   04 Jun 2027 07:58:58.846   04 Jun 2027 07:59:07.005             8.159          4079.500
       101   04 Jun 2027 07:59:42.339   04 Jun 2027 07:59:51.862             9.523          4761.500
       102   04 Jun 2027 08:00:40.391   04 Jun 2027 08:00:58.318            17.927          8963.500
       103   04 Jun 2027 08:02:27.688   04 Jun 2027 08:02:37.138             9.450          4725.000
       104   04 Jun 2027 08:03:17.118   04 Jun 2027 08:03:17.974             0.856           428.000
       105   04 Jun 2027 08:04:02.161   04 Jun 2027 08:04:11.850             9.689          4844.500
       106   04 Jun 2027 08:05:12.730   04 Jun 2027 08:05:19.627             6.897          3448.500
       107   04 Jun 2027 08:05:20.731   04 Jun 2027 08:05:23.719             2.988          1494.000
       108   04 Jun 2027 08:05:54.618   04 Jun 2027 08:06:01.860             7.242          3621.000
       109   04 Jun 2027 08:06:47.634   04 Jun 2027 08:06:50.948             3.314          1657.000
       110   05 Jun 2027 03:22:51.593   05 Jun 2027 03:22:58.997             7.404          3702.000
       111   05 Jun 2027 03:23:47.046   05 Jun 2027 03:23:50.794             3.748          1874.000
       112   05 Jun 2027 03:24:14.090   05 Jun 2027 03:24:16.076             1.986           993.000
       113   05 Jun 2027 03:24:49.697   05 Jun 2027 03:24:54.396             4.699          2349.500
       114   05 Jun 2027 03:25:40.101   05 Jun 2027 03:25:44.339             4.238          2119.000
       115   05 Jun 2027 03:26:11.888   05 Jun 2027 03:26:15.353             3.465          1732.500
       116   05 Jun 2027 03:26:37.979   05 Jun 2027 03:26:39.411             1.432           716.000
       117   05 Jun 2027 03:27:05.604   05 Jun 2027 03:27:12.877             7.273          3636.500
       118   05 Jun 2027 03:27:52.427   05 Jun 2027 03:27:54.446             2.019          1009.500
       119   05 Jun 2027 03:28:30.327   05 Jun 2027 03:28:53.887            23.560         11780.000
       120   05 Jun 2027 04:59:48.963   05 Jun 2027 05:00:02.419            13.456          6728.000
       121   05 Jun 2027 05:00:53.995   05 Jun 2027 05:00:55.082             1.087           543.500
       122   05 Jun 2027 05:01:38.347   05 Jun 2027 05:01:40.124             1.777           888.500
       123   05 Jun 2027 05:01:50.747   05 Jun 2027 05:01:52.160             1.413           706.500
       124   05 Jun 2027 05:02:13.033   05 Jun 2027 05:02:14.278             1.245           622.500
       125   05 Jun 2027 05:02:40.240   05 Jun 2027 05:02:43.276             3.036          1518.000
       126   05 Jun 2027 05:02:56.758   05 Jun 2027 05:03:04.166             7.408          3704.000
       127   05 Jun 2027 05:03:49.621   05 Jun 2027 05:03:53.642             4.021          2010.500
       128   05 Jun 2027 05:04:20.931   05 Jun 2027 05:04:26.350             5.419          2709.500
       129   05 Jun 2027 05:04:50.527   05 Jun 2027 05:04:51.223             0.696           348.000
       130   05 Jun 2027 05:05:09.691   05 Jun 2027 05:05:15.711             6.020          3010.000
       131   05 Jun 2027 05:05:43.886   05 Jun 2027 05:05:46.683             2.797          1398.500
       132   05 Jun 2027 06:37:41.949   05 Jun 2027 06:37:46.699             4.750          2375.000
       133   05 Jun 2027 06:38:24.936   05 Jun 2027 06:38:29.318             4.382          2191.000
       134   05 Jun 2027 06:38:55.634   05 Jun 2027 06:39:04.062             8.428          4214.000
       135   05 Jun 2027 06:39:54.980   05 Jun 2027 06:39:57.350             2.370          1185.000
       136   05 Jun 2027 06:40:38.017   05 Jun 2027 06:40:41.233             3.216          1608.000
       137   05 Jun 2027 06:41:20.881   05 Jun 2027 06:41:21.584             0.703           351.500
       138   05 Jun 2027 08:11:10.117   05 Jun 2027 08:11:40.681            30.564         15282.000
       139   05 Jun 2027 08:13:47.024   05 Jun 2027 08:13:57.290            10.266          5133.000
       140   05 Jun 2027 08:15:23.505   05 Jun 2027 08:15:27.593             4.088          2044.000
       141   05 Jun 2027 08:16:08.490   05 Jun 2027 08:16:13.710             5.220          2610.000
       142   05 Jun 2027 08:16:48.865   05 Jun 2027 08:16:50.262             1.397           698.500
       143   05 Jun 2027 08:16:56.589   05 Jun 2027 08:17:00.065             3.476          1738.000
       144   05 Jun 2027 08:17:36.736   05 Jun 2027 08:17:37.426             0.690           345.000
       145   05 Jun 2027 08:17:47.343   05 Jun 2027 08:17:48.306             0.963           481.500
       146   05 Jun 2027 08:18:03.182   05 Jun 2027 08:18:06.267             3.085          1542.500
       147   05 Jun 2027 08:18:34.182   05 Jun 2027 08:18:48.494            14.312          7156.000
       148   06 Jun 2027 03:34:53.061   06 Jun 2027 03:35:13.639            20.578         10289.000
       149   06 Jun 2027 03:36:40.915   06 Jun 2027 03:36:52.344            11.429          5714.500
       150   06 Jun 2027 03:37:43.453   06 Jun 2027 03:37:44.674             1.221           610.500
       151   06 Jun 2027 03:37:51.097   06 Jun 2027 03:37:52.584             1.487           743.500
       152   06 Jun 2027 03:38:01.486   06 Jun 2027 03:38:03.770             2.284          1142.000
       153   06 Jun 2027 03:38:25.339   06 Jun 2027 03:38:29.885             4.546          2273.000
       154   06 Jun 2027 03:39:02.835   06 Jun 2027 03:39:04.473             1.638           819.000
       155   06 Jun 2027 03:39:14.070   06 Jun 2027 03:39:18.421             4.351          2175.500
       156   06 Jun 2027 03:39:36.060   06 Jun 2027 03:39:39.002             2.942          1471.000
       157   06 Jun 2027 03:41:14.702   06 Jun 2027 03:41:23.278             8.576          4288.000
       158   06 Jun 2027 03:42:04.666   06 Jun 2027 03:42:18.505            13.839          6919.500
       159   06 Jun 2027 05:11:41.199   06 Jun 2027 05:11:46.261             5.062          2531.000
       160   06 Jun 2027 05:11:55.992   06 Jun 2027 05:12:12.815            16.823          8411.500
       161   06 Jun 2027 05:12:28.654   06 Jun 2027 05:12:41.602            12.948          6474.000
       162   06 Jun 2027 05:15:12.312   06 Jun 2027 05:15:14.067             1.755           877.500
       163   06 Jun 2027 05:15:53.979   06 Jun 2027 05:15:57.780             3.801          1900.500
       164   06 Jun 2027 05:16:44.871   06 Jun 2027 05:16:56.922            12.051          6025.500
       165   06 Jun 2027 05:17:50.147   06 Jun 2027 05:17:55.663             5.516          2758.000
       166   06 Jun 2027 05:18:22.366   06 Jun 2027 05:18:23.832             1.466           733.000
       167   06 Jun 2027 06:49:43.574   06 Jun 2027 06:49:48.551             4.977          2488.500
       168   06 Jun 2027 06:50:17.849   06 Jun 2027 06:50:26.073             8.224          4112.000
       169   06 Jun 2027 06:51:14.106   06 Jun 2027 06:51:15.894             1.788           894.000
       170   06 Jun 2027 06:51:23.776   06 Jun 2027 06:51:24.870             1.094           547.000
       171   06 Jun 2027 06:52:03.067   06 Jun 2027 06:52:07.160             4.093          2046.500
       172   06 Jun 2027 06:52:26.411   06 Jun 2027 06:52:28.907             2.496          1248.000
       173   06 Jun 2027 06:53:18.718   06 Jun 2027 06:53:26.791             8.073          4036.500
       174   06 Jun 2027 08:23:35.514   06 Jun 2027 08:23:45.793            10.279          5139.500
       175   06 Jun 2027 08:24:50.805   06 Jun 2027 08:24:58.926             8.121          4060.500
       176   06 Jun 2027 08:25:15.045   06 Jun 2027 08:25:20.201             5.156          2578.000
       177   06 Jun 2027 08:26:05.765   06 Jun 2027 08:26:06.800             1.035           517.500
       178   06 Jun 2027 08:27:03.286   06 Jun 2027 08:27:06.738             3.452          1726.000
       179   06 Jun 2027 08:27:29.696   06 Jun 2027 08:27:39.765            10.069          5034.500
       180   06 Jun 2027 08:28:21.721   06 Jun 2027 08:28:31.547             9.826          4913.000
       181   06 Jun 2027 08:29:28.634   06 Jun 2027 08:29:33.378             4.744          2372.000
       182   07 Jun 2027 03:46:56.340   07 Jun 2027 03:47:03.021             6.681          3340.500
       183   07 Jun 2027 03:48:04.321   07 Jun 2027 03:48:17.481            13.160          6580.000
       184   07 Jun 2027 03:49:40.506   07 Jun 2027 03:49:42.942             2.436          1218.000
       185   07 Jun 2027 03:49:57.343   07 Jun 2027 03:50:01.979             4.636          2318.000
       186   07 Jun 2027 03:51:07.288   07 Jun 2027 03:51:13.297             6.009          3004.500
       187   07 Jun 2027 03:51:38.141   07 Jun 2027 03:51:52.097            13.956          6978.000
       188   07 Jun 2027 03:52:52.924   07 Jun 2027 03:52:54.773             1.849           924.500
       189   07 Jun 2027 03:53:05.922   07 Jun 2027 03:53:12.600             6.678          3339.000
       190   07 Jun 2027 03:53:43.047   07 Jun 2027 03:53:53.313            10.266          5133.000
       191   07 Jun 2027 05:23:51.211   07 Jun 2027 05:24:04.363            13.152          6576.000
       192   07 Jun 2027 05:24:38.444   07 Jun 2027 05:25:23.495            45.051         22525.500
       193   07 Jun 2027 05:28:33.001   07 Jun 2027 05:28:36.878             3.877          1938.500
       194   07 Jun 2027 05:29:18.234   07 Jun 2027 05:29:22.188             3.954          1977.000
       195   07 Jun 2027 05:29:28.410   07 Jun 2027 05:29:30.694             2.284          1142.000
       196   07 Jun 2027 05:29:52.136   07 Jun 2027 05:29:54.012             1.876           938.000
       197   07 Jun 2027 05:30:10.200   07 Jun 2027 05:30:12.120             1.920           960.000
       198   07 Jun 2027 07:00:57.163   07 Jun 2027 07:01:16.336            19.173          9586.500
       199   07 Jun 2027 07:02:38.144   07 Jun 2027 07:02:54.467            16.323          8161.500
       200   07 Jun 2027 07:04:08.224   07 Jun 2027 07:04:14.513             6.289          3144.500
       201   07 Jun 2027 07:04:40.166   07 Jun 2027 07:04:44.926             4.760          2380.000
       202   07 Jun 2027 07:05:02.177   07 Jun 2027 07:05:05.762             3.585          1792.500
       203   07 Jun 2027 07:05:40.873   07 Jun 2027 07:05:45.724             4.851          2425.500
       204   07 Jun 2027 08:35:57.520   07 Jun 2027 08:35:58.660             1.140           570.000
       205   07 Jun 2027 08:36:07.483   07 Jun 2027 08:36:13.794             6.311          3155.500
       206   07 Jun 2027 08:37:38.686   07 Jun 2027 08:37:43.023             4.337          2168.500
       207   07 Jun 2027 08:38:04.425   07 Jun 2027 08:38:17.694            13.269          6634.500
       208   07 Jun 2027 08:39:33.141   07 Jun 2027 08:39:33.536             0.395           197.500
       209   07 Jun 2027 08:39:36.334   07 Jun 2027 08:39:52.303            15.969          7984.500
       210   08 Jun 2027 03:59:22.061   08 Jun 2027 03:59:34.071            12.010          6005.000
       211   08 Jun 2027 04:01:23.658   08 Jun 2027 04:01:25.862             2.204          1102.000
       212   08 Jun 2027 04:01:46.189   08 Jun 2027 04:01:54.321             8.132          4066.000
       213   08 Jun 2027 04:02:51.052   08 Jun 2027 04:03:06.367            15.315          7657.500
       214   08 Jun 2027 04:04:29.121   08 Jun 2027 04:04:42.301            13.180          6590.000
       215   08 Jun 2027 04:05:38.778   08 Jun 2027 04:05:39.755             0.977           488.500
       216   08 Jun 2027 04:05:46.010   08 Jun 2027 04:05:55.062             9.052          4526.000
       217   08 Jun 2027 05:36:18.539   08 Jun 2027 05:36:36.687            18.148          9074.000
       218   08 Jun 2027 05:37:19.799   08 Jun 2027 05:37:26.616             6.817          3408.500
       219   08 Jun 2027 05:38:31.219   08 Jun 2027 05:38:33.092             1.873           936.500
       220   08 Jun 2027 05:38:52.575   08 Jun 2027 05:38:59.555             6.980          3490.000
       221   08 Jun 2027 05:39:44.092   08 Jun 2027 05:39:47.020             2.928          1464.000
       222   08 Jun 2027 05:40:01.865   08 Jun 2027 05:40:05.648             3.783          1891.500
       223   08 Jun 2027 05:40:12.116   08 Jun 2027 05:40:19.596             7.480          3740.000
       224   08 Jun 2027 05:41:13.331   08 Jun 2027 05:41:18.441             5.110          2555.000
       225   08 Jun 2027 05:41:48.776   08 Jun 2027 05:41:54.034             5.258          2629.000
       226   08 Jun 2027 07:13:09.267   08 Jun 2027 07:13:20.824            11.557          5778.500
       227   08 Jun 2027 07:14:50.502   08 Jun 2027 07:14:51.104             0.602           301.000
       228   08 Jun 2027 07:15:23.437   08 Jun 2027 07:15:24.061             0.624           312.000
       229   08 Jun 2027 07:15:29.866   08 Jun 2027 07:15:31.653             1.787           893.500
       230   08 Jun 2027 07:15:39.831   08 Jun 2027 07:15:45.898             6.067          3033.500
       231   08 Jun 2027 07:16:20.441   08 Jun 2027 07:16:25.834             5.393          2696.500
       232   08 Jun 2027 07:17:15.810   08 Jun 2027 07:17:16.845             1.035           517.500
       233   08 Jun 2027 08:50:45.617   08 Jun 2027 08:50:56.052            10.435          5217.500
       234   08 Jun 2027 08:51:40.684   08 Jun 2027 08:51:43.776             3.092          1546.000
       235   09 Jun 2027 04:11:28.371   09 Jun 2027 04:11:54.135            25.764         12882.000
       236   09 Jun 2027 04:13:12.100   09 Jun 2027 04:13:21.818             9.718          4859.000
       237   09 Jun 2027 04:14:44.156   09 Jun 2027 04:14:51.587             7.431          3715.500
       238   09 Jun 2027 04:16:09.736   09 Jun 2027 04:16:11.009             1.273           636.500
       239   09 Jun 2027 04:16:31.027   09 Jun 2027 04:16:34.952             3.925          1962.500
       240   09 Jun 2027 04:17:11.503   09 Jun 2027 04:17:24.291            12.788          6394.000
       241   09 Jun 2027 04:17:50.400   09 Jun 2027 04:17:56.942             6.542          3271.000
       242   09 Jun 2027 05:49:08.916   09 Jun 2027 05:49:22.840            13.924          6962.000
       243   09 Jun 2027 05:50:01.516   09 Jun 2027 05:50:08.116             6.600          3300.000
       244   09 Jun 2027 05:50:58.771   09 Jun 2027 05:51:08.822            10.051          5025.500
       245   09 Jun 2027 05:52:43.423   09 Jun 2027 05:52:48.285             4.862          2431.000
       246   09 Jun 2027 05:53:09.246   09 Jun 2027 05:53:11.026             1.780           890.000
       247   09 Jun 2027 07:25:11.769   09 Jun 2027 07:25:16.315             4.546          2273.000
       248   09 Jun 2027 07:25:43.104   09 Jun 2027 07:25:46.412             3.308          1654.000
       249   09 Jun 2027 07:25:52.866   09 Jun 2027 07:26:03.753            10.887          5443.500
       250   09 Jun 2027 07:27:12.254   09 Jun 2027 07:27:21.059             8.805          4402.500
       251   09 Jun 2027 07:28:08.670   09 Jun 2027 07:28:09.752             1.082           541.000
       252   09 Jun 2027 07:28:27.006   09 Jun 2027 07:28:37.361            10.355          5177.500
       253   09 Jun 2027 07:29:24.098   09 Jun 2027 07:29:31.389             7.291          3645.500
       254   10 Jun 2027 04:24:04.431   10 Jun 2027 04:24:14.049             9.618          4809.000
       255   10 Jun 2027 04:25:33.090   10 Jun 2027 04:25:40.777             7.687          3843.500
       256   10 Jun 2027 04:26:45.966   10 Jun 2027 04:26:57.376            11.410          5705.000
       257   10 Jun 2027 04:28:16.907   10 Jun 2027 04:28:19.199             2.292          1146.000
       258   10 Jun 2027 04:28:29.719   10 Jun 2027 04:28:30.623             0.904           452.000
       259   10 Jun 2027 04:29:03.290   10 Jun 2027 04:29:05.329             2.039          1019.500
       260   10 Jun 2027 04:29:44.628   10 Jun 2027 04:29:52.383             7.755          3877.500
       261   10 Jun 2027 06:01:21.012   10 Jun 2027 06:01:21.039             0.027            13.500
       262   10 Jun 2027 06:01:34.079   10 Jun 2027 06:01:35.562             1.483           741.500
       263   10 Jun 2027 06:01:43.527   10 Jun 2027 06:01:47.763             4.236          2118.000
       264   10 Jun 2027 06:02:07.517   10 Jun 2027 06:02:11.526             4.009          2004.500
       265   10 Jun 2027 06:02:46.282   10 Jun 2027 06:03:10.566            24.284         12142.000
       266   10 Jun 2027 06:04:35.699   10 Jun 2027 06:04:39.875             4.176          2088.000
       267   10 Jun 2027 06:05:01.585   10 Jun 2027 06:05:11.383             9.798          4899.000
       268   10 Jun 2027 07:37:34.472   10 Jun 2027 07:37:42.103             7.631          3815.500
       269   10 Jun 2027 07:38:13.819   10 Jun 2027 07:38:17.633             3.814          1907.000
       270   10 Jun 2027 07:38:32.194   10 Jun 2027 07:38:40.550             8.356          4178.000
       271   10 Jun 2027 07:39:38.306   10 Jun 2027 07:39:46.026             7.720          3860.000
       272   10 Jun 2027 07:40:49.250   10 Jun 2027 07:40:56.377             7.127          3563.500
       273   10 Jun 2027 07:41:17.223   10 Jun 2027 07:41:17.223             0.000             0.000
       274   10 Jun 2027 07:41:40.942   10 Jun 2027 07:41:41.109             0.167            83.500
       275   10 Jun 2027 07:41:53.701   10 Jun 2027 07:41:58.707             5.006          2503.000
       276   10 Jun 2027 07:42:06.824   10 Jun 2027 07:42:08.268             1.444           722.000
       277   11 Jun 2027 03:00:00.000   11 Jun 2027 03:00:04.236             4.236          2118.000
       278   11 Jun 2027 03:00:44.759   11 Jun 2027 03:00:51.506             6.747          3373.500
       279   11 Jun 2027 03:01:39.380   11 Jun 2027 03:01:42.502             3.122          1561.000
       280   11 Jun 2027 03:01:57.279   11 Jun 2027 03:01:59.428             2.149          1074.500
       281   11 Jun 2027 03:02:23.793   11 Jun 2027 03:02:29.245             5.452          2726.000
       282   11 Jun 2027 03:03:03.397   11 Jun 2027 03:03:03.523             0.126            63.000
       283   11 Jun 2027 03:03:26.605   11 Jun 2027 03:03:31.471             4.866          2433.000
       284   11 Jun 2027 03:03:51.635   11 Jun 2027 03:03:52.281             0.646           323.000
       285   11 Jun 2027 03:04:28.198   11 Jun 2027 03:04:34.165             5.967          2983.500
       286   11 Jun 2027 03:04:59.455   11 Jun 2027 03:05:03.255             3.800          1900.000
       287   11 Jun 2027 03:05:18.564   11 Jun 2027 03:05:20.923             2.359          1179.500
       288   11 Jun 2027 03:05:46.245   11 Jun 2027 03:05:46.344             0.099            49.500
       289   11 Jun 2027 03:05:51.368   11 Jun 2027 03:05:51.811             0.443           221.500
       290   11 Jun 2027 03:06:00.949   11 Jun 2027 03:06:05.779             4.830          2415.000
       291   11 Jun 2027 04:35:36.734   11 Jun 2027 04:35:37.151             0.417           208.500
       292   11 Jun 2027 04:35:52.820   11 Jun 2027 04:35:58.769             5.949          2974.500
       293   11 Jun 2027 04:36:23.423   11 Jun 2027 04:36:38.616            15.193          7596.500
       294   11 Jun 2027 04:36:51.197   11 Jun 2027 04:37:04.033            12.836          6418.000
       295   11 Jun 2027 04:38:51.748   11 Jun 2027 04:38:51.849             0.101            50.500
       296   11 Jun 2027 04:38:56.051   11 Jun 2027 04:38:58.866             2.815          1407.500
       297   11 Jun 2027 04:39:18.637   11 Jun 2027 04:39:20.079             1.442           721.000
       298   11 Jun 2027 04:39:55.701   11 Jun 2027 04:40:04.221             8.520          4260.000
       299   11 Jun 2027 04:40:24.899   11 Jun 2027 04:40:28.066             3.167          1583.500
       300   11 Jun 2027 04:41:00.566   11 Jun 2027 04:41:11.098            10.532          5266.000
       301   11 Jun 2027 04:41:41.193   11 Jun 2027 04:41:41.193             0.000             0.000
       302   11 Jun 2027 04:42:00.974   11 Jun 2027 04:42:03.970             2.996          1498.000
       303   11 Jun 2027 06:13:48.177   11 Jun 2027 06:13:51.710             3.533          1766.500
       304   11 Jun 2027 06:14:56.860   11 Jun 2027 06:15:00.379             3.519          1759.500
       305   11 Jun 2027 06:15:18.765   11 Jun 2027 06:15:27.747             8.982          4491.000
       306   11 Jun 2027 06:16:38.434   11 Jun 2027 06:16:40.164             1.730           865.000
       307   11 Jun 2027 06:17:24.843   11 Jun 2027 06:17:25.727             0.884           442.000
       308   11 Jun 2027 06:17:30.133   11 Jun 2027 06:17:34.985             4.852          2426.000
       309   11 Jun 2027 07:49:17.587   11 Jun 2027 07:49:21.533             3.946          1973.000
       310   11 Jun 2027 07:49:58.508   11 Jun 2027 07:50:12.652            14.144          7072.000
       311   11 Jun 2027 07:51:26.459   11 Jun 2027 07:51:31.082             4.623          2311.500
       312   11 Jun 2027 07:52:45.115   11 Jun 2027 07:52:48.560             3.445          1722.500
       313   11 Jun 2027 07:53:11.455   11 Jun 2027 07:53:11.666             0.211           105.500
       314   11 Jun 2027 07:53:28.647   11 Jun 2027 07:53:29.536             0.889           444.500
       315   11 Jun 2027 07:53:37.239   11 Jun 2027 07:53:41.518             4.279          2139.500
       316   11 Jun 2027 07:54:28.656   11 Jun 2027 07:54:36.539             7.883          3941.500
       317   12 Jun 2027 03:10:57.810   12 Jun 2027 03:11:01.368             3.558          1779.000
       318   12 Jun 2027 03:11:34.844   12 Jun 2027 03:11:37.361             2.517          1258.500
       319   12 Jun 2027 03:12:08.431   12 Jun 2027 03:12:08.454             0.023            11.500
       320   12 Jun 2027 03:12:56.745   12 Jun 2027 03:13:02.553             5.808          2904.000
       321   12 Jun 2027 03:13:49.717   12 Jun 2027 03:13:50.798             1.081           540.500
       322   12 Jun 2027 03:13:57.314   12 Jun 2027 03:13:59.129             1.815           907.500
       323   12 Jun 2027 03:14:12.526   12 Jun 2027 03:14:22.434             9.908          4954.000
       324   12 Jun 2027 03:14:36.355   12 Jun 2027 03:14:36.355             0.000             0.000
       325   12 Jun 2027 03:15:15.391   12 Jun 2027 03:15:18.722             3.331          1665.500
       326   12 Jun 2027 03:15:43.945   12 Jun 2027 03:15:45.187             1.242           621.000
       327   12 Jun 2027 03:15:52.373   12 Jun 2027 03:16:00.419             8.046          4023.000
       328   12 Jun 2027 03:16:31.788   12 Jun 2027 03:16:33.958             2.170          1085.000
       329   12 Jun 2027 03:17:06.129   12 Jun 2027 03:17:08.976             2.847          1423.500
       330   12 Jun 2027 03:17:51.387   12 Jun 2027 03:17:56.559             5.172          2586.000
       331   12 Jun 2027 04:47:58.500   12 Jun 2027 04:48:24.995            26.495         13247.500
       332   12 Jun 2027 04:49:40.929   12 Jun 2027 04:49:51.507            10.578          5289.000
       333   12 Jun 2027 04:51:08.822   12 Jun 2027 04:51:14.795             5.973          2986.500
       334   12 Jun 2027 04:51:32.551   12 Jun 2027 04:51:35.438             2.887          1443.500
       335   12 Jun 2027 04:53:59.901   12 Jun 2027 04:54:03.050             3.149          1574.500
       336   12 Jun 2027 06:25:59.235   12 Jun 2027 06:25:59.568             0.333           166.500
       337   12 Jun 2027 06:26:38.650   12 Jun 2027 06:26:41.651             3.001          1500.500
       338   12 Jun 2027 06:27:12.247   12 Jun 2027 06:27:12.546             0.299           149.500
       339   12 Jun 2027 06:27:14.359   12 Jun 2027 06:27:23.652             9.293          4646.500
       340   12 Jun 2027 06:28:24.471   12 Jun 2027 06:28:27.288             2.817          1408.500
       341   12 Jun 2027 06:29:16.916   12 Jun 2027 06:29:18.966             2.050          1025.000
       342   12 Jun 2027 06:29:35.895   12 Jun 2027 06:29:43.430             7.535          3767.500
       343   12 Jun 2027 07:59:13.118   12 Jun 2027 07:59:22.822             9.704          4852.000
       344   12 Jun 2027 07:59:36.190   12 Jun 2027 07:59:44.616             8.426          4213.000
       345   12 Jun 2027 08:01:33.672   12 Jun 2027 08:01:46.894            13.222          6611.000
       346   12 Jun 2027 08:02:42.517   12 Jun 2027 08:02:43.733             1.216           608.000
       347   12 Jun 2027 08:03:05.750   12 Jun 2027 08:03:18.482            12.732          6366.000
       348   12 Jun 2027 08:04:39.787   12 Jun 2027 08:04:41.615             1.828           914.000
       349   12 Jun 2027 08:04:59.124   12 Jun 2027 08:05:03.741             4.617          2308.500
       350   12 Jun 2027 08:05:59.910   12 Jun 2027 08:06:11.712            11.802          5901.000
       351   12 Jun 2027 08:07:02.269   12 Jun 2027 08:07:05.758             3.489          1744.500
       352   13 Jun 2027 03:23:06.553   13 Jun 2027 03:23:13.647             7.094          3547.000
       353   13 Jun 2027 03:23:17.521   13 Jun 2027 03:23:30.051            12.530          6265.000
       354   13 Jun 2027 03:24:34.235   13 Jun 2027 03:24:36.700             2.465          1232.500
       355   13 Jun 2027 03:24:49.872   13 Jun 2027 03:24:57.340             7.468          3734.000
       356   13 Jun 2027 03:25:51.376   13 Jun 2027 03:25:58.117             6.741          3370.500
       357   13 Jun 2027 03:26:35.455   13 Jun 2027 03:26:43.430             7.975          3987.500
       358   13 Jun 2027 03:28:04.762   13 Jun 2027 03:28:07.023             2.261          1130.500
       359   13 Jun 2027 03:28:40.301   13 Jun 2027 03:28:46.591             6.290          3145.000
       360   13 Jun 2027 03:29:15.312   13 Jun 2027 03:29:18.424             3.112          1556.000
       361   13 Jun 2027 03:29:56.776   13 Jun 2027 03:30:07.426            10.650          5325.000
       362   13 Jun 2027 05:00:03.939   13 Jun 2027 05:00:18.964            15.025          7512.500
       363   13 Jun 2027 05:01:12.562   13 Jun 2027 05:01:45.270            32.708         16354.000
       364   13 Jun 2027 05:05:35.736   13 Jun 2027 05:05:58.124            22.388         11194.000
       365   13 Jun 2027 06:37:56.822   13 Jun 2027 06:38:01.361             4.539          2269.500
       366   13 Jun 2027 06:38:39.592   13 Jun 2027 06:38:44.759             5.167          2583.500
       367   13 Jun 2027 06:39:12.339   13 Jun 2027 06:39:16.130             3.791          1895.500
       368   13 Jun 2027 06:39:40.190   13 Jun 2027 06:39:42.957             2.767          1383.500
       369   13 Jun 2027 06:40:12.825   13 Jun 2027 06:40:12.861             0.036            18.000
       370   13 Jun 2027 06:40:14.551   13 Jun 2027 06:40:16.566             2.015          1007.500
       371   13 Jun 2027 06:40:36.615   13 Jun 2027 06:40:46.936            10.321          5160.500
       372   13 Jun 2027 06:41:36.031   13 Jun 2027 06:41:39.101             3.070          1535.000
       373   13 Jun 2027 08:11:25.588   13 Jun 2027 08:11:55.388            29.800         14900.000
       374   13 Jun 2027 08:14:01.572   13 Jun 2027 08:14:15.415            13.843          6921.500
       375   13 Jun 2027 08:15:41.937   13 Jun 2027 08:15:42.454             0.517           258.500
       376   13 Jun 2027 08:15:54.207   13 Jun 2027 08:15:58.533             4.326          2163.000
       377   13 Jun 2027 08:16:38.136   13 Jun 2027 08:16:38.700             0.564           282.000
       378   13 Jun 2027 08:16:46.381   13 Jun 2027 08:16:46.465             0.084            42.000
       379   13 Jun 2027 08:16:49.933   13 Jun 2027 08:16:52.339             2.406          1203.000
       380   13 Jun 2027 08:17:03.537   13 Jun 2027 08:17:05.363             1.826           913.000
       381   13 Jun 2027 08:17:40.831   13 Jun 2027 08:17:52.420            11.589          5794.500
       382   13 Jun 2027 08:18:41.210   13 Jun 2027 08:18:42.247             1.037           518.500
