uniorb/output/strategy_2/Camera/Camera_KinoSat_110710.txt

KinoSat_110710
-------------------------
    Access    *     Start Time (UTCG)     *     Stop Time (UTCG)  *   Duration (s) *   Data (Mbytes)
         1   01 Jun 2027 04:27:46.414   01 Jun 2027 04:30:43.239           176.825         88412.500
         2   01 Jun 2027 04:31:16.190   01 Jun 2027 04:31:21.470             5.280          2640.000
         3   01 Jun 2027 06:02:44.381   01 Jun 2027 06:05:29.791           165.410         82705.000
         4   01 Jun 2027 06:05:52.721   01 Jun 2027 06:06:20.400            27.679         13839.500
         5   01 Jun 2027 06:07:13.754   01 Jun 2027 06:07:18.820             5.066          2533.000
         6   01 Jun 2027 06:08:21.647   01 Jun 2027 06:08:50.458            28.811         14405.500
         7   01 Jun 2027 06:09:20.041   01 Jun 2027 06:09:43.925            23.884         11942.000
         8   01 Jun 2027 07:38:56.205   01 Jun 2027 07:41:35.720           159.515         79757.500
         9   01 Jun 2027 07:42:03.992   01 Jun 2027 07:42:22.382            18.390          9195.000
        10   01 Jun 2027 07:43:00.520   01 Jun 2027 07:43:13.232            12.712          6356.000
        11   01 Jun 2027 07:44:31.976   01 Jun 2027 07:44:55.604            23.628         11814.000
        12   01 Jun 2027 09:16:56.218   01 Jun 2027 09:19:23.494           147.276         73638.000
        13   01 Jun 2027 09:20:13.393   01 Jun 2027 09:20:16.885             3.492          1746.000
        14   01 Jun 2027 10:52:37.845   01 Jun 2027 10:54:28.323           110.478         55239.000
        15   01 Jun 2027 10:54:45.441   01 Jun 2027 10:55:03.896            18.455          9227.500
        16   01 Jun 2027 10:57:32.453   01 Jun 2027 10:57:36.188             3.735          1867.500
        17   02 Jun 2027 03:03:08.520   02 Jun 2027 03:03:21.191            12.671          6335.500
        18   02 Jun 2027 03:03:33.309   02 Jun 2027 03:03:51.792            18.483          9241.500
        19   02 Jun 2027 03:04:05.196   02 Jun 2027 03:04:05.196             0.000             0.000
        20   02 Jun 2027 03:04:09.183   02 Jun 2027 03:04:26.770            17.587          8793.500
        21   02 Jun 2027 03:04:30.421   02 Jun 2027 03:04:30.421             0.000             0.000
        22   02 Jun 2027 03:05:53.667   02 Jun 2027 03:05:54.467             0.800           400.000
        23   02 Jun 2027 03:06:01.260   02 Jun 2027 03:06:36.128            34.868         17434.000
        24   02 Jun 2027 04:38:22.554   02 Jun 2027 04:38:28.110             5.556          2778.000
        25   02 Jun 2027 04:39:31.880   02 Jun 2027 04:41:05.398            93.518         46759.000
        26   02 Jun 2027 04:42:36.120   02 Jun 2027 04:43:33.416            57.296         28648.000
        27   02 Jun 2027 04:43:53.297   02 Jun 2027 04:43:58.385             5.088          2544.000
        28   02 Jun 2027 06:14:17.973   02 Jun 2027 06:16:08.550           110.577         55288.500
        29   02 Jun 2027 06:17:10.165   02 Jun 2027 06:18:17.246            67.081         33540.500
        30   02 Jun 2027 06:18:25.664   02 Jun 2027 06:18:49.922            24.258         12129.000
        31   02 Jun 2027 06:19:49.837   02 Jun 2027 06:19:58.281             8.444          4222.000
        32   02 Jun 2027 06:19:59.813   02 Jun 2027 06:19:59.813             0.000             0.000
        33   02 Jun 2027 06:20:36.279   02 Jun 2027 06:20:36.279             0.000             0.000
        34   02 Jun 2027 06:21:36.893   02 Jun 2027 06:21:39.097             2.204          1102.000
        35   02 Jun 2027 07:51:10.808   02 Jun 2027 07:53:37.363           146.555         73277.500
        36   02 Jun 2027 07:54:54.183   02 Jun 2027 07:55:02.284             8.101          4050.500
        37   02 Jun 2027 07:55:37.664   02 Jun 2027 07:55:48.874            11.210          5605.000
        38   02 Jun 2027 09:29:18.044   02 Jun 2027 09:30:11.888            53.844         24015.750
        39   02 Jun 2027 09:31:04.366   02 Jun 2027 09:31:07.559             3.193          1393.500
        40   02 Jun 2027 09:32:03.402   02 Jun 2027 09:32:07.370             3.968          1178.031
        41   02 Jun 2027 11:02:33.885   02 Jun 2027 11:02:49.042            15.157          7526.375
        42   02 Jun 2027 11:03:48.276   02 Jun 2027 11:03:54.659             6.383           705.312
        43   02 Jun 2027 11:04:16.813   02 Jun 2027 11:04:22.451             5.638           393.406
        44   02 Jun 2027 11:05:08.775   02 Jun 2027 11:05:12.026             3.251           939.469
        45   02 Jun 2027 11:05:16.861   02 Jun 2027 11:05:17.033             0.172            76.125
        46   02 Jun 2027 11:05:54.537   02 Jun 2027 11:05:56.801             2.264           770.031
        47   02 Jun 2027 11:06:22.521   02 Jun 2027 11:06:24.327             1.806           803.750
        48   02 Jun 2027 11:06:52.083   02 Jun 2027 11:06:58.686             6.603           489.969
        49   02 Jun 2027 11:07:07.494   02 Jun 2027 11:07:07.494             0.000             0.000
        50   02 Jun 2027 11:07:25.933   02 Jun 2027 11:07:26.043             0.110            55.000
        51   02 Jun 2027 11:08:07.111   02 Jun 2027 11:08:15.006             7.895          2029.375
        52   02 Jun 2027 11:08:44.640   02 Jun 2027 11:08:56.109            11.469           715.750
        53   02 Jun 2027 11:09:59.521   02 Jun 2027 11:10:05.551             6.030          1970.750
        54   03 Jun 2027 03:14:06.629   03 Jun 2027 03:15:10.629            64.000         32000.000
        55   03 Jun 2027 03:18:38.719   03 Jun 2027 03:18:38.719             0.000             0.000
        56   03 Jun 2027 03:18:43.813   03 Jun 2027 03:18:44.025             0.212           106.000
        57   03 Jun 2027 04:49:17.074   03 Jun 2027 04:50:42.377            85.303         42651.500
        58   03 Jun 2027 04:51:15.476   03 Jun 2027 04:53:22.088           126.612         63306.000
        59   03 Jun 2027 04:54:09.994   03 Jun 2027 04:54:14.051             4.057          2028.500
        60   03 Jun 2027 06:26:25.047   03 Jun 2027 06:27:22.779            57.732         27231.688
        61   03 Jun 2027 06:27:41.248   03 Jun 2027 06:27:43.500             2.252           416.094
        62   03 Jun 2027 06:28:36.269   03 Jun 2027 06:28:40.489             4.220          1649.031
        63   03 Jun 2027 06:29:21.217   03 Jun 2027 06:29:25.408             4.191          1164.625
        64   03 Jun 2027 06:31:17.459   03 Jun 2027 06:31:29.164            11.705          3455.250
        65   03 Jun 2027 06:32:43.694   03 Jun 2027 06:32:48.464             4.770          2329.063
        66   03 Jun 2027 06:33:08.188   03 Jun 2027 06:33:09.702             1.514            31.312
        67   03 Jun 2027 06:33:41.061   03 Jun 2027 06:33:42.768             1.707           336.906
        68   03 Jun 2027 08:03:22.717   03 Jun 2027 08:03:56.962            34.245         16544.844
        69   03 Jun 2027 08:05:37.371   03 Jun 2027 08:05:42.106             4.735          1887.188
        70   03 Jun 2027 08:06:31.395   03 Jun 2027 08:06:36.418             5.023          1332.062
        71   03 Jun 2027 08:07:07.540   03 Jun 2027 08:07:08.012             0.472           132.156
        72   03 Jun 2027 08:07:35.397   03 Jun 2027 08:07:37.430             2.033           777.031
        73   03 Jun 2027 08:08:02.680   03 Jun 2027 08:08:05.867             3.187           557.687
        74   03 Jun 2027 08:08:21.266   03 Jun 2027 08:08:24.993             3.727           407.094
        75   03 Jun 2027 08:08:46.183   03 Jun 2027 08:08:47.384             1.201           422.906
        76   03 Jun 2027 08:08:57.536   03 Jun 2027 08:09:00.047             2.511            89.656
        77   03 Jun 2027 09:41:15.803   03 Jun 2027 09:41:34.289            18.486          9028.938
        78   03 Jun 2027 09:41:59.075   03 Jun 2027 09:41:59.075             0.000             0.000
        79   03 Jun 2027 09:41:59.715   03 Jun 2027 09:42:02.074             2.359           794.562
        80   03 Jun 2027 09:42:19.113   03 Jun 2027 09:42:20.611             1.498            73.781
        81   03 Jun 2027 09:42:36.838   03 Jun 2027 09:42:38.383             1.545           470.125
        82   03 Jun 2027 09:43:12.473   03 Jun 2027 09:43:14.084             1.611           685.000
        83   03 Jun 2027 09:44:04.326   03 Jun 2027 09:44:04.326             0.000             0.000
        84   03 Jun 2027 09:44:32.377   03 Jun 2027 09:44:33.983             1.606           803.000
        85   03 Jun 2027 09:44:40.817   03 Jun 2027 09:44:43.730             2.913           876.313
        86   03 Jun 2027 09:44:56.579   03 Jun 2027 09:45:01.862             5.283           355.469
        87   03 Jun 2027 11:14:42.548   03 Jun 2027 11:14:49.355             6.807          3036.656
        88   03 Jun 2027 11:15:50.377   03 Jun 2027 11:15:56.797             6.420           995.406
        89   03 Jun 2027 11:16:27.713   03 Jun 2027 11:16:27.713             0.000             0.000
        90   03 Jun 2027 11:17:02.940   03 Jun 2027 11:17:07.106             4.166          1630.688
        91   03 Jun 2027 11:17:12.274   03 Jun 2027 11:17:22.151             9.877           138.156
        92   03 Jun 2027 11:17:56.197   03 Jun 2027 11:17:56.197             0.000             0.000
        93   03 Jun 2027 11:18:15.167   03 Jun 2027 11:18:20.771             5.604          1389.250
        94   03 Jun 2027 11:19:09.065   03 Jun 2027 11:19:13.317             4.252          1090.281
        95   03 Jun 2027 11:19:50.815   03 Jun 2027 11:19:51.972             1.157           578.500
        96   03 Jun 2027 11:20:14.135   03 Jun 2027 11:20:14.135             0.000             0.000
        97   03 Jun 2027 11:20:36.535   03 Jun 2027 11:20:40.006             3.471          1735.500
        98   03 Jun 2027 11:21:37.061   03 Jun 2027 11:21:45.082             8.021          2033.375
        99   04 Jun 2027 03:25:51.512   04 Jun 2027 03:27:00.580            69.068         34534.000
       100   04 Jun 2027 03:27:04.085   04 Jun 2027 03:27:09.729             5.644          2822.000
       101   04 Jun 2027 03:29:13.140   04 Jun 2027 03:29:19.298             6.158          3079.000
       102   04 Jun 2027 03:29:56.186   04 Jun 2027 03:29:56.186             0.000             0.000
       103   04 Jun 2027 03:30:09.184   04 Jun 2027 03:30:19.180             9.996          4998.000
       104   04 Jun 2027 05:00:44.391   04 Jun 2027 05:03:51.672           187.281         93640.500
       105   04 Jun 2027 05:04:39.981   04 Jun 2027 05:05:17.903            37.922         17923.406
       106   04 Jun 2027 05:07:00.784   04 Jun 2027 05:07:00.784             0.000             0.000
       107   04 Jun 2027 05:07:24.757   04 Jun 2027 05:07:33.464             8.707          3732.594
       108   04 Jun 2027 05:07:56.039   04 Jun 2027 05:07:56.536             0.497           248.500
       109   04 Jun 2027 05:09:33.527   04 Jun 2027 05:09:45.005            11.478          3258.219
       110   04 Jun 2027 06:38:26.542   04 Jun 2027 06:39:08.545            42.003         18707.937
       111   04 Jun 2027 06:39:38.154   04 Jun 2027 06:39:44.283             6.129           925.281
       112   04 Jun 2027 06:40:40.155   04 Jun 2027 06:40:46.790             6.635          1632.219
       113   04 Jun 2027 06:41:31.128   04 Jun 2027 06:41:34.919             3.791          1190.281
       114   04 Jun 2027 06:42:02.959   04 Jun 2027 06:42:09.129             6.170           876.250
       115   04 Jun 2027 06:42:42.917   04 Jun 2027 06:42:45.358             2.441           371.406
       116   04 Jun 2027 06:43:21.938   04 Jun 2027 06:43:29.806             7.868          1143.125
       117   04 Jun 2027 06:43:33.636   04 Jun 2027 06:43:33.636             0.000             0.000
       118   04 Jun 2027 06:44:02.908   04 Jun 2027 06:44:07.204             4.296           970.250
       119   04 Jun 2027 06:44:31.341   04 Jun 2027 06:44:33.996             2.655           511.063
       120   04 Jun 2027 06:45:08.900   04 Jun 2027 06:45:11.549             2.649           827.688
       121   04 Jun 2027 08:15:14.581   04 Jun 2027 08:15:44.944            30.363         14714.219
       122   04 Jun 2027 08:15:52.974   04 Jun 2027 08:15:54.459             1.485            31.312
       123   04 Jun 2027 08:16:19.603   04 Jun 2027 08:16:23.611             4.008           128.781
       124   04 Jun 2027 08:16:49.318   04 Jun 2027 08:16:59.177             9.859           570.500
       125   04 Jun 2027 08:17:42.178   04 Jun 2027 08:17:46.104             3.926           884.656
       126   04 Jun 2027 08:18:13.224   04 Jun 2027 08:18:13.224             0.000             0.000
       127   04 Jun 2027 08:19:28.038   04 Jun 2027 08:19:35.847             7.809          3031.063
       128   04 Jun 2027 08:20:06.068   04 Jun 2027 08:20:11.325             5.257           546.125
       129   04 Jun 2027 08:21:33.189   04 Jun 2027 08:21:43.306            10.117          2558.250
       130   04 Jun 2027 09:53:16.169   04 Jun 2027 09:53:34.424            18.255          8910.313
       131   04 Jun 2027 09:54:00.162   04 Jun 2027 09:54:00.162             0.000             0.000
       132   04 Jun 2027 09:54:18.868   04 Jun 2027 09:54:22.481             3.613          1340.469
       133   04 Jun 2027 09:54:31.143   04 Jun 2027 09:54:37.893             6.750           230.656
       134   04 Jun 2027 09:55:08.524   04 Jun 2027 09:55:12.188             3.664           616.688
       135   04 Jun 2027 09:55:34.752   04 Jun 2027 09:55:37.554             2.802           288.625
       136   04 Jun 2027 09:56:29.782   04 Jun 2027 09:56:29.782             0.000             0.000
       137   04 Jun 2027 09:56:56.585   04 Jun 2027 09:57:02.266             5.681          1775.031
       138   04 Jun 2027 09:57:13.824   04 Jun 2027 09:57:15.390             1.566           243.594
       139   04 Jun 2027 11:27:09.050   04 Jun 2027 11:27:15.288             6.238          1697.594
       140   04 Jun 2027 11:28:27.652   04 Jun 2027 11:28:32.125             4.473          2100.875
       141   04 Jun 2027 11:29:24.631   04 Jun 2027 11:29:31.182             6.551          1640.812
       142   04 Jun 2027 11:29:57.823   04 Jun 2027 11:29:57.823             0.000             0.000
       143   04 Jun 2027 11:30:13.240   04 Jun 2027 11:30:18.875             5.635          1314.312
       144   04 Jun 2027 11:31:22.504   04 Jun 2027 11:31:28.792             6.288          1739.187
       145   04 Jun 2027 11:32:43.034   04 Jun 2027 11:32:47.987             4.953          2095.187
       146   05 Jun 2027 03:37:27.245   05 Jun 2027 03:38:11.649            44.404         22202.000
       147   05 Jun 2027 03:38:36.445   05 Jun 2027 03:38:44.445             8.000          4000.000
       148   05 Jun 2027 03:39:41.119   05 Jun 2027 03:39:41.119             0.000             0.000
       149   05 Jun 2027 03:40:23.211   05 Jun 2027 03:40:23.420             0.209           104.500
       150   05 Jun 2027 03:40:34.733   05 Jun 2027 03:40:56.190            21.457         10728.500
       151   05 Jun 2027 03:41:42.156   05 Jun 2027 03:41:51.868             9.712          4856.000
       152   05 Jun 2027 03:41:56.650   05 Jun 2027 03:41:56.650             0.000             0.000
       153   05 Jun 2027 03:42:30.263   05 Jun 2027 03:42:30.263             0.000             0.000
       154   05 Jun 2027 05:12:19.731   05 Jun 2027 05:15:35.166           195.435         97717.500
       155   05 Jun 2027 05:17:55.704   05 Jun 2027 05:17:55.704             0.000             0.000
       156   05 Jun 2027 05:18:28.983   05 Jun 2027 05:18:36.048             7.065          3532.500
       157   05 Jun 2027 05:21:16.629   05 Jun 2027 05:21:18.699             2.070          1035.000
       158   05 Jun 2027 06:50:29.699   05 Jun 2027 06:51:27.186            57.487         28076.312
       159   05 Jun 2027 06:51:47.220   05 Jun 2027 06:51:47.220             0.000             0.000
       160   05 Jun 2027 06:52:14.255   05 Jun 2027 06:52:21.560             7.305          1465.594
       161   05 Jun 2027 06:53:39.734   05 Jun 2027 06:53:42.849             3.115          1557.500
       162   05 Jun 2027 06:54:10.426   05 Jun 2027 06:54:13.329             2.903          1222.500
       163   05 Jun 2027 06:54:41.193   05 Jun 2027 06:54:44.727             3.534           732.344
       164   05 Jun 2027 06:55:11.518   05 Jun 2027 06:55:13.025             1.507           753.500
       165   05 Jun 2027 06:55:24.665   05 Jun 2027 06:55:26.270             1.605           380.031
       166   05 Jun 2027 06:56:29.039   05 Jun 2027 06:56:35.993             6.954          1961.531
       167   05 Jun 2027 06:57:10.206   05 Jun 2027 06:57:12.670             2.464           844.531
       168   05 Jun 2027 08:27:24.464   05 Jun 2027 08:27:35.897            11.433          5716.500
       169   05 Jun 2027 08:27:57.342   05 Jun 2027 08:28:17.163            19.821          9061.125
       170   05 Jun 2027 08:28:54.281   05 Jun 2027 08:28:54.661             0.380           190.000
       171   05 Jun 2027 08:29:30.567   05 Jun 2027 08:29:34.282             3.715          1796.500
       172   05 Jun 2027 08:30:12.298   05 Jun 2027 08:30:12.298             0.000             0.000
       173   05 Jun 2027 08:30:29.362   05 Jun 2027 08:30:33.783             4.421          1532.531
       174   05 Jun 2027 08:30:43.413   05 Jun 2027 08:30:45.692             2.279           300.937
       175   05 Jun 2027 08:31:13.078   05 Jun 2027 08:31:20.049             6.971           855.812
       176   05 Jun 2027 08:31:32.136   05 Jun 2027 08:31:33.079             0.943           247.562
       177   05 Jun 2027 08:32:26.668   05 Jun 2027 08:32:28.180             1.512           756.000
       178   05 Jun 2027 08:32:39.603   05 Jun 2027 08:32:41.183             1.580           740.906
       179   05 Jun 2027 08:33:45.819   05 Jun 2027 08:33:46.368             0.549           274.500
       180   05 Jun 2027 10:04:30.944   05 Jun 2027 10:04:50.280            19.336          8756.656
       181   05 Jun 2027 10:05:15.982   05 Jun 2027 10:05:21.204             5.222           681.625
       182   05 Jun 2027 10:06:01.412   05 Jun 2027 10:06:07.355             5.943           742.750
       183   05 Jun 2027 10:06:35.821   05 Jun 2027 10:06:39.716             3.895           889.562
       184   05 Jun 2027 10:07:19.059   05 Jun 2027 10:07:23.039             3.980           756.062
       185   05 Jun 2027 10:08:25.163   05 Jun 2027 10:08:27.723             2.560          1150.562
       186   05 Jun 2027 10:08:49.443   05 Jun 2027 10:08:51.792             2.349           678.750
       187   05 Jun 2027 11:39:29.519   05 Jun 2027 11:39:32.297             2.778          1389.000
       188   05 Jun 2027 11:39:42.915   05 Jun 2027 11:39:59.635            16.720          1310.813
       189   05 Jun 2027 11:40:13.454   05 Jun 2027 11:40:14.817             1.363           181.562
       190   05 Jun 2027 11:41:32.555   05 Jun 2027 11:41:40.475             7.920          1712.312
       191   05 Jun 2027 11:42:36.583   05 Jun 2027 11:42:39.206             2.623          1162.594
       192   05 Jun 2027 11:42:50.935   05 Jun 2027 11:42:52.950             2.015            64.875
       193   05 Jun 2027 11:43:33.595   05 Jun 2027 11:43:37.864             4.269          1249.969
       194   06 Jun 2027 03:51:54.312   06 Jun 2027 03:52:56.713            62.401         31200.500
       195   06 Jun 2027 03:53:57.911   06 Jun 2027 03:54:10.794            12.883          6441.500
       196   06 Jun 2027 03:54:46.251   06 Jun 2027 03:54:46.251             0.000             0.000
       197   06 Jun 2027 03:54:56.067   06 Jun 2027 03:55:23.013            26.946         13473.000
       198   06 Jun 2027 05:25:23.553   06 Jun 2027 05:27:46.676           143.123         71561.500
       199   06 Jun 2027 05:28:05.152   06 Jun 2027 05:28:55.340            50.188         25094.000
       200   06 Jun 2027 05:29:39.009   06 Jun 2027 05:29:47.446             8.437          4218.500
       201   06 Jun 2027 05:30:01.772   06 Jun 2027 05:30:16.586            14.814          7407.000
       202   06 Jun 2027 05:31:24.791   06 Jun 2027 05:31:24.791             0.000             0.000
       203   06 Jun 2027 05:33:54.349   06 Jun 2027 05:33:56.137             1.788           894.000
       204   06 Jun 2027 07:02:55.931   06 Jun 2027 07:03:50.020            54.089         26091.531
       205   06 Jun 2027 07:04:02.443   06 Jun 2027 07:04:04.276             1.833           352.188
       206   06 Jun 2027 07:04:05.115   06 Jun 2027 07:04:10.279             5.164            26.219
       207   06 Jun 2027 07:05:31.093   06 Jun 2027 07:05:32.807             1.714           633.719
       208   06 Jun 2027 07:06:36.654   06 Jun 2027 07:06:40.139             3.485          1742.500
       209   06 Jun 2027 07:06:41.736   06 Jun 2027 07:06:43.730             1.994           147.625
       210   06 Jun 2027 07:07:54.577   06 Jun 2027 07:08:01.579             7.002          1853.812
       211   06 Jun 2027 07:08:38.875   06 Jun 2027 07:08:42.329             3.454          1148.906
       212   06 Jun 2027 07:09:11.270   06 Jun 2027 07:09:11.270             0.000             0.000
       213   06 Jun 2027 08:39:51.424   06 Jun 2027 08:40:22.256            30.832         13605.625
       214   06 Jun 2027 08:40:30.385   06 Jun 2027 08:40:32.218             1.833            17.938
       215   06 Jun 2027 08:41:17.595   06 Jun 2027 08:41:18.989             1.394           389.375
       216   06 Jun 2027 08:41:33.210   06 Jun 2027 08:41:33.210             0.000             0.000
       217   06 Jun 2027 08:41:41.472   06 Jun 2027 08:41:44.194             2.722           702.594
       218   06 Jun 2027 08:42:11.764   06 Jun 2027 08:42:14.711             2.947           861.562
       219   06 Jun 2027 08:43:07.207   06 Jun 2027 08:43:10.461             3.254          1324.063
       220   06 Jun 2027 08:43:27.516   06 Jun 2027 08:43:30.210             2.694           524.469
       221   06 Jun 2027 08:44:27.185   06 Jun 2027 08:44:30.502             3.317          1632.250
       222   06 Jun 2027 08:44:56.722   06 Jun 2027 08:44:57.802             1.080           540.000
       223   06 Jun 2027 08:45:09.606   06 Jun 2027 08:45:17.269             7.663           496.750
       224   06 Jun 2027 10:16:42.715   06 Jun 2027 10:16:59.544            16.829          6868.187
       225   06 Jun 2027 10:17:38.152   06 Jun 2027 10:17:43.639             5.487          1002.719
       226   06 Jun 2027 10:17:57.152   06 Jun 2027 10:18:01.887             4.735           422.281
       227   06 Jun 2027 10:18:04.315   06 Jun 2027 10:18:05.257             0.942            47.312
       228   06 Jun 2027 10:19:03.496   06 Jun 2027 10:19:08.656             5.160          1487.719
       229   06 Jun 2027 10:19:41.880   06 Jun 2027 10:19:46.086             4.206           660.687
       230   06 Jun 2027 10:20:26.156   06 Jun 2027 10:20:26.156             0.000             0.000
       231   06 Jun 2027 10:20:38.409   06 Jun 2027 10:20:42.320             3.911          1370.938
       232   06 Jun 2027 11:54:15.430   06 Jun 2027 11:54:24.070             8.640          2589.094
       233   06 Jun 2027 11:54:52.556   06 Jun 2027 11:54:52.556             0.000             0.000
       234   06 Jun 2027 11:55:24.494   06 Jun 2027 11:55:31.390             6.896          1476.844
       235   06 Jun 2027 11:55:43.086   06 Jun 2027 11:55:43.921             0.835           304.437
       236   07 Jun 2027 04:03:55.561   07 Jun 2027 04:05:25.151            89.590         44795.000
       237   07 Jun 2027 04:05:59.466   07 Jun 2027 04:06:01.605             2.139          1069.500
       238   07 Jun 2027 04:06:05.797   07 Jun 2027 04:06:05.797             0.000             0.000
       239   07 Jun 2027 04:07:05.111   07 Jun 2027 04:07:06.625             1.514           757.000
       240   07 Jun 2027 05:38:03.088   07 Jun 2027 05:40:37.358           154.270         77135.000
       241   07 Jun 2027 05:42:03.293   07 Jun 2027 05:42:18.401            15.108          7554.000
       242   07 Jun 2027 05:43:37.507   07 Jun 2027 05:44:35.053            57.546         28773.000
       243   07 Jun 2027 05:45:49.551   07 Jun 2027 05:45:50.792             1.241           620.500
       244   07 Jun 2027 07:15:01.650   07 Jun 2027 07:15:58.575            56.925         26795.406
       245   07 Jun 2027 07:17:16.136   07 Jun 2027 07:17:19.639             3.503          1232.656
       246   07 Jun 2027 07:17:45.348   07 Jun 2027 07:17:46.154             0.806           397.906
       247   07 Jun 2027 07:18:42.282   07 Jun 2027 07:18:49.582             7.300          1526.906
       248   07 Jun 2027 07:20:18.986   07 Jun 2027 07:20:27.217             8.231          2466.250
       249   07 Jun 2027 07:20:52.168   07 Jun 2027 07:20:53.220             1.052           279.125
       250   07 Jun 2027 07:21:02.526   07 Jun 2027 07:21:04.190             1.664           177.969
       251   07 Jun 2027 08:52:38.495   07 Jun 2027 08:53:03.678            25.183         12005.063
       252   07 Jun 2027 08:53:25.412   07 Jun 2027 08:53:29.806             4.394           568.531
       253   07 Jun 2027 08:54:57.831   07 Jun 2027 08:55:03.725             5.894          2750.781
       254   07 Jun 2027 08:56:02.563   07 Jun 2027 08:56:05.994             3.431          1474.094
       255   07 Jun 2027 08:56:41.578   07 Jun 2027 08:56:47.760             6.182           771.375
       256   07 Jun 2027 10:28:46.276   07 Jun 2027 10:29:04.879            18.603          8400.687
       257   07 Jun 2027 10:29:31.049   07 Jun 2027 10:29:35.611             4.562           696.156
       258   07 Jun 2027 10:30:12.061   07 Jun 2027 10:30:17.383             5.322          1139.063
       259   07 Jun 2027 10:30:51.465   07 Jun 2027 10:30:54.022             2.557           762.219
       260   07 Jun 2027 10:31:45.790   07 Jun 2027 10:31:52.853             7.063          1480.688
       261   07 Jun 2027 10:32:20.726   07 Jun 2027 10:32:20.726             0.000             0.000
       262   07 Jun 2027 10:32:24.443   07 Jun 2027 10:32:26.426             1.983           508.969
       263   07 Jun 2027 10:32:38.017   07 Jun 2027 10:32:38.833             0.816           362.219
       264   08 Jun 2027 04:16:05.733   08 Jun 2027 04:17:15.732            69.999         34999.500
       265   08 Jun 2027 04:17:41.098   08 Jun 2027 04:18:07.463            26.365         13182.500
       266   08 Jun 2027 04:19:04.423   08 Jun 2027 04:19:04.423             0.000             0.000
       267   08 Jun 2027 05:51:15.867   08 Jun 2027 05:52:47.018            91.151         45575.500
       268   08 Jun 2027 05:53:21.702   08 Jun 2027 05:54:14.522            52.820         26410.000
       269   08 Jun 2027 05:55:01.194   08 Jun 2027 05:55:30.189            28.995         14497.500
       270   08 Jun 2027 05:56:47.973   08 Jun 2027 05:57:10.722            22.749         11374.500
       271   08 Jun 2027 07:27:37.799   08 Jun 2027 07:28:30.807            53.008         25636.876
       272   08 Jun 2027 07:28:34.182   08 Jun 2027 07:28:35.772             1.590            18.438
       273   08 Jun 2027 07:29:49.578   08 Jun 2027 07:29:53.605             4.027          1621.750
       274   08 Jun 2027 07:30:47.082   08 Jun 2027 07:30:49.556             2.474          1019.219
       275   08 Jun 2027 07:32:04.770   08 Jun 2027 07:32:10.771             6.001          2053.031
       276   08 Jun 2027 07:32:31.001   08 Jun 2027 07:32:35.128             4.127           379.313
       277   08 Jun 2027 07:32:42.599   08 Jun 2027 07:32:43.585             0.986           233.469
       278   08 Jun 2027 07:33:14.086   08 Jun 2027 07:33:19.714             5.628           317.094
       279   08 Jun 2027 09:04:56.069   08 Jun 2027 09:05:21.400            25.331         12222.031
       280   08 Jun 2027 09:06:57.390   08 Jun 2027 09:07:05.353             7.963          2710.531
       281   08 Jun 2027 09:07:22.105   08 Jun 2027 09:07:22.105             0.000             0.000
       282   08 Jun 2027 09:07:25.275   08 Jun 2027 09:07:26.642             1.367           541.750
       283   08 Jun 2027 09:07:56.650   08 Jun 2027 09:07:59.184             2.534           855.875
       284   08 Jun 2027 09:08:37.234   08 Jun 2027 09:08:38.251             1.017           461.281
       285   08 Jun 2027 09:08:57.279   08 Jun 2027 09:08:58.680             1.401           371.188
       286   08 Jun 2027 09:09:30.860   08 Jun 2027 09:09:31.320             0.460           230.000
       287   08 Jun 2027 10:41:07.818   08 Jun 2027 10:41:22.335            14.517          6738.000
       288   08 Jun 2027 10:42:40.803   08 Jun 2027 10:42:45.178             4.375          2005.937
       289   08 Jun 2027 10:43:36.781   08 Jun 2027 10:43:44.052             7.271          1174.844
       290   08 Jun 2027 10:43:54.831   08 Jun 2027 10:43:55.671             0.840           287.000
       291   08 Jun 2027 10:44:12.493   08 Jun 2027 10:44:14.034             1.541           136.469
       292   08 Jun 2027 10:44:35.031   08 Jun 2027 10:44:36.450             1.419           334.250
       293   08 Jun 2027 10:44:57.347   08 Jun 2027 10:45:00.459             3.112           449.062
       294   08 Jun 2027 10:45:19.737   08 Jun 2027 10:45:21.008             1.271           324.469
       295   09 Jun 2027 04:28:04.525   09 Jun 2027 04:31:28.787           204.262        102131.000
       296   09 Jun 2027 06:02:58.661   09 Jun 2027 06:04:49.637           110.976         54885.437
       297   09 Jun 2027 06:07:40.166   09 Jun 2027 06:07:49.548             9.382          4240.906
       298   09 Jun 2027 06:08:24.599   09 Jun 2027 06:08:29.180             4.581            70.344
       299   09 Jun 2027 06:09:56.707   09 Jun 2027 06:10:00.132             3.425          1712.500
       300   09 Jun 2027 07:39:10.798   09 Jun 2027 07:39:44.799            34.001         16893.688
       301   09 Jun 2027 07:40:42.336   09 Jun 2027 07:40:43.515             1.179           375.844
       302   09 Jun 2027 07:41:10.613   09 Jun 2027 07:41:13.221             2.608           674.531
       303   09 Jun 2027 07:41:38.661   09 Jun 2027 07:41:47.489             8.828           470.219
       304   09 Jun 2027 07:43:14.296   09 Jun 2027 07:43:27.933            13.637          2593.437
       305   09 Jun 2027 07:44:22.870   09 Jun 2027 07:44:27.510             4.640          1716.781
       306   09 Jun 2027 07:44:35.398   09 Jun 2027 07:44:38.630             3.232            73.656
       307   09 Jun 2027 09:17:11.222   09 Jun 2027 09:17:32.331            21.109         10033.187
       308   09 Jun 2027 09:18:12.135   09 Jun 2027 09:18:14.872             2.737           824.625
       309   09 Jun 2027 09:18:56.108   09 Jun 2027 09:19:02.838             6.730          1288.625
       310   09 Jun 2027 09:19:07.753   09 Jun 2027 09:19:08.957             1.204           153.594
       311   09 Jun 2027 09:19:14.645   09 Jun 2027 09:19:16.908             2.263           142.125
       312   09 Jun 2027 09:20:06.795   09 Jun 2027 09:20:15.102             8.307          1487.750
       313   09 Jun 2027 09:20:55.601   09 Jun 2027 09:20:57.953             2.352          1068.937
       314   09 Jun 2027 10:52:52.140   09 Jun 2027 10:53:05.244            13.104          6546.719
       315   09 Jun 2027 10:53:30.549   09 Jun 2027 10:53:34.245             3.696           743.531
       316   09 Jun 2027 10:53:43.547   09 Jun 2027 10:53:47.245             3.698           271.812
       317   09 Jun 2027 10:54:24.796   09 Jun 2027 10:54:27.652             2.856          1172.563
       318   09 Jun 2027 10:54:33.730   09 Jun 2027 10:54:36.268             2.538            20.719
       319   09 Jun 2027 10:55:00.179   09 Jun 2027 10:55:01.784             1.605           747.219
       320   09 Jun 2027 10:56:39.393   09 Jun 2027 10:56:47.433             8.040          2430.750
       321   09 Jun 2027 10:57:41.317   09 Jun 2027 10:57:46.735             5.418          1683.875
       322   09 Jun 2027 10:58:16.642   09 Jun 2027 10:58:16.642             0.000             0.000
       323   10 Jun 2027 03:03:23.137   10 Jun 2027 03:03:36.744            13.607          6803.500
       324   10 Jun 2027 03:03:37.051   10 Jun 2027 03:03:47.900            10.849          5424.500
       325   10 Jun 2027 03:03:51.271   10 Jun 2027 03:04:06.338            15.067          7533.500
       326   10 Jun 2027 03:04:21.433   10 Jun 2027 03:04:43.537            22.104         11052.000
       327   10 Jun 2027 03:04:45.590   10 Jun 2027 03:05:07.117            21.527         10763.500
       328   10 Jun 2027 03:05:15.516   10 Jun 2027 03:05:15.516             0.000             0.000
       329   10 Jun 2027 03:05:56.663   10 Jun 2027 03:05:56.663             0.000             0.000
       330   10 Jun 2027 03:06:09.356   10 Jun 2027 03:06:09.694             0.338           169.000
       331   10 Jun 2027 04:38:36.983   10 Jun 2027 04:38:42.975             5.992          2996.000
       332   10 Jun 2027 04:39:46.568   10 Jun 2027 04:41:35.104           108.536         54268.000
       333   10 Jun 2027 04:42:51.652   10 Jun 2027 04:43:43.679            52.027         26013.500
       334   10 Jun 2027 04:44:09.976   10 Jun 2027 04:44:13.249             3.273          1636.500
       335   10 Jun 2027 06:14:32.492   10 Jun 2027 06:15:55.244            82.752         37941.781
       336   10 Jun 2027 06:16:43.630   10 Jun 2027 06:16:47.621             3.991          1512.062
       337   10 Jun 2027 06:17:35.111   10 Jun 2027 06:17:37.774             2.663           749.563
       338   10 Jun 2027 06:19:53.309   10 Jun 2027 06:20:03.166             9.857          4235.469
       339   10 Jun 2027 06:21:14.273   10 Jun 2027 06:21:14.273             0.000             0.000
       340   10 Jun 2027 06:21:23.016   10 Jun 2027 06:21:28.694             5.678          2192.781
       341   10 Jun 2027 07:51:31.884   10 Jun 2027 07:52:10.031            38.147         16619.219
       342   10 Jun 2027 07:52:42.504   10 Jun 2027 07:52:48.998             6.494           388.813
       343   10 Jun 2027 07:54:18.392   10 Jun 2027 07:54:24.001             5.609          1442.031
       344   10 Jun 2027 07:54:55.436   10 Jun 2027 07:54:55.436             0.000             0.000
       345   10 Jun 2027 07:55:15.823   10 Jun 2027 07:55:19.105             3.282          1619.438
       346   10 Jun 2027 07:56:04.982   10 Jun 2027 07:56:07.310             2.328           892.219
       347   10 Jun 2027 07:56:52.680   10 Jun 2027 07:56:58.970             6.290          1417.813
       348   10 Jun 2027 07:57:12.566   10 Jun 2027 07:57:12.566             0.000             0.000
       349   10 Jun 2027 09:29:32.909   10 Jun 2027 09:29:53.122            20.213          9805.594
       350   10 Jun 2027 09:30:12.147   10 Jun 2027 09:30:12.813             0.666           333.000
       351   10 Jun 2027 09:30:57.550   10 Jun 2027 09:31:04.628             7.078          1620.593
       352   10 Jun 2027 09:31:07.146   10 Jun 2027 09:31:09.363             2.217            78.688
       353   10 Jun 2027 09:32:17.508   10 Jun 2027 09:32:18.423             0.915           457.500
       354   10 Jun 2027 09:32:37.853   10 Jun 2027 09:32:47.469             9.616          1971.844
       355   10 Jun 2027 11:02:48.115   10 Jun 2027 11:03:02.487            14.372          7049.750
       356   10 Jun 2027 11:04:03.285   10 Jun 2027 11:04:03.285             0.000             0.000
       357   10 Jun 2027 11:04:29.244   10 Jun 2027 11:04:34.463             5.219          1525.656
       358   10 Jun 2027 11:05:23.635   10 Jun 2027 11:05:26.523             2.888           886.719
       359   10 Jun 2027 11:05:31.796   10 Jun 2027 11:05:34.558             2.762            36.969
       360   10 Jun 2027 11:06:09.174   10 Jun 2027 11:06:11.008             1.834           767.188
       361   10 Jun 2027 11:06:20.280   10 Jun 2027 11:06:22.449             2.169            51.125
       362   10 Jun 2027 11:07:01.352   10 Jun 2027 11:07:05.443             4.091           878.344
       363   10 Jun 2027 11:07:50.106   10 Jun 2027 11:07:55.091             4.985          1292.500
       364   10 Jun 2027 11:08:12.566   10 Jun 2027 11:08:14.209             1.643           357.125
       365   10 Jun 2027 11:08:24.028   10 Jun 2027 11:08:29.553             5.525           306.844
       366   10 Jun 2027 11:09:34.572   10 Jun 2027 11:09:42.454             7.882          1348.906
       367   10 Jun 2027 11:10:06.090   10 Jun 2027 11:10:12.158             6.068           363.219
       368   10 Jun 2027 11:10:20.889   10 Jun 2027 11:10:21.274             0.385           186.406
       369   11 Jun 2027 03:14:21.149   11 Jun 2027 03:15:27.735            66.586         33293.000
       370   11 Jun 2027 03:16:42.403   11 Jun 2027 03:17:08.668            26.265         13132.500
       371   11 Jun 2027 03:17:33.549   11 Jun 2027 03:18:10.476            36.927         18463.500
       372   11 Jun 2027 03:18:33.298   11 Jun 2027 03:18:33.298             0.000             0.000
       373   11 Jun 2027 04:49:29.715   11 Jun 2027 04:51:00.879            91.164         45582.000
       374   11 Jun 2027 04:51:30.032   11 Jun 2027 04:52:02.711            32.679         16339.500
       375   11 Jun 2027 04:52:23.171   11 Jun 2027 04:52:23.171             0.000             0.000
       376   11 Jun 2027 04:54:31.553   11 Jun 2027 04:54:42.618            11.065          5532.500
       377   11 Jun 2027 04:55:38.898   11 Jun 2027 04:55:38.898             0.000             0.000
       378   11 Jun 2027 04:55:57.942   11 Jun 2027 04:55:58.292             0.350           175.000
       379   11 Jun 2027 04:57:24.763   11 Jun 2027 04:57:32.066             7.303          3651.500
       380   11 Jun 2027 06:26:40.067   11 Jun 2027 06:27:41.682            61.615         30482.281
       381   11 Jun 2027 06:27:58.351   11 Jun 2027 06:27:59.567             1.216           468.094
       382   11 Jun 2027 06:29:08.883   11 Jun 2027 06:29:11.634             2.751           560.844
       383   11 Jun 2027 06:29:17.456   11 Jun 2027 06:29:21.950             4.494           181.937
       384   11 Jun 2027 06:30:12.299   11 Jun 2027 06:30:19.923             7.624          1137.250
       385   11 Jun 2027 06:31:17.354   11 Jun 2027 06:31:20.986             3.632          1124.250
       386   11 Jun 2027 06:32:06.692   11 Jun 2027 06:32:07.617             0.925           462.500
       387   11 Jun 2027 06:32:44.242   11 Jun 2027 06:32:49.665             5.423          1747.000
       388   11 Jun 2027 06:33:03.408   11 Jun 2027 06:33:03.788             0.380           174.750
       389   11 Jun 2027 06:33:09.703   11 Jun 2027 06:33:12.662             2.959           184.844
       390   11 Jun 2027 06:33:55.222   11 Jun 2027 06:33:58.215             2.993          1330.000
       391   11 Jun 2027 08:03:37.414   11 Jun 2027 08:04:11.688            34.274         16371.750
       392   11 Jun 2027 08:04:20.831   11 Jun 2027 08:04:22.393             1.562           107.719
       393   11 Jun 2027 08:06:07.306   11 Jun 2027 08:06:10.093             2.787           472.156
       394   11 Jun 2027 08:06:29.177   11 Jun 2027 08:06:29.177             0.000             0.000
       395   11 Jun 2027 08:06:52.800   11 Jun 2027 08:06:56.648             3.848          1303.312
       396   11 Jun 2027 08:07:39.677   11 Jun 2027 08:07:42.409             2.732           571.000
       397   11 Jun 2027 08:07:59.381   11 Jun 2027 08:08:03.276             3.895           381.625
       398   11 Jun 2027 08:08:57.660   11 Jun 2027 08:09:01.426             3.766          1593.594
       399   11 Jun 2027 08:09:11.961   11 Jun 2027 08:09:12.629             0.668           329.219
       400   11 Jun 2027 08:09:33.116   11 Jun 2027 08:09:36.478             3.362           640.219
       401   11 Jun 2027 09:41:30.450   11 Jun 2027 09:41:49.023            18.573          9203.250
       402   11 Jun 2027 09:41:51.120   11 Jun 2027 09:41:51.517             0.397            65.531
       403   11 Jun 2027 09:42:13.704   11 Jun 2027 09:42:18.139             4.435           693.187
       404   11 Jun 2027 09:42:50.444   11 Jun 2027 09:42:52.740             2.296           419.781
       405   11 Jun 2027 09:43:06.077   11 Jun 2027 09:43:07.783             1.706           416.781
       406   11 Jun 2027 09:43:23.925   11 Jun 2027 09:43:29.810             5.885           349.812
       407   11 Jun 2027 09:44:20.323   11 Jun 2027 09:44:24.474             4.151          1578.531
       408   11 Jun 2027 09:44:51.984   11 Jun 2027 09:44:53.856             1.872           859.687
       409   11 Jun 2027 09:45:07.021   11 Jun 2027 09:45:09.547             2.526           411.406
       410   11 Jun 2027 09:45:16.910   11 Jun 2027 09:45:20.885             3.975           188.125
       411   11 Jun 2027 11:14:57.837   11 Jun 2027 11:15:04.203             6.366          2819.875
       412   11 Jun 2027 11:16:03.911   11 Jun 2027 11:16:05.651             1.740           737.625
       413   11 Jun 2027 11:16:25.799   11 Jun 2027 11:16:28.701             2.902           189.625
       414   11 Jun 2027 11:17:17.824   11 Jun 2027 11:17:22.266             4.442          1535.094
       415   11 Jun 2027 11:17:27.175   11 Jun 2027 11:17:39.978            12.803            96.563
       416   11 Jun 2027 11:18:30.798   11 Jun 2027 11:18:34.101             3.303          1417.594
       417   11 Jun 2027 11:19:25.796   11 Jun 2027 11:19:29.012             3.216          1158.094
       418   11 Jun 2027 11:19:40.155   11 Jun 2027 11:19:40.155             0.000             0.000
       419   11 Jun 2027 11:20:24.343   11 Jun 2027 11:20:28.993             4.650          1695.719
       420   11 Jun 2027 11:22:13.679   11 Jun 2027 11:22:20.510             6.831          3271.437
       421   11 Jun 2027 11:22:29.483   11 Jun 2027 11:22:30.413             0.930           139.406
       422   12 Jun 2027 03:26:06.105   12 Jun 2027 03:27:21.287            75.182         37591.000
       423   12 Jun 2027 03:28:40.677   12 Jun 2027 03:28:40.677             0.000             0.000
       424   12 Jun 2027 03:30:21.211   12 Jun 2027 03:30:21.211             0.000             0.000
       425   12 Jun 2027 03:30:34.024   12 Jun 2027 03:30:50.185            16.161          8080.500
       426   12 Jun 2027 05:00:58.649   12 Jun 2027 05:04:27.712           209.063        104531.500
       427   12 Jun 2027 05:07:44.413   12 Jun 2027 05:07:44.413             0.000             0.000
       428   12 Jun 2027 05:08:25.596   12 Jun 2027 05:08:25.596             0.000             0.000
       429   12 Jun 2027 05:08:41.841   12 Jun 2027 05:08:41.869             0.028            14.000
       430   12 Jun 2027 06:38:41.327   12 Jun 2027 06:39:23.117            41.790         20176.656
       431   12 Jun 2027 06:39:52.714   12 Jun 2027 06:40:01.376             8.662           924.906
       432   12 Jun 2027 06:41:13.685   12 Jun 2027 06:41:18.165             4.480          2228.875
       433   12 Jun 2027 06:41:57.270   12 Jun 2027 06:42:00.080             2.810           393.563
       434   12 Jun 2027 06:42:04.475   12 Jun 2027 06:42:07.319             2.844            94.938
       435   12 Jun 2027 06:42:45.425   12 Jun 2027 06:42:51.550             6.125           865.438
       436   12 Jun 2027 06:42:59.991   12 Jun 2027 06:43:01.470             1.479           228.219
       437   12 Jun 2027 06:43:39.767   12 Jun 2027 06:43:44.334             4.567           279.500
       438   12 Jun 2027 06:43:49.576   12 Jun 2027 06:43:52.095             2.519            30.406
       439   12 Jun 2027 06:43:54.742   12 Jun 2027 06:43:54.742             0.000             0.000
       440   12 Jun 2027 06:43:56.928   12 Jun 2027 06:43:56.935             0.007             3.500
       441   12 Jun 2027 06:44:01.331   12 Jun 2027 06:44:07.333             6.002           284.906
       442   12 Jun 2027 06:45:33.304   12 Jun 2027 06:45:41.618             8.314          2325.094
       443   12 Jun 2027 06:46:07.598   12 Jun 2027 06:46:07.948             0.350           109.344
       444   12 Jun 2027 08:15:29.526   12 Jun 2027 08:16:02.118            32.592         15572.281
       445   12 Jun 2027 08:16:14.669   12 Jun 2027 08:16:17.970             3.301           246.594
       446   12 Jun 2027 08:16:35.302   12 Jun 2027 08:16:38.246             2.944           166.031
       447   12 Jun 2027 08:17:29.625   12 Jun 2027 08:17:30.737             1.112            31.750
       448   12 Jun 2027 08:18:19.971   12 Jun 2027 08:18:27.237             7.266           681.500
       449   12 Jun 2027 08:18:49.555   12 Jun 2027 08:18:53.065             3.510           678.937
       450   12 Jun 2027 08:19:09.850   12 Jun 2027 08:19:12.558             2.708            71.125
       451   12 Jun 2027 08:19:24.807   12 Jun 2027 08:19:25.972             1.165           241.625
       452   12 Jun 2027 08:19:54.987   12 Jun 2027 08:19:59.987             5.000           718.719
       453   12 Jun 2027 08:20:20.774   12 Jun 2027 08:20:25.385             4.611           542.500
       454   12 Jun 2027 08:21:04.309   12 Jun 2027 08:21:08.139             3.830          1216.375
       455   12 Jun 2027 08:22:09.121   12 Jun 2027 08:22:12.297             3.176          1588.000
       456   12 Jun 2027 09:53:31.274   12 Jun 2027 09:53:49.895            18.621          8455.188
       457   12 Jun 2027 09:54:14.794   12 Jun 2027 09:54:14.794             0.000             0.000
       458   12 Jun 2027 09:54:25.550   12 Jun 2027 09:54:33.611             8.061          1088.813
       459   12 Jun 2027 09:54:41.346   12 Jun 2027 09:54:42.167             0.821           241.719
       460   12 Jun 2027 09:55:32.386   12 Jun 2027 09:55:38.981             6.595          1460.188
       461   12 Jun 2027 09:56:33.607   12 Jun 2027 09:56:36.367             2.760          1379.906
       462   12 Jun 2027 09:57:13.456   12 Jun 2027 09:57:17.271             3.815           897.219
       463   12 Jun 2027 09:57:30.059   12 Jun 2027 09:57:33.051             2.992           281.875
       464   12 Jun 2027 11:27:23.871   12 Jun 2027 11:27:32.704             8.833          1822.031
       465   12 Jun 2027 11:28:42.404   12 Jun 2027 11:28:47.224             4.820          2101.344
       466   12 Jun 2027 11:29:39.211   12 Jun 2027 11:29:44.242             5.031          1624.594
       467   12 Jun 2027 11:30:12.457   12 Jun 2027 11:30:16.076             3.619           829.906
       468   12 Jun 2027 11:31:04.127   12 Jun 2027 11:31:06.865             2.738          1101.187
       469   12 Jun 2027 11:31:56.174   12 Jun 2027 11:32:02.190             6.016          1201.969
       470   12 Jun 2027 11:32:31.788   12 Jun 2027 11:32:33.325             1.537           724.844
       471   12 Jun 2027 11:32:59.381   12 Jun 2027 11:33:01.913             2.532           548.094
       472   12 Jun 2027 11:33:51.866   12 Jun 2027 11:33:53.008             1.142            92.094
       473   13 Jun 2027 03:37:41.553   13 Jun 2027 03:39:00.251            78.698         39349.000
       474   13 Jun 2027 03:40:38.452   13 Jun 2027 03:40:40.084             1.632           816.000
       475   13 Jun 2027 03:40:50.051   13 Jun 2027 03:41:10.840            20.789         10394.500
       476   13 Jun 2027 03:42:40.390   13 Jun 2027 03:42:45.821             5.431          2715.500
       477   13 Jun 2027 05:13:42.073   13 Jun 2027 05:16:30.345           168.272         84136.000
       478   13 Jun 2027 05:16:55.149   13 Jun 2027 05:16:55.321             0.172            86.000
       479   13 Jun 2027 05:19:55.972   13 Jun 2027 05:20:10.313            14.341          7170.500
       480   13 Jun 2027 05:21:44.478   13 Jun 2027 05:21:44.478             0.000             0.000
       481   13 Jun 2027 06:50:44.616   13 Jun 2027 06:51:09.970            25.354         12677.000
       482   13 Jun 2027 06:51:45.409   13 Jun 2027 06:52:23.853            38.444         17817.031
       483   13 Jun 2027 06:53:15.809   13 Jun 2027 06:53:18.972             3.163          1427.406
       484   13 Jun 2027 06:54:00.575   13 Jun 2027 06:54:04.272             3.697           453.125
       485   13 Jun 2027 06:54:28.907   13 Jun 2027 06:54:32.577             3.670           473.438
       486   13 Jun 2027 06:55:28.124   13 Jun 2027 06:55:32.092             3.968          1516.625
       487   13 Jun 2027 06:55:38.377   13 Jun 2027 06:55:39.581             1.204           170.344
       488   13 Jun 2027 06:55:49.771   13 Jun 2027 06:55:51.105             1.334           318.437
       489   13 Jun 2027 06:56:03.118   13 Jun 2027 06:56:03.118             0.000             0.000
       490   13 Jun 2027 06:56:10.953   13 Jun 2027 06:56:15.760             4.807           620.250
       491   13 Jun 2027 06:57:27.447   13 Jun 2027 06:57:27.447             0.000             0.000
       492   13 Jun 2027 08:27:39.383   13 Jun 2027 08:27:50.480            11.097          5548.500
       493   13 Jun 2027 08:28:12.330   13 Jun 2027 08:28:31.873            19.543          8708.031
       494   13 Jun 2027 08:29:08.807   13 Jun 2027 08:29:11.010             2.203           828.531
       495   13 Jun 2027 08:29:44.036   13 Jun 2027 08:29:45.737             1.701           850.500
       496   13 Jun 2027 08:29:55.045   13 Jun 2027 08:29:56.748             1.703           472.438
       497   13 Jun 2027 08:29:57.495   13 Jun 2027 08:30:03.160             5.665            23.344
       498   13 Jun 2027 08:31:04.370   13 Jun 2027 08:31:08.657             4.287          1912.812
       499   13 Jun 2027 08:31:36.191   13 Jun 2027 08:31:38.889             2.698           790.750
       500   13 Jun 2027 08:32:11.579   13 Jun 2027 08:32:14.229             2.650           773.812
       501   13 Jun 2027 08:33:10.076   13 Jun 2027 08:33:16.800             6.724          1738.469
       502   13 Jun 2027 08:33:31.031   13 Jun 2027 08:33:36.511             5.480           258.406
       503   13 Jun 2027 08:33:59.594   13 Jun 2027 08:34:00.850             1.256           617.469
       504   13 Jun 2027 10:04:45.630   13 Jun 2027 10:05:00.704            15.074          7537.000
       505   13 Jun 2027 10:05:08.667   13 Jun 2027 10:05:11.438             2.771           794.500
       506   13 Jun 2027 10:05:31.318   13 Jun 2027 10:05:32.365             1.047           342.156
       507   13 Jun 2027 10:05:52.992   13 Jun 2027 10:05:52.992             0.000             0.000
       508   13 Jun 2027 10:06:12.787   13 Jun 2027 10:06:15.286             2.499           637.750
       509   13 Jun 2027 10:06:22.430   13 Jun 2027 10:06:30.514             8.084           199.562
       510   13 Jun 2027 10:07:10.352   13 Jun 2027 10:07:12.327             1.975           987.500
       511   13 Jun 2027 10:07:33.777   13 Jun 2027 10:07:44.122            10.345           927.750
       512   13 Jun 2027 10:07:48.081   13 Jun 2027 10:07:50.088             2.007            29.219
       513   13 Jun 2027 10:07:59.083   13 Jun 2027 10:08:00.899             1.816           182.531
       514   13 Jun 2027 10:08:42.695   13 Jun 2027 10:08:42.695             0.000             0.000
       515   13 Jun 2027 10:09:01.894   13 Jun 2027 10:09:06.379             4.485          1587.031
       516   13 Jun 2027 11:39:44.969   13 Jun 2027 11:39:50.712             5.743          2662.250
       517   13 Jun 2027 11:41:27.701   13 Jun 2027 11:41:35.940             8.239          1888.469
       518   13 Jun 2027 11:42:14.011   13 Jun 2027 11:42:18.030             4.019           877.156
       519   13 Jun 2027 11:42:25.587   13 Jun 2027 11:42:27.470             1.883           236.156
       520   13 Jun 2027 11:42:42.021   13 Jun 2027 11:42:43.909             1.888           454.719
       521   13 Jun 2027 11:43:22.538   13 Jun 2027 11:43:23.996             1.458           527.062
       522   13 Jun 2027 11:44:44.916   13 Jun 2027 11:44:47.627             2.711          1355.500
