uniorb/output/strategy_2/Camera/Camera_KinoSat_111304.txt

KinoSat_111304
-------------------------
    Access    *     Start Time (UTCG)     *     Stop Time (UTCG)  *   Duration (s) *   Data (Mbytes)
         1   01 Jun 2027 03:37:24.677   01 Jun 2027 03:41:21.840           237.163        118581.500
         2   01 Jun 2027 03:41:32.683   01 Jun 2027 03:42:12.838            40.155         20077.500
         3   01 Jun 2027 05:01:08.928   01 Jun 2027 05:01:43.595            34.667         17333.500
         4   01 Jun 2027 05:01:57.716   01 Jun 2027 05:02:20.634            22.918         11459.000
         5   01 Jun 2027 06:37:20.133   01 Jun 2027 06:39:29.326           129.193         64596.500
         6   01 Jun 2027 06:39:40.047   01 Jun 2027 06:39:47.840             7.793          3896.500
         7   01 Jun 2027 08:10:53.627   01 Jun 2027 08:13:28.464           154.837         77418.500
         8   01 Jun 2027 08:14:04.854   01 Jun 2027 08:14:17.007            12.153          6076.500
         9   01 Jun 2027 08:14:46.732   01 Jun 2027 08:15:31.178            44.446         22223.000
        10   01 Jun 2027 08:18:30.170   01 Jun 2027 08:18:41.159            10.989          5494.500
        11   01 Jun 2027 08:19:22.389   01 Jun 2027 08:19:22.389             0.000             0.000
        12   01 Jun 2027 09:48:20.293   01 Jun 2027 09:50:01.406           101.113         50556.500
        13   01 Jun 2027 09:52:38.746   01 Jun 2027 09:53:21.378            42.632         21316.000
        14   01 Jun 2027 09:54:34.637   01 Jun 2027 09:54:45.637            11.000          5500.000
        15   01 Jun 2027 11:25:20.987   01 Jun 2027 11:26:48.472            87.485         43742.500
        16   01 Jun 2027 11:27:09.692   01 Jun 2027 11:27:13.140             3.448          1724.000
        17   01 Jun 2027 11:27:38.636   01 Jun 2027 11:27:45.016             6.380          3190.000
        18   01 Jun 2027 11:30:51.051   01 Jun 2027 11:30:58.835             7.784          3892.000
        19   02 Jun 2027 03:49:19.855   02 Jun 2027 03:52:54.629           214.774        107387.000
        20   02 Jun 2027 03:53:35.904   02 Jun 2027 03:53:53.627            17.723          8861.500
        21   02 Jun 2027 05:12:59.131   02 Jun 2027 05:14:00.407            61.276         30638.000
        22   02 Jun 2027 06:49:26.283   02 Jun 2027 06:51:40.019           133.736         66868.000
        23   02 Jun 2027 06:52:34.336   02 Jun 2027 06:53:00.057            25.721         12860.500
        24   02 Jun 2027 08:21:36.848   02 Jun 2027 08:21:45.063             8.215          4107.500
        25   02 Jun 2027 08:23:32.566   02 Jun 2027 08:25:12.124            99.558         49779.000
        26   02 Jun 2027 08:26:18.803   02 Jun 2027 08:26:36.062            17.259          5033.345
        27   02 Jun 2027 08:27:46.952   02 Jun 2027 08:27:48.707             1.755           877.500
        28   02 Jun 2027 08:28:12.481   02 Jun 2027 08:28:17.527             5.046          2080.750
        29   02 Jun 2027 08:29:08.508   02 Jun 2027 08:29:13.304             4.796          1472.313
        30   02 Jun 2027 08:30:01.622   02 Jun 2027 08:30:03.573             1.951           975.500
        31   02 Jun 2027 08:30:59.632   02 Jun 2027 08:31:02.496             2.864          1432.000
        32   02 Jun 2027 08:31:22.439   02 Jun 2027 08:31:24.513             2.074          1037.000
        33   02 Jun 2027 10:00:30.405   02 Jun 2027 10:00:47.736            17.331          7624.062
        34   02 Jun 2027 10:01:03.736   02 Jun 2027 10:01:04.446             0.710           334.062
        35   02 Jun 2027 10:02:50.257   02 Jun 2027 10:02:55.081             4.824          2198.000
        36   02 Jun 2027 10:03:43.810   02 Jun 2027 10:03:51.302             7.492          1522.781
        37   02 Jun 2027 10:04:50.598   02 Jun 2027 10:04:54.439             3.841          1745.125
        38   02 Jun 2027 10:04:58.297   02 Jun 2027 10:04:59.045             0.748            94.781
        39   02 Jun 2027 10:05:26.620   02 Jun 2027 10:05:30.574             3.954           846.531
        40   02 Jun 2027 10:07:00.288   02 Jun 2027 10:07:07.200             6.912          2543.500
        41   02 Jun 2027 11:37:45.031   02 Jun 2027 11:38:01.253            16.222          8111.000
        42   02 Jun 2027 11:39:19.849   02 Jun 2027 11:39:26.173             6.324          2506.281
        43   02 Jun 2027 11:39:44.877   02 Jun 2027 11:39:50.432             5.555           525.719
        44   02 Jun 2027 11:41:44.641   02 Jun 2027 11:41:51.319             6.678          3339.000
        45   02 Jun 2027 11:42:23.103   02 Jun 2027 11:42:26.400             3.297          1223.282
        46   03 Jun 2027 04:02:33.302   03 Jun 2027 04:05:39.117           185.815         92907.500
        47   03 Jun 2027 04:06:00.617   03 Jun 2027 04:06:00.617             0.000             0.000
        48   03 Jun 2027 05:25:06.797   03 Jun 2027 05:26:22.457            75.660         37830.000
        49   03 Jun 2027 05:27:16.696   03 Jun 2027 05:27:54.269            37.573         18786.500
        50   03 Jun 2027 07:01:34.852   03 Jun 2027 07:01:58.587            23.735          9651.406
        51   03 Jun 2027 07:02:18.771   03 Jun 2027 07:02:20.063             1.292           620.625
        52   03 Jun 2027 07:02:42.477   03 Jun 2027 07:02:42.944             0.467           173.594
        53   03 Jun 2027 07:03:41.895   03 Jun 2027 07:03:47.139             5.244          1842.219
        54   03 Jun 2027 07:04:34.375   03 Jun 2027 07:04:37.569             3.194           949.281
        55   03 Jun 2027 07:05:12.531   03 Jun 2027 07:05:12.531             0.000             0.000
        56   03 Jun 2027 08:36:45.321   03 Jun 2027 08:36:55.787            10.466          4690.156
        57   03 Jun 2027 08:37:12.038   03 Jun 2027 08:37:14.581             2.543           187.406
        58   03 Jun 2027 08:37:59.170   03 Jun 2027 08:38:00.350             1.180            27.344
        59   03 Jun 2027 08:39:03.865   03 Jun 2027 08:39:07.706             3.841          1362.875
        60   03 Jun 2027 08:39:46.963   03 Jun 2027 08:39:48.798             1.835           733.875
        61   03 Jun 2027 08:40:17.280   03 Jun 2027 08:40:21.637             4.357            66.437
        62   03 Jun 2027 08:42:03.935   03 Jun 2027 08:42:11.161             7.226          2368.344
        63   03 Jun 2027 08:42:54.111   03 Jun 2027 08:42:58.381             4.270          1231.719
        64   03 Jun 2027 10:13:04.698   03 Jun 2027 10:13:21.243            16.545          7153.312
        65   03 Jun 2027 10:14:48.444   03 Jun 2027 10:14:50.395             1.951           686.719
        66   03 Jun 2027 10:15:12.908   03 Jun 2027 10:15:17.069             4.161           627.969
        67   03 Jun 2027 10:16:25.111   03 Jun 2027 10:16:30.232             5.121          1761.656
        68   03 Jun 2027 10:17:05.645   03 Jun 2027 10:17:08.833             3.188          1106.656
        69   03 Jun 2027 10:17:15.524   03 Jun 2027 10:17:16.481             0.957           209.094
        70   03 Jun 2027 10:17:44.530   03 Jun 2027 10:17:48.358             3.828           867.469
        71   03 Jun 2027 10:18:53.256   03 Jun 2027 10:18:56.092             2.836          1398.875
        72   03 Jun 2027 10:18:56.529   03 Jun 2027 10:18:56.720             0.191            13.656
        73   03 Jun 2027 10:19:18.080   03 Jun 2027 10:19:21.537             3.457           349.781
        74   03 Jun 2027 11:50:28.663   03 Jun 2027 11:50:41.273            12.610          6202.563
        75   03 Jun 2027 11:50:47.439   03 Jun 2027 11:50:47.439             0.000             0.000
        76   03 Jun 2027 11:51:14.734   03 Jun 2027 11:51:18.806             4.072           956.781
        77   03 Jun 2027 11:51:53.907   03 Jun 2027 11:51:55.051             1.144           572.000
        78   03 Jun 2027 11:53:43.463   03 Jun 2027 11:53:51.563             8.100          3787.156
        79   04 Jun 2027 04:13:40.684   04 Jun 2027 04:14:18.594            37.910         18955.000
        80   04 Jun 2027 04:14:36.207   04 Jun 2027 04:17:04.007           147.800         73900.000
        81   04 Jun 2027 05:37:08.535   04 Jun 2027 05:38:48.183            99.648         49824.000
        82   04 Jun 2027 05:39:15.074   04 Jun 2027 05:39:15.074             0.000             0.000
        83   04 Jun 2027 05:40:07.555   04 Jun 2027 05:40:12.954             5.399          2699.500
        84   04 Jun 2027 07:13:36.701   04 Jun 2027 07:14:11.245            34.544         13051.656
        85   04 Jun 2027 07:14:50.045   04 Jun 2027 07:14:53.368             3.323           883.031
        86   04 Jun 2027 07:15:25.921   04 Jun 2027 07:15:27.394             1.473           651.219
        87   04 Jun 2027 07:16:05.532   04 Jun 2027 07:16:11.562             6.030           780.937
        88   04 Jun 2027 07:16:12.249   04 Jun 2027 07:16:13.484             1.235            21.469
        89   04 Jun 2027 08:48:49.195   04 Jun 2027 08:48:59.334            10.139          5069.500
        90   04 Jun 2027 08:50:21.304   04 Jun 2027 08:50:32.608            11.304          3697.406
        91   04 Jun 2027 08:51:16.699   04 Jun 2027 08:51:16.699             0.000             0.000
        92   04 Jun 2027 08:51:42.359   04 Jun 2027 08:51:44.658             2.299          1149.500
        93   04 Jun 2027 08:52:17.615   04 Jun 2027 08:52:21.625             4.010          1621.219
        94   04 Jun 2027 08:54:03.729   04 Jun 2027 08:54:12.564             8.835          2293.500
        95   04 Jun 2027 08:54:17.281   04 Jun 2027 08:54:18.459             1.178           147.406
        96   04 Jun 2027 08:54:58.201   04 Jun 2027 08:55:03.213             5.012          1241.937
        97   04 Jun 2027 10:24:44.150   04 Jun 2027 10:24:58.669            14.519          5776.969
        98   04 Jun 2027 10:25:54.545   04 Jun 2027 10:25:56.311             1.766           572.719
        99   04 Jun 2027 10:28:26.085   04 Jun 2027 10:28:35.587             9.502          4181.594
       100   04 Jun 2027 10:29:08.557   04 Jun 2027 10:29:11.179             2.622          1030.313
       101   04 Jun 2027 10:30:04.048   04 Jun 2027 10:30:08.506             4.458          1070.687
       102   04 Jun 2027 10:30:27.201   04 Jun 2027 10:30:28.657             1.456           584.219
       103   04 Jun 2027 10:31:00.262   04 Jun 2027 10:31:01.842             1.580           790.000
       104   05 Jun 2027 04:14:42.670   05 Jun 2027 04:15:09.370            26.700         13350.000
       105   05 Jun 2027 04:25:37.936   05 Jun 2027 04:28:34.855           176.919         88459.500
       106   05 Jun 2027 04:28:41.383   05 Jun 2027 04:29:05.745            24.362         12181.000
       107   05 Jun 2027 05:49:35.083   05 Jun 2027 05:50:17.001            41.918         20959.000
       108   05 Jun 2027 05:50:30.818   05 Jun 2027 05:50:30.818             0.000             0.000
       109   05 Jun 2027 05:51:34.507   05 Jun 2027 05:52:00.671            26.164         13082.000
       110   05 Jun 2027 07:25:19.952   05 Jun 2027 07:25:53.069            33.117         14602.875
       111   05 Jun 2027 07:26:24.669   05 Jun 2027 07:26:30.727             6.058           847.219
       112   05 Jun 2027 07:27:00.074   05 Jun 2027 07:27:04.862             4.788           895.469
       113   05 Jun 2027 07:28:04.182   05 Jun 2027 07:28:05.965             1.783           891.500
       114   05 Jun 2027 07:28:14.831   05 Jun 2027 07:28:18.888             4.057           979.750
       115   05 Jun 2027 07:28:32.039   05 Jun 2027 07:28:37.074             5.035           410.969
       116   05 Jun 2027 07:29:27.165   05 Jun 2027 07:29:32.801             5.636          1565.344
       117   05 Jun 2027 09:00:03.788   05 Jun 2027 09:00:14.189            10.401          4055.750
       118   05 Jun 2027 09:02:21.900   05 Jun 2027 09:02:30.361             8.461          3725.750
       119   05 Jun 2027 09:03:04.141   05 Jun 2027 09:03:08.564             4.423           491.531
       120   05 Jun 2027 09:03:37.140   05 Jun 2027 09:03:39.403             2.263           311.781
       121   05 Jun 2027 09:04:19.823   05 Jun 2027 09:04:22.497             2.674          1110.000
       122   05 Jun 2027 09:04:51.130   05 Jun 2027 09:04:55.077             3.947           651.125
       123   05 Jun 2027 09:06:48.254   05 Jun 2027 09:06:58.304            10.050          3536.781
       124   05 Jun 2027 10:36:51.920   05 Jun 2027 10:37:11.622            19.702          8862.188
       125   05 Jun 2027 10:38:41.707   05 Jun 2027 10:38:48.982             7.275          2385.469
       126   05 Jun 2027 10:38:58.192   05 Jun 2027 10:38:59.160             0.968           287.813
       127   05 Jun 2027 10:39:07.596   05 Jun 2027 10:39:09.413             1.817           263.625
       128   05 Jun 2027 10:39:24.389   05 Jun 2027 10:39:25.554             1.165           166.656
       129   05 Jun 2027 10:40:11.114   05 Jun 2027 10:40:15.464             4.350          1402.344
       130   05 Jun 2027 10:41:15.044   05 Jun 2027 10:41:23.971             8.927          1857.656
       131   05 Jun 2027 10:41:46.395   05 Jun 2027 10:41:48.088             1.693           700.750
       132   05 Jun 2027 10:41:53.421   05 Jun 2027 10:41:53.842             0.421           166.656
       133   05 Jun 2027 10:42:04.012   05 Jun 2027 10:42:18.318            14.306           108.906
       134   05 Jun 2027 10:42:44.938   05 Jun 2027 10:42:47.448             2.510           831.875
       135   06 Jun 2027 03:00:53.946   06 Jun 2027 03:01:17.869            23.923         11961.500
       136   06 Jun 2027 03:01:41.394   06 Jun 2027 03:02:10.210            28.816         14408.000
       137   06 Jun 2027 03:03:10.118   06 Jun 2027 03:03:44.948            34.830         17415.000
       138   06 Jun 2027 03:04:23.246   06 Jun 2027 03:04:29.867             6.621          3310.500
       139   06 Jun 2027 03:05:06.781   06 Jun 2027 03:05:09.575             2.794          1397.000
       140   06 Jun 2027 03:05:49.625   06 Jun 2027 03:06:25.067            35.442         17721.000
       141   06 Jun 2027 03:07:07.866   06 Jun 2027 03:07:07.866             0.000             0.000
       142   06 Jun 2027 03:07:25.469   06 Jun 2027 03:08:14.142            48.673         24336.500
       143   06 Jun 2027 04:25:58.646   06 Jun 2027 04:26:20.795            22.149         11074.500
       144   06 Jun 2027 04:27:11.605   06 Jun 2027 04:27:21.949            10.344          5172.000
       145   06 Jun 2027 04:37:38.416   06 Jun 2027 04:39:04.195            85.779         42889.500
       146   06 Jun 2027 06:00:10.652   06 Jun 2027 06:01:11.268            60.616         30308.000
       147   06 Jun 2027 06:01:51.901   06 Jun 2027 06:01:56.409             4.508          2254.000
       148   06 Jun 2027 06:03:51.182   06 Jun 2027 06:04:04.251            13.069          6442.437
       149   06 Jun 2027 06:04:32.063   06 Jun 2027 06:04:36.498             4.435           869.125
       150   06 Jun 2027 07:35:14.080   06 Jun 2027 07:35:25.373            11.293          4709.125
       151   06 Jun 2027 07:35:43.709   06 Jun 2027 07:35:47.971             4.262           199.938
       152   06 Jun 2027 07:36:18.586   06 Jun 2027 07:36:21.348             2.762           939.812
       153   06 Jun 2027 07:37:24.385   06 Jun 2027 07:37:28.499             4.114          1593.656
       154   06 Jun 2027 07:38:46.273   06 Jun 2027 07:38:51.776             5.503          2430.437
       155   06 Jun 2027 07:38:57.393   06 Jun 2027 07:39:00.631             3.238            57.500
       156   06 Jun 2027 07:40:07.752   06 Jun 2027 07:40:07.752             0.000             0.000
       157   06 Jun 2027 07:40:10.209   06 Jun 2027 07:40:13.076             2.867           816.312
       158   06 Jun 2027 07:40:31.795   06 Jun 2027 07:40:32.726             0.931           424.219
       159   06 Jun 2027 07:40:44.410   06 Jun 2027 07:40:48.063             3.653           285.781
       160   06 Jun 2027 07:41:26.861   06 Jun 2027 07:41:29.554             2.693          1109.500
       161   06 Jun 2027 07:41:33.509   06 Jun 2027 07:41:33.509             0.000             0.000
       162   06 Jun 2027 07:41:56.573   06 Jun 2027 07:41:57.021             0.448           224.000
       163   06 Jun 2027 09:12:42.192   06 Jun 2027 09:12:57.080            14.888          5971.344
       164   06 Jun 2027 09:14:21.961   06 Jun 2027 09:14:21.961             0.000             0.000
       165   06 Jun 2027 09:15:29.039   06 Jun 2027 09:15:39.571            10.532          4597.500
       166   06 Jun 2027 09:15:46.301   06 Jun 2027 09:15:51.740             5.439           112.938
       167   06 Jun 2027 09:16:21.744   06 Jun 2027 09:16:28.120             6.376           937.625
       168   06 Jun 2027 09:17:08.347   06 Jun 2027 09:17:10.265             1.918           871.438
       169   06 Jun 2027 09:17:17.117   06 Jun 2027 09:17:19.602             2.485            20.125
       170   06 Jun 2027 09:17:42.354   06 Jun 2027 09:17:46.512             4.158           568.594
       171   06 Jun 2027 09:18:01.836   06 Jun 2027 09:18:04.676             2.840           478.875
       172   06 Jun 2027 09:18:26.223   06 Jun 2027 09:18:28.889             2.666           480.656
       173   06 Jun 2027 09:18:36.512   06 Jun 2027 09:18:39.733             3.221           211.156
       174   06 Jun 2027 09:19:26.077   06 Jun 2027 09:19:28.872             2.795          1248.844
       175   06 Jun 2027 10:49:10.298   06 Jun 2027 10:49:24.090            13.792          6698.969
       176   06 Jun 2027 10:50:05.713   06 Jun 2027 10:50:09.659             3.946          1213.187
       177   06 Jun 2027 10:51:15.512   06 Jun 2027 10:51:20.895             5.383           611.281
       178   06 Jun 2027 10:51:21.352   06 Jun 2027 10:51:22.241             0.889            14.281
       179   06 Jun 2027 10:51:40.792   06 Jun 2027 10:51:41.867             1.075           422.281
       180   06 Jun 2027 10:52:00.533   06 Jun 2027 10:52:02.476             1.943           469.188
       181   06 Jun 2027 10:52:14.600   06 Jun 2027 10:52:18.155             3.555           313.437
       182   06 Jun 2027 10:53:08.960   06 Jun 2027 10:53:11.244             2.284          1142.000
       183   06 Jun 2027 10:53:19.052   06 Jun 2027 10:53:21.303             2.251           246.437
       184   06 Jun 2027 10:54:07.883   06 Jun 2027 10:54:13.765             5.882          1285.437
       185   07 Jun 2027 03:13:09.943   07 Jun 2027 03:15:51.005           161.062         80531.000
       186   07 Jun 2027 03:16:04.711   07 Jun 2027 03:16:20.308            15.597          7798.500
       187   07 Jun 2027 03:18:31.406   07 Jun 2027 03:18:55.317            23.911         11955.500
       188   07 Jun 2027 03:19:08.722   07 Jun 2027 03:19:25.662            16.940          8470.000
       189   07 Jun 2027 04:37:19.765   07 Jun 2027 04:38:19.586            59.821         29910.500
       190   07 Jun 2027 04:49:35.930   07 Jun 2027 04:50:21.691            45.761         22880.500
       191   07 Jun 2027 06:11:34.947   07 Jun 2027 06:12:01.862            26.915         12616.563
       192   07 Jun 2027 06:12:48.205   07 Jun 2027 06:12:49.882             1.677           838.500
       193   07 Jun 2027 06:14:53.517   07 Jun 2027 06:15:00.905             7.388          3694.000
       194   07 Jun 2027 06:16:09.491   07 Jun 2027 06:16:09.491             0.000             0.000
       195   07 Jun 2027 06:16:13.258   07 Jun 2027 06:16:18.820             5.562          2777.344
       196   07 Jun 2027 06:16:44.675   07 Jun 2027 06:16:44.675             0.000             0.000
       197   07 Jun 2027 07:46:38.814   07 Jun 2027 07:46:50.780            11.966          3584.094
       198   07 Jun 2027 07:47:19.595   07 Jun 2027 07:47:23.336             3.741           900.469
       199   07 Jun 2027 07:48:05.641   07 Jun 2027 07:48:11.386             5.745          1208.469
       200   07 Jun 2027 07:48:25.584   07 Jun 2027 07:48:25.584             0.000             0.000
       201   07 Jun 2027 07:48:30.555   07 Jun 2027 07:48:31.426             0.871           267.375
       202   07 Jun 2027 07:48:50.720   07 Jun 2027 07:48:53.236             2.516           602.937
       203   07 Jun 2027 07:49:02.348   07 Jun 2027 07:49:04.421             2.073           284.750
       204   07 Jun 2027 07:50:46.765   07 Jun 2027 07:50:53.934             7.169          3198.250
       205   07 Jun 2027 07:52:07.764   07 Jun 2027 07:52:15.003             7.239          2208.187
       206   07 Jun 2027 07:53:03.878   07 Jun 2027 07:53:06.900             3.022          1325.875
       207   07 Jun 2027 07:53:27.364   07 Jun 2027 07:53:29.792             2.428           223.594
       208   07 Jun 2027 07:54:04.877   07 Jun 2027 07:54:12.280             7.403          1096.406
       209   07 Jun 2027 07:55:11.529   07 Jun 2027 07:55:16.373             4.844          1708.969
       210   07 Jun 2027 09:24:14.718   07 Jun 2027 09:24:27.699            12.981          6038.938
       211   07 Jun 2027 09:26:21.382   07 Jun 2027 09:26:30.446             9.064          3552.594
       212   07 Jun 2027 09:27:40.750   07 Jun 2027 09:27:47.938             7.188          2197.000
       213   07 Jun 2027 09:27:57.607   07 Jun 2027 09:28:02.795             5.188           292.219
       214   07 Jun 2027 09:28:14.401   07 Jun 2027 09:28:16.241             1.840           147.594
       215   07 Jun 2027 09:29:12.639   07 Jun 2027 09:29:15.915             3.276          1541.187
       216   07 Jun 2027 09:29:33.185   07 Jun 2027 09:29:33.918             0.733           366.500
       217   07 Jun 2027 09:30:51.040   07 Jun 2027 09:30:59.929             8.889          2571.250
       218   07 Jun 2027 11:00:59.972   07 Jun 2027 11:01:02.130             2.158          1079.000
       219   07 Jun 2027 11:01:05.644   07 Jun 2027 11:01:18.370            12.726          5945.313
       220   07 Jun 2027 11:01:32.769   07 Jun 2027 11:01:36.234             3.465           342.125
       221   07 Jun 2027 11:02:10.096   07 Jun 2027 11:02:14.293             4.197          1014.156
       222   07 Jun 2027 11:03:22.138   07 Jun 2027 11:03:26.055             3.917          1618.656
       223   07 Jun 2027 11:04:50.076   07 Jun 2027 11:04:54.006             3.930          1939.844
       224   07 Jun 2027 11:05:09.218   07 Jun 2027 11:05:09.582             0.364           182.000
       225   07 Jun 2027 11:05:23.700   07 Jun 2027 11:05:25.140             1.440           720.000
       226   07 Jun 2027 11:05:30.276   07 Jun 2027 11:05:35.139             4.863           175.063
       227   07 Jun 2027 11:06:28.888   07 Jun 2027 11:06:30.208             1.320           660.000
       228   07 Jun 2027 11:07:09.313   07 Jun 2027 11:07:16.436             7.123          1745.375
       229   08 Jun 2027 03:25:16.281   08 Jun 2027 03:28:15.042           178.761         89380.500
       230   08 Jun 2027 03:28:20.810   08 Jun 2027 03:28:38.807            17.997          8998.500
       231   08 Jun 2027 03:30:36.093   08 Jun 2027 03:30:36.093             0.000             0.000
       232   08 Jun 2027 03:30:38.576   08 Jun 2027 03:30:51.659            13.083          6541.500
       233   08 Jun 2027 04:49:27.477   08 Jun 2027 04:50:10.757            43.280         21640.000
       234   08 Jun 2027 05:01:59.645   08 Jun 2027 05:02:03.040             3.395          1697.500
       235   08 Jun 2027 06:23:16.966   08 Jun 2027 06:24:15.184            58.218         28613.719
       236   08 Jun 2027 06:25:01.196   08 Jun 2027 06:25:05.779             4.583          1388.625
       237   08 Jun 2027 06:25:11.217   08 Jun 2027 06:25:12.036             0.819            52.781
       238   08 Jun 2027 06:25:59.615   08 Jun 2027 06:26:06.518             6.903          1375.156
       239   08 Jun 2027 06:26:18.614   08 Jun 2027 06:26:20.267             1.653           184.875
       240   08 Jun 2027 06:28:31.976   08 Jun 2027 06:28:38.277             6.301          3150.500
       241   08 Jun 2027 06:28:42.496   08 Jun 2027 06:28:44.113             1.617           808.500
       242   08 Jun 2027 06:28:55.286   08 Jun 2027 06:28:57.310             2.024           637.906
       243   08 Jun 2027 07:58:09.489   08 Jun 2027 07:58:23.381            13.892          4070.563
       244   08 Jun 2027 07:58:42.279   08 Jun 2027 07:58:42.279             0.000             0.000
       245   08 Jun 2027 07:59:12.963   08 Jun 2027 07:59:16.133             3.170          1248.313
       246   08 Jun 2027 08:00:25.380   08 Jun 2027 08:00:29.744             4.364          2163.969
       247   08 Jun 2027 08:01:19.378   08 Jun 2027 08:01:26.128             6.750          1500.406
       248   08 Jun 2027 08:01:52.041   08 Jun 2027 08:01:55.240             3.199           532.156
       249   08 Jun 2027 08:02:59.284   08 Jun 2027 08:03:02.600             3.316           844.594
       250   08 Jun 2027 08:03:09.333   08 Jun 2027 08:03:10.464             1.131           210.406
       251   08 Jun 2027 08:04:07.373   08 Jun 2027 08:04:07.495             0.122            61.000
       252   08 Jun 2027 08:04:24.579   08 Jun 2027 08:04:30.425             5.846          2109.438
       253   08 Jun 2027 08:05:28.950   08 Jun 2027 08:05:31.904             2.954          1294.781
       254   08 Jun 2027 08:05:42.607   08 Jun 2027 08:05:45.788             3.181            44.813
       255   08 Jun 2027 08:06:05.649   08 Jun 2027 08:06:07.487             1.838           524.250
       256   08 Jun 2027 08:06:55.067   08 Jun 2027 08:06:58.359             3.292          1144.625
       257   08 Jun 2027 08:07:31.900   08 Jun 2027 08:07:35.051             3.151           877.563
       258   08 Jun 2027 09:36:14.936   08 Jun 2027 09:36:29.827            14.891          6942.281
       259   08 Jun 2027 09:37:11.669   08 Jun 2027 09:37:17.085             5.416           911.406
       260   08 Jun 2027 09:37:37.625   08 Jun 2027 09:37:38.275             0.650            34.500
       261   08 Jun 2027 09:37:55.147   08 Jun 2027 09:37:57.843             2.696           527.250
       262   08 Jun 2027 09:38:07.960   08 Jun 2027 09:38:13.049             5.089           163.500
       263   08 Jun 2027 09:38:29.591   08 Jun 2027 09:38:31.335             1.744           350.563
       264   08 Jun 2027 09:39:31.177   08 Jun 2027 09:39:32.919             1.742           801.562
       265   08 Jun 2027 09:39:52.886   08 Jun 2027 09:39:57.022             4.136           623.969
       266   08 Jun 2027 09:40:19.324   08 Jun 2027 09:40:24.503             5.179           499.531
       267   08 Jun 2027 09:40:57.616   08 Jun 2027 09:41:02.000             4.384          1034.781
       268   08 Jun 2027 09:41:15.884   08 Jun 2027 09:41:17.920             2.036           433.875
       269   08 Jun 2027 09:41:52.716   08 Jun 2027 09:41:54.729             2.013           843.938
       270   08 Jun 2027 09:42:16.184   08 Jun 2027 09:42:16.184             0.000             0.000
       271   08 Jun 2027 09:42:29.682   08 Jun 2027 09:42:35.271             5.589          1083.594
       272   08 Jun 2027 09:43:18.720   08 Jun 2027 09:43:21.943             3.223          1108.063
       273   08 Jun 2027 09:43:31.108   08 Jun 2027 09:43:37.923             6.815           286.406
       274   08 Jun 2027 11:13:08.485   08 Jun 2027 11:13:22.184            13.699          6351.719
       275   08 Jun 2027 11:14:07.499   08 Jun 2027 11:14:10.544             3.045           954.188
       276   08 Jun 2027 11:15:22.726   08 Jun 2027 11:15:25.980             3.254          1627.000
       277   08 Jun 2027 11:15:40.099   08 Jun 2027 11:15:44.013             3.914           929.375
       278   08 Jun 2027 11:16:13.413   08 Jun 2027 11:16:15.089             1.676           838.000
       279   08 Jun 2027 11:16:25.460   08 Jun 2027 11:16:33.667             8.207           372.563
       280   08 Jun 2027 11:17:13.276   08 Jun 2027 11:17:16.183             2.907           678.313
       281   08 Jun 2027 11:17:52.551   08 Jun 2027 11:17:53.180             0.629           314.500
       282   08 Jun 2027 11:18:01.537   08 Jun 2027 11:18:04.542             3.005           844.563
       283   08 Jun 2027 11:18:54.689   08 Jun 2027 11:18:59.551             4.862          1567.094
       284   08 Jun 2027 11:19:34.847   08 Jun 2027 11:19:36.871             2.024          1012.000
       285   09 Jun 2027 03:37:54.252   09 Jun 2027 03:41:39.355           225.103        112551.500
       286   09 Jun 2027 05:01:23.968   09 Jun 2027 05:01:58.703            34.735         17367.500
       287   09 Jun 2027 06:37:36.234   09 Jun 2027 06:38:17.033            40.799         20399.500
       288   09 Jun 2027 06:38:43.529   09 Jun 2027 06:38:48.051             4.522          2165.125
       289   09 Jun 2027 06:40:32.192   09 Jun 2027 06:40:39.608             7.416          2973.219
       290   09 Jun 2027 06:40:49.700   09 Jun 2027 06:40:51.034             1.334           315.375
       291   09 Jun 2027 08:11:09.586   09 Jun 2027 08:11:30.330            20.744          5390.125
       292   09 Jun 2027 08:13:34.889   09 Jun 2027 08:13:37.324             2.435          1217.500
       293   09 Jun 2027 08:14:21.935   09 Jun 2027 08:14:26.604             4.669          2296.500
       294   09 Jun 2027 08:15:04.010   09 Jun 2027 08:15:06.066             2.056           927.781
       295   09 Jun 2027 08:16:16.186   09 Jun 2027 08:16:21.437             5.251           934.969
       296   09 Jun 2027 08:17:08.145   09 Jun 2027 08:17:11.182             3.037          1267.781
       297   09 Jun 2027 08:17:57.773   09 Jun 2027 08:18:02.404             4.631           417.156
       298   09 Jun 2027 08:18:19.669   09 Jun 2027 08:18:19.835             0.166            83.000
       299   09 Jun 2027 08:18:23.329   09 Jun 2027 08:18:23.950             0.621           310.500
       300   09 Jun 2027 08:18:44.660   09 Jun 2027 08:18:51.362             6.702           788.406
       301   09 Jun 2027 09:48:38.205   09 Jun 2027 09:48:54.860            16.655          7714.656
       302   09 Jun 2027 09:49:48.629   09 Jun 2027 09:49:53.330             4.701          1264.406
       303   09 Jun 2027 09:50:16.710   09 Jun 2027 09:50:19.528             2.818           730.625
       304   09 Jun 2027 09:52:25.233   09 Jun 2027 09:52:32.996             7.763          3779.906
       305   09 Jun 2027 09:53:36.375   09 Jun 2027 09:53:39.887             3.512           801.906
       306   09 Jun 2027 09:53:49.763   09 Jun 2027 09:53:55.894             6.131           308.625
       307   09 Jun 2027 09:54:12.569   09 Jun 2027 09:54:14.034             1.465           322.187
       308   09 Jun 2027 09:54:48.232   09 Jun 2027 09:54:52.262             4.030          1029.625
       309   09 Jun 2027 09:55:03.729   09 Jun 2027 09:55:05.218             1.489           358.344
       310   09 Jun 2027 11:25:36.693   09 Jun 2027 11:25:51.924            15.231          7538.625
       311   09 Jun 2027 11:26:47.294   09 Jun 2027 11:26:50.010             2.716           961.375
       312   09 Jun 2027 11:27:27.321   09 Jun 2027 11:27:27.321             0.000             0.000
       313   09 Jun 2027 11:27:28.470   09 Jun 2027 11:27:29.960             1.490           638.937
       314   09 Jun 2027 11:28:38.597   09 Jun 2027 11:28:45.896             7.299          1992.062
       315   09 Jun 2027 11:28:52.566   09 Jun 2027 11:28:54.442             1.876           208.438
       316   09 Jun 2027 11:30:01.650   09 Jun 2027 11:30:06.143             4.493          2019.969
       317   09 Jun 2027 11:30:51.770   09 Jun 2027 11:30:55.726             3.956          1334.687
       318   10 Jun 2027 03:49:35.574   10 Jun 2027 03:53:16.370           220.796        110398.000
       319   10 Jun 2027 05:13:14.734   10 Jun 2027 05:14:16.216            61.482         30741.000
       320   10 Jun 2027 06:49:41.613   10 Jun 2027 06:50:31.626            50.013         23485.281
       321   10 Jun 2027 06:51:13.675   10 Jun 2027 06:51:19.704             6.029          1268.563
       322   10 Jun 2027 06:51:48.611   10 Jun 2027 06:51:48.611             0.000             0.000
       323   10 Jun 2027 06:51:57.364   10 Jun 2027 06:52:01.986             4.622          1176.875
       324   10 Jun 2027 06:52:09.533   10 Jun 2027 06:52:10.470             0.937           176.531
       325   10 Jun 2027 08:21:50.781   10 Jun 2027 08:22:00.915            10.134          4366.063
       326   10 Jun 2027 08:24:27.027   10 Jun 2027 08:24:31.938             4.911          2207.156
       327   10 Jun 2027 08:25:29.182   10 Jun 2027 08:25:33.305             4.123          1788.875
       328   10 Jun 2027 08:25:53.632   10 Jun 2027 08:25:54.700             1.068           534.000
       329   10 Jun 2027 08:26:00.953   10 Jun 2027 08:26:06.669             5.716           210.438
       330   10 Jun 2027 08:27:11.389   10 Jun 2027 08:27:14.185             2.796          1103.125
       331   10 Jun 2027 08:27:33.454   10 Jun 2027 08:27:35.172             1.718           201.688
       332   10 Jun 2027 08:28:09.432   10 Jun 2027 08:28:10.159             0.727           209.594
       333   10 Jun 2027 08:30:20.483   10 Jun 2027 08:30:27.536             7.053          3439.406
       334   10 Jun 2027 08:30:51.700   10 Jun 2027 08:30:58.434             6.734           755.125
       335   10 Jun 2027 08:31:03.902   10 Jun 2027 08:31:05.545             1.643           170.875
       336   10 Jun 2027 08:31:20.008   10 Jun 2027 08:31:20.508             0.500            95.594
       337   10 Jun 2027 08:31:38.164   10 Jun 2027 08:31:38.326             0.162            81.000
       338   10 Jun 2027 10:00:47.191   10 Jun 2027 10:01:00.511            13.320          6093.875
       339   10 Jun 2027 10:02:30.597   10 Jun 2027 10:02:36.353             5.756          1589.656
       340   10 Jun 2027 10:03:26.233   10 Jun 2027 10:03:28.219             1.986           988.344
       341   10 Jun 2027 10:03:38.975   10 Jun 2027 10:03:40.840             1.865           216.969
       342   10 Jun 2027 10:03:52.799   10 Jun 2027 10:03:55.149             2.350           159.781
       343   10 Jun 2027 10:04:28.814   10 Jun 2027 10:04:33.054             4.240           892.813
       344   10 Jun 2027 10:05:05.846   10 Jun 2027 10:05:09.180             3.334           497.844
       345   10 Jun 2027 10:05:17.891   10 Jun 2027 10:05:22.248             4.357           188.031
       346   10 Jun 2027 10:05:36.134   10 Jun 2027 10:05:38.159             2.025           433.938
       347   10 Jun 2027 10:05:57.488   10 Jun 2027 10:05:57.903             0.415           207.500
       348   10 Jun 2027 10:06:51.260   10 Jun 2027 10:06:55.111             3.851          1920.156
       349   10 Jun 2027 10:07:28.411   10 Jun 2027 10:07:31.153             2.742          1040.625
       350   10 Jun 2027 11:38:07.420   10 Jun 2027 11:38:22.304            14.884          7218.313
       351   10 Jun 2027 11:38:40.822   10 Jun 2027 11:38:44.108             3.286           141.656
       352   10 Jun 2027 11:38:55.161   10 Jun 2027 11:38:55.891             0.730            79.687
       353   10 Jun 2027 11:39:05.713   10 Jun 2027 11:39:06.676             0.963           295.625
       354   10 Jun 2027 11:39:26.910   10 Jun 2027 11:39:28.157             1.247           623.500
       355   10 Jun 2027 11:39:54.861   10 Jun 2027 11:39:59.150             4.289           843.312
       356   10 Jun 2027 11:40:30.315   10 Jun 2027 11:40:33.121             2.806           973.906
       357   10 Jun 2027 11:41:54.784   10 Jun 2027 11:41:58.670             3.886          1943.000
       358   10 Jun 2027 11:42:23.278   10 Jun 2027 11:42:35.019            11.741          1377.969
       359   10 Jun 2027 11:42:46.649   10 Jun 2027 11:42:53.117             6.468           213.312
       360   11 Jun 2027 04:02:49.112   11 Jun 2027 04:06:03.306           194.194         97097.000
       361   11 Jun 2027 05:25:22.987   11 Jun 2027 05:26:18.769            55.782         27891.000
       362   11 Jun 2027 05:28:16.756   11 Jun 2027 05:28:25.630             8.874          4437.000
       363   11 Jun 2027 07:01:51.303   11 Jun 2027 07:02:41.137            49.834         24009.250
       364   11 Jun 2027 07:03:00.054   11 Jun 2027 07:03:01.805             1.751           184.375
       365   11 Jun 2027 07:03:28.670   11 Jun 2027 07:03:28.884             0.214            71.531
       366   11 Jun 2027 07:03:48.087   11 Jun 2027 07:03:50.203             2.116           360.969
       367   11 Jun 2027 07:04:20.365   11 Jun 2027 07:04:24.987             4.622           942.563
       368   11 Jun 2027 07:04:50.655   11 Jun 2027 07:04:50.655             0.000             0.000
       369   11 Jun 2027 08:37:02.344   11 Jun 2027 08:37:13.735            11.391          5365.906
       370   11 Jun 2027 08:37:25.536   11 Jun 2027 08:37:27.279             1.743           277.719
       371   11 Jun 2027 08:38:15.849   11 Jun 2027 08:38:15.849             0.000             0.000
       372   11 Jun 2027 08:38:37.504   11 Jun 2027 08:38:43.267             5.763          2194.531
       373   11 Jun 2027 08:38:46.986   11 Jun 2027 08:38:49.958             2.972            96.125
       374   11 Jun 2027 08:40:02.190   11 Jun 2027 08:40:07.190             5.000          1270.906
       375   11 Jun 2027 08:41:00.942   11 Jun 2027 08:41:04.619             3.677          1620.406
       376   11 Jun 2027 08:42:20.806   11 Jun 2027 08:42:26.360             5.554          2348.000
       377   11 Jun 2027 08:43:14.438   11 Jun 2027 08:43:17.813             3.375           950.719
       378   11 Jun 2027 08:43:32.263   11 Jun 2027 08:43:36.894             4.631           424.344
       379   11 Jun 2027 10:13:21.080   11 Jun 2027 10:13:35.016            13.936          6153.906
       380   11 Jun 2027 10:14:41.747   11 Jun 2027 10:14:46.722             4.975          1907.750
       381   11 Jun 2027 10:15:24.684   11 Jun 2027 10:15:28.135             3.451          1030.719
       382   11 Jun 2027 10:15:29.601   11 Jun 2027 10:15:32.618             3.017            43.406
       383   11 Jun 2027 10:15:38.256   11 Jun 2027 10:15:39.867             1.611            32.094
       384   11 Jun 2027 10:15:50.096   11 Jun 2027 10:15:51.737             1.641           168.750
       385   11 Jun 2027 10:16:15.066   11 Jun 2027 10:16:20.262             5.196           386.844
       386   11 Jun 2027 10:16:33.951   11 Jun 2027 10:16:36.160             2.209           382.875
       387   11 Jun 2027 10:16:59.258   11 Jun 2027 10:17:01.943             2.685           625.312
       388   11 Jun 2027 10:17:16.756   11 Jun 2027 10:17:17.629             0.873           278.750
       389   11 Jun 2027 10:17:52.041   11 Jun 2027 10:17:55.057             3.016          1022.250
       390   11 Jun 2027 10:18:44.119   11 Jun 2027 10:18:46.972             2.853          1323.219
       391   11 Jun 2027 11:50:44.127   11 Jun 2027 11:51:00.020            15.893          7415.156
       392   11 Jun 2027 11:51:29.384   11 Jun 2027 11:51:33.473             4.089           703.344
       393   11 Jun 2027 11:52:08.568   11 Jun 2027 11:52:12.194             3.626           958.312
       394   11 Jun 2027 11:52:32.996   11 Jun 2027 11:52:35.447             2.451           650.063
       395   11 Jun 2027 11:53:23.612   11 Jun 2027 11:53:30.042             6.430          1505.156
       396   11 Jun 2027 11:54:38.799   11 Jun 2027 11:54:45.501             6.702          2111.031
       397   12 Jun 2027 04:13:57.575   12 Jun 2027 04:14:34.482            36.907         18453.500
       398   12 Jun 2027 04:15:03.095   12 Jun 2027 04:17:29.070           145.975         72987.500
       399   12 Jun 2027 05:37:24.067   12 Jun 2027 05:38:50.845            86.778         43389.000
       400   12 Jun 2027 07:13:51.441   12 Jun 2027 07:14:40.778            49.337         24651.187
       401   12 Jun 2027 07:15:35.862   12 Jun 2027 07:15:38.833             2.971          1072.312
       402   12 Jun 2027 07:15:56.689   12 Jun 2027 07:16:01.394             4.705           501.000
       403   12 Jun 2027 07:16:58.647   12 Jun 2027 07:17:06.215             7.568          1361.219
       404   12 Jun 2027 08:49:04.296   12 Jun 2027 08:49:14.412            10.116          4502.656
       405   12 Jun 2027 08:50:38.524   12 Jun 2027 08:50:41.683             3.159          1579.500
       406   12 Jun 2027 08:51:09.239   12 Jun 2027 08:51:13.231             3.992          1910.125
       407   12 Jun 2027 08:52:35.514   12 Jun 2027 08:52:44.534             9.020          1904.906
       408   12 Jun 2027 08:54:20.554   12 Jun 2027 08:54:27.254             6.700          2265.219
       409   12 Jun 2027 08:54:33.101   12 Jun 2027 08:54:33.716             0.615           182.719
       410   12 Jun 2027 08:55:42.907   12 Jun 2027 08:55:44.714             1.807           903.500
       411   12 Jun 2027 10:24:59.830   12 Jun 2027 10:25:14.161            14.331          6343.313
       412   12 Jun 2027 10:26:26.595   12 Jun 2027 10:26:29.296             2.701          1087.875
       413   12 Jun 2027 10:27:16.594   12 Jun 2027 10:27:20.060             3.466           633.219
       414   12 Jun 2027 10:28:34.287   12 Jun 2027 10:28:37.766             3.479          1703.562
       415   12 Jun 2027 10:29:25.461   12 Jun 2027 10:29:33.065             7.604          1341.500
       416   12 Jun 2027 10:30:24.059   12 Jun 2027 10:30:32.531             8.472          1593.563
       417   12 Jun 2027 10:30:58.745   12 Jun 2027 10:31:00.036             1.291           600.687
       418   13 Jun 2027 04:14:56.747   13 Jun 2027 04:15:25.829            29.082         14541.000
       419   13 Jun 2027 04:25:53.728   13 Jun 2027 04:29:21.642           207.914        103957.000
       420   13 Jun 2027 05:49:50.335   13 Jun 2027 05:50:22.211            31.876         15938.000
       421   13 Jun 2027 05:51:07.218   13 Jun 2027 05:51:07.218             0.000             0.000
       422   13 Jun 2027 05:51:32.264   13 Jun 2027 05:51:49.318            17.054          8527.000
       423   13 Jun 2027 07:25:35.982   13 Jun 2027 07:26:12.349            36.367         17815.969
       424   13 Jun 2027 07:26:42.056   13 Jun 2027 07:26:45.949             3.893           902.156
       425   13 Jun 2027 07:27:16.686   13 Jun 2027 07:27:19.646             2.960           910.688
       426   13 Jun 2027 07:28:32.913   13 Jun 2027 07:28:37.505             4.592          2034.375
       427   13 Jun 2027 07:29:45.388   13 Jun 2027 07:29:49.118             3.730          1688.937
       428   13 Jun 2027 09:00:19.816   13 Jun 2027 09:00:32.869            13.053          4739.781
       429   13 Jun 2027 09:00:36.116   13 Jun 2027 09:00:37.314             1.198           101.469
       430   13 Jun 2027 09:00:56.551   13 Jun 2027 09:00:56.551             0.000             0.000
       431   13 Jun 2027 09:01:18.554   13 Jun 2027 09:01:22.429             3.875          1178.406
       432   13 Jun 2027 09:01:57.801   13 Jun 2027 09:02:00.093             2.292          1005.750
       433   13 Jun 2027 09:02:06.184   13 Jun 2027 09:02:07.230             1.046            71.094
       434   13 Jun 2027 09:02:35.610   13 Jun 2027 09:02:37.703             2.093           831.375
       435   13 Jun 2027 09:03:20.130   13 Jun 2027 09:03:23.403             3.273          1325.844
       436   13 Jun 2027 09:03:52.687   13 Jun 2027 09:03:53.115             0.428           214.000
       437   13 Jun 2027 09:04:02.550   13 Jun 2027 09:04:02.550             0.000             0.000
       438   13 Jun 2027 09:04:37.692   13 Jun 2027 09:04:44.253             6.561          1512.156
       439   13 Jun 2027 09:05:06.552   13 Jun 2027 09:05:12.152             5.600           696.844
       440   13 Jun 2027 09:07:05.755   13 Jun 2027 09:07:13.644             7.889          3523.000
       441   13 Jun 2027 09:07:41.248   13 Jun 2027 09:07:45.870             4.622           458.531
       442   13 Jun 2027 10:37:09.642   13 Jun 2027 10:37:29.215            19.573          8533.063
       443   13 Jun 2027 10:37:40.543   13 Jun 2027 10:37:41.198             0.655            23.063
       444   13 Jun 2027 10:37:48.730   13 Jun 2027 10:37:50.751             2.021            26.531
       445   13 Jun 2027 10:38:37.462   13 Jun 2027 10:38:45.888             8.426           255.313
       446   13 Jun 2027 10:39:14.597   13 Jun 2027 10:39:15.768             1.171           540.688
       447   13 Jun 2027 10:39:25.422   13 Jun 2027 10:39:26.544             1.122           179.375
       448   13 Jun 2027 10:40:08.565   13 Jun 2027 10:40:13.737             5.172          1054.031
       449   13 Jun 2027 10:40:33.788   13 Jun 2027 10:40:39.231             5.443           626.594
       450   13 Jun 2027 10:40:58.183   13 Jun 2027 10:41:00.758             2.575           579.219
       451   13 Jun 2027 10:41:18.786   13 Jun 2027 10:41:20.908             2.122           218.562
       452   13 Jun 2027 10:41:39.729   13 Jun 2027 10:41:41.022             1.293           513.375
       453   13 Jun 2027 10:41:47.007   13 Jun 2027 10:41:51.379             4.372           187.031
       454   13 Jun 2027 10:42:16.204   13 Jun 2027 10:42:19.303             3.099           775.781
       455   13 Jun 2027 10:43:24.382   13 Jun 2027 10:43:28.771             4.389          2033.719
