uniorb/output/strategy_2/Camera/Camera_KinoSat_111006.txt

KinoSat_111006
-------------------------
    Access    *     Start Time (UTCG)     *     Stop Time (UTCG)  *   Duration (s) *   Data (Mbytes)
         1   01 Jun 2027 03:17:34.896   01 Jun 2027 03:18:54.211            79.315         39657.500
         2   01 Jun 2027 03:29:48.508   01 Jun 2027 03:30:47.351            58.843         29421.500
         3   01 Jun 2027 04:52:03.419   01 Jun 2027 04:53:10.213            66.794         33397.000
         4   01 Jun 2027 04:53:58.912   01 Jun 2027 04:55:09.159            70.247         35123.500
         5   01 Jun 2027 06:26:56.244   01 Jun 2027 06:28:58.284           122.040         61020.000
         6   01 Jun 2027 06:29:54.081   01 Jun 2027 06:30:41.400            47.319         23659.500
         7   01 Jun 2027 06:32:07.888   01 Jun 2027 06:32:11.366             3.478          1739.000
         8   01 Jun 2027 06:33:32.907   01 Jun 2027 06:33:42.349             9.442          4721.000
         9   01 Jun 2027 08:04:30.741   01 Jun 2027 08:07:20.660           169.919         84959.500
        10   01 Jun 2027 08:07:27.630   01 Jun 2027 08:07:55.694            28.064         14032.000
        11   01 Jun 2027 08:10:38.801   01 Jun 2027 08:10:40.463             1.662           831.000
        12   01 Jun 2027 08:10:57.601   01 Jun 2027 08:11:15.303            17.702          8851.000
        13   01 Jun 2027 09:41:13.547   01 Jun 2027 09:43:14.419           120.872         60436.000
        14   01 Jun 2027 09:44:51.587   01 Jun 2027 09:45:03.162            11.575          5787.500
        15   01 Jun 2027 09:45:17.851   01 Jun 2027 09:45:28.258            10.407          5203.500
        16   01 Jun 2027 09:46:18.538   01 Jun 2027 09:46:18.538             0.000             0.000
        17   01 Jun 2027 09:47:09.437   01 Jun 2027 09:47:15.430             5.993          2996.500
        18   01 Jun 2027 09:47:48.894   01 Jun 2027 09:47:48.894             0.000             0.000
        19   01 Jun 2027 11:19:17.841   01 Jun 2027 11:20:43.384            85.543         42771.500
        20   01 Jun 2027 11:20:56.820   01 Jun 2027 11:21:01.352             4.532          2266.000
        21   01 Jun 2027 11:21:42.168   01 Jun 2027 11:21:44.460             2.292          1146.000
        22   01 Jun 2027 11:22:14.525   01 Jun 2027 11:22:23.627             9.102          4551.000
        23   02 Jun 2027 03:29:40.755   02 Jun 2027 03:30:42.111            61.356         30678.000
        24   02 Jun 2027 03:31:33.310   02 Jun 2027 03:31:34.810             1.500           750.000
        25   02 Jun 2027 03:42:03.077   02 Jun 2027 03:42:21.945            18.868          9434.000
        26   02 Jun 2027 05:03:31.896   02 Jun 2027 05:06:17.787           165.891         82945.500
        27   02 Jun 2027 05:06:29.076   02 Jun 2027 05:06:37.077             8.001          4000.500
        28   02 Jun 2027 05:07:38.395   02 Jun 2027 05:07:38.395             0.000             0.000
        29   02 Jun 2027 05:08:05.258   02 Jun 2027 05:08:17.158            11.900          5950.000
        30   02 Jun 2027 05:08:52.417   02 Jun 2027 05:08:55.281             2.864          1432.000
        31   02 Jun 2027 06:38:26.303   02 Jun 2027 06:40:59.404           153.101         76550.500
        32   02 Jun 2027 06:41:05.826   02 Jun 2027 06:41:18.214            12.388          6194.000
        33   02 Jun 2027 06:41:56.612   02 Jun 2027 06:42:02.068             5.456          2728.000
        34   02 Jun 2027 06:42:03.982   02 Jun 2027 06:42:12.384             8.402          4201.000
        35   02 Jun 2027 06:42:26.145   02 Jun 2027 06:42:27.990             1.845           922.500
        36   02 Jun 2027 06:44:28.341   02 Jun 2027 06:44:51.434            23.093         11546.500
        37   02 Jun 2027 06:47:22.577   02 Jun 2027 06:47:29.495             6.918          3459.000
        38   02 Jun 2027 08:16:25.560   02 Jun 2027 08:18:06.643           101.083         50247.593
        39   02 Jun 2027 08:18:35.997   02 Jun 2027 08:18:35.997             0.000             0.000
        40   02 Jun 2027 08:20:19.741   02 Jun 2027 08:20:28.624             8.883          3875.500
        41   02 Jun 2027 08:21:16.985   02 Jun 2027 08:21:16.985             0.000             0.000
        42   02 Jun 2027 08:21:46.891   02 Jun 2027 08:21:51.539             4.648          2324.000
        43   02 Jun 2027 08:22:09.506   02 Jun 2027 08:22:11.096             1.590           683.312
        44   02 Jun 2027 08:22:46.137   02 Jun 2027 08:22:48.936             2.799           840.344
        45   02 Jun 2027 09:53:21.941   02 Jun 2027 09:53:40.928            18.987          9381.500
        46   02 Jun 2027 09:53:45.777   02 Jun 2027 09:53:46.060             0.283           121.656
        47   02 Jun 2027 09:54:29.578   02 Jun 2027 09:54:33.374             3.796           985.625
        48   02 Jun 2027 09:55:49.554   02 Jun 2027 09:55:54.670             5.116          2277.438
        49   02 Jun 2027 09:56:09.533   02 Jun 2027 09:56:15.353             5.820           464.469
        50   02 Jun 2027 09:56:44.897   02 Jun 2027 09:56:55.088            10.191           914.219
        51   02 Jun 2027 09:57:03.614   02 Jun 2027 09:57:05.264             1.650           148.938
        52   02 Jun 2027 09:58:20.223   02 Jun 2027 09:58:25.577             5.354          2278.656
        53   02 Jun 2027 09:59:07.178   02 Jun 2027 09:59:12.146             4.968          1206.125
        54   02 Jun 2027 09:59:46.823   02 Jun 2027 09:59:49.797             2.974          1083.656
        55   02 Jun 2027 11:30:55.189   02 Jun 2027 11:31:14.136            18.947          6836.906
        56   02 Jun 2027 11:31:59.240   02 Jun 2027 11:32:04.604             5.364          1325.781
        57   02 Jun 2027 11:33:14.575   02 Jun 2027 11:33:17.229             2.654          1327.000
        58   02 Jun 2027 11:33:58.005   02 Jun 2027 11:34:07.717             9.712          2062.437
        59   02 Jun 2027 11:34:55.911   02 Jun 2027 11:35:02.288             6.377          1283.469
        60   02 Jun 2027 11:35:12.248   02 Jun 2027 11:35:13.716             1.468           267.094
        61   03 Jun 2027 03:41:36.861   03 Jun 2027 03:43:32.563           115.702         57851.000
        62   03 Jun 2027 03:43:41.735   03 Jun 2027 03:43:54.255            12.520          6260.000
        63   03 Jun 2027 05:17:49.828   03 Jun 2027 05:20:21.428           151.600         75800.000
        64   03 Jun 2027 05:20:25.404   03 Jun 2027 05:20:25.404             0.000             0.000
        65   03 Jun 2027 06:51:21.275   03 Jun 2027 06:51:58.207            36.932         17187.719
        66   03 Jun 2027 06:53:30.005   03 Jun 2027 06:53:41.822            11.817          1499.187
        67   03 Jun 2027 06:53:53.927   03 Jun 2027 06:53:54.567             0.640           266.437
        68   03 Jun 2027 06:54:08.462   03 Jun 2027 06:54:12.210             3.748           398.094
        69   03 Jun 2027 06:54:58.862   03 Jun 2027 06:55:03.162             4.300          1142.813
        70   03 Jun 2027 06:55:34.802   03 Jun 2027 06:55:34.802             0.000             0.000
        71   03 Jun 2027 06:55:53.189   03 Jun 2027 06:56:00.661             7.472          1563.344
        72   03 Jun 2027 06:57:08.754   03 Jun 2027 06:57:12.626             3.872          1825.969
        73   03 Jun 2027 06:58:24.962   03 Jun 2027 06:58:26.845             1.883           941.500
        74   03 Jun 2027 06:58:57.699   03 Jun 2027 06:59:02.523             4.824          1991.937
        75   03 Jun 2027 06:59:30.129   03 Jun 2027 06:59:33.436             3.307           777.562
        76   03 Jun 2027 08:28:47.298   03 Jun 2027 08:29:01.981            14.683          6853.094
        77   03 Jun 2027 08:30:38.826   03 Jun 2027 08:30:40.405             1.579           650.063
        78   03 Jun 2027 08:30:55.193   03 Jun 2027 08:30:57.881             2.688           243.781
        79   03 Jun 2027 08:31:13.922   03 Jun 2027 08:31:15.260             1.338           429.469
        80   03 Jun 2027 08:31:59.399   03 Jun 2027 08:32:01.241             1.842           695.125
        81   03 Jun 2027 08:32:17.132   03 Jun 2027 08:32:18.190             1.058           442.250
        82   03 Jun 2027 08:32:47.159   03 Jun 2027 08:32:47.793             0.634           317.000
        83   03 Jun 2027 08:33:14.233   03 Jun 2027 08:33:17.653             3.420          1291.531
        84   03 Jun 2027 08:33:33.789   03 Jun 2027 08:33:33.789             0.000             0.000
        85   03 Jun 2027 08:34:21.752   03 Jun 2027 08:34:26.654             4.902          2003.094
        86   03 Jun 2027 08:35:10.748   03 Jun 2027 08:35:13.690             2.942          1377.937
        87   03 Jun 2027 10:05:50.909   03 Jun 2027 10:06:08.160            17.251          7962.469
        88   03 Jun 2027 10:06:55.428   03 Jun 2027 10:06:57.337             1.909           512.531
        89   03 Jun 2027 10:07:25.284   03 Jun 2027 10:07:26.949             1.665           273.906
        90   03 Jun 2027 10:08:00.116   03 Jun 2027 10:08:01.750             1.634           436.812
        91   03 Jun 2027 10:08:41.393   03 Jun 2027 10:08:46.743             5.350          1142.250
        92   03 Jun 2027 10:08:57.057   03 Jun 2027 10:08:59.110             2.053           199.969
        93   03 Jun 2027 10:09:42.336   03 Jun 2027 10:09:45.584             3.248          1350.813
        94   03 Jun 2027 10:10:08.285   03 Jun 2027 10:10:11.858             3.573           709.406
        95   03 Jun 2027 10:11:04.916   03 Jun 2027 10:11:11.180             6.264          1658.063
        96   03 Jun 2027 10:11:31.692   03 Jun 2027 10:11:35.663             3.971           448.156
        97   03 Jun 2027 11:42:37.127   03 Jun 2027 11:42:48.905            11.778          5889.000
        98   03 Jun 2027 11:43:06.085   03 Jun 2027 11:43:08.098             2.013           788.531
        99   03 Jun 2027 11:43:26.867   03 Jun 2027 11:43:30.388             3.521           433.812
       100   03 Jun 2027 11:44:02.564   03 Jun 2027 11:44:05.696             3.132           720.188
       101   03 Jun 2027 11:45:20.974   03 Jun 2027 11:45:24.069             3.095          1547.500
       102   03 Jun 2027 11:45:33.054   03 Jun 2027 11:45:33.107             0.053            26.500
       103   03 Jun 2027 11:45:58.081   03 Jun 2027 11:46:02.091             4.010          1839.656
       104   03 Jun 2027 11:46:54.657   03 Jun 2027 11:46:56.083             1.426           713.000
       105   03 Jun 2027 11:47:09.912   03 Jun 2027 11:47:12.467             2.555           968.125
       106   04 Jun 2027 03:53:28.627   04 Jun 2027 03:55:01.401            92.774         46387.000
       107   04 Jun 2027 03:55:06.799   04 Jun 2027 03:55:17.338            10.539          5269.500
       108   04 Jun 2027 03:55:34.142   04 Jun 2027 03:56:05.683            31.541         15770.500
       109   04 Jun 2027 05:29:52.945   04 Jun 2027 05:32:05.581           132.636         66318.000
       110   04 Jun 2027 05:32:21.386   04 Jun 2027 05:32:26.707             5.321          2660.500
       111   04 Jun 2027 05:33:26.024   04 Jun 2027 05:33:27.193             1.169           584.500
       112   04 Jun 2027 07:02:04.634   04 Jun 2027 07:02:15.644            11.010          5505.000
       113   04 Jun 2027 07:03:58.607   04 Jun 2027 07:04:37.099            38.492         16703.438
       114   04 Jun 2027 07:05:31.914   04 Jun 2027 07:05:36.361             4.447          1462.187
       115   04 Jun 2027 07:05:49.842   04 Jun 2027 07:05:49.842             0.000             0.000
       116   04 Jun 2027 07:05:59.194   04 Jun 2027 07:06:01.547             2.353           713.531
       117   04 Jun 2027 07:06:29.968   04 Jun 2027 07:06:33.966             3.998           768.813
       118   04 Jun 2027 07:07:01.350   04 Jun 2027 07:07:04.386             3.036           833.937
       119   04 Jun 2027 07:07:21.784   04 Jun 2027 07:07:24.467             2.683           543.688
       120   04 Jun 2027 07:08:53.534   04 Jun 2027 07:09:04.940            11.406          2783.344
       121   04 Jun 2027 07:09:21.443   04 Jun 2027 07:09:24.253             2.810           515.719
       122   04 Jun 2027 07:10:17.289   04 Jun 2027 07:10:28.375            11.086           456.281
       123   04 Jun 2027 07:10:41.548   04 Jun 2027 07:10:42.746             1.198           357.187
       124   04 Jun 2027 07:10:53.443   04 Jun 2027 07:10:55.461             2.018           334.281
       125   04 Jun 2027 07:11:25.647   04 Jun 2027 07:11:28.125             2.478           833.156
       126   04 Jun 2027 07:11:41.661   04 Jun 2027 07:11:42.947             1.286           396.375
       127   04 Jun 2027 08:40:58.888   04 Jun 2027 08:41:17.934            19.046          9053.594
       128   04 Jun 2027 08:42:42.737   04 Jun 2027 08:42:45.189             2.452           239.594
       129   04 Jun 2027 08:43:24.569   04 Jun 2027 08:43:33.090             8.521           386.875
       130   04 Jun 2027 08:43:47.526   04 Jun 2027 08:43:50.942             3.416           451.125
       131   04 Jun 2027 08:44:02.738   04 Jun 2027 08:44:06.887             4.149           172.063
       132   04 Jun 2027 08:45:11.184   04 Jun 2027 08:45:13.387             2.203           951.750
       133   04 Jun 2027 08:45:47.228   04 Jun 2027 08:45:47.861             0.633           316.500
       134   04 Jun 2027 08:46:46.992   04 Jun 2027 08:46:53.748             6.756          2578.843
       135   04 Jun 2027 08:47:25.879   04 Jun 2027 08:47:28.377             2.498          1004.094
       136   04 Jun 2027 10:17:59.834   04 Jun 2027 10:18:16.590            16.756          7522.312
       137   04 Jun 2027 10:18:44.640   04 Jun 2027 10:18:46.880             2.240            68.688
       138   04 Jun 2027 10:19:26.566   04 Jun 2027 10:19:32.336             5.770           511.063
       139   04 Jun 2027 10:20:00.546   04 Jun 2027 10:20:06.301             5.755           822.250
       140   04 Jun 2027 10:20:52.419   04 Jun 2027 10:20:56.629             4.210          1285.344
       141   04 Jun 2027 10:21:07.048   04 Jun 2027 10:21:15.631             8.583           325.594
       142   04 Jun 2027 10:21:36.226   04 Jun 2027 10:21:39.990             3.764           628.094
       143   04 Jun 2027 10:21:59.905   04 Jun 2027 10:22:00.947             1.042           295.469
       144   04 Jun 2027 10:22:21.578   04 Jun 2027 10:22:21.786             0.208           104.000
       145   04 Jun 2027 10:22:24.810   04 Jun 2027 10:22:32.497             7.687           540.719
       146   04 Jun 2027 11:54:41.733   04 Jun 2027 11:55:00.159            18.426          8670.594
       147   04 Jun 2027 11:55:16.371   04 Jun 2027 11:55:22.146             5.775           506.625
       148   04 Jun 2027 11:56:12.997   04 Jun 2027 11:56:18.147             5.150          1473.156
       149   04 Jun 2027 11:56:40.223   04 Jun 2027 11:56:42.538             2.315           513.906
       150   04 Jun 2027 11:57:41.155   04 Jun 2027 11:57:45.097             3.942          1582.844
       151   04 Jun 2027 11:58:13.729   04 Jun 2027 11:58:13.935             0.206           103.000
       152   04 Jun 2027 11:58:29.208   04 Jun 2027 11:58:35.492             6.284          1269.031
       153   05 Jun 2027 04:05:33.847   05 Jun 2027 04:06:57.941            84.094         42047.000
       154   05 Jun 2027 04:07:02.013   05 Jun 2027 04:07:20.514            18.501          9250.500
       155   05 Jun 2027 04:07:26.248   05 Jun 2027 04:07:29.715             3.467          1733.500
       156   05 Jun 2027 05:42:02.881   05 Jun 2027 05:43:59.339           116.458         58229.000
       157   05 Jun 2027 05:44:49.442   05 Jun 2027 05:45:41.748            52.306         26153.000
       158   05 Jun 2027 07:17:10.256   05 Jun 2027 07:18:02.706            52.450         24938.969
       159   05 Jun 2027 07:18:05.858   05 Jun 2027 07:18:07.065             1.207            98.500
       160   05 Jun 2027 07:18:31.433   05 Jun 2027 07:18:36.139             4.706           651.375
       161   05 Jun 2027 07:18:46.636   05 Jun 2027 07:18:49.360             2.724           268.750
       162   05 Jun 2027 07:19:19.655   05 Jun 2027 07:19:22.192             2.537           608.688
       163   05 Jun 2027 07:20:23.109   05 Jun 2027 07:20:25.571             2.462          1169.812
       164   05 Jun 2027 07:21:03.484   05 Jun 2027 07:21:03.484             0.000             0.000
       165   05 Jun 2027 07:22:15.056   05 Jun 2027 07:22:27.072            12.016          3078.531
       166   05 Jun 2027 07:23:27.613   05 Jun 2027 07:23:32.083             4.470          1747.625
       167   05 Jun 2027 07:23:33.404   05 Jun 2027 07:23:39.561             6.157            41.281
       168   05 Jun 2027 07:23:42.827   05 Jun 2027 07:23:42.827             0.000             0.000
       169   05 Jun 2027 08:53:31.528   05 Jun 2027 08:53:49.016            17.488          7094.906
       170   05 Jun 2027 08:54:17.842   05 Jun 2027 08:54:22.777             4.935           679.563
       171   05 Jun 2027 08:55:27.414   05 Jun 2027 08:55:31.359             3.945          1788.969
       172   05 Jun 2027 08:55:54.108   05 Jun 2027 08:55:55.477             1.369           488.500
       173   05 Jun 2027 08:56:01.786   05 Jun 2027 08:56:02.580             0.794           197.156
       174   05 Jun 2027 08:56:17.891   05 Jun 2027 08:56:19.731             1.840           393.187
       175   05 Jun 2027 08:57:53.388   05 Jun 2027 08:58:00.068             6.680          2526.094
       176   05 Jun 2027 08:58:55.214   05 Jun 2027 08:58:59.926             4.712          1538.094
       177   05 Jun 2027 08:59:36.257   05 Jun 2027 08:59:39.990             3.733          1135.344
       178   05 Jun 2027 10:30:58.045   05 Jun 2027 10:31:14.774            16.729          7006.844
       179   05 Jun 2027 10:31:34.027   05 Jun 2027 10:31:37.197             3.170           570.844
       180   05 Jun 2027 10:31:43.104   05 Jun 2027 10:31:45.353             2.249           184.594
       181   05 Jun 2027 10:32:15.953   05 Jun 2027 10:32:19.140             3.187           818.563
       182   05 Jun 2027 10:32:48.839   05 Jun 2027 10:32:49.323             0.484           242.000
       183   05 Jun 2027 10:33:08.937   05 Jun 2027 10:33:12.104             3.167           961.344
       184   05 Jun 2027 10:33:36.015   05 Jun 2027 10:33:38.653             2.638           695.281
       185   05 Jun 2027 10:33:59.608   05 Jun 2027 10:34:00.399             0.791           395.500
       186   05 Jun 2027 10:34:54.624   05 Jun 2027 10:34:59.405             4.781          1736.688
       187   06 Jun 2027 04:17:37.104   06 Jun 2027 04:20:22.321           165.217         82608.500
       188   06 Jun 2027 05:54:06.048   06 Jun 2027 05:56:23.501           137.453         68726.500
       189   06 Jun 2027 07:29:17.171   06 Jun 2027 07:29:48.760            31.589         14798.344
       190   06 Jun 2027 07:30:34.657   06 Jun 2027 07:30:35.007             0.350           175.000
       191   06 Jun 2027 07:30:41.380   06 Jun 2027 07:30:42.151             0.771           337.906
       192   06 Jun 2027 07:31:19.700   06 Jun 2027 07:31:20.826             1.126           563.000
       193   06 Jun 2027 07:31:35.497   06 Jun 2027 07:31:36.628             1.131           565.500
       194   06 Jun 2027 07:32:44.419   06 Jun 2027 07:32:50.579             6.160          2545.063
       195   06 Jun 2027 07:33:15.492   06 Jun 2027 07:33:16.420             0.928           378.188
       196   06 Jun 2027 07:33:34.739   06 Jun 2027 07:33:37.509             2.770           572.094
       197   06 Jun 2027 07:34:08.249   06 Jun 2027 07:34:09.344             1.095           235.969
       198   06 Jun 2027 07:34:36.433   06 Jun 2027 07:34:38.481             2.048           669.969
       199   06 Jun 2027 07:35:08.650   06 Jun 2027 07:35:10.489             1.839           910.625
       200   06 Jun 2027 07:35:25.373   06 Jun 2027 07:35:26.671             1.298           465.125
       201   06 Jun 2027 09:05:14.004   06 Jun 2027 09:05:32.625            18.621          8209.813
       202   06 Jun 2027 09:06:03.278   06 Jun 2027 09:06:06.224             2.946           603.688
       203   06 Jun 2027 09:06:44.664   06 Jun 2027 09:06:49.526             4.862           925.594
       204   06 Jun 2027 09:07:20.647   06 Jun 2027 09:07:22.139             1.492           445.219
       205   06 Jun 2027 09:07:58.354   06 Jun 2027 09:07:59.792             1.438           542.625
       206   06 Jun 2027 09:08:32.453   06 Jun 2027 09:08:34.169             1.716           792.906
       207   06 Jun 2027 09:08:52.333   06 Jun 2027 09:08:54.845             2.512           567.625
       208   06 Jun 2027 09:09:10.118   06 Jun 2027 09:09:13.174             3.056           435.594
       209   06 Jun 2027 09:10:37.712   06 Jun 2027 09:10:42.648             4.936          2147.344
       210   06 Jun 2027 09:11:08.427   06 Jun 2027 09:11:12.145             3.718           449.813
       211   06 Jun 2027 10:43:04.875   06 Jun 2027 10:43:22.467            17.592          7651.125
       212   06 Jun 2027 10:44:15.424   06 Jun 2027 10:44:19.851             4.427          1254.219
       213   06 Jun 2027 10:44:48.418   06 Jun 2027 10:44:52.294             3.876           892.719
       214   06 Jun 2027 10:45:12.409   06 Jun 2027 10:45:13.364             0.955           150.219
       215   06 Jun 2027 10:45:56.941   06 Jun 2027 10:45:59.874             2.933          1328.813
       216   06 Jun 2027 10:46:06.735   06 Jun 2027 10:46:07.734             0.999           189.469
       217   06 Jun 2027 10:46:34.915   06 Jun 2027 10:46:37.462             2.547           849.406
       218   06 Jun 2027 10:47:10.416   06 Jun 2027 10:47:12.353             1.937           734.000
       219   06 Jun 2027 10:47:22.736   06 Jun 2027 10:47:22.768             0.032            16.000
       220   06 Jun 2027 10:47:31.680   06 Jun 2027 10:47:35.273             3.593           586.969
       221   07 Jun 2027 03:06:06.509   07 Jun 2027 03:08:01.255           114.746         57373.000
       222   07 Jun 2027 03:08:52.031   07 Jun 2027 03:09:14.747            22.716         11358.000
       223   07 Jun 2027 04:30:03.784   07 Jun 2027 04:30:47.516            43.732         21866.000
       224   07 Jun 2027 04:31:33.512   07 Jun 2027 04:31:33.512             0.000             0.000
       225   07 Jun 2027 04:32:06.922   07 Jun 2027 04:32:48.272            41.350         20675.000
       226   07 Jun 2027 06:05:50.362   07 Jun 2027 06:06:24.319            33.957         16978.500
       227   07 Jun 2027 06:07:29.521   07 Jun 2027 06:08:30.850            61.329         30664.500
       228   07 Jun 2027 06:09:03.854   07 Jun 2027 06:09:08.571             4.717          2358.500
       229   07 Jun 2027 07:40:33.391   07 Jun 2027 07:40:48.704            15.313          7396.594
       230   07 Jun 2027 07:41:22.820   07 Jun 2027 07:41:22.820             0.000             0.000
       231   07 Jun 2027 07:42:33.203   07 Jun 2027 07:42:39.468             6.265          2391.875
       232   07 Jun 2027 07:42:46.690   07 Jun 2027 07:42:51.328             4.638            87.531
       233   07 Jun 2027 07:43:17.164   07 Jun 2027 07:43:23.334             6.170           577.875
       234   07 Jun 2027 07:43:37.033   07 Jun 2027 07:43:39.211             2.178           143.156
       235   07 Jun 2027 07:44:35.358   07 Jun 2027 07:44:37.998             2.640          1318.344
       236   07 Jun 2027 07:45:07.927   07 Jun 2027 07:45:11.552             3.625           840.375
       237   07 Jun 2027 07:45:18.012   07 Jun 2027 07:45:20.599             2.587           189.250
       238   07 Jun 2027 07:45:56.723   07 Jun 2027 07:46:04.142             7.419          1128.875
       239   07 Jun 2027 07:46:17.116   07 Jun 2027 07:46:19.119             2.003           291.156
       240   07 Jun 2027 07:47:00.353   07 Jun 2027 07:47:05.010             4.657           916.219
       241   07 Jun 2027 07:48:01.895   07 Jun 2027 07:48:01.895             0.000             0.000
       242   07 Jun 2027 09:17:18.876   07 Jun 2027 09:17:37.850            18.974          9373.125
       243   07 Jun 2027 09:19:04.255   07 Jun 2027 09:19:12.181             7.926          1669.875
       244   07 Jun 2027 09:19:51.988   07 Jun 2027 09:19:54.349             2.361           747.156
       245   07 Jun 2027 09:20:14.960   07 Jun 2027 09:20:16.485             1.525           500.844
       246   07 Jun 2027 09:20:59.387   07 Jun 2027 09:21:01.781             2.394           993.875
       247   07 Jun 2027 09:21:18.854   07 Jun 2027 09:21:20.942             2.088           443.344
       248   07 Jun 2027 09:21:53.236   07 Jun 2027 09:21:55.488             2.252           879.469
       249   07 Jun 2027 09:22:07.564   07 Jun 2027 09:22:08.754             1.190           206.281
       250   07 Jun 2027 09:22:36.486   07 Jun 2027 09:22:38.410             1.924           758.625
       251   07 Jun 2027 09:23:41.087   07 Jun 2027 09:23:41.132             0.045            22.500
       252   07 Jun 2027 10:55:35.182   07 Jun 2027 10:55:49.687            14.505          7252.500
       253   07 Jun 2027 10:56:03.602   07 Jun 2027 10:56:12.742             9.140           854.219
       254   07 Jun 2027 10:57:14.138   07 Jun 2027 10:57:18.192             4.054          1918.625
       255   07 Jun 2027 10:57:25.928   07 Jun 2027 10:57:26.746             0.818           241.750
       256   07 Jun 2027 10:57:40.060   07 Jun 2027 10:57:43.529             3.469           158.562
       257   07 Jun 2027 10:58:11.201   07 Jun 2027 10:58:13.716             2.515           814.438
       258   07 Jun 2027 10:58:27.589   07 Jun 2027 10:58:27.589             0.000             0.000
       259   07 Jun 2027 10:58:51.782   07 Jun 2027 10:59:02.752            10.970          1077.531
       260   08 Jun 2027 03:06:29.423   08 Jun 2027 03:07:10.291            40.868         20434.000
       261   08 Jun 2027 03:07:11.997   08 Jun 2027 03:07:11.997             0.000             0.000
       262   08 Jun 2027 03:18:04.632   08 Jun 2027 03:19:42.409            97.777         48888.500
       263   08 Jun 2027 04:40:41.620   08 Jun 2027 04:41:40.150            58.530         29265.000
       264   08 Jun 2027 04:42:19.242   08 Jun 2027 04:42:49.321            30.079         15039.500
       265   08 Jun 2027 04:42:51.281   08 Jun 2027 04:43:01.680            10.399          5199.500
       266   08 Jun 2027 06:15:50.932   08 Jun 2027 06:17:04.835            73.903         36951.500
       267   08 Jun 2027 06:17:59.902   08 Jun 2027 06:18:06.769             6.867          2467.906
       268   08 Jun 2027 06:20:34.211   08 Jun 2027 06:20:43.725             9.514          3672.125
       269   08 Jun 2027 06:21:47.946   08 Jun 2027 06:21:49.618             1.672           836.000
       270   08 Jun 2027 06:22:08.865   08 Jun 2027 06:22:10.401             1.536           768.000
       271   08 Jun 2027 07:52:38.192   08 Jun 2027 07:52:48.036             9.844          4041.437
       272   08 Jun 2027 07:52:56.159   08 Jun 2027 07:53:03.763             7.604           241.625
       273   08 Jun 2027 07:54:33.384   08 Jun 2027 07:54:38.568             5.184          2198.406
       274   08 Jun 2027 07:55:27.899   08 Jun 2027 07:55:29.974             2.075           964.781
       275   08 Jun 2027 07:56:07.844   08 Jun 2027 07:56:12.233             4.389          1106.219
       276   08 Jun 2027 07:57:05.553   08 Jun 2027 07:57:09.518             3.965          1291.094
       277   08 Jun 2027 07:57:30.143   08 Jun 2027 07:57:31.710             1.567           644.531
       278   08 Jun 2027 07:58:34.480   08 Jun 2027 07:58:39.019             4.539          1842.500
       279   08 Jun 2027 07:59:02.476   08 Jun 2027 07:59:05.792             3.316           733.031
       280   08 Jun 2027 08:00:04.005   08 Jun 2027 08:00:04.481             0.476           165.687
       281   08 Jun 2027 09:29:39.233   08 Jun 2027 09:29:56.877            17.644          8776.188
       282   08 Jun 2027 09:30:21.283   08 Jun 2027 09:30:28.422             7.139           751.719
       283   08 Jun 2027 09:31:01.426   08 Jun 2027 09:31:09.106             7.680           129.187
       284   08 Jun 2027 09:31:42.326   08 Jun 2027 09:31:49.883             7.557            15.344
       285   08 Jun 2027 09:32:56.522   08 Jun 2027 09:33:03.205             6.683          1749.375
       286   08 Jun 2027 09:34:31.602   08 Jun 2027 09:34:36.991             5.389          2373.781
       287   08 Jun 2027 09:35:17.701   08 Jun 2027 09:35:21.603             3.902          1272.188
       288   08 Jun 2027 11:07:32.802   08 Jun 2027 11:07:47.868            15.066          6706.594
       289   08 Jun 2027 11:08:18.250   08 Jun 2027 11:08:22.183             3.933           919.500
       290   08 Jun 2027 11:09:34.248   08 Jun 2027 11:09:37.452             3.204          1240.969
       291   08 Jun 2027 11:09:59.035   08 Jun 2027 11:10:02.609             3.574           674.469
       292   08 Jun 2027 11:10:13.690   08 Jun 2027 11:10:14.639             0.949           280.531
       293   08 Jun 2027 11:10:37.528   08 Jun 2027 11:10:40.866             3.338           629.563
       294   08 Jun 2027 11:10:50.426   08 Jun 2027 11:10:52.789             2.363           230.875
       295   08 Jun 2027 11:10:57.652   08 Jun 2027 11:10:59.396             1.744           151.969
       296   09 Jun 2027 03:17:50.003   09 Jun 2027 03:19:10.532            80.529         40264.500
       297   09 Jun 2027 03:19:13.303   09 Jun 2027 03:19:17.915             4.612          2306.000
       298   09 Jun 2027 03:30:03.728   09 Jun 2027 03:31:02.144            58.416         29208.000
       299   09 Jun 2027 04:52:17.552   09 Jun 2027 04:53:25.473            67.921         33960.500
       300   09 Jun 2027 04:54:13.760   09 Jun 2027 04:54:54.597            40.837         20418.500
       301   09 Jun 2027 04:56:35.675   09 Jun 2027 04:56:35.675             0.000             0.000
       302   09 Jun 2027 04:56:50.127   09 Jun 2027 04:57:01.032            10.905          5452.500
       303   09 Jun 2027 06:27:10.981   09 Jun 2027 06:27:58.845            47.864         23695.094
       304   09 Jun 2027 06:28:38.515   09 Jun 2027 06:28:41.011             2.496           590.750
       305   09 Jun 2027 06:29:21.558   09 Jun 2027 06:29:22.684             1.126           563.000
       306   09 Jun 2027 06:30:24.067   09 Jun 2027 06:30:25.840             1.773           886.500
       307   09 Jun 2027 06:30:31.475   09 Jun 2027 06:30:40.275             8.800          1769.219
       308   09 Jun 2027 06:30:42.768   09 Jun 2027 06:30:42.768             0.000             0.000
       309   09 Jun 2027 06:30:47.598   09 Jun 2027 06:30:48.794             1.196           228.844
       310   09 Jun 2027 06:32:23.124   09 Jun 2027 06:32:26.800             3.676          1838.000
       311   09 Jun 2027 06:32:42.445   09 Jun 2027 06:32:47.878             5.433          1321.063
       312   09 Jun 2027 06:32:56.699   09 Jun 2027 06:32:56.699             0.000             0.000
       313   09 Jun 2027 06:33:07.017   09 Jun 2027 06:33:11.046             4.029           405.406
       314   09 Jun 2027 06:33:46.051   09 Jun 2027 06:33:47.112             1.061           213.531
       315   09 Jun 2027 06:34:15.232   09 Jun 2027 06:34:15.232             0.000             0.000
       316   09 Jun 2027 06:34:16.361   09 Jun 2027 06:34:19.481             3.120           868.094
       317   09 Jun 2027 06:34:37.967   09 Jun 2027 06:34:37.967             0.000             0.000
       318   09 Jun 2027 08:04:45.633   09 Jun 2027 08:04:58.428            12.795          6397.500
       319   09 Jun 2027 08:05:25.739   09 Jun 2027 08:05:31.221             5.482           904.406
       320   09 Jun 2027 08:05:56.420   09 Jun 2027 08:05:59.085             2.665           257.125
       321   09 Jun 2027 08:07:37.638   09 Jun 2027 08:07:42.573             4.935          2020.313
       322   09 Jun 2027 08:08:12.700   09 Jun 2027 08:08:15.027             2.327           937.031
       323   09 Jun 2027 08:08:44.413   09 Jun 2027 08:08:51.350             6.937           918.313
       324   09 Jun 2027 08:09:01.493   09 Jun 2027 08:09:04.946             3.453           128.063
       325   09 Jun 2027 08:09:40.454   09 Jun 2027 08:09:43.257             2.803          1070.000
       326   09 Jun 2027 08:10:11.116   09 Jun 2027 08:10:13.193             2.077           490.562
       327   09 Jun 2027 08:10:44.946   09 Jun 2027 08:10:49.162             4.216           864.781
       328   09 Jun 2027 08:11:34.668   09 Jun 2027 08:11:40.873             6.205          1226.344
       329   09 Jun 2027 09:41:28.655   09 Jun 2027 09:41:53.685            25.030          9918.500
       330   09 Jun 2027 09:42:19.538   09 Jun 2027 09:42:21.127             1.589           707.844
       331   09 Jun 2027 09:42:53.422   09 Jun 2027 09:42:55.019             1.597           476.063
       332   09 Jun 2027 09:43:31.091   09 Jun 2027 09:43:34.222             3.131          1127.250
       333   09 Jun 2027 09:44:07.785   09 Jun 2027 09:44:09.562             1.777           821.250
       334   09 Jun 2027 09:44:25.327   09 Jun 2027 09:44:31.639             6.312           488.969
       335   09 Jun 2027 09:45:14.345   09 Jun 2027 09:45:16.998             2.653          1313.875
       336   09 Jun 2027 09:45:36.515   09 Jun 2027 09:45:39.465             2.950           590.813
       337   09 Jun 2027 09:46:08.974   09 Jun 2027 09:46:10.952             1.978           922.156
       338   09 Jun 2027 09:46:52.756   09 Jun 2027 09:46:57.732             4.976          1306.375
       339   09 Jun 2027 09:47:16.242   09 Jun 2027 09:47:22.796             6.554           578.438
       340   09 Jun 2027 09:47:28.489   09 Jun 2027 09:47:31.345             2.856           177.906
       341   09 Jun 2027 09:47:56.128   09 Jun 2027 09:48:00.438             4.310           774.469
       342   09 Jun 2027 11:19:32.483   09 Jun 2027 11:19:45.812            13.329          6522.031
       343   09 Jun 2027 11:20:19.213   09 Jun 2027 11:20:24.831             5.618           859.531
       344   09 Jun 2027 11:20:45.728   09 Jun 2027 11:20:47.279             1.551           538.656
       345   09 Jun 2027 11:21:12.023   09 Jun 2027 11:21:17.117             5.094           418.219
       346   09 Jun 2027 11:21:59.360   09 Jun 2027 11:22:02.481             3.121          1263.063
       347   09 Jun 2027 11:22:42.932   09 Jun 2027 11:22:50.705             7.773          1264.094
       348   09 Jun 2027 11:23:29.680   09 Jun 2027 11:23:33.745             4.065          1217.969
       349   09 Jun 2027 11:23:37.982   09 Jun 2027 11:23:39.115             1.133           132.406
       350   10 Jun 2027 03:29:55.630   10 Jun 2027 03:30:45.668            50.038         25019.000
       351   10 Jun 2027 03:30:57.010   10 Jun 2027 03:31:14.504            17.494          8747.000
       352   10 Jun 2027 03:42:18.939   10 Jun 2027 03:42:36.669            17.730          8865.000
       353   10 Jun 2027 05:03:46.489   10 Jun 2027 05:06:36.941           170.452         85226.000
       354   10 Jun 2027 05:06:46.806   10 Jun 2027 05:06:52.100             5.294          2647.000
       355   10 Jun 2027 05:08:20.270   10 Jun 2027 05:08:22.197             1.927           963.500
       356   10 Jun 2027 05:08:32.677   10 Jun 2027 05:08:37.783             5.106          2553.000
       357   10 Jun 2027 05:09:07.445   10 Jun 2027 05:09:10.433             2.988          1494.000
       358   10 Jun 2027 06:38:40.840   10 Jun 2027 06:39:21.298            40.458         19806.906
       359   10 Jun 2027 06:40:20.877   10 Jun 2027 06:40:31.684            10.807          1629.469
       360   10 Jun 2027 06:41:15.190   10 Jun 2027 06:41:16.113             0.923           461.500
       361   10 Jun 2027 06:41:23.115   10 Jun 2027 06:41:25.012             1.897           348.156
       362   10 Jun 2027 06:42:12.654   10 Jun 2027 06:42:17.248             4.594          1205.688
       363   10 Jun 2027 06:42:52.256   10 Jun 2027 06:42:57.809             5.553          1049.812
       364   10 Jun 2027 06:44:16.881   10 Jun 2027 06:44:22.269             5.388          2471.000
       365   10 Jun 2027 06:45:25.059   10 Jun 2027 06:45:30.523             5.464          1828.000
       366   10 Jun 2027 06:46:07.911   10 Jun 2027 06:46:11.502             3.591          1153.344
       367   10 Jun 2027 06:46:29.921   10 Jun 2027 06:46:35.390             5.469           543.375
       368   10 Jun 2027 06:47:37.247   10 Jun 2027 06:47:41.578             4.331          1810.875
       369   10 Jun 2027 06:48:09.664   10 Jun 2027 06:48:10.947             1.283           619.406
       370   10 Jun 2027 08:16:40.860   10 Jun 2027 08:16:56.249            15.389          7530.906
       371   10 Jun 2027 08:17:31.002   10 Jun 2027 08:17:35.238             4.236           905.187
       372   10 Jun 2027 08:17:46.325   10 Jun 2027 08:17:47.084             0.759           199.312
       373   10 Jun 2027 08:18:53.955   10 Jun 2027 08:18:56.339             2.384           688.969
       374   10 Jun 2027 08:20:36.919   10 Jun 2027 08:20:43.714             6.795          1988.563
       375   10 Jun 2027 08:21:00.192   10 Jun 2027 08:21:02.551             2.359           457.219
       376   10 Jun 2027 08:21:21.483   10 Jun 2027 08:21:22.555             1.072           411.187
       377   10 Jun 2027 08:21:45.143   10 Jun 2027 08:21:49.031             3.888           479.875
       378   10 Jun 2027 08:22:34.044   10 Jun 2027 08:22:36.884             2.840          1397.000
       379   10 Jun 2027 08:24:06.317   10 Jun 2027 08:24:09.609             3.292          1646.000
       380   10 Jun 2027 09:53:36.153   10 Jun 2027 09:53:56.809            20.656          9784.687
       381   10 Jun 2027 09:54:15.295   10 Jun 2027 09:54:16.912             1.617           458.063
       382   10 Jun 2027 09:54:19.532   10 Jun 2027 09:54:23.262             3.730            40.781
       383   10 Jun 2027 09:54:30.697   10 Jun 2027 09:54:32.997             2.300           232.344
       384   10 Jun 2027 09:55:37.633   10 Jun 2027 09:55:41.537             3.904          1928.531
       385   10 Jun 2027 09:56:10.759   10 Jun 2027 09:56:13.810             3.051           837.781
       386   10 Jun 2027 09:56:52.303   10 Jun 2027 09:56:56.814             4.511          1107.781
       387   10 Jun 2027 09:57:22.788   10 Jun 2027 09:57:24.792             2.004           727.469
       388   10 Jun 2027 09:58:34.959   10 Jun 2027 09:58:38.288             3.329          1664.500
       389   10 Jun 2027 09:59:32.347   10 Jun 2027 09:59:36.418             4.071          1759.812
       390   10 Jun 2027 11:31:09.984   10 Jun 2027 11:31:28.911            18.927          6162.719
       391   10 Jun 2027 11:31:37.314   10 Jun 2027 11:31:38.209             0.895           181.375
       392   10 Jun 2027 11:32:09.107   10 Jun 2027 11:32:10.377             1.270           635.000
       393   10 Jun 2027 11:32:19.343   10 Jun 2027 11:32:23.116             3.773           285.156
       394   10 Jun 2027 11:32:47.791   10 Jun 2027 11:32:47.791             0.000             0.000
       395   10 Jun 2027 11:33:11.976   10 Jun 2027 11:33:13.045             1.069           534.500
       396   10 Jun 2027 11:33:44.795   10 Jun 2027 11:33:52.057             7.262          1825.406
       397   10 Jun 2027 11:34:09.755   10 Jun 2027 11:34:10.789             1.034           466.313
       398   10 Jun 2027 11:34:56.700   10 Jun 2027 11:34:56.700             0.000             0.000
       399   10 Jun 2027 11:35:11.568   10 Jun 2027 11:35:15.684             4.116          1312.813
       400   10 Jun 2027 11:35:27.236   10 Jun 2027 11:35:29.073             1.837           223.531
       401   11 Jun 2027 03:41:52.032   11 Jun 2027 03:43:11.949            79.917         39958.500
       402   11 Jun 2027 03:43:52.266   11 Jun 2027 03:43:56.454             4.188          2094.000
       403   11 Jun 2027 05:18:04.379   11 Jun 2027 05:21:22.276           197.897         98948.500
       404   11 Jun 2027 06:51:36.835   11 Jun 2027 06:52:16.319            39.484         18552.156
       405   11 Jun 2027 06:52:59.450   11 Jun 2027 06:53:03.208             3.758           605.781
       406   11 Jun 2027 06:54:01.589   11 Jun 2027 06:54:05.904             4.315           411.844
       407   11 Jun 2027 06:54:21.573   11 Jun 2027 06:54:23.183             1.610           374.562
       408   11 Jun 2027 06:55:13.552   11 Jun 2027 06:55:16.091             2.539          1164.969
       409   11 Jun 2027 06:57:09.550   11 Jun 2027 06:57:21.820            12.270          3391.562
       410   11 Jun 2027 06:57:53.778   11 Jun 2027 06:57:56.462             2.684           898.344
       411   11 Jun 2027 06:58:44.575   11 Jun 2027 06:58:50.479             5.904           463.938
       412   11 Jun 2027 06:59:01.512   11 Jun 2027 06:59:02.472             0.960            65.156
       413   11 Jun 2027 06:59:21.743   11 Jun 2027 06:59:21.743             0.000             0.000
       414   11 Jun 2027 06:59:44.691   11 Jun 2027 06:59:49.189             4.498          1319.344
       415   11 Jun 2027 08:29:02.859   11 Jun 2027 08:29:23.200            20.341          8970.188
       416   11 Jun 2027 08:29:58.956   11 Jun 2027 08:30:01.316             2.360           486.688
       417   11 Jun 2027 08:31:04.292   11 Jun 2027 08:31:06.441             2.149           977.219
       418   11 Jun 2027 08:31:27.656   11 Jun 2027 08:31:31.107             3.451           550.406
       419   11 Jun 2027 08:32:14.962   11 Jun 2027 08:32:17.608             2.646           708.781
       420   11 Jun 2027 08:32:31.549   11 Jun 2027 08:32:32.757             1.208           423.438
       421   11 Jun 2027 08:33:08.142   11 Jun 2027 08:33:10.514             2.372           980.625
       422   11 Jun 2027 08:33:57.069   11 Jun 2027 08:34:00.912             3.843          1351.500
       423   11 Jun 2027 08:34:36.749   11 Jun 2027 08:34:39.070             2.321          1119.906
       424   11 Jun 2027 08:35:10.266   11 Jun 2027 08:35:15.707             5.441           974.875
       425   11 Jun 2027 08:35:31.104   11 Jun 2027 08:35:32.869             1.765           321.281
       426   11 Jun 2027 10:06:05.345   11 Jun 2027 10:06:08.292             2.947          1473.500
       427   11 Jun 2027 10:06:23.760   11 Jun 2027 10:06:37.637            13.877          6861.000
       428   11 Jun 2027 10:08:01.489   11 Jun 2027 10:08:06.095             4.606           560.656
       429   11 Jun 2027 10:08:22.366   11 Jun 2027 10:08:23.108             0.742           371.000
       430   11 Jun 2027 10:09:15.192   11 Jun 2027 10:09:20.803             5.611          1708.750
       431   11 Jun 2027 10:09:53.958   11 Jun 2027 10:09:57.155             3.197          1029.063
       432   11 Jun 2027 10:09:58.594   11 Jun 2027 10:09:58.846             0.252            44.969
       433   11 Jun 2027 10:10:12.016   11 Jun 2027 10:10:13.659             1.643           355.156
       434   11 Jun 2027 10:11:24.476   11 Jun 2027 10:11:32.382             7.906          2213.031
       435   11 Jun 2027 10:11:47.703   11 Jun 2027 10:11:49.300             1.597           478.781
       436   11 Jun 2027 11:42:53.317   11 Jun 2027 11:43:05.745            12.428          6056.281
       437   11 Jun 2027 11:43:10.933   11 Jun 2027 11:43:17.139             6.206           162.125
       438   11 Jun 2027 11:43:45.252   11 Jun 2027 11:43:48.294             3.042           502.344
       439   11 Jun 2027 11:44:17.679   11 Jun 2027 11:44:18.700             1.021           510.500
       440   11 Jun 2027 11:44:30.071   11 Jun 2027 11:44:32.594             2.523           763.125
       441   11 Jun 2027 11:45:03.676   11 Jun 2027 11:45:04.866             1.190           595.000
       442   11 Jun 2027 11:45:36.057   11 Jun 2027 11:45:41.106             5.049          1192.719
       443   11 Jun 2027 11:46:29.514   11 Jun 2027 11:46:31.756             2.242          1121.000
       444   12 Jun 2027 03:53:43.360   12 Jun 2027 03:55:13.026            89.666         44833.000
       445   12 Jun 2027 03:55:16.409   12 Jun 2027 03:55:24.494             8.085          4042.500
       446   12 Jun 2027 03:55:45.953   12 Jun 2027 03:55:49.879             3.926          1963.000
       447   12 Jun 2027 05:30:10.428   12 Jun 2027 05:32:23.630           133.202         66601.000
       448   12 Jun 2027 05:32:24.816   12 Jun 2027 05:33:03.781            38.965         19482.500
       449   12 Jun 2027 05:33:32.563   12 Jun 2027 05:33:39.505             6.942          3471.000
       450   12 Jun 2027 07:02:20.005   12 Jun 2027 07:02:29.480             9.475          4737.500
       451   12 Jun 2027 07:04:15.598   12 Jun 2027 07:04:51.813            36.215         15988.719
       452   12 Jun 2027 07:05:52.699   12 Jun 2027 07:05:55.892             3.193          1567.719
       453   12 Jun 2027 07:07:19.114   12 Jun 2027 07:07:26.060             6.946          2457.844
       454   12 Jun 2027 07:09:10.446   12 Jun 2027 07:09:21.360            10.914          2742.000
       455   12 Jun 2027 07:09:35.879   12 Jun 2027 07:09:39.872             3.993           453.719
       456   12 Jun 2027 07:10:30.561   12 Jun 2027 07:10:35.744             5.183          1356.688
       457   12 Jun 2027 07:10:57.520   12 Jun 2027 07:11:02.720             5.200           302.500
       458   12 Jun 2027 07:11:40.218   12 Jun 2027 07:11:40.218             0.000             0.000
       459   12 Jun 2027 07:11:44.444   12 Jun 2027 07:11:50.101             5.657           907.313
       460   12 Jun 2027 08:41:13.974   12 Jun 2027 08:41:31.186            17.212          7772.437
       461   12 Jun 2027 08:42:57.777   12 Jun 2027 08:42:59.833             2.056           967.781
       462   12 Jun 2027 08:44:06.021   12 Jun 2027 08:44:10.505             4.484          2068.375
       463   12 Jun 2027 08:44:18.273   12 Jun 2027 08:44:19.007             0.734           209.656
       464   12 Jun 2027 08:45:34.224   12 Jun 2027 08:45:37.130             2.906          1125.344
       465   12 Jun 2027 08:46:03.038   12 Jun 2027 08:46:05.719             2.681           809.625
       466   12 Jun 2027 08:46:40.286   12 Jun 2027 08:46:43.065             2.779           945.625
       467   12 Jun 2027 08:47:22.196   12 Jun 2027 08:47:25.965             3.769          1212.563
       468   12 Jun 2027 08:47:40.494   12 Jun 2027 08:47:42.002             1.508           190.594
       469   12 Jun 2027 08:47:43.698   12 Jun 2027 08:47:44.187             0.489            16.844
       470   12 Jun 2027 10:18:18.974   12 Jun 2027 10:18:36.406            17.432          7507.563
       471   12 Jun 2027 10:19:42.715   12 Jun 2027 10:19:48.900             6.185           550.625
       472   12 Jun 2027 10:20:00.247   12 Jun 2027 10:20:04.414             4.167           354.594
       473   12 Jun 2027 10:20:47.615   12 Jun 2027 10:20:53.306             5.691           980.375
       474   12 Jun 2027 10:22:10.194   12 Jun 2027 10:22:14.619             4.425          1923.219
       475   12 Jun 2027 10:22:32.084   12 Jun 2027 10:22:33.211             1.127           545.781
       476   12 Jun 2027 10:22:51.500   12 Jun 2027 10:22:52.667             1.167           466.469
       477   12 Jun 2027 11:54:56.852   12 Jun 2027 11:55:15.981            19.129          8920.094
       478   12 Jun 2027 11:55:39.872   12 Jun 2027 11:55:41.077             1.205           357.875
       479   12 Jun 2027 11:56:28.343   12 Jun 2027 11:56:33.771             5.428          1466.969
       480   12 Jun 2027 11:56:44.674   12 Jun 2027 11:56:49.465             4.791           189.031
       481   12 Jun 2027 11:57:27.029   12 Jun 2027 11:57:29.542             2.513           999.344
       482   12 Jun 2027 11:57:43.074   12 Jun 2027 11:57:43.611             0.537           127.750
       483   12 Jun 2027 11:58:28.635   12 Jun 2027 11:58:33.988             5.353          1192.312
       484   12 Jun 2027 11:59:07.758   12 Jun 2027 11:59:09.297             1.539           730.719
       485   13 Jun 2027 04:05:49.392   13 Jun 2027 04:07:09.236            79.844         39922.000
       486   13 Jun 2027 04:07:45.531   13 Jun 2027 04:08:16.659            31.128         15564.000
       487   13 Jun 2027 04:08:35.044   13 Jun 2027 04:08:51.651            16.607          8303.500
       488   13 Jun 2027 05:42:57.956   13 Jun 2027 05:45:17.369           139.413         69706.500
       489   13 Jun 2027 07:17:25.800   13 Jun 2027 07:18:26.759            60.959         29585.750
       490   13 Jun 2027 07:19:02.617   13 Jun 2027 07:19:07.283             4.666          1120.562
       491   13 Jun 2027 07:19:34.414   13 Jun 2027 07:19:37.033             2.619           615.344
       492   13 Jun 2027 07:20:00.104   13 Jun 2027 07:20:03.106             3.002           208.000
       493   13 Jun 2027 07:20:33.711   13 Jun 2027 07:20:36.783             3.072           377.656
       494   13 Jun 2027 07:21:02.035   13 Jun 2027 07:21:05.779             3.744           740.625
       495   13 Jun 2027 07:22:31.036   13 Jun 2027 07:22:36.512             5.476          2545.875
       496   13 Jun 2027 07:23:42.076   13 Jun 2027 07:23:47.875             5.799          1734.500
       497   13 Jun 2027 07:23:49.884   13 Jun 2027 07:23:49.884             0.000             0.000
       498   13 Jun 2027 07:24:00.050   13 Jun 2027 07:24:01.584             1.534           380.469
       499   13 Jun 2027 08:53:47.470   13 Jun 2027 08:54:03.316            15.846          7527.969
       500   13 Jun 2027 08:55:31.511   13 Jun 2027 08:55:34.628             3.117          1236.500
       501   13 Jun 2027 08:56:01.863   13 Jun 2027 08:56:03.938             2.075           791.719
       502   13 Jun 2027 08:56:16.879   13 Jun 2027 08:56:17.495             0.616           203.125
       503   13 Jun 2027 08:56:31.439   13 Jun 2027 08:56:32.551             1.112           409.094
       504   13 Jun 2027 08:57:00.609   13 Jun 2027 08:57:02.343             1.734           857.500
       505   13 Jun 2027 08:57:24.962   13 Jun 2027 08:57:26.443             1.481           530.438
       506   13 Jun 2027 08:57:29.734   13 Jun 2027 08:57:30.585             0.851            83.812
       507   13 Jun 2027 08:58:00.840   13 Jun 2027 08:58:00.840             0.000             0.000
       508   13 Jun 2027 08:58:21.026   13 Jun 2027 08:58:23.885             2.859          1378.813
       509   13 Jun 2027 08:58:52.199   13 Jun 2027 08:58:54.354             2.155           861.281
       510   13 Jun 2027 08:59:03.608   13 Jun 2027 08:59:09.834             6.226           137.437
       511   13 Jun 2027 10:31:12.921   13 Jun 2027 10:31:30.186            17.265          7671.375
       512   13 Jun 2027 10:31:48.868   13 Jun 2027 10:31:50.037             1.169           528.594
       513   13 Jun 2027 10:32:47.829   13 Jun 2027 10:32:51.320             3.491          1556.125
       514   13 Jun 2027 10:33:21.154   13 Jun 2027 10:33:22.959             1.805           891.187
       515   13 Jun 2027 10:33:53.189   13 Jun 2027 10:33:55.150             1.961           750.812
       516   13 Jun 2027 10:34:15.371   13 Jun 2027 10:34:16.685             1.314             4.656
       517   13 Jun 2027 10:35:09.349   13 Jun 2027 10:35:12.738             3.389          1589.187
