uniorb/output/strategy_2/Camera/Camera_KinoSat_111701.txt

KinoSat_111701
-------------------------
    Access    *     Start Time (UTCG)     *     Stop Time (UTCG)  *   Duration (s) *   Data (Mbytes)
         1   01 Jun 2027 03:48:59.135   01 Jun 2027 03:49:27.282            28.147         14073.500
         2   01 Jun 2027 03:49:31.256   01 Jun 2027 03:52:19.985           168.729         84364.500
         3   01 Jun 2027 03:52:59.689   01 Jun 2027 03:53:25.628            25.939         12969.500
         4   01 Jun 2027 03:53:42.087   01 Jun 2027 03:53:51.932             9.845          4922.500
         5   01 Jun 2027 05:26:59.781   01 Jun 2027 05:27:35.054            35.273         17636.500
         6   01 Jun 2027 05:28:00.388   01 Jun 2027 05:29:15.250            74.862         37431.000
         7   01 Jun 2027 05:30:01.433   01 Jun 2027 05:30:32.210            30.777         15388.500
         8   01 Jun 2027 05:30:37.301   01 Jun 2027 05:30:37.301             0.000             0.000
         9   01 Jun 2027 06:50:40.600   01 Jun 2027 06:52:00.776            80.176         40088.000
        10   01 Jun 2027 08:27:07.240   01 Jun 2027 08:29:54.116           166.876         83438.000
        11   01 Jun 2027 09:59:17.857   01 Jun 2027 09:59:24.734             6.877          3438.500
        12   01 Jun 2027 10:01:12.665   01 Jun 2027 10:02:54.588           101.923         50961.500
        13   01 Jun 2027 10:07:55.267   01 Jun 2027 10:08:02.666             7.399          3699.500
        14   01 Jun 2027 10:08:04.742   01 Jun 2027 10:08:19.964            15.222          7611.000
        15   01 Jun 2027 10:09:03.741   01 Jun 2027 10:09:06.457             2.716          1358.000
        16   01 Jun 2027 11:38:10.751   01 Jun 2027 11:40:16.911           126.160         63080.000
        17   01 Jun 2027 11:42:36.073   01 Jun 2027 11:42:55.916            19.843          9921.500
        18   02 Jun 2027 04:01:05.174   02 Jun 2027 04:02:08.636            63.462         31731.000
        19   02 Jun 2027 04:02:15.936   02 Jun 2027 04:02:35.918            19.982          9991.000
        20   02 Jun 2027 04:03:16.731   02 Jun 2027 04:06:20.832           184.101         92050.500
        21   02 Jun 2027 05:40:13.520   02 Jun 2027 05:41:55.990           102.470         51235.000
        22   02 Jun 2027 05:42:26.240   02 Jun 2027 05:42:42.447            16.207          8103.500
        23   02 Jun 2027 07:02:46.400   02 Jun 2027 07:04:38.404           112.004         56002.000
        24   02 Jun 2027 08:39:15.126   02 Jun 2027 08:40:56.204           101.078         50539.000
        25   02 Jun 2027 10:14:23.281   02 Jun 2027 10:14:41.315            18.034          8827.781
        26   02 Jun 2027 10:15:34.559   02 Jun 2027 10:15:43.462             8.903          1298.625
        27   02 Jun 2027 10:16:44.994   02 Jun 2027 10:16:47.940             2.946           932.250
        28   02 Jun 2027 10:17:05.065   02 Jun 2027 10:17:08.611             3.546           262.938
        29   02 Jun 2027 10:17:48.455   02 Jun 2027 10:17:52.402             3.947           879.906
        30   02 Jun 2027 10:18:22.909   02 Jun 2027 10:18:24.846             1.937           953.344
        31   02 Jun 2027 10:18:41.155   02 Jun 2027 10:18:42.645             1.490           427.156
        32   02 Jun 2027 10:20:06.200   02 Jun 2027 10:20:12.498             6.298          2265.250
        33   02 Jun 2027 10:20:29.284   02 Jun 2027 10:20:30.594             1.310           331.875
        34   02 Jun 2027 10:20:50.014   02 Jun 2027 10:20:51.528             1.514           599.906
        35   02 Jun 2027 11:50:44.957   02 Jun 2027 11:50:57.619            12.662          5946.969
        36   02 Jun 2027 11:52:15.460   02 Jun 2027 11:52:16.545             1.085           542.500
        37   02 Jun 2027 11:52:52.345   02 Jun 2027 11:53:00.087             7.742          2452.187
        38   02 Jun 2027 11:54:15.882   02 Jun 2027 11:54:21.333             5.451          2368.594
        39   02 Jun 2027 11:54:31.046   02 Jun 2027 11:54:31.723             0.677           303.531
        40   02 Jun 2027 11:54:42.493   02 Jun 2027 11:54:43.367             0.874           336.562
        41   02 Jun 2027 11:54:52.362   02 Jun 2027 11:54:52.362             0.000             0.000
        42   02 Jun 2027 11:55:16.151   02 Jun 2027 11:55:19.216             3.065           967.688
        43   02 Jun 2027 11:56:06.558   02 Jun 2027 11:56:08.642             2.084          1042.000
        44   02 Jun 2027 11:56:39.906   02 Jun 2027 11:56:42.681             2.775          1187.281
        45   02 Jun 2027 11:56:57.845   02 Jun 2027 11:57:01.800             3.955            90.281
        46   03 Jun 2027 04:13:09.327   03 Jun 2027 04:13:50.725            41.398         20699.000
        47   03 Jun 2027 04:14:13.271   03 Jun 2027 04:16:41.920           148.649         74324.500
        48   03 Jun 2027 04:16:52.648   03 Jun 2027 04:17:04.095            11.447          5723.500
        49   03 Jun 2027 04:17:57.270   03 Jun 2027 04:18:25.966            28.696         14348.000
        50   03 Jun 2027 04:18:51.438   03 Jun 2027 04:18:51.438             0.000             0.000
        51   03 Jun 2027 05:51:22.607   03 Jun 2027 05:51:59.004            36.397         18198.500
        52   03 Jun 2027 05:52:16.965   03 Jun 2027 05:53:16.091            59.126         28501.594
        53   03 Jun 2027 05:54:08.212   03 Jun 2027 05:54:12.697             4.485          1227.656
        54   03 Jun 2027 05:54:44.489   03 Jun 2027 05:54:44.489             0.000             0.000
        55   03 Jun 2027 07:14:49.452   03 Jun 2027 07:15:02.988            13.536          6143.562
        56   03 Jun 2027 07:17:23.732   03 Jun 2027 07:17:31.642             7.910          3955.000
        57   03 Jun 2027 07:17:53.129   03 Jun 2027 07:17:56.328             3.199           697.719
        58   03 Jun 2027 08:51:28.239   03 Jun 2027 08:51:41.423            13.184          5578.688
        59   03 Jun 2027 08:52:45.001   03 Jun 2027 08:52:45.001             0.000             0.000
        60   03 Jun 2027 08:52:50.860   03 Jun 2027 08:52:51.614             0.754           377.000
        61   03 Jun 2027 08:53:10.357   03 Jun 2027 08:53:12.134             1.777           877.719
        62   03 Jun 2027 08:54:22.534   03 Jun 2027 08:54:29.330             6.796          1219.688
        63   03 Jun 2027 08:54:32.327   03 Jun 2027 08:54:34.897             2.570            93.656
        64   03 Jun 2027 10:26:40.886   03 Jun 2027 10:26:58.003            17.117          6746.500
        65   03 Jun 2027 10:27:47.759   03 Jun 2027 10:27:54.743             6.984           781.875
        66   03 Jun 2027 10:28:31.124   03 Jun 2027 10:28:36.218             5.094           982.344
        67   03 Jun 2027 10:30:09.991   03 Jun 2027 10:30:15.930             5.939          2039.813
        68   03 Jun 2027 10:30:25.318   03 Jun 2027 10:30:28.989             3.671           293.375
        69   03 Jun 2027 10:30:51.510   03 Jun 2027 10:30:52.206             0.696           253.281
        70   03 Jun 2027 10:32:50.752   03 Jun 2027 10:33:01.138            10.386          2671.438
        71   04 Jun 2027 04:26:13.993   04 Jun 2027 04:29:21.338           187.345         93672.500
        72   04 Jun 2027 04:29:31.908   04 Jun 2027 04:30:00.912            29.004         14502.000
        73   04 Jun 2027 04:32:50.701   04 Jun 2027 04:32:50.701             0.000             0.000
        74   04 Jun 2027 04:33:09.876   04 Jun 2027 04:33:47.658            37.782         18891.000
        75   04 Jun 2027 05:52:26.775   04 Jun 2027 05:52:48.761            21.986         10993.000
        76   04 Jun 2027 06:03:18.324   04 Jun 2027 06:04:15.768            57.444         27337.156
        77   04 Jun 2027 06:04:41.152   04 Jun 2027 06:04:42.897             1.745           727.969
        78   04 Jun 2027 06:05:01.992   04 Jun 2027 06:05:03.319             1.327           596.719
        79   04 Jun 2027 06:06:02.474   04 Jun 2027 06:06:05.522             3.048          1218.281
        80   04 Jun 2027 06:06:10.414   04 Jun 2027 06:06:12.684             2.270           152.875
        81   04 Jun 2027 06:06:46.442   04 Jun 2027 06:06:46.442             0.000             0.000
        82   04 Jun 2027 07:27:16.344   04 Jun 2027 07:27:29.936            13.592          5705.937
        83   04 Jun 2027 07:27:46.585   04 Jun 2027 07:27:48.003             1.418           160.469
        84   04 Jun 2027 07:28:36.153   04 Jun 2027 07:28:36.153             0.000             0.000
        85   04 Jun 2027 07:29:17.984   04 Jun 2027 07:29:22.819             4.835          2345.063
        86   04 Jun 2027 09:05:12.808   04 Jun 2027 09:05:27.013            14.205          7102.500
        87   04 Jun 2027 09:05:46.555   04 Jun 2027 09:05:50.495             3.940          1970.000
        88   04 Jun 2027 10:37:44.859   04 Jun 2027 10:38:00.829            15.970          5585.187
        89   04 Jun 2027 10:38:38.079   04 Jun 2027 10:38:41.642             3.563           885.000
        90   04 Jun 2027 10:40:29.568   04 Jun 2027 10:40:33.915             4.347          1812.281
        91   04 Jun 2027 10:40:43.620   04 Jun 2027 10:40:44.628             1.008           112.938
        92   04 Jun 2027 10:41:09.728   04 Jun 2027 10:41:13.310             3.582           784.375
        93   04 Jun 2027 10:44:40.619   04 Jun 2027 10:45:00.281            19.662          6373.031
        94   04 Jun 2027 10:45:12.367   04 Jun 2027 10:45:13.308             0.941           343.375
        95   05 Jun 2027 03:00:00.000   05 Jun 2027 03:00:41.915            41.915         20957.500
        96   05 Jun 2027 03:01:22.525   05 Jun 2027 03:01:31.147             8.622          4311.000
        97   05 Jun 2027 03:02:27.122   05 Jun 2027 03:03:05.571            38.449         19224.500
        98   05 Jun 2027 03:03:34.681   05 Jun 2027 03:03:58.024            23.343         11671.500
        99   05 Jun 2027 03:04:35.379   05 Jun 2027 03:04:40.409             5.030          2515.000
       100   05 Jun 2027 03:05:14.711   05 Jun 2027 03:05:58.339            43.628         21814.000
       101   05 Jun 2027 04:38:35.778   05 Jun 2027 04:40:45.225           129.447         64723.500
       102   05 Jun 2027 04:41:00.202   05 Jun 2027 04:41:02.902             2.700          1350.000
       103   05 Jun 2027 04:41:19.608   05 Jun 2027 04:41:32.439            12.831          6415.500
       104   05 Jun 2027 04:41:58.128   05 Jun 2027 04:42:03.003             4.875          2437.500
       105   05 Jun 2027 04:42:26.145   05 Jun 2027 04:42:26.660             0.515           257.500
       106   05 Jun 2027 04:42:31.365   05 Jun 2027 04:42:40.489             9.124          4322.750
       107   05 Jun 2027 04:45:25.798   05 Jun 2027 04:45:34.232             8.434          3657.781
       108   05 Jun 2027 06:03:41.341   05 Jun 2027 06:04:03.121            21.780         10220.344
       109   05 Jun 2027 06:04:24.026   05 Jun 2027 06:04:27.174             3.148           458.813
       110   05 Jun 2027 06:15:19.417   05 Jun 2027 06:15:25.255             5.838          2408.250
       111   05 Jun 2027 06:16:04.679   05 Jun 2027 06:16:12.332             7.653          1198.719
       112   05 Jun 2027 07:37:52.824   05 Jun 2027 07:38:05.121            12.297          5250.906
       113   05 Jun 2027 07:38:18.282   05 Jun 2027 07:38:19.441             1.159           411.281
       114   05 Jun 2027 07:39:32.526   05 Jun 2027 07:39:36.343             3.817          1425.156
       115   05 Jun 2027 07:40:14.872   05 Jun 2027 07:40:18.401             3.529           814.281
       116   05 Jun 2027 07:41:10.852   05 Jun 2027 07:41:13.458             2.606          1042.313
       117   05 Jun 2027 07:42:07.221   05 Jun 2027 07:42:09.063             1.842           921.000
       118   05 Jun 2027 09:12:56.529   05 Jun 2027 09:13:04.212             7.683          3474.813
       119   05 Jun 2027 09:13:21.813   05 Jun 2027 09:13:24.218             2.405           488.375
       120   05 Jun 2027 09:14:16.661   05 Jun 2027 09:14:17.518             0.857           428.500
       121   05 Jun 2027 09:16:19.729   05 Jun 2027 09:16:21.716             1.987           993.500
       122   05 Jun 2027 09:17:45.960   05 Jun 2027 09:17:58.829            12.869          5142.468
       123   05 Jun 2027 09:18:21.545   05 Jun 2027 09:18:21.545             0.000             0.000
       124   05 Jun 2027 09:18:46.779   05 Jun 2027 09:18:54.596             7.817          1479.031
       125   05 Jun 2027 09:19:35.144   05 Jun 2027 09:19:37.119             1.975           987.500
       126   05 Jun 2027 10:49:59.357   05 Jun 2027 10:49:59.357             0.000             0.000
       127   05 Jun 2027 10:53:03.403   05 Jun 2027 10:53:26.492            23.089         10347.187
       128   05 Jun 2027 10:54:22.116   05 Jun 2027 10:54:25.754             3.638          1733.312
       129   05 Jun 2027 10:54:44.364   05 Jun 2027 10:54:48.639             4.275           156.062
       130   05 Jun 2027 10:54:52.338   05 Jun 2027 10:54:52.812             0.474           115.594
       131   05 Jun 2027 10:56:26.734   05 Jun 2027 10:56:39.580            12.846          2675.937
       132   05 Jun 2027 10:56:51.912   05 Jun 2027 10:56:54.813             2.901           135.719
       133   05 Jun 2027 10:57:07.491   05 Jun 2027 10:57:14.473             6.982           389.156
       134   06 Jun 2027 03:11:52.685   06 Jun 2027 03:13:16.887            84.202         42101.000
       135   06 Jun 2027 03:13:17.862   06 Jun 2027 03:14:28.836            70.974         35487.000
       136   06 Jun 2027 03:15:10.661   06 Jun 2027 03:15:15.848             5.187          2593.500
       137   06 Jun 2027 03:16:04.706   06 Jun 2027 03:16:04.706             0.000             0.000
       138   06 Jun 2027 03:16:25.725   06 Jun 2027 03:16:49.749            24.024         12012.000
       139   06 Jun 2027 03:17:38.622   06 Jun 2027 03:17:48.784            10.162          5081.000
       140   06 Jun 2027 04:50:53.096   06 Jun 2027 04:52:36.881           103.785         51302.000
       141   06 Jun 2027 04:52:47.958   06 Jun 2027 04:52:49.272             1.314           346.156
       142   06 Jun 2027 04:52:55.134   06 Jun 2027 04:52:55.620             0.486            87.188
       143   06 Jun 2027 04:54:03.586   06 Jun 2027 04:54:07.952             4.366          1391.375
       144   06 Jun 2027 04:54:37.135   06 Jun 2027 04:54:40.117             2.982           911.969
       145   06 Jun 2027 04:55:20.974   06 Jun 2027 04:55:28.923             7.949           926.812
       146   06 Jun 2027 04:56:00.877   06 Jun 2027 04:56:03.288             2.411           843.531
       147   06 Jun 2027 04:57:39.726   06 Jun 2027 04:57:47.090             7.364          2978.500
       148   06 Jun 2027 06:15:02.091   06 Jun 2027 06:15:14.358            12.267          5743.531
       149   06 Jun 2027 06:15:38.003   06 Jun 2027 06:15:46.408             8.405           738.906
       150   06 Jun 2027 06:16:35.851   06 Jun 2027 06:16:36.731             0.880           440.000
       151   06 Jun 2027 06:16:52.446   06 Jun 2027 06:16:57.014             4.568          1587.406
       152   06 Jun 2027 06:27:16.745   06 Jun 2027 06:27:22.326             5.581          2446.188
       153   06 Jun 2027 06:28:00.389   06 Jun 2027 06:28:04.106             3.717          1059.125
       154   06 Jun 2027 07:49:22.916   06 Jun 2027 07:49:38.426            15.510          7237.594
       155   06 Jun 2027 07:49:55.013   06 Jun 2027 07:49:56.370             1.357           402.875
       156   06 Jun 2027 07:50:19.950   06 Jun 2027 07:50:25.258             5.308           199.688
       157   06 Jun 2027 07:51:26.340   06 Jun 2027 07:51:30.522             4.182          1696.938
       158   06 Jun 2027 07:52:19.854   06 Jun 2027 07:52:19.854             0.000             0.000
       159   06 Jun 2027 07:52:28.589   06 Jun 2027 07:52:34.224             5.635          1181.500
       160   06 Jun 2027 07:53:00.923   06 Jun 2027 07:53:02.649             1.726           628.344
       161   06 Jun 2027 07:53:48.631   06 Jun 2027 07:53:49.623             0.992           496.000
       162   06 Jun 2027 07:54:25.853   06 Jun 2027 07:54:29.391             3.538          1456.187
       163   06 Jun 2027 07:54:38.028   06 Jun 2027 07:54:38.899             0.871           246.094
       164   06 Jun 2027 09:24:21.262   06 Jun 2027 09:24:30.884             9.622          4492.688
       165   06 Jun 2027 09:25:35.178   06 Jun 2027 09:25:41.504             6.326          1182.187
       166   06 Jun 2027 09:26:04.644   06 Jun 2027 09:26:06.623             1.979           722.375
       167   06 Jun 2027 09:27:33.491   06 Jun 2027 09:27:36.643             3.152          1529.594
       168   06 Jun 2027 09:28:13.235   06 Jun 2027 09:28:18.406             5.171           744.344
       169   06 Jun 2027 09:29:35.847   06 Jun 2027 09:29:41.413             5.566          2420.031
       170   06 Jun 2027 09:31:44.672   06 Jun 2027 09:31:50.243             5.571          2785.500
       171   06 Jun 2027 11:01:57.651   06 Jun 2027 11:02:12.575            14.924          4878.531
       172   06 Jun 2027 11:02:53.279   06 Jun 2027 11:02:56.237             2.958          1272.000
       173   06 Jun 2027 11:03:27.488   06 Jun 2027 11:03:29.491             2.003           976.594
       174   06 Jun 2027 11:04:03.143   06 Jun 2027 11:04:09.907             6.764           940.281
       175   06 Jun 2027 11:04:45.654   06 Jun 2027 11:04:47.846             2.192           706.531
       176   06 Jun 2027 11:04:56.581   06 Jun 2027 11:05:01.194             4.613           119.250
       177   06 Jun 2027 11:05:24.524   06 Jun 2027 11:05:25.986             1.462           729.063
       178   06 Jun 2027 11:06:14.090   06 Jun 2027 11:06:17.359             3.269          1503.250
       179   06 Jun 2027 11:06:34.062   06 Jun 2027 11:06:37.544             3.482           315.969
       180   06 Jun 2027 11:06:59.913   06 Jun 2027 11:07:07.172             7.259           483.406
       181   06 Jun 2027 11:07:42.698   06 Jun 2027 11:07:47.496             4.798           853.062
       182   06 Jun 2027 11:08:05.150   06 Jun 2027 11:08:05.978             0.828           355.094
       183   06 Jun 2027 11:08:16.524   06 Jun 2027 11:08:20.241             3.717           329.562
       184   06 Jun 2027 11:09:07.371   06 Jun 2027 11:09:11.981             4.610          1397.656
       185   07 Jun 2027 03:24:18.730   07 Jun 2027 03:24:24.915             6.185          3092.500
       186   07 Jun 2027 03:24:39.367   07 Jun 2027 03:28:09.119           209.752        104876.000
       187   07 Jun 2027 03:28:27.846   07 Jun 2027 03:28:44.333            16.487          8243.500
       188   07 Jun 2027 05:02:59.845   07 Jun 2027 05:04:14.251            74.406         37181.031
       189   07 Jun 2027 05:04:43.109   07 Jun 2027 05:04:47.631             4.522           303.875
       190   07 Jun 2027 05:05:14.986   07 Jun 2027 05:05:15.483             0.497            97.500
       191   07 Jun 2027 05:06:02.214   07 Jun 2027 05:06:02.214             0.000             0.000
       192   07 Jun 2027 05:06:02.733   07 Jun 2027 05:06:05.427             2.694           841.094
       193   07 Jun 2027 05:07:12.236   07 Jun 2027 05:07:14.649             2.413          1206.500
       194   07 Jun 2027 05:08:03.636   07 Jun 2027 05:08:09.533             5.897          2380.344
       195   07 Jun 2027 06:27:08.770   07 Jun 2027 06:27:25.832            17.062          8002.781
       196   07 Jun 2027 06:27:48.057   07 Jun 2027 06:27:48.057             0.000             0.000
       197   07 Jun 2027 06:27:56.321   07 Jun 2027 06:28:02.989             6.668           695.813
       198   07 Jun 2027 08:00:58.599   07 Jun 2027 08:01:24.083            25.484          9414.219
       199   07 Jun 2027 08:01:58.164   07 Jun 2027 08:02:00.580             2.416           505.844
       200   07 Jun 2027 08:02:53.555   07 Jun 2027 08:02:56.303             2.748          1002.969
       201   07 Jun 2027 08:03:52.450   07 Jun 2027 08:03:56.130             3.680          1243.187
       202   07 Jun 2027 08:06:11.031   07 Jun 2027 08:06:21.877            10.846          4064.375
       203   07 Jun 2027 09:35:51.589   07 Jun 2027 09:35:59.178             7.589          3470.875
       204   07 Jun 2027 09:37:09.413   07 Jun 2027 09:37:17.113             7.700          1806.906
       205   07 Jun 2027 09:38:09.414   07 Jun 2027 09:38:10.172             0.758           340.375
       206   07 Jun 2027 09:38:57.002   07 Jun 2027 09:38:57.002             0.000             0.000
       207   07 Jun 2027 09:40:19.526   07 Jun 2027 09:40:27.492             7.966          3690.313
       208   07 Jun 2027 09:40:48.425   07 Jun 2027 09:40:49.990             1.565           435.125
       209   07 Jun 2027 09:41:16.749   07 Jun 2027 09:41:19.367             2.618           764.469
       210   07 Jun 2027 09:42:32.839   07 Jun 2027 09:42:33.449             0.610           305.000
       211   07 Jun 2027 09:44:52.305   07 Jun 2027 09:45:04.163            11.858          5888.969
       212   07 Jun 2027 11:13:55.907   07 Jun 2027 11:14:21.479            25.572          7359.812
       213   07 Jun 2027 11:16:49.034   07 Jun 2027 11:16:49.034             0.000             0.000
       214   07 Jun 2027 11:18:32.069   07 Jun 2027 11:18:48.846            16.777          7830.937
       215   07 Jun 2027 11:20:10.716   07 Jun 2027 11:20:16.821             6.105          2226.281
       216   07 Jun 2027 11:20:31.692   07 Jun 2027 11:20:36.165             4.473           464.719
       217   08 Jun 2027 03:36:49.773   08 Jun 2027 03:36:56.430             6.657          3328.500
       218   08 Jun 2027 03:37:11.207   08 Jun 2027 03:38:11.954            60.747         30373.500
       219   08 Jun 2027 03:38:16.845   08 Jun 2027 03:41:20.131           183.286         91643.000
       220   08 Jun 2027 03:41:23.609   08 Jun 2027 03:41:30.032             6.423          3211.500
       221   08 Jun 2027 03:41:50.200   08 Jun 2027 03:41:51.774             1.574           787.000
       222   08 Jun 2027 03:41:52.807   08 Jun 2027 03:41:53.337             0.530           265.000
       223   08 Jun 2027 05:15:36.424   08 Jun 2027 05:16:30.697            54.273         27136.500
       224   08 Jun 2027 05:16:32.372   08 Jun 2027 05:16:33.868             1.496           172.969
       225   08 Jun 2027 05:16:53.421   08 Jun 2027 05:16:54.663             1.242           611.031
       226   08 Jun 2027 05:17:50.996   08 Jun 2027 05:17:50.996             0.000             0.000
       227   08 Jun 2027 05:18:00.502   08 Jun 2027 05:18:05.326             4.824           310.906
       228   08 Jun 2027 05:18:38.229   08 Jun 2027 05:18:39.746             1.517           480.281
       229   08 Jun 2027 06:39:06.402   08 Jun 2027 06:39:18.940            12.538          4800.156
       230   08 Jun 2027 06:40:19.627   08 Jun 2027 06:40:25.078             5.451          1595.219
       231   08 Jun 2027 06:41:06.456   08 Jun 2027 06:41:06.456             0.000             0.000
       232   08 Jun 2027 06:41:16.415   08 Jun 2027 06:41:19.990             3.575          1573.063
       233   08 Jun 2027 08:15:07.132   08 Jun 2027 08:15:20.028            12.896          6334.344
       234   08 Jun 2027 08:15:40.810   08 Jun 2027 08:15:43.486             2.676           569.594
       235   08 Jun 2027 08:15:53.760   08 Jun 2027 08:15:54.432             0.672           123.156
       236   08 Jun 2027 08:16:25.043   08 Jun 2027 08:16:27.455             2.412           956.594
       237   08 Jun 2027 08:17:17.492   08 Jun 2027 08:17:17.492             0.000             0.000
       238   08 Jun 2027 08:17:46.379   08 Jun 2027 08:17:50.540             4.161          2080.500
       239   08 Jun 2027 08:18:40.005   08 Jun 2027 08:18:45.822             5.817          1605.062
       240   08 Jun 2027 09:48:50.978   08 Jun 2027 09:49:03.642            12.664          4481.344
       241   08 Jun 2027 09:50:43.305   08 Jun 2027 09:50:47.146             3.841          1373.469
       242   08 Jun 2027 09:51:24.988   08 Jun 2027 09:51:24.988             0.000             0.000
       243   08 Jun 2027 09:52:23.181   08 Jun 2027 09:52:27.604             4.423          2209.250
       244   08 Jun 2027 09:52:59.563   08 Jun 2027 09:53:02.139             2.576           998.719
       245   08 Jun 2027 09:53:27.387   08 Jun 2027 09:53:27.933             0.546           273.000
       246   08 Jun 2027 09:56:24.875   08 Jun 2027 09:56:35.501            10.626          5313.000
       247   08 Jun 2027 09:57:24.608   08 Jun 2027 09:57:25.587             0.979           489.500
       248   08 Jun 2027 11:26:18.387   08 Jun 2027 11:26:32.692            14.305          6785.343
       249   08 Jun 2027 11:27:35.876   08 Jun 2027 11:27:41.745             5.869          1974.500
       250   08 Jun 2027 11:28:10.553   08 Jun 2027 11:28:16.852             6.299           630.750
       251   08 Jun 2027 11:28:57.799   08 Jun 2027 11:29:00.938             3.139          1081.187
       252   08 Jun 2027 11:29:35.362   08 Jun 2027 11:29:38.542             3.180           245.469
       253   08 Jun 2027 11:30:13.371   08 Jun 2027 11:30:16.799             3.428           159.563
       254   08 Jun 2027 11:30:36.835   08 Jun 2027 11:30:43.912             7.077           580.312
       255   08 Jun 2027 11:30:56.759   08 Jun 2027 11:30:58.444             1.685           338.813
       256   08 Jun 2027 11:31:32.574   08 Jun 2027 11:31:36.451             3.877          1052.875
       257   08 Jun 2027 11:32:18.696   08 Jun 2027 11:32:21.628             2.932          1319.375
       258   09 Jun 2027 03:49:16.049   09 Jun 2027 03:49:43.220            27.171         13585.500
       259   09 Jun 2027 03:49:47.125   09 Jun 2027 03:52:45.493           178.368         89184.000
       260   09 Jun 2027 03:53:05.090   09 Jun 2027 03:53:38.497            33.407         16703.500
       261   09 Jun 2027 03:54:35.878   09 Jun 2027 03:54:43.744             7.866          3933.000
       262   09 Jun 2027 03:55:22.121   09 Jun 2027 03:55:24.197             2.076          1038.000
       263   09 Jun 2027 05:27:17.030   09 Jun 2027 05:28:14.609            57.579         28789.500
       264   09 Jun 2027 05:28:40.289   09 Jun 2027 05:28:53.498            13.209          6401.438
       265   09 Jun 2027 05:29:56.957   09 Jun 2027 05:30:03.341             6.384          1983.094
       266   09 Jun 2027 05:31:09.863   09 Jun 2027 05:31:15.681             5.818          1460.031
       267   09 Jun 2027 06:50:56.638   09 Jun 2027 06:51:07.214            10.576          4836.844
       268   09 Jun 2027 06:51:35.055   09 Jun 2027 06:51:35.055             0.000             0.000
       269   09 Jun 2027 06:51:55.762   09 Jun 2027 06:51:58.211             2.449          1199.687
       270   09 Jun 2027 06:53:00.735   09 Jun 2027 06:53:06.036             5.301          1344.062
       271   09 Jun 2027 06:53:30.019   09 Jun 2027 06:53:31.444             1.425           671.750
       272   09 Jun 2027 08:27:23.589   09 Jun 2027 08:27:37.660            14.071          6697.187
       273   09 Jun 2027 08:29:03.360   09 Jun 2027 08:29:13.571            10.211          2432.187
       274   09 Jun 2027 08:29:57.253   09 Jun 2027 08:30:01.310             4.057          1365.063
       275   09 Jun 2027 09:59:33.002   09 Jun 2027 09:59:42.546             9.544          4772.000
       276   09 Jun 2027 10:01:30.209   09 Jun 2027 10:01:32.453             2.244           923.688
       277   09 Jun 2027 10:02:02.577   09 Jun 2027 10:02:05.205             2.628           892.437
       278   09 Jun 2027 10:05:44.426   09 Jun 2027 10:05:54.160             9.734          4700.719
       279   09 Jun 2027 10:06:47.583   09 Jun 2027 10:06:53.553             5.970          1404.125
       280   09 Jun 2027 10:08:21.802   09 Jun 2027 10:08:26.227             4.425          2075.500
       281   09 Jun 2027 10:09:18.512   09 Jun 2027 10:09:23.147             4.635          1633.906
       282   09 Jun 2027 11:38:28.316   09 Jun 2027 11:38:41.234            12.918          6218.000
       283   09 Jun 2027 11:39:35.648   09 Jun 2027 11:39:35.900             0.252           126.000
       284   09 Jun 2027 11:40:32.316   09 Jun 2027 11:40:38.798             6.482          3047.875
       285   09 Jun 2027 11:41:08.628   09 Jun 2027 11:41:10.502             1.874           929.094
       286   09 Jun 2027 11:41:15.555   09 Jun 2027 11:41:16.888             1.333            57.156
       287   09 Jun 2027 11:41:41.866   09 Jun 2027 11:41:47.351             5.485           430.719
       288   09 Jun 2027 11:42:58.388   09 Jun 2027 11:43:07.239             8.851          1500.687
       289   09 Jun 2027 11:44:25.525   09 Jun 2027 11:44:30.586             5.061          2212.469
       290   09 Jun 2027 11:44:35.172   09 Jun 2027 11:44:36.854             1.682           143.312
       291   09 Jun 2027 11:45:01.014   09 Jun 2027 11:45:04.933             3.919           755.000
       292   10 Jun 2027 04:01:22.236   10 Jun 2027 04:02:24.665            62.429         31214.500
       293   10 Jun 2027 04:02:31.637   10 Jun 2027 04:04:09.679            98.042         49021.000
       294   10 Jun 2027 04:04:48.285   10 Jun 2027 04:05:51.391            63.106         31553.000
       295   10 Jun 2027 04:06:08.258   10 Jun 2027 04:06:40.173            31.915         15957.500
       296   10 Jun 2027 05:40:30.447   10 Jun 2027 05:40:46.404            15.957          7978.500
       297   10 Jun 2027 05:41:06.855   10 Jun 2027 05:42:14.741            67.886         33764.438
       298   10 Jun 2027 05:43:56.849   10 Jun 2027 05:44:02.423             5.574          2787.000
       299   10 Jun 2027 07:03:04.605   10 Jun 2027 07:03:24.582            19.977          6100.875
       300   10 Jun 2027 07:03:58.555   10 Jun 2027 07:04:01.061             2.506           774.344
       301   10 Jun 2027 07:04:31.277   10 Jun 2027 07:04:33.050             1.773           845.156
       302   10 Jun 2027 07:05:39.101   10 Jun 2027 07:05:42.074             2.973          1444.063
       303   10 Jun 2027 07:05:59.009   10 Jun 2027 07:06:01.246             2.237           512.875
       304   10 Jun 2027 08:39:51.020   10 Jun 2027 08:40:04.041            13.021          6510.500
       305   10 Jun 2027 08:40:51.189   10 Jun 2027 08:40:54.769             3.580          1608.125
       306   10 Jun 2027 08:41:41.842   10 Jun 2027 08:41:45.826             3.984          1471.031
       307   10 Jun 2027 08:42:32.323   10 Jun 2027 08:42:32.323             0.000             0.000
       308   10 Jun 2027 10:15:09.132   10 Jun 2027 10:15:09.132             0.000             0.000
       309   10 Jun 2027 10:15:53.409   10 Jun 2027 10:16:10.511            17.102          8116.437
       310   10 Jun 2027 10:16:27.763   10 Jun 2027 10:16:28.725             0.962           252.563
       311   10 Jun 2027 10:16:30.929   10 Jun 2027 10:16:35.235             4.306            37.094
       312   10 Jun 2027 10:19:35.145   10 Jun 2027 10:19:35.145             0.000             0.000
       313   10 Jun 2027 10:19:42.934   10 Jun 2027 10:19:55.862            12.928          5765.687
       314   10 Jun 2027 10:20:33.646   10 Jun 2027 10:20:36.753             3.107           978.969
       315   10 Jun 2027 10:20:45.995   10 Jun 2027 10:20:45.995             0.000             0.000
       316   10 Jun 2027 11:51:02.646   10 Jun 2027 11:51:17.235            14.589          5970.031
       317   10 Jun 2027 11:52:31.216   10 Jun 2027 11:52:31.784             0.568           284.000
       318   10 Jun 2027 11:53:08.479   10 Jun 2027 11:53:17.248             8.769          2705.062
       319   10 Jun 2027 11:54:32.260   10 Jun 2027 11:54:39.801             7.541          2344.125
       320   10 Jun 2027 11:56:00.658   10 Jun 2027 11:56:07.077             6.419          2280.906
       321   10 Jun 2027 11:56:16.405   10 Jun 2027 11:56:17.826             1.421           281.594
       322   11 Jun 2027 04:13:27.083   11 Jun 2027 04:14:08.331            41.248         20624.000
       323   11 Jun 2027 04:14:30.272   11 Jun 2027 04:17:42.420           192.148         96074.000
       324   11 Jun 2027 04:18:41.718   11 Jun 2027 04:19:01.840            20.122         10061.000
       325   11 Jun 2027 04:19:32.467   11 Jun 2027 04:19:34.358             1.891           945.500
       326   11 Jun 2027 05:51:39.454   11 Jun 2027 05:51:53.338            13.884          6942.000
       327   11 Jun 2027 05:52:07.931   11 Jun 2027 05:52:15.880             7.949          3974.500
       328   11 Jun 2027 05:52:44.489   11 Jun 2027 05:53:43.559            59.070         27085.625
       329   11 Jun 2027 05:54:19.413   11 Jun 2027 05:54:23.324             3.911          1037.781
       330   11 Jun 2027 05:54:30.318   11 Jun 2027 05:54:30.772             0.454           140.906
       331   11 Jun 2027 07:15:06.246   11 Jun 2027 07:15:18.909            12.663          6150.625
       332   11 Jun 2027 07:15:48.268   11 Jun 2027 07:15:48.268             0.000             0.000
       333   11 Jun 2027 07:16:01.186   11 Jun 2027 07:16:03.147             1.961           922.344
       334   11 Jun 2027 07:17:38.868   11 Jun 2027 07:17:48.098             9.230          2481.625
       335   11 Jun 2027 07:18:11.058   11 Jun 2027 07:18:11.058             0.000             0.000
       336   11 Jun 2027 08:51:34.111   11 Jun 2027 08:51:44.558            10.447          3357.375
       337   11 Jun 2027 08:53:03.476   11 Jun 2027 08:53:07.895             4.419          2209.500
       338   11 Jun 2027 08:53:13.630   11 Jun 2027 08:53:15.794             2.164           435.906
       339   11 Jun 2027 08:54:01.071   11 Jun 2027 08:54:01.071             0.000             0.000
       340   11 Jun 2027 08:54:40.403   11 Jun 2027 08:54:48.564             8.161          2283.344
       341   11 Jun 2027 10:26:56.747   11 Jun 2027 10:27:14.668            17.921          5811.938
       342   11 Jun 2027 10:28:30.980   11 Jun 2027 10:28:32.729             1.749           496.344
       343   11 Jun 2027 10:28:50.270   11 Jun 2027 10:28:50.270             0.000             0.000
       344   11 Jun 2027 10:31:43.163   11 Jun 2027 10:31:56.923            13.760          5661.937
       345   11 Jun 2027 10:32:58.520   11 Jun 2027 10:33:04.514             5.994          1924.906
       346   12 Jun 2027 04:26:31.624   12 Jun 2027 04:29:57.925           206.301        103150.500
       347   12 Jun 2027 04:30:12.399   12 Jun 2027 04:30:15.612             3.213          1606.500
       348   12 Jun 2027 04:30:28.813   12 Jun 2027 04:30:43.126            14.313          7156.500
       349   12 Jun 2027 04:33:28.289   12 Jun 2027 04:34:03.512            35.223         17611.500
       350   12 Jun 2027 05:52:40.736   12 Jun 2027 05:52:54.355            13.619          6809.500
       351   12 Jun 2027 06:03:35.202   12 Jun 2027 06:04:43.096            67.894         33826.500
       352   12 Jun 2027 06:05:53.733   12 Jun 2027 06:05:59.016             5.283          1767.000
       353   12 Jun 2027 06:06:29.930   12 Jun 2027 06:06:33.337             3.407           669.844
       354   12 Jun 2027 07:27:32.846   12 Jun 2027 07:27:47.891            15.045          7007.219
       355   12 Jun 2027 07:29:39.855   12 Jun 2027 07:29:47.383             7.528          3263.594
       356   12 Jun 2027 09:03:35.511   12 Jun 2027 09:03:45.760            10.249          4896.562
       357   12 Jun 2027 09:04:40.890   12 Jun 2027 09:04:50.541             9.651          1459.156
       358   12 Jun 2027 09:05:50.458   12 Jun 2027 09:05:55.009             4.551          1872.406
       359   12 Jun 2027 09:06:51.273   12 Jun 2027 09:06:57.730             6.457          1525.219
       360   12 Jun 2027 10:38:01.809   12 Jun 2027 10:38:19.581            17.772          7491.625
       361   12 Jun 2027 10:41:05.114   12 Jun 2027 10:41:15.223            10.109          4550.594
       362   12 Jun 2027 10:41:31.356   12 Jun 2027 10:41:32.883             1.527           380.437
       363   12 Jun 2027 10:42:36.778   12 Jun 2027 10:42:43.596             6.818          1979.375
       364   12 Jun 2027 10:42:48.520   12 Jun 2027 10:42:49.665             1.145            80.594
       365   12 Jun 2027 10:44:04.922   12 Jun 2027 10:44:13.633             8.711          1797.219
       366   12 Jun 2027 10:44:31.833   12 Jun 2027 10:44:33.738             1.905           479.281
       367   12 Jun 2027 10:45:17.327   12 Jun 2027 10:45:27.105             9.778          1066.062
       368   12 Jun 2027 10:45:32.325   12 Jun 2027 10:45:34.289             1.964           163.125
       369   13 Jun 2027 03:00:06.183   13 Jun 2027 03:01:00.527            54.344         27172.000
       370   13 Jun 2027 03:01:02.275   13 Jun 2027 03:01:06.398             4.123          2061.500
       371   13 Jun 2027 03:01:10.595   13 Jun 2027 03:01:12.461             1.866           933.000
       372   13 Jun 2027 03:01:22.739   13 Jun 2027 03:01:37.439            14.700          7350.000
       373   13 Jun 2027 03:01:45.503   13 Jun 2027 03:01:49.982             4.479          2239.500
       374   13 Jun 2027 03:03:24.838   13 Jun 2027 03:03:24.838             0.000             0.000
       375   13 Jun 2027 03:03:35.803   13 Jun 2027 03:03:38.661             2.858          1429.000
       376   13 Jun 2027 03:04:14.712   13 Jun 2027 03:04:49.908            35.196         17598.000
       377   13 Jun 2027 03:05:32.664   13 Jun 2027 03:05:51.651            18.987          9493.500
       378   13 Jun 2027 03:06:07.945   13 Jun 2027 03:06:19.026            11.081          5540.500
       379   13 Jun 2027 04:38:54.433   13 Jun 2027 04:40:49.421           114.988         57494.000
       380   13 Jun 2027 04:40:59.809   13 Jun 2027 04:41:17.717            17.908          8954.000
       381   13 Jun 2027 04:41:40.554   13 Jun 2027 04:41:56.573            16.019          8009.500
       382   13 Jun 2027 04:42:05.612   13 Jun 2027 04:42:14.269             8.657          4328.500
       383   13 Jun 2027 04:44:15.352   13 Jun 2027 04:44:40.686            25.334         12667.000
       384   13 Jun 2027 04:46:08.191   13 Jun 2027 04:46:12.041             3.850          1925.000
       385   13 Jun 2027 06:03:56.781   13 Jun 2027 06:04:17.858            21.077         10328.312
       386   13 Jun 2027 06:15:36.420   13 Jun 2027 06:15:51.066            14.646          5554.562
       387   13 Jun 2027 07:38:07.869   13 Jun 2027 07:38:18.081            10.212          4884.656
       388   13 Jun 2027 07:38:36.115   13 Jun 2027 07:38:37.194             1.079           395.719
       389   13 Jun 2027 07:39:50.067   13 Jun 2027 07:39:53.247             3.180          1435.594
       390   13 Jun 2027 07:40:31.675   13 Jun 2027 07:40:37.597             5.922           807.656
       391   13 Jun 2027 07:41:26.400   13 Jun 2027 07:41:30.982             4.582           961.531
       392   13 Jun 2027 07:42:04.402   13 Jun 2027 07:42:14.144             9.742           781.000
       393   13 Jun 2027 07:42:47.032   13 Jun 2027 07:42:52.416             5.384           741.844
       394   13 Jun 2027 09:13:10.954   13 Jun 2027 09:13:16.943             5.989          2994.500
       395   13 Jun 2027 09:14:23.727   13 Jun 2027 09:14:23.727             0.000             0.000
       396   13 Jun 2027 09:15:22.600   13 Jun 2027 09:15:32.116             9.516          4626.094
       397   13 Jun 2027 09:18:03.454   13 Jun 2027 09:18:04.540             1.086           543.000
       398   13 Jun 2027 09:18:49.304   13 Jun 2027 09:19:03.508            14.204          4943.875
       399   13 Jun 2027 09:19:15.855   13 Jun 2027 09:19:15.855             0.000             0.000
       400   13 Jun 2027 09:19:25.450   13 Jun 2027 09:19:28.068             2.618           636.281
       401   13 Jun 2027 10:50:10.007   13 Jun 2027 10:50:14.048             4.041          2020.500
       402   13 Jun 2027 10:53:23.145   13 Jun 2027 10:53:42.977            19.832          9916.000
       403   13 Jun 2027 10:54:38.113   13 Jun 2027 10:54:42.849             4.736          2030.000
       404   13 Jun 2027 10:55:06.257   13 Jun 2027 10:55:07.545             1.288           580.500
       405   13 Jun 2027 10:55:57.725   13 Jun 2027 10:56:01.749             4.024          1535.312
       406   13 Jun 2027 10:56:08.586   13 Jun 2027 10:56:08.586             0.000             0.000
       407   13 Jun 2027 10:56:31.516   13 Jun 2027 10:56:32.501             0.985           492.500
       408   13 Jun 2027 10:57:11.024   13 Jun 2027 10:57:18.984             7.960          1578.437
