uniorb/output/strategy_2/Camera/Camera_KinoSat_112009.txt

KinoSat_112009
-------------------------
    Access    *     Start Time (UTCG)     *     Stop Time (UTCG)  *   Duration (s) *   Data (Mbytes)
         1   01 Jun 2027 03:54:21.614   01 Jun 2027 03:57:25.103           183.489         91744.500
         2   01 Jun 2027 03:57:27.437   01 Jun 2027 03:57:42.865            15.428          7714.000
         3   01 Jun 2027 03:58:13.604   01 Jun 2027 03:58:13.604             0.000             0.000
         4   01 Jun 2027 03:58:28.379   01 Jun 2027 03:59:00.151            31.772         15886.000
         5   01 Jun 2027 04:00:52.364   01 Jun 2027 04:01:07.191            14.827          7413.500
         6   01 Jun 2027 05:32:38.562   01 Jun 2027 05:32:57.992            19.430          9715.000
         7   01 Jun 2027 05:33:41.429   01 Jun 2027 05:34:46.364            64.935         32467.500
         8   01 Jun 2027 05:34:46.938   01 Jun 2027 05:35:07.545            20.607         10303.500
         9   01 Jun 2027 05:35:38.367   01 Jun 2027 05:36:26.877            48.510         24255.000
        10   01 Jun 2027 05:37:02.594   01 Jun 2027 05:37:09.576             6.982          3491.000
        11   01 Jun 2027 05:38:33.246   01 Jun 2027 05:38:43.908            10.662          5331.000
        12   01 Jun 2027 05:40:59.181   01 Jun 2027 05:41:18.197            19.016          9508.000
        13   01 Jun 2027 07:10:50.547   01 Jun 2027 07:11:27.168            36.621         18310.500
        14   01 Jun 2027 07:11:55.758   01 Jun 2027 07:13:32.171            96.413         48206.500
        15   01 Jun 2027 07:13:54.153   01 Jun 2027 07:14:08.278            14.125          7062.500
        16   01 Jun 2027 07:14:13.144   01 Jun 2027 07:14:22.182             9.038          4519.000
        17   01 Jun 2027 08:34:17.908   01 Jun 2027 08:35:40.871            82.963         41481.500
        18   01 Jun 2027 08:37:00.642   01 Jun 2027 08:37:09.923             9.281          4640.500
        19   01 Jun 2027 10:10:46.193   01 Jun 2027 10:11:04.851            18.658          9329.000
        20   01 Jun 2027 11:45:58.457   01 Jun 2027 11:46:15.438            16.981          8490.500
        21   01 Jun 2027 11:48:14.073   01 Jun 2027 11:48:56.811            42.738         21369.000
        22   01 Jun 2027 11:52:19.450   01 Jun 2027 11:52:35.003            15.553          7776.500
        23   02 Jun 2027 04:06:27.926   02 Jun 2027 04:11:01.163           273.237        136618.500
        24   02 Jun 2027 04:11:24.161   02 Jun 2027 04:11:26.626             2.465          1232.500
        25   02 Jun 2027 04:11:32.917   02 Jun 2027 04:11:45.820            12.903          6451.500
        26   02 Jun 2027 04:11:46.663   02 Jun 2027 04:11:53.899             7.236          3618.000
        27   02 Jun 2027 04:12:09.116   02 Jun 2027 04:12:12.071             2.955          1477.500
        28   02 Jun 2027 04:13:31.152   02 Jun 2027 04:13:33.033             1.881           940.500
        29   02 Jun 2027 05:45:43.446   02 Jun 2027 05:46:56.062            72.616         36308.000
        30   02 Jun 2027 05:47:23.480   02 Jun 2027 05:47:58.852            35.372         17686.000
        31   02 Jun 2027 05:50:51.173   02 Jun 2027 05:51:08.330            17.157          8578.500
        32   02 Jun 2027 05:51:52.661   02 Jun 2027 05:52:18.354            25.693         12846.500
        33   02 Jun 2027 05:52:40.047   02 Jun 2027 05:53:30.005            49.958         24979.000
        34   02 Jun 2027 07:11:54.084   02 Jun 2027 07:12:18.136            24.052         12026.000
        35   02 Jun 2027 07:22:46.453   02 Jun 2027 07:24:26.189            99.736         49868.000
        36   02 Jun 2027 07:24:50.289   02 Jun 2027 07:24:50.289             0.000             0.000
        37   02 Jun 2027 07:25:32.303   02 Jun 2027 07:25:36.684             4.381          2190.500
        38   02 Jun 2027 07:25:58.423   02 Jun 2027 07:26:13.390            14.967          7483.500
        39   02 Jun 2027 08:46:44.845   02 Jun 2027 08:47:41.296            56.451         28225.500
        40   03 Jun 2027 04:19:06.147   03 Jun 2027 04:19:46.543            40.396         20198.000
        41   03 Jun 2027 04:20:41.201   03 Jun 2027 04:23:22.953           161.752         80876.000
        42   03 Jun 2027 04:23:25.669   03 Jun 2027 04:23:40.848            15.179          7589.500
        43   03 Jun 2027 04:24:13.851   03 Jun 2027 04:24:28.117            14.266          7133.000
        44   03 Jun 2027 04:25:12.779   03 Jun 2027 04:25:20.354             7.575          3787.500
        45   03 Jun 2027 05:58:06.960   03 Jun 2027 05:59:13.403            66.443         33221.500
        46   03 Jun 2027 06:00:14.014   03 Jun 2027 06:01:04.694            50.680         25340.000
        47   03 Jun 2027 06:01:31.268   03 Jun 2027 06:01:38.806             7.538          2422.562
        48   03 Jun 2027 06:02:26.756   03 Jun 2027 06:02:30.447             3.691          1498.438
        49   03 Jun 2027 06:03:08.699   03 Jun 2027 06:03:13.073             4.374          1105.844
        50   03 Jun 2027 06:03:54.413   03 Jun 2027 06:03:56.816             2.403           320.281
        51   03 Jun 2027 06:04:55.907   03 Jun 2027 06:05:00.413             4.506          1111.844
        52   03 Jun 2027 07:23:08.676   03 Jun 2027 07:23:21.972            13.296          6648.000
        53   03 Jun 2027 07:23:48.321   03 Jun 2027 07:23:50.344             2.023          1011.500
        54   03 Jun 2027 07:23:57.909   03 Jun 2027 07:24:00.940             3.031          1368.031
        55   03 Jun 2027 07:34:47.945   03 Jun 2027 07:34:56.542             8.597          3075.250
        56   03 Jun 2027 07:36:00.288   03 Jun 2027 07:36:04.542             4.254          1372.969
        57   03 Jun 2027 08:57:20.221   03 Jun 2027 08:57:43.728            23.507         11753.500
        58   03 Jun 2027 08:57:49.342   03 Jun 2027 08:57:55.091             5.749          1911.657
        59   03 Jun 2027 08:59:27.396   03 Jun 2027 08:59:39.238            11.842          1614.656
        60   03 Jun 2027 10:32:23.019   03 Jun 2027 10:32:27.868             4.849          2424.500
        61   03 Jun 2027 10:33:22.992   03 Jun 2027 10:33:22.992             0.000             0.000
        62   04 Jun 2027 03:00:00.000   04 Jun 2027 03:00:19.506            19.506          9753.000
        63   04 Jun 2027 03:00:46.481   04 Jun 2027 03:01:39.334            52.853         26426.500
        64   04 Jun 2027 04:31:24.214   04 Jun 2027 04:31:24.449             0.235           117.500
        65   04 Jun 2027 04:32:05.790   04 Jun 2027 04:35:01.337           175.547         87773.500
        66   04 Jun 2027 04:36:37.021   04 Jun 2027 04:36:56.760            19.739          9869.500
        67   04 Jun 2027 06:10:25.518   04 Jun 2027 06:12:05.992           100.474         48753.093
        68   04 Jun 2027 06:12:33.370   04 Jun 2027 06:12:33.370             0.000             0.000
        69   04 Jun 2027 06:13:00.824   04 Jun 2027 06:13:04.956             4.132          1713.500
        70   04 Jun 2027 06:15:11.451   04 Jun 2027 06:15:15.239             3.788          1894.000
        71   04 Jun 2027 06:15:46.817   04 Jun 2027 06:15:47.753             0.936           468.000
        72   04 Jun 2027 06:16:20.587   04 Jun 2027 06:16:29.285             8.698          3603.844
        73   04 Jun 2027 07:34:29.889   04 Jun 2027 07:34:43.857            13.968          6763.094
        74   04 Jun 2027 07:35:21.411   04 Jun 2027 07:35:21.411             0.000             0.000
        75   04 Jun 2027 07:35:35.098   04 Jun 2027 07:35:42.487             7.389           940.000
        76   04 Jun 2027 07:36:41.605   04 Jun 2027 07:36:44.445             2.840          1420.000
        77   04 Jun 2027 07:46:45.190   04 Jun 2027 07:46:54.652             9.462          2318.906
        78   04 Jun 2027 07:47:04.735   04 Jun 2027 07:47:05.477             0.742           179.125
        79   04 Jun 2027 09:08:44.578   04 Jun 2027 09:09:23.336            38.758         15982.437
        80   04 Jun 2027 09:11:40.620   04 Jun 2027 09:11:53.064            12.444          4251.906
        81   04 Jun 2027 10:43:46.237   04 Jun 2027 10:44:07.354            21.117          9556.031
        82   04 Jun 2027 10:45:46.579   04 Jun 2027 10:45:51.311             4.732          2061.250
        83   05 Jun 2027 03:06:33.826   05 Jun 2027 03:07:24.443            50.617         25308.500
        84   05 Jun 2027 03:07:50.284   05 Jun 2027 03:08:24.885            34.601         17300.500
        85   05 Jun 2027 03:08:51.848   05 Jun 2027 03:09:14.282            22.434         11217.000
        86   05 Jun 2027 03:09:33.427   05 Jun 2027 03:10:23.971            50.544         25272.000
        87   05 Jun 2027 03:10:33.714   05 Jun 2027 03:10:50.298            16.584          8292.000
        88   05 Jun 2027 03:11:04.764   05 Jun 2027 03:11:22.641            17.877          8938.500
        89   05 Jun 2027 03:12:26.081   05 Jun 2027 03:12:55.905            29.824         14912.000
        90   05 Jun 2027 03:13:08.317   05 Jun 2027 03:13:24.464            16.147          8073.500
        91   05 Jun 2027 03:13:37.766   05 Jun 2027 03:13:49.656            11.890          5945.000
        92   05 Jun 2027 03:14:14.875   05 Jun 2027 03:14:21.314             6.439          3219.500
        93   05 Jun 2027 04:43:48.831   05 Jun 2027 04:43:50.171             1.340           670.000
        94   05 Jun 2027 04:44:16.761   05 Jun 2027 04:45:01.221            44.460         22230.000
        95   05 Jun 2027 04:45:07.841   05 Jun 2027 04:45:25.798            17.957          8978.500
        96   05 Jun 2027 04:45:45.851   05 Jun 2027 04:46:10.917            25.066         11909.313
        97   05 Jun 2027 04:46:13.279   05 Jun 2027 04:46:17.542             4.263            73.812
        98   05 Jun 2027 04:47:51.624   05 Jun 2027 04:47:51.624             0.000             0.000
        99   05 Jun 2027 04:48:36.259   05 Jun 2027 04:48:37.442             1.183           591.500
       100   05 Jun 2027 06:22:30.704   05 Jun 2027 06:23:08.928            38.224         17266.594
       101   05 Jun 2027 06:23:55.002   05 Jun 2027 06:23:58.881             3.879          1095.219
       102   05 Jun 2027 06:24:35.431   05 Jun 2027 06:24:35.431             0.000             0.000
       103   05 Jun 2027 06:24:36.700   05 Jun 2027 06:24:40.423             3.723           976.250
       104   05 Jun 2027 06:24:55.110   05 Jun 2027 06:24:55.926             0.816           317.656
       105   05 Jun 2027 06:25:11.589   05 Jun 2027 06:25:16.399             4.810           489.469
       106   05 Jun 2027 06:25:50.414   05 Jun 2027 06:25:50.414             0.000             0.000
       107   05 Jun 2027 06:26:17.183   05 Jun 2027 06:26:19.120             1.937           968.500
       108   05 Jun 2027 06:26:42.778   05 Jun 2027 06:26:42.778             0.000             0.000
       109   05 Jun 2027 06:27:10.559   05 Jun 2027 06:27:14.211             3.652          1826.000
       110   05 Jun 2027 06:28:12.292   05 Jun 2027 06:28:20.029             7.737          2527.500
       111   05 Jun 2027 07:46:37.785   05 Jun 2027 07:46:48.029            10.244          5020.312
       112   05 Jun 2027 07:47:40.176   05 Jun 2027 07:47:40.176             0.000             0.000
       113   05 Jun 2027 07:47:53.845   05 Jun 2027 07:47:57.199             3.354          1249.781
       114   05 Jun 2027 09:20:27.268   05 Jun 2027 09:21:14.137            46.869         18833.531
       115   05 Jun 2027 09:23:39.268   05 Jun 2027 09:23:56.934            17.666          4436.000
       116   05 Jun 2027 09:25:16.235   05 Jun 2027 09:25:21.466             5.231          1864.406
       117   05 Jun 2027 10:55:19.154   05 Jun 2027 10:55:30.137            10.983          5143.094
       118   05 Jun 2027 10:56:31.586   05 Jun 2027 10:56:39.580             7.994           501.469
       119   05 Jun 2027 10:58:37.518   05 Jun 2027 10:58:37.518             0.000             0.000
       120   05 Jun 2027 10:59:03.110   05 Jun 2027 10:59:07.374             4.264          2098.500
       121   05 Jun 2027 11:02:37.540   05 Jun 2027 11:02:50.900            13.360          6566.844
       122   06 Jun 2027 03:18:33.619   06 Jun 2027 03:19:45.575            71.956         35978.000
       123   06 Jun 2027 03:20:49.935   06 Jun 2027 03:20:49.935             0.000             0.000
       124   06 Jun 2027 03:20:51.384   06 Jun 2027 03:23:05.685           134.301         67150.500
       125   06 Jun 2027 03:23:59.361   06 Jun 2027 03:24:08.045             8.684          4342.000
       126   06 Jun 2027 03:24:11.627   06 Jun 2027 03:24:29.247            17.620          8810.000
       127   06 Jun 2027 04:58:26.378   06 Jun 2027 04:58:27.173             0.795           397.500
       128   06 Jun 2027 04:58:27.670   06 Jun 2027 04:59:59.027            91.357         45678.500
       129   06 Jun 2027 05:00:18.477   06 Jun 2027 05:00:21.278             2.801          1400.500
       130   06 Jun 2027 05:00:38.181   06 Jun 2027 05:00:51.858            13.677          6250.344
       131   06 Jun 2027 05:01:17.015   06 Jun 2027 05:01:17.669             0.654           327.000
       132   06 Jun 2027 06:35:07.531   06 Jun 2027 06:35:43.224            35.693         17555.344
       133   06 Jun 2027 06:36:01.939   06 Jun 2027 06:36:04.522             2.583           584.844
       134   06 Jun 2027 06:36:24.620   06 Jun 2027 06:36:24.620             0.000             0.000
       135   06 Jun 2027 06:36:37.395   06 Jun 2027 06:36:40.570             3.175          1027.281
       136   06 Jun 2027 06:37:15.226   06 Jun 2027 06:37:23.400             8.174           885.375
       137   06 Jun 2027 06:37:56.561   06 Jun 2027 06:37:58.337             1.776           811.375
       138   06 Jun 2027 06:39:01.482   06 Jun 2027 06:39:01.482             0.000             0.000
       139   06 Jun 2027 06:39:43.969   06 Jun 2027 06:39:49.065             5.096          2548.000
       140   06 Jun 2027 07:58:34.366   06 Jun 2027 07:58:46.412            12.046          5255.281
       141   06 Jun 2027 07:59:55.393   06 Jun 2027 07:59:55.393             0.000             0.000
       142   06 Jun 2027 08:00:19.868   06 Jun 2027 08:00:24.294             4.426          2213.000
       143   06 Jun 2027 08:00:31.700   06 Jun 2027 08:00:34.140             2.440           264.875
       144   06 Jun 2027 09:35:10.052   06 Jun 2027 09:35:54.488            44.436         18763.969
       145   06 Jun 2027 09:37:13.635   06 Jun 2027 09:37:13.635             0.000             0.000
       146   06 Jun 2027 11:08:20.241   06 Jun 2027 11:08:38.099            17.858          6351.688
       147   06 Jun 2027 11:10:14.971   06 Jun 2027 11:10:18.601             3.630           353.906
       148   06 Jun 2027 11:10:53.891   06 Jun 2027 11:10:53.891             0.000             0.000
       149   06 Jun 2027 11:14:26.156   06 Jun 2027 11:14:41.890            15.734          7462.719
       150   06 Jun 2027 11:15:10.658   06 Jun 2027 11:15:12.464             1.806           791.094
       151   06 Jun 2027 11:16:53.842   06 Jun 2027 11:16:54.814             0.972           486.000
       152   07 Jun 2027 03:30:39.788   07 Jun 2027 03:31:36.309            56.521         28260.500
       153   07 Jun 2027 03:31:54.367   07 Jun 2027 03:31:54.367             0.000             0.000
       154   07 Jun 2027 03:32:24.354   07 Jun 2027 03:33:48.756            84.402         42201.000
       155   07 Jun 2027 03:34:03.281   07 Jun 2027 03:35:33.285            90.004         45002.000
       156   07 Jun 2027 03:36:47.183   07 Jun 2027 03:37:41.351            54.168         27084.000
       157   07 Jun 2027 03:38:00.621   07 Jun 2027 03:38:12.139            11.518          5759.000
       158   07 Jun 2027 05:08:43.222   07 Jun 2027 05:09:11.382            28.160         14080.000
       159   07 Jun 2027 05:09:13.694   07 Jun 2027 05:09:22.526             8.832          4416.000
       160   07 Jun 2027 05:09:22.551   07 Jun 2027 05:09:24.080             1.529           764.500
       161   07 Jun 2027 05:10:42.615   07 Jun 2027 05:11:06.756            24.141         11956.688
       162   07 Jun 2027 05:11:12.679   07 Jun 2027 05:11:17.599             4.920            64.719
       163   07 Jun 2027 05:12:37.514   07 Jun 2027 05:12:40.219             2.705          1352.500
       164   07 Jun 2027 05:13:10.708   07 Jun 2027 05:13:20.841            10.133          1737.844
       165   07 Jun 2027 05:13:58.292   07 Jun 2027 05:14:03.240             4.948          1170.344
       166   07 Jun 2027 05:14:30.358   07 Jun 2027 05:14:33.422             3.064           738.500
       167   07 Jun 2027 06:46:46.247   07 Jun 2027 06:47:16.748            30.501         12643.656
       168   07 Jun 2027 06:47:22.956   07 Jun 2027 06:47:25.859             2.903           194.000
       169   07 Jun 2027 06:48:07.192   07 Jun 2027 06:48:11.345             4.153          1140.812
       170   07 Jun 2027 06:48:39.234   07 Jun 2027 06:48:39.234             0.000             0.000
       171   07 Jun 2027 06:49:02.021   07 Jun 2027 06:49:11.155             9.134          1531.688
       172   07 Jun 2027 06:49:43.361   07 Jun 2027 06:49:43.361             0.000             0.000
       173   07 Jun 2027 06:50:06.933   07 Jun 2027 06:50:10.381             3.448          1712.188
       174   07 Jun 2027 06:51:08.140   07 Jun 2027 06:51:13.734             5.594          1804.969
       175   07 Jun 2027 08:10:25.414   07 Jun 2027 08:10:46.044            20.630          9778.781
       176   07 Jun 2027 08:12:50.607   07 Jun 2027 08:13:04.568            13.961          3462.438
       177   07 Jun 2027 09:46:52.344   07 Jun 2027 09:47:17.986            25.642         12663.312
       178   07 Jun 2027 09:48:07.066   07 Jun 2027 09:48:10.349             3.283          1050.406
       179   07 Jun 2027 09:48:39.133   07 Jun 2027 09:48:40.349             1.216           217.625
       180   07 Jun 2027 09:49:56.412   07 Jun 2027 09:49:56.412             0.000             0.000
       181   07 Jun 2027 11:19:00.261   07 Jun 2027 11:19:11.296            11.035          5517.500
       182   07 Jun 2027 11:27:46.057   07 Jun 2027 11:27:47.717             1.660           830.000
       183   07 Jun 2027 11:27:50.971   07 Jun 2027 11:28:21.115            30.144         15072.000
       184   07 Jun 2027 11:28:27.657   07 Jun 2027 11:28:29.302             1.645           822.500
       185   07 Jun 2027 11:28:49.807   07 Jun 2027 11:28:52.430             2.623          1025.750
       186   08 Jun 2027 03:42:42.311   08 Jun 2027 03:46:43.754           241.443        120721.500
       187   08 Jun 2027 03:47:27.301   08 Jun 2027 03:47:28.617             1.316           658.000
       188   08 Jun 2027 03:48:31.673   08 Jun 2027 03:48:53.828            22.155         11077.500
       189   08 Jun 2027 03:49:19.968   08 Jun 2027 03:49:36.308            16.340          8170.000
       190   08 Jun 2027 03:49:38.174   08 Jun 2027 03:49:41.936             3.762          1881.000
       191   08 Jun 2027 05:20:51.519   08 Jun 2027 05:21:51.876            60.357         30178.500
       192   08 Jun 2027 05:22:00.563   08 Jun 2027 05:22:04.872             4.309           731.969
       193   08 Jun 2027 05:22:14.867   08 Jun 2027 05:22:17.697             2.830           312.344
       194   08 Jun 2027 05:22:42.350   08 Jun 2027 05:22:47.683             5.333           484.906
       195   08 Jun 2027 05:23:48.634   08 Jun 2027 05:23:52.622             3.988          1656.094
       196   08 Jun 2027 05:24:42.338   08 Jun 2027 05:24:45.921             3.583          1448.281
       197   08 Jun 2027 05:25:31.328   08 Jun 2027 05:25:37.842             6.514          1255.313
       198   08 Jun 2027 05:25:55.093   08 Jun 2027 05:25:55.666             0.573            95.344
       199   08 Jun 2027 05:26:55.863   08 Jun 2027 05:27:06.109            10.246          1881.156
       200   08 Jun 2027 06:59:59.756   08 Jun 2027 07:00:10.818            11.062          5346.469
       201   08 Jun 2027 07:00:40.921   08 Jun 2027 07:00:40.921             0.000             0.000
       202   08 Jun 2027 07:01:02.919   08 Jun 2027 07:01:10.740             7.821          1628.156
       203   08 Jun 2027 07:01:19.156   08 Jun 2027 07:01:21.797             2.641           263.000
       204   08 Jun 2027 07:01:31.493   08 Jun 2027 07:01:33.605             2.112           303.000
       205   08 Jun 2027 07:02:01.917   08 Jun 2027 07:02:04.299             2.382           748.156
       206   08 Jun 2027 07:02:29.093   08 Jun 2027 07:02:29.093             0.000             0.000
       207   08 Jun 2027 07:02:35.610   08 Jun 2027 07:02:37.827             2.217           751.313
       208   08 Jun 2027 08:22:34.038   08 Jun 2027 08:22:48.308            14.270          7135.000
       209   08 Jun 2027 08:25:22.481   08 Jun 2027 08:25:30.703             8.222          4111.000
       210   08 Jun 2027 10:01:19.659   08 Jun 2027 10:01:49.238            29.579         14460.750
       211   08 Jun 2027 11:40:44.189   08 Jun 2027 11:40:53.922             9.733          4866.500
       212   09 Jun 2027 03:54:39.892   09 Jun 2027 03:59:06.572           266.680        133340.000
       213   09 Jun 2027 03:59:14.599   09 Jun 2027 03:59:27.716            13.117          6558.500
       214   09 Jun 2027 04:01:39.096   09 Jun 2027 04:01:40.901             1.805           902.500
       215   09 Jun 2027 05:32:56.370   09 Jun 2027 05:33:11.424            15.054          7527.000
       216   09 Jun 2027 05:33:58.926   09 Jun 2027 05:35:05.371            66.445         32051.750
       217   09 Jun 2027 05:35:54.537   09 Jun 2027 05:35:56.677             2.140          1015.344
       218   09 Jun 2027 05:36:10.325   09 Jun 2027 05:36:11.853             1.528           268.438
       219   09 Jun 2027 05:36:53.794   09 Jun 2027 05:36:57.826             4.032          1010.594
       220   09 Jun 2027 05:37:02.892   09 Jun 2027 05:37:10.380             7.488           103.062
       221   09 Jun 2027 05:38:04.471   09 Jun 2027 05:38:04.950             0.479           239.500
       222   09 Jun 2027 05:38:29.129   09 Jun 2027 05:38:40.536            11.407          2171.937
       223   09 Jun 2027 05:41:13.046   09 Jun 2027 05:41:19.811             6.765          1932.938
       224   09 Jun 2027 07:11:07.706   09 Jun 2027 07:11:20.096            12.390          6195.000
       225   09 Jun 2027 07:12:42.423   09 Jun 2027 07:12:49.176             6.753          3086.781
       226   09 Jun 2027 07:14:09.051   09 Jun 2027 07:14:15.225             6.174          2446.063
       227   09 Jun 2027 07:14:23.169   09 Jun 2027 07:14:23.169             0.000             0.000
       228   09 Jun 2027 07:14:31.256   09 Jun 2027 07:14:32.994             1.738           432.625
       229   09 Jun 2027 08:35:16.719   09 Jun 2027 08:35:39.999            23.280         10907.719
       230   09 Jun 2027 08:35:50.411   09 Jun 2027 08:35:52.043             1.632           311.250
       231   09 Jun 2027 08:37:17.516   09 Jun 2027 08:37:17.516             0.000             0.000
       232   09 Jun 2027 08:37:26.422   09 Jun 2027 08:37:31.921             5.499          2744.500
       233   09 Jun 2027 10:11:58.372   09 Jun 2027 10:11:58.372             0.000             0.000
       234   09 Jun 2027 11:48:36.616   09 Jun 2027 11:49:10.130            33.514         16757.000
       235   09 Jun 2027 11:52:36.506   09 Jun 2027 11:52:52.878            16.372          8186.000
       236   10 Jun 2027 04:07:14.783   10 Jun 2027 04:09:12.421           117.638         58819.000
       237   10 Jun 2027 04:09:52.010   10 Jun 2027 04:12:18.054           146.044         73022.000
       238   10 Jun 2027 04:12:55.757   10 Jun 2027 04:13:04.893             9.136          4568.000
       239   10 Jun 2027 05:46:01.942   10 Jun 2027 05:47:10.571            68.629         34314.500
       240   10 Jun 2027 05:47:42.326   10 Jun 2027 05:48:10.118            27.792         13896.000
       241   10 Jun 2027 05:48:12.841   10 Jun 2027 05:48:14.413             1.572           746.969
       242   10 Jun 2027 05:48:46.688   10 Jun 2027 05:48:46.688             0.000             0.000
       243   10 Jun 2027 05:49:29.346   10 Jun 2027 05:49:29.346             0.000             0.000
       244   10 Jun 2027 05:50:01.497   10 Jun 2027 05:50:07.733             6.236          2421.687
       245   10 Jun 2027 05:50:52.725   10 Jun 2027 05:50:56.585             3.860           767.812
       246   10 Jun 2027 05:51:21.918   10 Jun 2027 05:51:23.726             1.808           763.719
       247   10 Jun 2027 05:52:11.429   10 Jun 2027 05:52:20.536             9.107           921.656
       248   10 Jun 2027 05:52:59.511   10 Jun 2027 05:53:02.304             2.793           744.844
       249   10 Jun 2027 07:12:08.124   10 Jun 2027 07:12:23.676            15.552          7752.031
       250   10 Jun 2027 07:23:04.062   10 Jun 2027 07:23:12.486             8.424          3844.281
       251   10 Jun 2027 07:23:24.198   10 Jun 2027 07:23:28.340             4.142           149.375
       252   10 Jun 2027 07:24:13.433   10 Jun 2027 07:24:17.866             4.433           992.375
       253   10 Jun 2027 07:24:51.952   10 Jun 2027 07:24:56.074             4.122           432.875
       254   10 Jun 2027 07:25:55.678   10 Jun 2027 07:26:00.914             5.236          1687.094
       255   10 Jun 2027 07:26:16.505   10 Jun 2027 07:26:16.505             0.000             0.000
       256   10 Jun 2027 08:46:23.779   10 Jun 2027 08:46:46.828            23.049         10922.250
       257   10 Jun 2027 08:47:23.172   10 Jun 2027 08:47:23.172             0.000             0.000
       258   10 Jun 2027 08:47:42.984   10 Jun 2027 08:47:47.840             4.856          1066.688
       259   10 Jun 2027 08:49:20.395   10 Jun 2027 08:49:26.112             5.717          2544.188
       260   10 Jun 2027 10:24:34.969   10 Jun 2027 10:24:34.969             0.000             0.000
       261   11 Jun 2027 04:19:25.228   11 Jun 2027 04:22:31.462           186.234         93117.000
       262   11 Jun 2027 04:22:49.130   11 Jun 2027 04:23:18.886            29.756         14878.000
       263   11 Jun 2027 04:24:09.945   11 Jun 2027 04:24:53.236            43.291         21645.500
       264   11 Jun 2027 04:25:04.413   11 Jun 2027 04:25:06.166             1.753           876.500
       265   11 Jun 2027 05:58:28.037   11 Jun 2027 05:58:59.551            31.514         15757.000
       266   11 Jun 2027 05:59:25.946   11 Jun 2027 06:00:22.114            56.168         28084.000
       267   11 Jun 2027 06:00:33.458   11 Jun 2027 06:00:41.608             8.150          2342.062
       268   11 Jun 2027 06:01:13.696   11 Jun 2027 06:01:16.006             2.310           952.469
       269   11 Jun 2027 06:01:16.478   11 Jun 2027 06:01:19.906             3.428            14.750
       270   11 Jun 2027 06:01:21.403   11 Jun 2027 06:01:21.752             0.349            41.531
       271   11 Jun 2027 06:01:53.391   11 Jun 2027 06:01:57.197             3.806           547.156
       272   11 Jun 2027 06:02:31.893   11 Jun 2027 06:02:35.826             3.933          1041.531
       273   11 Jun 2027 06:03:15.070   11 Jun 2027 06:03:18.641             3.571          1220.594
       274   11 Jun 2027 06:03:40.903   11 Jun 2027 06:03:41.853             0.950           385.937
       275   11 Jun 2027 06:03:54.337   11 Jun 2027 06:03:58.097             3.760           286.781
       276   11 Jun 2027 06:04:41.096   11 Jun 2027 06:04:43.380             2.284           949.406
       277   11 Jun 2027 06:05:15.182   11 Jun 2027 06:05:19.223             4.041           887.437
       278   11 Jun 2027 07:23:26.211   11 Jun 2027 07:23:37.101            10.890          5445.000
       279   11 Jun 2027 07:24:08.192   11 Jun 2027 07:24:13.335             5.143          2571.500
       280   11 Jun 2027 07:35:06.488   11 Jun 2027 07:35:13.571             7.083          3011.438
       281   11 Jun 2027 07:36:18.417   11 Jun 2027 07:36:22.075             3.658          1482.000
       282   11 Jun 2027 08:57:22.012   11 Jun 2027 08:57:46.512            24.500         12250.000
       283   11 Jun 2027 08:58:03.649   11 Jun 2027 08:58:07.925             4.276          2138.000
       284   11 Jun 2027 08:58:34.775   11 Jun 2027 08:58:34.775             0.000             0.000
       285   11 Jun 2027 08:59:19.158   11 Jun 2027 08:59:30.495            11.337          1588.187
       286   11 Jun 2027 09:00:19.152   11 Jun 2027 09:00:19.152             0.000             0.000
       287   11 Jun 2027 09:01:28.727   11 Jun 2027 09:01:36.543             7.816          3232.781
       288   11 Jun 2027 09:01:57.097   11 Jun 2027 09:02:01.170             4.073           629.062
       289   11 Jun 2027 09:02:13.226   11 Jun 2027 09:02:15.426             2.200            65.594
       290   11 Jun 2027 10:33:23.840   11 Jun 2027 10:33:38.419            14.579          7289.500
       291   11 Jun 2027 10:36:00.695   11 Jun 2027 10:36:17.087            16.392          5693.125
       292   11 Jun 2027 10:38:17.248   11 Jun 2027 10:38:28.199            10.951          3729.469
       293   11 Jun 2027 10:39:00.964   11 Jun 2027 10:39:02.790             1.826           781.437
       294   11 Jun 2027 10:39:08.540   11 Jun 2027 10:39:09.045             0.505           179.688
       295   12 Jun 2027 03:00:00.000   12 Jun 2027 03:00:17.564            17.564          8782.000
       296   12 Jun 2027 03:00:57.536   12 Jun 2027 03:01:22.416            24.880         12440.000
       297   12 Jun 2027 03:01:29.557   12 Jun 2027 03:02:12.875            43.318         21659.000
       298   12 Jun 2027 04:31:42.816   12 Jun 2027 04:31:43.746             0.930           465.000
       299   12 Jun 2027 04:32:27.930   12 Jun 2027 04:35:25.517           177.587         88793.500
       300   12 Jun 2027 04:36:31.582   12 Jun 2027 04:36:48.759            17.177          8588.500
       301   12 Jun 2027 06:10:43.132   12 Jun 2027 06:12:11.976            88.844         42092.594
       302   12 Jun 2027 06:13:15.801   12 Jun 2027 06:13:19.679             3.878          1683.000
       303   12 Jun 2027 06:13:55.034   12 Jun 2027 06:13:56.798             1.764           657.219
       304   12 Jun 2027 06:15:06.768   12 Jun 2027 06:15:13.042             6.274          1864.281
       305   12 Jun 2027 06:16:09.506   12 Jun 2027 06:16:09.506             0.000             0.000
       306   12 Jun 2027 06:17:28.871   12 Jun 2027 06:17:36.988             8.117          3564.500
       307   12 Jun 2027 07:34:48.233   12 Jun 2027 07:35:17.506            29.273          7986.594
       308   12 Jun 2027 07:35:53.390   12 Jun 2027 07:35:53.390             0.000             0.000
       309   12 Jun 2027 07:36:09.990   12 Jun 2027 07:36:14.391             4.401          1466.250
       310   12 Jun 2027 07:36:33.719   12 Jun 2027 07:36:36.226             2.507           249.750
       311   12 Jun 2027 07:36:59.113   12 Jun 2027 07:36:59.708             0.595            59.313
       312   12 Jun 2027 07:47:03.664   12 Jun 2027 07:47:09.447             5.783          2531.750
       313   12 Jun 2027 07:47:26.881   12 Jun 2027 07:47:28.024             1.143           404.656
       314   12 Jun 2027 09:09:04.281   12 Jun 2027 09:09:38.384            34.103         16648.844
       315   12 Jun 2027 09:11:58.194   12 Jun 2027 09:12:07.548             9.354          4280.594
       316   12 Jun 2027 09:13:00.004   12 Jun 2027 09:13:00.004             0.000             0.000
       317   12 Jun 2027 09:14:23.441   12 Jun 2027 09:14:34.595            11.154          3977.000
       318   12 Jun 2027 10:44:56.848   12 Jun 2027 10:45:15.819            18.971          7148.156
       319   13 Jun 2027 03:06:51.519   13 Jun 2027 03:07:13.021            21.502         10751.000
       320   13 Jun 2027 03:07:39.040   13 Jun 2027 03:08:05.037            25.997         12998.500
       321   13 Jun 2027 03:08:21.988   13 Jun 2027 03:08:21.988             0.000             0.000
       322   13 Jun 2027 03:08:57.981   13 Jun 2027 03:09:05.767             7.786          3893.000
       323   13 Jun 2027 03:09:06.175   13 Jun 2027 03:09:18.910            12.735          6367.500
       324   13 Jun 2027 03:09:44.544   13 Jun 2027 03:11:16.096            91.552         45776.000
       325   13 Jun 2027 03:12:37.872   13 Jun 2027 03:12:41.310             3.438          1719.000
       326   13 Jun 2027 03:13:40.521   13 Jun 2027 03:14:12.655            32.134         16067.000
       327   13 Jun 2027 04:44:31.285   13 Jun 2027 04:44:38.819             7.534          3767.000
       328   13 Jun 2027 04:47:06.866   13 Jun 2027 04:47:14.709             7.843          3921.500
       329   13 Jun 2027 04:47:23.518   13 Jun 2027 04:49:38.793           135.275         66663.531
       330   13 Jun 2027 06:22:51.412   13 Jun 2027 06:23:24.700            33.288         13901.125
       331   13 Jun 2027 06:24:10.488   13 Jun 2027 06:24:13.367             2.879          1081.812
       332   13 Jun 2027 06:24:51.337   13 Jun 2027 06:24:53.034             1.697           848.500
       333   13 Jun 2027 06:25:15.924   13 Jun 2027 06:25:19.660             3.736          1053.375
       334   13 Jun 2027 06:26:07.139   13 Jun 2027 06:26:09.532             2.393          1127.250
       335   13 Jun 2027 06:26:55.916   13 Jun 2027 06:26:58.351             2.435          1217.500
       336   13 Jun 2027 06:28:13.834   13 Jun 2027 06:28:19.800             5.966          2390.969
       337   13 Jun 2027 07:46:55.737   13 Jun 2027 07:47:14.636            18.899          8743.813
       338   13 Jun 2027 07:47:58.456   13 Jun 2027 07:48:01.371             2.915           894.812
       339   13 Jun 2027 09:20:43.422   13 Jun 2027 09:21:29.883            46.461         19850.969
       340   13 Jun 2027 09:23:56.766   13 Jun 2027 09:24:10.460            13.694          4468.281
       341   13 Jun 2027 09:25:25.057   13 Jun 2027 09:25:30.519             5.462          1568.250
       342   13 Jun 2027 09:26:10.550   13 Jun 2027 09:26:12.648             2.098          1011.281
       343   13 Jun 2027 10:58:16.236   13 Jun 2027 10:58:29.332            13.096          6548.000
       344   13 Jun 2027 11:04:37.407   13 Jun 2027 11:04:48.769            11.362          5681.000
       345   13 Jun 2027 11:04:48.931   13 Jun 2027 11:05:07.657            18.726          8941.937
