uniorb/output/strategy_2/Camera/Camera_KinoSat_110306.txt

KinoSat_110306
-------------------------
    Access    *     Start Time (UTCG)     *     Stop Time (UTCG)  *   Duration (s) *   Data (Mbytes)
         1   01 Jun 2027 03:46:48.356   01 Jun 2027 03:46:54.921             6.565          3282.500
         2   01 Jun 2027 03:47:37.492   01 Jun 2027 03:47:40.051             2.559          1279.500
         3   01 Jun 2027 03:47:58.178   01 Jun 2027 03:48:00.646             2.468          1234.000
         4   01 Jun 2027 03:48:40.106   01 Jun 2027 03:48:42.361             2.255          1127.500
         5   01 Jun 2027 03:49:27.077   01 Jun 2027 03:49:27.846             0.769           384.500
         6   01 Jun 2027 03:50:23.852   01 Jun 2027 03:50:41.055            17.203          8601.500
         7   01 Jun 2027 03:51:43.589   01 Jun 2027 03:51:51.442             7.853          3926.500
         8   01 Jun 2027 03:52:49.054   01 Jun 2027 03:52:52.524             3.470          1735.000
         9   01 Jun 2027 03:52:56.562   01 Jun 2027 03:52:56.562             0.000             0.000
        10   01 Jun 2027 03:53:12.813   01 Jun 2027 03:53:21.835             9.022          4511.000
        11   01 Jun 2027 05:23:25.366   01 Jun 2027 05:23:29.884             4.518          2259.000
        12   01 Jun 2027 05:23:51.861   01 Jun 2027 05:24:12.822            20.961         10480.500
        13   01 Jun 2027 05:24:22.942   01 Jun 2027 05:24:34.025            11.083          5541.500
        14   01 Jun 2027 05:26:42.645   01 Jun 2027 05:26:44.663             2.018          1009.000
        15   01 Jun 2027 05:26:52.894   01 Jun 2027 05:26:54.106             1.212           606.000
        16   01 Jun 2027 05:27:03.647   01 Jun 2027 05:27:11.355             7.708          3854.000
        17   01 Jun 2027 05:28:01.717   01 Jun 2027 05:28:03.373             1.656           828.000
        18   01 Jun 2027 05:28:10.098   01 Jun 2027 05:28:37.598            27.500         13750.000
        19   01 Jun 2027 05:29:42.425   01 Jun 2027 05:29:44.153             1.728           864.000
        20   01 Jun 2027 07:01:43.253   01 Jun 2027 07:01:50.623             7.370          3685.000
        21   01 Jun 2027 07:02:26.814   01 Jun 2027 07:02:40.684            13.870          6935.000
        22   01 Jun 2027 07:03:49.456   01 Jun 2027 07:03:49.642             0.186            93.000
        23   01 Jun 2027 07:04:15.880   01 Jun 2027 07:04:19.346             3.466          1733.000
        24   01 Jun 2027 07:04:37.219   01 Jun 2027 07:04:43.844             6.625          3312.500
        25   01 Jun 2027 08:35:02.715   01 Jun 2027 08:35:11.340             8.625          4312.500
        26   01 Jun 2027 08:35:37.371   01 Jun 2027 08:35:43.924             6.553          3276.500
        27   01 Jun 2027 08:35:55.949   01 Jun 2027 08:36:12.703            16.754          8377.000
        28   01 Jun 2027 08:38:12.098   01 Jun 2027 08:38:13.587             1.489           744.500
        29   01 Jun 2027 08:39:29.122   01 Jun 2027 08:39:31.551             2.429          1214.500
        30   01 Jun 2027 08:39:55.471   01 Jun 2027 08:40:01.922             6.451          3225.500
        31   01 Jun 2027 08:40:08.273   01 Jun 2027 08:40:24.481            16.208          8104.000
        32   01 Jun 2027 08:42:03.518   01 Jun 2027 08:42:17.873            14.355          7177.500
        33   02 Jun 2027 03:58:43.448   02 Jun 2027 03:58:47.912             4.464          2232.000
        34   02 Jun 2027 03:59:19.836   02 Jun 2027 03:59:25.307             5.471          2735.500
        35   02 Jun 2027 04:00:14.352   02 Jun 2027 04:00:18.169             3.817          1908.500
        36   02 Jun 2027 04:01:01.118   02 Jun 2027 04:01:10.006             8.888          4444.000
        37   02 Jun 2027 04:02:14.651   02 Jun 2027 04:02:21.028             6.377          3188.500
        38   02 Jun 2027 04:02:57.929   02 Jun 2027 04:03:03.310             5.381          2690.500
        39   02 Jun 2027 04:03:45.195   02 Jun 2027 04:03:52.091             6.896          3448.000
        40   02 Jun 2027 04:03:56.643   02 Jun 2027 04:04:04.562             7.919          3959.500
        41   02 Jun 2027 04:04:45.048   02 Jun 2027 04:04:54.014             8.966          4483.000
        42   02 Jun 2027 04:05:21.155   02 Jun 2027 04:05:37.133            15.978          7989.000
        43   02 Jun 2027 05:35:46.368   02 Jun 2027 05:36:02.780            16.412          8206.000
        44   02 Jun 2027 05:37:33.720   02 Jun 2027 05:37:38.349             4.629          2314.500
        45   02 Jun 2027 05:37:59.926   02 Jun 2027 05:38:22.804            22.878         11439.000
        46   02 Jun 2027 05:39:57.059   02 Jun 2027 05:40:11.938            14.879          7439.500
        47   02 Jun 2027 05:41:19.046   02 Jun 2027 05:41:36.426            17.380          8690.000
        48   02 Jun 2027 07:13:40.538   02 Jun 2027 07:13:45.031             4.493          2246.500
        49   02 Jun 2027 07:14:05.936   02 Jun 2027 07:14:07.979             2.043          1021.500
        50   02 Jun 2027 07:14:19.810   02 Jun 2027 07:14:21.102             1.292           646.000
        51   02 Jun 2027 07:15:14.763   02 Jun 2027 07:15:20.407             5.644          2822.000
        52   02 Jun 2027 07:15:39.257   02 Jun 2027 07:15:39.257             0.000             0.000
        53   02 Jun 2027 07:16:07.582   02 Jun 2027 07:16:07.664             0.082            41.000
        54   02 Jun 2027 07:16:31.275   02 Jun 2027 07:16:32.010             0.735           367.500
        55   02 Jun 2027 07:16:39.380   02 Jun 2027 07:16:47.200             7.820          3910.000
        56   02 Jun 2027 07:17:29.942   02 Jun 2027 07:17:35.626             5.684          2842.000
        57   02 Jun 2027 08:46:54.304   02 Jun 2027 08:47:07.628            13.324          6662.000
        58   02 Jun 2027 08:48:07.830   02 Jun 2027 08:48:24.254            16.424          8212.000
        59   02 Jun 2027 08:49:30.616   02 Jun 2027 08:49:41.964            11.348          5674.000
        60   02 Jun 2027 08:50:52.628   02 Jun 2027 08:50:53.894             1.266           633.000
        61   02 Jun 2027 08:51:09.664   02 Jun 2027 08:51:12.534             2.870          1435.000
        62   02 Jun 2027 08:51:38.821   02 Jun 2027 08:51:40.181             1.360           680.000
        63   02 Jun 2027 08:52:25.331   02 Jun 2027 08:52:32.269             6.938          3469.000
        64   02 Jun 2027 08:53:05.328   02 Jun 2027 08:53:11.285             5.957          2978.500
        65   02 Jun 2027 08:54:17.270   02 Jun 2027 08:54:17.932             0.662           331.000
        66   02 Jun 2027 08:54:25.267   02 Jun 2027 08:54:26.803             1.536           768.000
        67   03 Jun 2027 04:10:54.171   03 Jun 2027 04:11:06.657            12.486          6243.000
        68   03 Jun 2027 04:11:57.411   03 Jun 2027 04:11:58.531             1.120           560.000
        69   03 Jun 2027 04:12:15.822   03 Jun 2027 04:12:31.961            16.139          8069.500
        70   03 Jun 2027 04:13:34.885   03 Jun 2027 04:13:40.102             5.217          2608.500
        71   03 Jun 2027 04:14:09.302   03 Jun 2027 04:14:11.862             2.560          1280.000
        72   03 Jun 2027 04:14:35.268   03 Jun 2027 04:14:38.665             3.397          1698.500
        73   03 Jun 2027 04:14:43.968   03 Jun 2027 04:14:43.968             0.000             0.000
        74   03 Jun 2027 04:14:55.342   03 Jun 2027 04:15:02.709             7.367          3683.500
        75   03 Jun 2027 04:15:39.611   03 Jun 2027 04:15:47.301             7.690          3845.000
        76   03 Jun 2027 04:16:28.300   03 Jun 2027 04:16:30.235             1.935           967.500
        77   03 Jun 2027 04:16:49.751   03 Jun 2027 04:16:51.795             2.044          1022.000
        78   03 Jun 2027 04:17:40.089   03 Jun 2027 04:17:46.361             6.272          3136.000
        79   03 Jun 2027 04:18:13.430   03 Jun 2027 04:18:13.441             0.011             5.500
        80   03 Jun 2027 05:47:36.905   03 Jun 2027 05:47:41.905             5.000          2500.000
        81   03 Jun 2027 05:48:04.166   03 Jun 2027 05:48:16.040            11.874          5937.000
        82   03 Jun 2027 05:49:35.456   03 Jun 2027 05:49:40.144             4.688          2344.000
        83   03 Jun 2027 05:50:00.594   03 Jun 2027 05:50:08.230             7.636          3818.000
        84   03 Jun 2027 05:50:46.807   03 Jun 2027 05:50:52.349             5.542          2771.000
        85   03 Jun 2027 05:51:26.963   03 Jun 2027 05:51:34.346             7.383          3691.500
        86   03 Jun 2027 05:52:10.454   03 Jun 2027 05:52:11.644             1.190           595.000
        87   03 Jun 2027 05:52:47.895   03 Jun 2027 05:52:59.605            11.710          5855.000
        88   03 Jun 2027 05:53:38.804   03 Jun 2027 05:53:50.294            11.490          5745.000
        89   03 Jun 2027 05:53:54.547   03 Jun 2027 05:54:00.544             5.997          2998.500
        90   03 Jun 2027 07:25:40.440   03 Jun 2027 07:25:50.581            10.141          5070.500
        91   03 Jun 2027 07:26:52.177   03 Jun 2027 07:26:55.853             3.676          1838.000
        92   03 Jun 2027 07:26:59.118   03 Jun 2027 07:27:16.063            16.945          8472.500
        93   03 Jun 2027 07:27:55.376   03 Jun 2027 07:27:55.376             0.000             0.000
        94   03 Jun 2027 07:28:41.441   03 Jun 2027 07:28:43.201             1.760           880.000
        95   03 Jun 2027 08:59:22.242   03 Jun 2027 08:59:29.657             7.415          3707.500
        96   03 Jun 2027 08:59:54.754   03 Jun 2027 09:00:12.171            17.417          8708.500
        97   03 Jun 2027 09:01:19.204   03 Jun 2027 09:01:21.510             2.306          1153.000
        98   03 Jun 2027 09:01:47.027   03 Jun 2027 09:02:00.191            13.164          6582.000
        99   03 Jun 2027 09:03:11.079   03 Jun 2027 09:03:14.166             3.087          1543.500
       100   03 Jun 2027 09:03:38.895   03 Jun 2027 09:03:41.173             2.278          1139.000
       101   03 Jun 2027 09:04:33.185   03 Jun 2027 09:04:35.725             2.540          1270.000
       102   03 Jun 2027 09:04:55.174   03 Jun 2027 09:04:58.510             3.336          1668.000
       103   03 Jun 2027 09:05:18.691   03 Jun 2027 09:05:20.910             2.219          1109.500
       104   03 Jun 2027 09:05:58.971   03 Jun 2027 09:06:08.270             9.299          4649.500
       105   04 Jun 2027 04:22:48.483   04 Jun 2027 04:22:52.842             4.359          2179.500
       106   04 Jun 2027 04:23:13.574   04 Jun 2027 04:23:29.799            16.225          8112.500
       107   04 Jun 2027 04:25:06.770   04 Jun 2027 04:25:07.779             1.009           504.500
       108   04 Jun 2027 04:25:11.996   04 Jun 2027 04:25:27.200            15.204          7602.000
       109   04 Jun 2027 04:27:04.417   04 Jun 2027 04:27:18.827            14.410          7205.000
       110   04 Jun 2027 04:28:32.713   04 Jun 2027 04:28:34.132             1.419           709.500
       111   04 Jun 2027 04:28:43.943   04 Jun 2027 04:28:51.858             7.915          3957.500
       112   04 Jun 2027 04:29:17.557   04 Jun 2027 04:29:17.557             0.000             0.000
       113   04 Jun 2027 04:29:24.183   04 Jun 2027 04:29:31.908             7.725          3862.500
       114   04 Jun 2027 05:59:44.868   04 Jun 2027 05:59:54.466             9.598          4799.000
       115   04 Jun 2027 06:00:08.209   04 Jun 2027 06:00:08.662             0.453           226.500
       116   04 Jun 2027 06:01:21.504   04 Jun 2027 06:01:31.864            10.360          5180.000
       117   04 Jun 2027 06:01:53.448   04 Jun 2027 06:01:57.542             4.094          2047.000
       118   04 Jun 2027 06:02:41.681   04 Jun 2027 06:02:53.731            12.050          6025.000
       119   04 Jun 2027 06:03:52.920   04 Jun 2027 06:03:58.484             5.564          2782.000
       120   04 Jun 2027 06:04:42.897   04 Jun 2027 06:04:43.773             0.876           438.000
       121   04 Jun 2027 06:05:01.010   04 Jun 2027 06:05:01.992             0.982           491.000
       122   04 Jun 2027 06:05:35.608   04 Jun 2027 06:05:50.757            15.149          7574.500
       123   04 Jun 2027 06:06:07.105   04 Jun 2027 06:06:10.414             3.309          1654.500
       124   04 Jun 2027 07:37:18.417   04 Jun 2027 07:37:32.483            14.066          7033.000
       125   04 Jun 2027 07:38:37.200   04 Jun 2027 07:38:48.050            10.850          5425.000
       126   04 Jun 2027 07:39:48.286   04 Jun 2027 07:39:52.575             4.289          2144.500
       127   04 Jun 2027 07:40:15.545   04 Jun 2027 07:40:17.319             1.774           887.000
       128   04 Jun 2027 07:40:38.954   04 Jun 2027 07:40:39.289             0.335           167.500
       129   04 Jun 2027 07:40:53.790   04 Jun 2027 07:41:08.563            14.773          7386.500
       130   04 Jun 2027 09:11:42.076   04 Jun 2027 09:11:43.559             1.483           741.500
       131   04 Jun 2027 09:11:59.376   04 Jun 2027 09:12:07.872             8.496          4248.000
       132   04 Jun 2027 09:12:53.120   04 Jun 2027 09:12:54.590             1.470           735.000
       133   04 Jun 2027 09:13:30.351   04 Jun 2027 09:13:33.290             2.939          1469.500
       134   04 Jun 2027 09:14:17.922   04 Jun 2027 09:14:40.235            22.313         11156.500
       135   04 Jun 2027 09:16:31.325   04 Jun 2027 09:16:33.101             1.776           888.000
       136   04 Jun 2027 09:16:42.109   04 Jun 2027 09:16:45.891             3.782          1891.000
       137   05 Jun 2027 03:00:00.000   05 Jun 2027 03:00:20.012            20.012         10006.000
       138   05 Jun 2027 03:01:47.552   05 Jun 2027 03:01:50.082             2.530          1265.000
       139   05 Jun 2027 03:02:33.976   05 Jun 2027 03:02:40.480             6.504          3252.000
       140   05 Jun 2027 03:02:54.661   05 Jun 2027 03:02:58.319             3.658          1829.000
       141   05 Jun 2027 03:03:35.903   05 Jun 2027 03:03:35.951             0.048            24.000
       142   05 Jun 2027 03:03:59.228   05 Jun 2027 03:04:06.105             6.877          3438.500
       143   05 Jun 2027 03:04:40.409   05 Jun 2027 03:04:43.811             3.402          1701.000
       144   05 Jun 2027 03:05:22.603   05 Jun 2027 03:05:35.416            12.813          6406.500
       145   05 Jun 2027 03:06:14.169   05 Jun 2027 03:06:14.910             0.741           370.500
       146   05 Jun 2027 04:35:09.881   05 Jun 2027 04:35:17.534             7.653          3826.500
       147   05 Jun 2027 04:35:53.823   05 Jun 2027 04:36:02.511             8.688          4344.000
       148   05 Jun 2027 04:36:44.386   05 Jun 2027 04:36:51.727             7.341          3670.500
       149   05 Jun 2027 04:37:12.321   05 Jun 2027 04:37:13.936             1.615           807.500
       150   05 Jun 2027 04:37:53.407   05 Jun 2027 04:38:05.315            11.908          5954.000
       151   05 Jun 2027 04:39:01.228   05 Jun 2027 04:39:05.578             4.350          2175.000
       152   05 Jun 2027 04:39:36.817   05 Jun 2027 04:39:40.640             3.823          1911.500
       153   05 Jun 2027 04:40:34.230   05 Jun 2027 04:40:34.885             0.655           327.500
       154   05 Jun 2027 04:40:59.748   05 Jun 2027 04:41:00.202             0.454           227.000
       155   05 Jun 2027 04:41:06.648   05 Jun 2027 04:41:11.077             4.429          2214.500
       156   05 Jun 2027 04:42:03.003   05 Jun 2027 04:42:10.289             7.286          3643.000
       157   05 Jun 2027 06:12:13.437   05 Jun 2027 06:12:35.103            21.666         10833.000
       158   05 Jun 2027 06:13:49.068   05 Jun 2027 06:13:50.759             1.691           845.500
       159   05 Jun 2027 06:14:14.049   05 Jun 2027 06:14:15.337             1.288           644.000
       160   05 Jun 2027 06:15:03.375   05 Jun 2027 06:15:08.472             5.097          2548.500
       161   05 Jun 2027 06:15:31.554   05 Jun 2027 06:15:38.488             6.934          3467.000
       162   05 Jun 2027 06:16:38.485   05 Jun 2027 06:16:42.189             3.704          1852.000
       163   05 Jun 2027 06:17:15.451   05 Jun 2027 06:17:15.901             0.450           225.000
       164   05 Jun 2027 06:17:41.530   05 Jun 2027 06:17:42.035             0.505           252.500
       165   05 Jun 2027 06:17:49.995   05 Jun 2027 06:17:59.199             9.204          4602.000
       166   05 Jun 2027 07:48:58.937   05 Jun 2027 07:49:01.250             2.313          1156.500
       167   05 Jun 2027 07:49:30.518   05 Jun 2027 07:49:33.425             2.907          1453.500
       168   05 Jun 2027 07:49:56.744   05 Jun 2027 07:50:01.420             4.676          2338.000
       169   05 Jun 2027 07:50:36.679   05 Jun 2027 07:50:39.191             2.512          1256.000
       170   05 Jun 2027 07:50:54.659   05 Jun 2027 07:50:55.607             0.948           474.000
       171   05 Jun 2027 07:51:11.315   05 Jun 2027 07:51:13.256             1.941           970.500
       172   05 Jun 2027 07:51:30.096   05 Jun 2027 07:51:39.453             9.357          4678.500
       173   05 Jun 2027 07:52:22.258   05 Jun 2027 07:52:31.613             9.355          4677.500
       174   05 Jun 2027 07:53:04.448   05 Jun 2027 07:53:20.639            16.191          8095.500
       175   05 Jun 2027 09:24:14.982   05 Jun 2027 09:24:21.712             6.730          3365.000
       176   05 Jun 2027 09:25:56.589   05 Jun 2027 09:26:04.836             8.247          4123.500
       177   05 Jun 2027 09:27:14.193   05 Jun 2027 09:27:17.097             2.904          1452.000
       178   05 Jun 2027 09:27:39.884   05 Jun 2027 09:27:56.367            16.483          8241.500
       179   05 Jun 2027 09:28:32.606   05 Jun 2027 09:28:32.606             0.000             0.000
       180   06 Jun 2027 03:10:20.207   06 Jun 2027 03:10:27.895             7.688          3844.000
       181   06 Jun 2027 03:11:11.673   06 Jun 2027 03:11:15.410             3.737          1868.500
       182   06 Jun 2027 03:11:48.589   06 Jun 2027 03:11:53.463             4.874          2437.000
       183   06 Jun 2027 03:12:44.761   06 Jun 2027 03:12:50.107             5.346          2673.000
       184   06 Jun 2027 03:13:00.793   06 Jun 2027 03:13:04.683             3.890          1945.000
       185   06 Jun 2027 03:13:39.784   06 Jun 2027 03:13:44.820             5.036          2518.000
       186   06 Jun 2027 03:14:08.020   06 Jun 2027 03:14:11.978             3.958          1979.000
       187   06 Jun 2027 03:14:46.416   06 Jun 2027 03:14:50.827             4.411          2205.500
       188   06 Jun 2027 03:15:54.700   06 Jun 2027 03:15:55.587             0.887           443.500
       189   06 Jun 2027 03:16:02.455   06 Jun 2027 03:16:05.640             3.185          1592.500
       190   06 Jun 2027 03:16:24.381   06 Jun 2027 03:16:24.863             0.482           241.000
       191   06 Jun 2027 03:16:27.570   06 Jun 2027 03:16:28.751             1.181           590.500
       192   06 Jun 2027 03:16:43.146   06 Jun 2027 03:16:43.285             0.139            69.500
       193   06 Jun 2027 03:16:59.790   06 Jun 2027 03:17:03.365             3.575          1787.500
       194   06 Jun 2027 03:17:30.173   06 Jun 2027 03:17:38.622             8.449          4224.500
       195   06 Jun 2027 03:18:08.426   06 Jun 2027 03:18:08.426             0.000             0.000
       196   06 Jun 2027 04:47:22.259   06 Jun 2027 04:47:27.945             5.686          2843.000
       197   06 Jun 2027 04:47:58.195   06 Jun 2027 04:48:41.330            43.135         21567.500
       198   06 Jun 2027 04:49:00.916   06 Jun 2027 04:49:03.470             2.554          1277.000
       199   06 Jun 2027 04:52:37.155   06 Jun 2027 04:52:41.332             4.177          2088.500
       200   06 Jun 2027 04:52:43.139   06 Jun 2027 04:52:47.958             4.819          2409.500
       201   06 Jun 2027 04:53:40.053   06 Jun 2027 04:53:40.441             0.388           194.000
       202   06 Jun 2027 04:53:48.999   06 Jun 2027 04:54:03.586            14.587          7293.500
       203   06 Jun 2027 06:24:19.670   06 Jun 2027 06:24:26.845             7.175          3587.500
       204   06 Jun 2027 06:24:43.354   06 Jun 2027 06:25:03.628            20.274         10137.000
       205   06 Jun 2027 06:26:37.337   06 Jun 2027 06:26:46.056             8.719          4359.500
       206   06 Jun 2027 06:27:32.057   06 Jun 2027 06:27:41.346             9.289          4644.500
       207   06 Jun 2027 06:28:42.976   06 Jun 2027 06:28:43.223             0.247           123.500
       208   06 Jun 2027 06:28:48.596   06 Jun 2027 06:28:59.816            11.220          5610.000
       209   06 Jun 2027 08:01:05.014   06 Jun 2027 08:01:07.828             2.814          1407.000
       210   06 Jun 2027 08:01:24.064   06 Jun 2027 08:01:25.972             1.908           954.000
       211   06 Jun 2027 08:01:51.648   06 Jun 2027 08:01:52.340             0.692           346.000
       212   06 Jun 2027 08:02:07.803   06 Jun 2027 08:02:14.213             6.410          3205.000
       213   06 Jun 2027 08:02:54.394   06 Jun 2027 08:03:02.902             8.508          4254.000
       214   06 Jun 2027 08:03:40.958   06 Jun 2027 08:03:45.084             4.126          2063.000
       215   06 Jun 2027 08:04:42.952   06 Jun 2027 08:04:46.780             3.828          1914.000
       216   06 Jun 2027 08:05:15.350   06 Jun 2027 08:05:20.035             4.685          2342.500
       217   06 Jun 2027 08:05:46.886   06 Jun 2027 08:05:55.040             8.154          4077.000
       218   06 Jun 2027 09:39:19.395   06 Jun 2027 09:39:40.732            21.337         10668.500
       219   07 Jun 2027 03:23:31.330   07 Jun 2027 03:23:32.633             1.303           651.500
       220   07 Jun 2027 03:23:48.698   07 Jun 2027 03:23:49.496             0.798           399.000
       221   07 Jun 2027 03:24:09.737   07 Jun 2027 03:24:16.369             6.632          3316.000
       222   07 Jun 2027 03:24:27.304   07 Jun 2027 03:24:39.497            12.193          6096.500
       223   07 Jun 2027 03:25:49.316   07 Jun 2027 03:25:52.467             3.151          1575.500
       224   07 Jun 2027 03:26:08.413   07 Jun 2027 03:26:14.113             5.700          2850.000
       225   07 Jun 2027 03:26:44.453   07 Jun 2027 03:26:45.244             0.791           395.500
       226   07 Jun 2027 03:26:45.983   07 Jun 2027 03:26:56.058            10.075          5037.500
       227   07 Jun 2027 03:28:09.119   07 Jun 2027 03:28:15.326             6.207          3103.500
       228   07 Jun 2027 03:28:54.401   07 Jun 2027 03:28:55.731             1.330           665.000
       229   07 Jun 2027 03:29:27.102   07 Jun 2027 03:29:34.088             6.986          3493.000
       230   07 Jun 2027 03:30:07.672   07 Jun 2027 03:30:12.061             4.389          2194.500
       231   07 Jun 2027 04:59:53.306   07 Jun 2027 05:00:07.319            14.013          7006.500
       232   07 Jun 2027 05:00:49.726   07 Jun 2027 05:01:09.066            19.340          9670.000
       233   07 Jun 2027 05:02:40.186   07 Jun 2027 05:02:57.854            17.668          8834.000
       234   07 Jun 2027 05:04:42.401   07 Jun 2027 05:04:43.109             0.708           354.000
       235   07 Jun 2027 05:04:49.897   07 Jun 2027 05:04:53.322             3.425          1712.500
       236   07 Jun 2027 05:05:35.818   07 Jun 2027 05:05:40.407             4.589          2294.500
       237   07 Jun 2027 06:37:20.842   07 Jun 2027 06:37:21.852             1.010           505.000
       238   07 Jun 2027 06:37:36.459   07 Jun 2027 06:37:42.958             6.499          3249.500
       239   07 Jun 2027 06:38:03.408   07 Jun 2027 06:38:05.373             1.965           982.500
       240   07 Jun 2027 06:38:15.077   07 Jun 2027 06:38:19.370             4.293          2146.500
       241   07 Jun 2027 06:39:15.841   07 Jun 2027 06:39:26.958            11.117          5558.500
       242   07 Jun 2027 06:40:12.456   07 Jun 2027 06:40:17.269             4.813          2406.500
       243   07 Jun 2027 06:40:49.000   07 Jun 2027 06:40:50.864             1.864           932.000
       244   07 Jun 2027 06:41:24.393   07 Jun 2027 06:41:25.699             1.306           653.000
       245   07 Jun 2027 08:13:27.982   07 Jun 2027 08:13:39.221            11.239          5619.500
       246   07 Jun 2027 08:14:34.166   07 Jun 2027 08:14:34.410             0.244           122.000
       247   07 Jun 2027 08:14:51.864   07 Jun 2027 08:14:54.351             2.487          1243.500
       248   07 Jun 2027 08:15:25.510   07 Jun 2027 08:15:26.128             0.618           309.000
       249   07 Jun 2027 08:16:14.270   07 Jun 2027 08:16:16.446             2.176          1088.000
       250   07 Jun 2027 08:17:10.743   07 Jun 2027 08:17:17.353             6.610          3305.000
       251   08 Jun 2027 03:35:39.567   08 Jun 2027 03:35:49.115             9.548          4774.000
       252   08 Jun 2027 03:36:43.429   08 Jun 2027 03:36:44.425             0.996           498.000
       253   08 Jun 2027 03:37:10.964   08 Jun 2027 03:37:16.862             5.898          2949.000
       254   08 Jun 2027 03:37:43.951   08 Jun 2027 03:37:46.025             2.074          1037.000
       255   08 Jun 2027 03:38:37.897   08 Jun 2027 03:38:43.129             5.232          2616.000
       256   08 Jun 2027 03:40:06.298   08 Jun 2027 03:40:09.780             3.482          1741.000
       257   08 Jun 2027 03:40:37.710   08 Jun 2027 03:40:45.003             7.293          3646.500
       258   08 Jun 2027 03:41:41.666   08 Jun 2027 03:41:50.200             8.534          4267.000
       259   08 Jun 2027 05:11:37.818   08 Jun 2027 05:11:43.517             5.699          2849.500
       260   08 Jun 2027 05:12:19.353   08 Jun 2027 05:12:24.736             5.383          2691.500
       261   08 Jun 2027 05:13:17.804   08 Jun 2027 05:13:19.517             1.713           856.500
       262   08 Jun 2027 05:13:49.543   08 Jun 2027 05:13:49.562             0.019             9.500
       263   08 Jun 2027 05:13:53.216   08 Jun 2027 05:14:06.399            13.183          6591.500
       264   08 Jun 2027 05:15:15.427   08 Jun 2027 05:15:20.673             5.246          2623.000
       265   08 Jun 2027 05:15:58.417   08 Jun 2027 05:16:10.351            11.934          5967.000
       266   08 Jun 2027 05:16:49.000   08 Jun 2027 05:16:51.748             2.748          1374.000
       267   08 Jun 2027 06:49:27.332   08 Jun 2027 06:49:27.811             0.479           239.500
       268   08 Jun 2027 06:49:53.652   08 Jun 2027 06:50:06.963            13.311          6655.500
       269   08 Jun 2027 06:50:46.519   08 Jun 2027 06:51:00.833            14.314          7157.000
       270   08 Jun 2027 06:52:27.609   08 Jun 2027 06:52:30.912             3.303          1651.500
       271   08 Jun 2027 06:52:57.176   08 Jun 2027 06:53:01.828             4.652          2326.000
       272   08 Jun 2027 06:53:22.196   08 Jun 2027 06:53:32.629            10.433          5216.500
       273   08 Jun 2027 08:25:29.301   08 Jun 2027 08:25:31.836             2.535          1267.500
       274   08 Jun 2027 08:26:35.772   08 Jun 2027 08:26:37.829             2.057          1028.500
       275   08 Jun 2027 08:27:34.589   08 Jun 2027 08:27:47.059            12.470          6235.000
       276   08 Jun 2027 08:28:54.246   08 Jun 2027 08:29:02.280             8.034          4017.000
       277   08 Jun 2027 08:29:44.328   08 Jun 2027 08:29:45.353             1.025           512.500
       278   08 Jun 2027 08:29:50.117   08 Jun 2027 08:29:51.681             1.564           782.000
       279   08 Jun 2027 08:29:59.731   08 Jun 2027 08:30:02.925             3.194          1597.000
       280   08 Jun 2027 08:30:24.515   08 Jun 2027 08:30:30.406             5.891          2945.500
       281   09 Jun 2027 03:46:58.864   09 Jun 2027 03:47:12.464            13.600          6800.000
       282   09 Jun 2027 03:48:18.595   09 Jun 2027 03:48:22.554             3.959          1979.500
       283   09 Jun 2027 03:48:51.831   09 Jun 2027 03:48:58.094             6.263          3131.500
       284   09 Jun 2027 03:49:06.509   09 Jun 2027 03:49:11.641             5.132          2566.000
       285   09 Jun 2027 03:50:38.501   09 Jun 2027 03:50:45.197             6.696          3348.000
       286   09 Jun 2027 03:50:49.590   09 Jun 2027 03:50:55.962             6.372          3186.000
       287   09 Jun 2027 03:51:58.882   09 Jun 2027 03:52:06.076             7.194          3597.000
       288   09 Jun 2027 03:52:45.493   09 Jun 2027 03:52:54.725             9.232          4616.000
       289   09 Jun 2027 03:53:40.169   09 Jun 2027 03:53:56.643            16.474          8237.000
       290   09 Jun 2027 05:23:40.448   09 Jun 2027 05:23:44.774             4.326          2163.000
       291   09 Jun 2027 05:24:07.986   09 Jun 2027 05:24:28.363            20.377         10188.500
       292   09 Jun 2027 05:24:40.204   09 Jun 2027 05:24:48.599             8.395          4197.500
       293   09 Jun 2027 05:26:40.876   09 Jun 2027 05:26:50.492             9.616          4808.000
       294   09 Jun 2027 05:27:44.128   09 Jun 2027 05:27:45.022             0.894           447.000
       295   09 Jun 2027 05:29:07.707   09 Jun 2027 05:29:32.516            24.809         12404.500
       296   09 Jun 2027 07:01:58.369   09 Jun 2027 07:02:08.133             9.764          4882.000
       297   09 Jun 2027 07:02:42.385   09 Jun 2027 07:02:43.616             1.231           615.500
       298   09 Jun 2027 07:03:14.613   09 Jun 2027 07:03:24.307             9.694          4847.000
       299   09 Jun 2027 07:04:14.471   09 Jun 2027 07:04:21.983             7.512          3756.000
       300   09 Jun 2027 07:04:30.392   09 Jun 2027 07:04:30.780             0.388           194.000
       301   09 Jun 2027 07:05:09.382   09 Jun 2027 07:05:10.943             1.561           780.500
       302   09 Jun 2027 07:05:18.565   09 Jun 2027 07:05:24.837             6.272          3136.000
       303   09 Jun 2027 08:35:17.159   09 Jun 2027 08:35:46.985            29.826         14913.000
       304   09 Jun 2027 08:38:13.976   09 Jun 2027 08:38:19.825             5.849          2924.500
       305   09 Jun 2027 08:38:56.932   09 Jun 2027 08:38:59.111             2.179          1089.500
       306   09 Jun 2027 08:39:14.754   09 Jun 2027 08:39:16.863             2.109          1054.500
       307   09 Jun 2027 08:39:25.861   09 Jun 2027 08:39:45.623            19.762          9881.000
       308   09 Jun 2027 08:41:13.359   09 Jun 2027 08:41:15.843             2.484          1242.000
       309   09 Jun 2027 08:41:50.786   09 Jun 2027 08:41:55.120             4.334          2167.000
       310   09 Jun 2027 08:42:33.586   09 Jun 2027 08:42:39.514             5.928          2964.000
       311   10 Jun 2027 03:58:58.670   10 Jun 2027 03:59:01.408             2.738          1369.000
       312   10 Jun 2027 03:59:20.656   10 Jun 2027 03:59:34.605            13.949          6974.500
       313   10 Jun 2027 04:00:30.494   10 Jun 2027 04:00:32.942             2.448          1224.000
       314   10 Jun 2027 04:01:16.667   10 Jun 2027 04:01:26.976            10.309          5154.500
       315   10 Jun 2027 04:02:29.349   10 Jun 2027 04:02:35.829             6.480          3240.000
       316   10 Jun 2027 04:03:18.115   10 Jun 2027 04:03:18.604             0.489           244.500
       317   10 Jun 2027 04:03:45.901   10 Jun 2027 04:03:47.380             1.479           739.500
       318   10 Jun 2027 04:04:40.099   10 Jun 2027 04:04:43.013             2.914          1457.000
       319   10 Jun 2027 04:04:54.950   10 Jun 2027 04:04:55.577             0.627           313.500
       320   10 Jun 2027 04:05:18.578   10 Jun 2027 04:05:29.102            10.524          5262.000
       321   10 Jun 2027 04:06:08.258   10 Jun 2027 04:06:08.258             0.000             0.000
       322   10 Jun 2027 05:36:01.190   10 Jun 2027 05:36:18.341            17.151          8575.500
       323   10 Jun 2027 05:37:48.455   10 Jun 2027 05:37:53.381             4.926          2463.000
       324   10 Jun 2027 05:38:14.550   10 Jun 2027 05:38:18.241             3.691          1845.500
       325   10 Jun 2027 05:38:50.082   10 Jun 2027 05:38:51.523             1.441           720.500
       326   10 Jun 2027 05:39:04.340   10 Jun 2027 05:39:08.702             4.362          2181.000
       327   10 Jun 2027 05:39:26.632   10 Jun 2027 05:39:33.472             6.840          3420.000
       328   10 Jun 2027 05:40:46.404   10 Jun 2027 05:40:52.147             5.743          2871.500
       329   10 Jun 2027 05:41:14.146   10 Jun 2027 05:41:30.403            16.257          8128.500
       330   10 Jun 2027 07:13:55.205   10 Jun 2027 07:14:00.516             5.311          2655.500
       331   10 Jun 2027 07:14:20.493   10 Jun 2027 07:14:26.922             6.429          3214.500
       332   10 Jun 2027 07:15:14.571   10 Jun 2027 07:15:19.365             4.794          2397.000
       333   10 Jun 2027 07:16:14.250   10 Jun 2027 07:16:22.237             7.987          3993.500
       334   10 Jun 2027 07:16:57.489   10 Jun 2027 07:17:01.823             4.334          2167.000
       335   10 Jun 2027 07:17:21.016   10 Jun 2027 07:17:21.839             0.823           411.500
       336   10 Jun 2027 08:47:09.832   10 Jun 2027 08:47:23.094            13.262          6631.000
       337   10 Jun 2027 08:48:18.591   10 Jun 2027 08:48:22.728             4.137          2068.500
       338   10 Jun 2027 08:49:26.217   10 Jun 2027 08:49:41.071            14.854          7427.000
       339   10 Jun 2027 08:51:04.394   10 Jun 2027 08:51:08.917             4.523          2261.500
       340   10 Jun 2027 08:51:27.559   10 Jun 2027 08:51:44.394            16.835          8417.500
       341   10 Jun 2027 08:52:51.281   10 Jun 2027 08:52:57.711             6.430          3215.000
       342   10 Jun 2027 08:53:27.113   10 Jun 2027 08:53:30.546             3.433          1716.500
       343   10 Jun 2027 08:53:57.887   10 Jun 2027 08:54:01.042             3.155          1577.500
       344   10 Jun 2027 08:54:33.155   10 Jun 2027 08:54:39.911             6.756          3378.000
       345   11 Jun 2027 04:11:08.515   11 Jun 2027 04:11:23.115            14.600          7300.000
       346   11 Jun 2027 04:12:30.638   11 Jun 2027 04:13:06.004            35.366         17683.000
       347   11 Jun 2027 04:14:45.325   11 Jun 2027 04:14:53.334             8.009          4004.500
       348   11 Jun 2027 04:16:31.686   11 Jun 2027 04:16:35.224             3.538          1769.000
       349   11 Jun 2027 04:16:58.632   11 Jun 2027 04:17:04.651             6.019          3009.500
       350   11 Jun 2027 04:17:16.184   11 Jun 2027 04:17:18.658             2.474          1237.000
       351   11 Jun 2027 04:17:42.420   11 Jun 2027 04:17:54.923            12.503          6251.500
       352   11 Jun 2027 05:47:51.302   11 Jun 2027 05:47:56.845             5.543          2771.500
       353   11 Jun 2027 05:48:33.310   11 Jun 2027 05:48:39.787             6.477          3238.500
       354   11 Jun 2027 05:49:42.835   11 Jun 2027 05:49:47.548             4.713          2356.500
       355   11 Jun 2027 05:50:22.931   11 Jun 2027 05:50:24.729             1.798           899.000
       356   11 Jun 2027 05:51:07.465   11 Jun 2027 05:51:12.886             5.421          2710.500
       357   11 Jun 2027 05:51:41.924   11 Jun 2027 05:51:50.778             8.854          4427.000
       358   11 Jun 2027 05:52:52.961   11 Jun 2027 05:52:55.933             2.972          1486.000
       359   11 Jun 2027 05:53:16.715   11 Jun 2027 05:53:21.135             4.420          2210.000
       360   11 Jun 2027 05:53:46.204   11 Jun 2027 05:53:47.325             1.121           560.500
       361   11 Jun 2027 05:54:25.809   11 Jun 2027 05:54:29.500             3.691          1845.500
       362   11 Jun 2027 07:25:55.329   11 Jun 2027 07:26:05.273             9.944          4972.000
       363   11 Jun 2027 07:26:39.128   11 Jun 2027 07:26:39.128             0.000             0.000
       364   11 Jun 2027 07:27:09.703   11 Jun 2027 07:27:13.742             4.039          2019.500
       365   11 Jun 2027 07:27:55.830   11 Jun 2027 07:28:10.513            14.683          7341.500
       366   11 Jun 2027 08:59:37.439   11 Jun 2027 08:59:44.569             7.130          3565.000
       367   11 Jun 2027 09:00:28.415   11 Jun 2027 09:00:29.221             0.806           403.000
       368   11 Jun 2027 09:00:50.452   11 Jun 2027 09:00:52.985             2.533          1266.500
       369   11 Jun 2027 09:01:38.374   11 Jun 2027 09:01:55.844            17.470          8735.000
       370   11 Jun 2027 09:03:22.191   11 Jun 2027 09:03:23.460             1.269           634.500
       371   11 Jun 2027 09:04:24.712   11 Jun 2027 09:04:33.244             8.532          4266.000
       372   11 Jun 2027 09:05:09.907   11 Jun 2027 09:05:14.345             4.438          2219.000
       373   11 Jun 2027 09:05:34.033   11 Jun 2027 09:05:36.028             1.995           997.500
       374   11 Jun 2027 09:06:13.689   11 Jun 2027 09:06:22.802             9.113          4556.500
       375   12 Jun 2027 04:23:03.155   12 Jun 2027 04:23:04.665             1.510           755.000
       376   12 Jun 2027 04:23:15.955   12 Jun 2027 04:23:18.110             2.155          1077.500
       377   12 Jun 2027 04:24:26.600   12 Jun 2027 04:24:30.711             4.111          2055.500
       378   12 Jun 2027 04:25:22.293   12 Jun 2027 04:25:22.310             0.017             8.500
       379   12 Jun 2027 04:25:24.676   12 Jun 2027 04:25:29.048             4.372          2186.000
       380   12 Jun 2027 04:25:51.681   12 Jun 2027 04:26:09.989            18.308          9154.000
       381   12 Jun 2027 04:27:27.372   12 Jun 2027 04:27:32.022             4.650          2325.000
       382   12 Jun 2027 04:28:48.824   12 Jun 2027 04:28:49.333             0.509           254.500
       383   12 Jun 2027 04:28:58.372   12 Jun 2027 04:29:00.313             1.941           970.500
       384   12 Jun 2027 04:29:08.877   12 Jun 2027 04:29:09.770             0.893           446.500
       385   12 Jun 2027 04:29:32.217   12 Jun 2027 04:29:35.840             3.623          1811.500
       386   12 Jun 2027 04:29:57.925   12 Jun 2027 04:30:12.399            14.474          7237.000
       387   12 Jun 2027 05:59:59.569   12 Jun 2027 06:00:05.019             5.450          2725.000
       388   12 Jun 2027 06:00:23.196   12 Jun 2027 06:01:03.946            40.750         20375.000
       389   12 Jun 2027 06:04:04.224   12 Jun 2027 06:04:08.023             3.799          1899.500
       390   12 Jun 2027 06:04:43.096   12 Jun 2027 06:04:49.877             6.781          3390.500
       391   12 Jun 2027 06:05:43.662   12 Jun 2027 06:05:53.733            10.071          5035.500
       392   12 Jun 2027 07:37:12.815   12 Jun 2027 07:37:29.686            16.871          8435.500
       393   12 Jun 2027 07:37:54.317   12 Jun 2027 07:37:56.339             2.022          1011.000
       394   12 Jun 2027 07:39:10.707   12 Jun 2027 07:39:12.020             1.313           656.500
       395   12 Jun 2027 07:39:27.300   12 Jun 2027 07:39:32.527             5.227          2613.500
       396   12 Jun 2027 07:39:58.265   12 Jun 2027 07:40:04.851             6.586          3293.000
       397   12 Jun 2027 07:40:32.171   12 Jun 2027 07:40:40.447             8.276          4138.000
       398   12 Jun 2027 07:41:41.290   12 Jun 2027 07:41:45.761             4.471          2235.500
       399   12 Jun 2027 09:11:57.009   12 Jun 2027 09:11:58.286             1.277           638.500
       400   12 Jun 2027 09:12:14.048   12 Jun 2027 09:12:41.284            27.236         13618.000
       401   12 Jun 2027 09:13:45.393   12 Jun 2027 09:13:47.845             2.452          1226.000
       402   12 Jun 2027 09:15:35.367   12 Jun 2027 09:15:50.751            15.384          7692.000
       403   12 Jun 2027 09:16:56.811   12 Jun 2027 09:17:01.738             4.927          2463.500
       404   13 Jun 2027 03:00:00.000   13 Jun 2027 03:00:24.282            24.282         12141.000
       405   13 Jun 2027 03:02:02.547   13 Jun 2027 03:02:05.302             2.755          1377.500
       406   13 Jun 2027 03:02:44.402   13 Jun 2027 03:02:48.642             4.240          2120.000
       407   13 Jun 2027 03:03:14.405   13 Jun 2027 03:03:19.467             5.062          2531.000
       408   13 Jun 2027 03:03:23.398   13 Jun 2027 03:03:33.099             9.701          4850.500
       409   13 Jun 2027 03:04:39.330   13 Jun 2027 03:04:43.160             3.830          1915.000
       410   13 Jun 2027 03:05:08.981   13 Jun 2027 03:05:13.909             4.928          2464.000
       411   13 Jun 2027 03:06:10.386   13 Jun 2027 03:06:11.306             0.920           460.000
       412   13 Jun 2027 03:06:25.731   13 Jun 2027 03:06:31.283             5.552          2776.000
       413   13 Jun 2027 04:35:24.699   13 Jun 2027 04:35:32.559             7.860          3930.000
       414   13 Jun 2027 04:36:07.979   13 Jun 2027 04:36:19.777            11.798          5899.000
       415   13 Jun 2027 04:37:07.929   13 Jun 2027 04:37:10.672             2.743          1371.500
       416   13 Jun 2027 04:37:25.024   13 Jun 2027 04:37:31.015             5.991          2995.500
       417   13 Jun 2027 04:38:08.423   13 Jun 2027 04:38:20.319            11.896          5948.000
       418   13 Jun 2027 04:39:17.369   13 Jun 2027 04:39:20.360             2.991          1495.500
       419   13 Jun 2027 04:39:34.648   13 Jun 2027 04:39:42.216             7.568          3784.000
       420   13 Jun 2027 04:40:05.673   13 Jun 2027 04:40:08.188             2.515          1257.500
       421   13 Jun 2027 04:40:49.421   13 Jun 2027 04:40:53.742             4.321          2160.500
       422   13 Jun 2027 04:41:42.523   13 Jun 2027 04:41:53.314            10.791          5395.500
       423   13 Jun 2027 06:12:28.268   13 Jun 2027 06:12:47.777            19.509          9754.500
       424   13 Jun 2027 06:14:08.016   13 Jun 2027 06:14:15.593             7.577          3788.500
       425   13 Jun 2027 06:15:14.838   13 Jun 2027 06:15:16.075             1.237           618.500
       426   13 Jun 2027 06:15:37.557   13 Jun 2027 06:15:41.299             3.742          1871.000
       427   13 Jun 2027 06:15:58.836   13 Jun 2027 06:16:14.291            15.455          7727.500
       428   13 Jun 2027 06:17:32.235   13 Jun 2027 06:17:36.664             4.429          2214.500
       429   13 Jun 2027 06:17:57.086   13 Jun 2027 06:17:57.359             0.273           136.500
       430   13 Jun 2027 06:17:59.540   13 Jun 2027 06:18:04.878             5.338          2669.000
       431   13 Jun 2027 07:49:14.180   13 Jun 2027 07:49:16.178             1.998           999.000
       432   13 Jun 2027 07:49:45.212   13 Jun 2027 07:49:48.141             2.929          1464.500
       433   13 Jun 2027 07:49:58.223   13 Jun 2027 07:49:58.962             0.739           369.500
       434   13 Jun 2027 07:50:35.758   13 Jun 2027 07:50:52.337            16.579          8289.500
       435   13 Jun 2027 07:52:17.748   13 Jun 2027 07:52:26.356             8.608          4304.000
       436   13 Jun 2027 07:53:16.368   13 Jun 2027 07:53:17.319             0.951           475.500
       437   13 Jun 2027 09:24:29.859   13 Jun 2027 09:24:35.926             6.067          3033.500
       438   13 Jun 2027 09:26:11.488   13 Jun 2027 09:26:19.409             7.921          3960.500
       439   13 Jun 2027 09:27:28.928   13 Jun 2027 09:27:32.118             3.190          1595.000
       440   13 Jun 2027 09:27:54.510   13 Jun 2027 09:28:11.577            17.067          8533.500
