uniorb/output/strategy_2/Drop/Drop_KinoSat_111703.txt

KinoSat_111703
-------------------------
    Access    *     Start Time (UTCG)     *     Stop Time (UTCG)  *   Duration (s)        *       Station  *  Data (Mbytes)
         1   01 Jun 2027 03:32:47.321   01 Jun 2027 03:33:17.340            30.019              Murmansk2           938.094
         2   01 Jun 2027 03:33:53.962   01 Jun 2027 03:34:24.290            30.328                Norilsk           947.750
         3   01 Jun 2027 03:34:35.341   01 Jun 2027 03:34:48.067            12.726              Murmansk1           397.687
         4   01 Jun 2027 03:34:48.067   01 Jun 2027 03:36:20.440            92.373              Murmansk2          2886.656
         5   01 Jun 2027 03:36:28.970   01 Jun 2027 03:36:54.470            25.500                Novosib           796.875
         6   01 Jun 2027 05:08:56.710   01 Jun 2027 05:09:24.593            27.883                Norilsk           871.344
         7   01 Jun 2027 05:09:43.447   01 Jun 2027 05:11:18.015            94.568                Novosib          2955.250
         8   01 Jun 2027 05:12:43.927   01 Jun 2027 05:14:12.617            88.690              Murmansk1          2771.562
         9   01 Jun 2027 05:14:12.617   01 Jun 2027 05:14:29.664            17.047              Murmansk2           532.719
        10   01 Jun 2027 05:14:38.962   01 Jun 2027 05:16:29.061           110.099                 Moscow          3440.594
        11   01 Jun 2027 05:38:35.022   01 Jun 2027 05:39:19.627            44.605               CapeTown          1393.906
        12   01 Jun 2027 06:32:07.888   01 Jun 2027 06:33:44.924            97.036                Anadyr2          3032.375
        13   01 Jun 2027 06:34:01.684   01 Jun 2027 06:34:10.797             9.113               Magadan2           284.781
        14   01 Jun 2027 06:35:20.557   01 Jun 2027 06:35:37.414            16.857                Anadyr2           526.781
        15   01 Jun 2027 06:36:00.309   01 Jun 2027 06:36:13.232            12.923               Magadan2           403.844
        16   01 Jun 2027 06:37:29.163   01 Jun 2027 06:37:58.030            28.867               Magadan1           902.094
        17   01 Jun 2027 08:10:38.801   01 Jun 2027 08:14:17.007           218.206               Magadan2          6818.937
        18   01 Jun 2027 08:22:49.534   01 Jun 2027 08:22:59.309             9.775                 Moscow           305.469
        19   01 Jun 2027 09:43:15.036   01 Jun 2027 09:43:35.876            20.840               Magadan1           651.250
        20   01 Jun 2027 09:43:55.723   01 Jun 2027 09:50:00.886           365.163               Magadan2         11411.344
        21   01 Jun 2027 11:19:23.426   01 Jun 2027 11:22:31.939           188.513               Magadan2          5891.031
        22   01 Jun 2027 11:22:31.939   01 Jun 2027 11:23:56.460            84.521               Magadan1          2641.281
        23   01 Jun 2027 11:25:31.432   01 Jun 2027 11:26:48.472            77.040                Norilsk          2407.500
        24   01 Jun 2027 11:27:06.911   01 Jun 2027 11:27:17.246            10.335                Novosib           322.969
        25   01 Jun 2027 12:01:02.657   01 Jun 2027 12:01:50.407            47.750            RioGallegos          1492.188
        26   01 Jun 2027 12:03:44.704   01 Jun 2027 12:04:08.887            24.183            RioGallegos           755.719
        27   01 Jun 2027 12:09:37.770   01 Jun 2027 12:10:31.336            53.566            RioGallegos          1673.938
        28   01 Jun 2027 12:35:32.648   01 Jun 2027 12:37:53.141           140.493                Sumatra          4390.406
        29   01 Jun 2027 12:50:07.943   01 Jun 2027 12:51:59.841           111.898                Irkutsk          3496.812
        30   01 Jun 2027 12:54:11.893   01 Jun 2027 12:54:57.615            45.722                Norilsk          1428.812
        31   01 Jun 2027 12:55:16.557   01 Jun 2027 12:55:51.318            34.761                Norilsk          1086.281
        32   01 Jun 2027 12:58:19.697   01 Jun 2027 12:59:56.023            96.326                Irkutsk          3010.188
        33   01 Jun 2027 13:42:42.948   01 Jun 2027 13:46:01.558           198.610            RioGallegos          6206.563
        34   01 Jun 2027 14:28:04.831   01 Jun 2027 14:31:40.507           215.676                Novosib          6739.875
        35   01 Jun 2027 14:32:03.520   01 Jun 2027 14:32:09.470             5.950                Norilsk           185.938
        36   01 Jun 2027 14:34:49.181   01 Jun 2027 14:35:13.815            24.634                Norilsk           769.812
        37   01 Jun 2027 14:35:44.707   01 Jun 2027 14:36:52.414            67.707                Norilsk          2115.844
        38   01 Jun 2027 16:04:05.801   01 Jun 2027 16:06:56.817           171.016                 Moscow          5344.250
        39   01 Jun 2027 16:08:32.681   01 Jun 2027 16:09:39.247            66.566              Murmansk2          2080.188
        40   01 Jun 2027 16:12:22.125   01 Jun 2027 16:16:59.522           277.397                Norilsk          8668.656
        41   01 Jun 2027 17:42:00.143   01 Jun 2027 17:43:02.559            62.416                 Moscow          1950.500
        42   01 Jun 2027 17:44:55.897   01 Jun 2027 17:46:24.126            88.229              Murmansk1          2757.156
        43   01 Jun 2027 17:47:43.226   01 Jun 2027 17:48:23.774            40.548              Murmansk2          1267.125
        44   01 Jun 2027 17:48:41.255   01 Jun 2027 17:49:18.510            37.255              Murmansk2          1164.219
        45   01 Jun 2027 18:53:43.450   01 Jun 2027 18:56:22.505           159.055               CapeTown          4970.469
        46   01 Jun 2027 19:24:39.759   01 Jun 2027 19:26:16.220            96.461              Murmansk2          3014.406
        47   01 Jun 2027 19:27:53.414   01 Jun 2027 19:29:25.461            92.047              Murmansk2          2876.469
        48   01 Jun 2027 19:35:24.310   01 Jun 2027 19:35:44.245            19.935                Anadyr2           622.969
        49   01 Jun 2027 19:37:14.181   01 Jun 2027 19:39:39.379           145.198               Magadan2          4537.438
        50   01 Jun 2027 21:10:04.839   01 Jun 2027 21:11:40.768            95.929                Anadyr1          2997.781
        51   01 Jun 2027 21:11:48.057   01 Jun 2027 21:13:50.414           122.357                Anadyr2          3823.656
        52   01 Jun 2027 21:14:19.085   01 Jun 2027 21:15:48.035            88.950               Magadan1          2779.687
        53   01 Jun 2027 21:15:48.035   01 Jun 2027 21:18:07.049           139.014               Magadan2          4344.187
        54   01 Jun 2027 21:23:19.945   01 Jun 2027 21:23:32.823            12.878               Magadan2           402.438
        55   01 Jun 2027 22:06:14.083   01 Jun 2027 22:08:44.775           150.692            RioGallegos          4709.125
        56   01 Jun 2027 22:11:15.386   01 Jun 2027 22:11:54.088            38.702            RioGallegos          1209.437
        57   01 Jun 2027 22:45:54.447   01 Jun 2027 22:47:57.267           122.820                Anadyr1          3838.125
        58   01 Jun 2027 22:48:01.244   01 Jun 2027 22:49:43.781           102.537                Norilsk          3204.281
        59   01 Jun 2027 22:49:46.978   01 Jun 2027 22:50:13.343            26.365               Magadan2           823.906
        60   01 Jun 2027 22:50:52.727   01 Jun 2027 22:51:17.400            24.673               Magadan2           771.031
        61   01 Jun 2027 22:51:19.387   01 Jun 2027 22:51:42.766            23.379               Magadan2           730.594
        62   01 Jun 2027 22:52:57.107   01 Jun 2027 22:53:32.592            35.485                Irkutsk          1108.906
        63   01 Jun 2027 22:54:40.940   01 Jun 2027 22:55:15.603            34.663                Irkutsk          1083.219
        64   01 Jun 2027 22:57:00.341   01 Jun 2027 22:58:20.680            80.339                Irkutsk          2510.594
        65   01 Jun 2027 23:07:55.726   01 Jun 2027 23:09:52.927           117.201                Sumatra          3662.531
        66   01 Jun 2027 23:15:52.816   01 Jun 2027 23:15:57.755             4.939                Sumatra           154.344
        67   01 Jun 2027 23:47:16.494   01 Jun 2027 23:47:54.540            38.046            RioGallegos          1188.937
        68   01 Jun 2027 23:48:48.545   01 Jun 2027 23:49:19.803            31.258            RioGallegos           976.812
        69   02 Jun 2027 00:21:11.345   02 Jun 2027 00:22:06.345            55.000                Anadyr1          1718.750
        70   02 Jun 2027 00:22:06.345   02 Jun 2027 00:23:04.538            58.193                Anadyr2          1818.531
        71   02 Jun 2027 00:24:06.222   02 Jun 2027 00:24:29.386            23.164                Norilsk           723.875
        72   02 Jun 2027 00:24:52.060   02 Jun 2027 00:25:26.814            34.754               Magadan1          1086.063
        73   02 Jun 2027 00:25:29.007   02 Jun 2027 00:25:31.700             2.693                Norilsk            84.156
        74   02 Jun 2027 00:25:43.390   02 Jun 2027 00:25:57.723            14.333               Magadan1           447.906
        75   02 Jun 2027 00:26:28.245   02 Jun 2027 00:27:16.258            48.013               Magadan2          1500.406
        76   02 Jun 2027 00:27:43.456   02 Jun 2027 00:28:39.626            56.170                Irkutsk          1755.312
        77   02 Jun 2027 00:28:47.651   02 Jun 2027 00:29:44.235            56.584                Novosib          1768.250
        78   02 Jun 2027 00:30:01.750   02 Jun 2027 00:30:35.400            33.650                Novosib          1051.562
        79   02 Jun 2027 00:33:23.970   02 Jun 2027 00:33:58.259            34.289                Novosib          1071.531
        80   02 Jun 2027 00:36:51.894   02 Jun 2027 00:36:54.726             2.832                Novosib            88.500
        81   02 Jun 2027 00:37:34.806   02 Jun 2027 00:37:55.015            20.209                Novosib           631.531
        82   02 Jun 2027 00:38:22.253   02 Jun 2027 00:39:38.594            76.341                  Delhi          2385.656
        83   02 Jun 2027 00:39:55.797   02 Jun 2027 00:40:07.158            11.361                  Delhi           355.031
        84   02 Jun 2027 00:46:19.826   02 Jun 2027 00:47:18.033            58.207                Sumatra          1818.969
        85   02 Jun 2027 01:15:49.081   02 Jun 2027 01:16:33.924            44.843            RioGallegos          1401.344
        86   02 Jun 2027 01:18:33.587   02 Jun 2027 01:18:47.614            14.027            RioGallegos           438.344
        87   02 Jun 2027 01:21:24.980   02 Jun 2027 01:21:32.055             7.075            RioGallegos           221.094
        88   02 Jun 2027 01:21:39.874   02 Jun 2027 01:22:12.733            32.859            RioGallegos          1026.844
        89   02 Jun 2027 01:25:27.732   02 Jun 2027 01:26:22.897            55.165            RioGallegos          1723.906
        90   02 Jun 2027 01:56:27.249   02 Jun 2027 01:56:48.881            21.632                Anadyr1           676.000
        91   02 Jun 2027 01:57:16.154   02 Jun 2027 01:57:25.308             9.154                Anadyr2           286.063
        92   02 Jun 2027 01:57:51.684   02 Jun 2027 01:57:52.428             0.744                Anadyr2            23.250
        93   02 Jun 2027 01:58:01.672   02 Jun 2027 01:58:21.184            19.512                Anadyr1           609.750
        94   02 Jun 2027 01:59:45.541   02 Jun 2027 01:59:59.338            13.797                Anadyr2           431.156
        95   02 Jun 2027 01:59:59.338   02 Jun 2027 02:00:38.138            38.800                Anadyr1          1212.500
        96   02 Jun 2027 02:00:50.390   02 Jun 2027 02:01:41.909            51.519                Norilsk          1609.969
        97   02 Jun 2027 02:02:42.131   02 Jun 2027 02:03:45.321            63.190              Murmansk2          1974.687
        98   02 Jun 2027 02:03:47.047   02 Jun 2027 02:04:29.512            42.465              Murmansk1          1327.031
        99   02 Jun 2027 02:04:32.237   02 Jun 2027 02:04:47.890            15.653                Novosib           489.156
       100   02 Jun 2027 02:04:55.309   02 Jun 2027 02:05:37.463            42.154                Irkutsk          1317.313
       101   02 Jun 2027 02:08:55.002   02 Jun 2027 02:09:49.044            54.042                Irkutsk          1688.813
       102   02 Jun 2027 02:14:46.612   02 Jun 2027 02:15:01.210            14.598                  Delhi           456.188
       103   02 Jun 2027 02:18:45.793   02 Jun 2027 02:19:27.940            42.147                  Delhi          1317.094
       104   02 Jun 2027 02:23:22.576   02 Jun 2027 02:23:44.353            21.777                  Delhi           680.531
       105   02 Jun 2027 02:52:53.254   02 Jun 2027 02:56:46.535           233.281            RioGallegos          7290.031
       106   02 Jun 2027 03:43:52.169   02 Jun 2027 03:44:28.270            36.101                Irkutsk          1128.156
       107   02 Jun 2027 03:45:45.627   02 Jun 2027 03:46:12.850            27.223                Norilsk           850.719
       108   02 Jun 2027 03:46:35.820   02 Jun 2027 03:46:41.187             5.367              Murmansk2           167.719
       109   02 Jun 2027 03:47:08.240   02 Jun 2027 03:47:30.021            21.781                Novosib           680.656
       110   02 Jun 2027 03:47:33.316   02 Jun 2027 03:48:46.618            73.302              Murmansk2          2290.688
       111   02 Jun 2027 03:52:09.001   02 Jun 2027 03:52:25.034            16.033                 Moscow           501.031
       112   02 Jun 2027 04:07:53.742   02 Jun 2027 04:09:38.784           105.042               CapeTown          3282.563
       113   02 Jun 2027 05:20:47.025   02 Jun 2027 05:20:53.481             6.456                Novosib           201.750
       114   02 Jun 2027 05:23:11.367   02 Jun 2027 05:26:17.336           185.969              Murmansk2          5811.531
       115   02 Jun 2027 05:26:17.336   02 Jun 2027 05:26:39.195            21.859              Murmansk1           683.094
       116   02 Jun 2027 05:26:43.488   02 Jun 2027 05:26:47.557             4.069                 Moscow           127.156
       117   02 Jun 2027 05:27:14.394   02 Jun 2027 05:27:34.830            20.436                 Moscow           638.625
       118   02 Jun 2027 06:44:28.341   02 Jun 2027 06:46:12.416           104.075               Magadan1          3252.344
       119   02 Jun 2027 06:46:12.416   02 Jun 2027 06:46:39.817            27.401               Magadan2           856.281
       120   02 Jun 2027 06:47:22.577   02 Jun 2027 06:47:25.942             3.365                Anadyr2           105.156
       121   02 Jun 2027 08:22:09.506   02 Jun 2027 08:22:59.043            49.537               Magadan1          1548.031
       122   02 Jun 2027 08:23:27.830   02 Jun 2027 08:23:31.700             3.870                Norilsk           120.938
       123   02 Jun 2027 08:24:02.113   02 Jun 2027 08:26:28.193           146.080                Anadyr2          4565.000
       124   02 Jun 2027 08:33:27.057   02 Jun 2027 08:34:51.470            84.413                 Moscow          2637.906
       125   02 Jun 2027 09:54:33.374   02 Jun 2027 09:55:52.420            79.046               Magadan2          2470.188
       126   02 Jun 2027 09:55:57.404   02 Jun 2027 09:56:58.593            61.189               Magadan1          1912.156
       127   02 Jun 2027 09:57:03.614   02 Jun 2027 09:57:37.026            33.412                Norilsk          1044.125
       128   02 Jun 2027 09:57:47.613   02 Jun 2027 09:57:50.417             2.804                Irkutsk            87.625
       129   02 Jun 2027 09:57:54.332   02 Jun 2027 09:58:18.277            23.945                Novosib           748.281
       130   02 Jun 2027 09:58:19.534   02 Jun 2027 10:00:15.071           115.537               Magadan2          3610.531
       131   02 Jun 2027 10:00:20.635   02 Jun 2027 10:00:52.319            31.684                Anadyr2           990.125
       132   02 Jun 2027 10:01:12.407   02 Jun 2027 10:02:00.983            48.576              Murmansk1          1518.000
       133   02 Jun 2027 10:10:14.154   02 Jun 2027 10:10:40.376            26.222              Murmansk1           819.437
       134   02 Jun 2027 10:36:55.665   02 Jun 2027 10:37:15.159            19.494            RioGallegos           609.188
       135   02 Jun 2027 10:37:53.511   02 Jun 2027 10:37:56.441             2.930            RioGallegos            91.563
       136   02 Jun 2027 10:39:02.542   02 Jun 2027 10:39:47.104            44.562            RioGallegos          1392.563
       137   02 Jun 2027 11:15:23.447   02 Jun 2027 11:15:59.176            35.729                Sumatra          1116.531
       138   02 Jun 2027 11:21:02.594   02 Jun 2027 11:22:11.880            69.286                Sumatra          2165.188
       139   02 Jun 2027 11:31:30.760   02 Jun 2027 11:31:52.419            21.659                Norilsk           676.844
       140   02 Jun 2027 11:32:10.495   02 Jun 2027 11:33:14.634            64.139                Irkutsk          2004.344
       141   02 Jun 2027 11:33:22.549   02 Jun 2027 11:33:38.602            16.053                Norilsk           501.656
       142   02 Jun 2027 11:33:46.709   02 Jun 2027 11:34:55.200            68.491                Norilsk          2140.344
       143   02 Jun 2027 11:35:12.248   02 Jun 2027 11:35:21.602             9.354                Norilsk           292.313
       144   02 Jun 2027 11:35:22.885   02 Jun 2027 11:35:24.493             1.608                Novosib            50.250
       145   02 Jun 2027 11:35:39.008   02 Jun 2027 11:35:55.734            16.726              Murmansk2           522.687
       146   02 Jun 2027 11:35:56.967   02 Jun 2027 11:35:57.867             0.900                Norilsk            28.125
       147   02 Jun 2027 11:36:12.566   02 Jun 2027 11:36:44.865            32.299                Novosib          1009.344
       148   02 Jun 2027 11:36:46.126   02 Jun 2027 11:37:14.007            27.881              Murmansk1           871.281
       149   02 Jun 2027 11:37:21.709   02 Jun 2027 11:37:35.932            14.223                Norilsk           444.469
       150   02 Jun 2027 11:37:43.858   02 Jun 2027 11:38:40.587            56.729              Murmansk1          1772.781
       151   02 Jun 2027 12:13:20.971   02 Jun 2027 12:13:54.136            33.165            RioGallegos          1036.406
       152   02 Jun 2027 12:15:39.834   02 Jun 2027 12:17:50.541           130.707            RioGallegos          4084.594
       153   02 Jun 2027 12:57:30.353   02 Jun 2027 12:58:06.221            35.868                Sumatra          1120.875
       154   02 Jun 2027 13:02:35.708   02 Jun 2027 13:03:14.460            38.752                Irkutsk          1211.000
       155   02 Jun 2027 13:03:52.770   02 Jun 2027 13:06:13.433           140.663                Irkutsk          4395.719
       156   02 Jun 2027 13:08:58.895   02 Jun 2027 13:09:21.346            22.451                Norilsk           701.594
       157   02 Jun 2027 13:16:23.493   02 Jun 2027 13:16:28.018             4.525                Norilsk           141.406
       158   02 Jun 2027 13:16:54.601   02 Jun 2027 13:17:32.691            38.090                Norilsk          1190.313
       159   02 Jun 2027 14:32:23.489   02 Jun 2027 14:33:22.980            59.491                  Delhi          1859.094
       160   02 Jun 2027 14:36:52.123   02 Jun 2027 14:37:30.481            38.358                  Delhi          1198.687
       161   02 Jun 2027 14:39:09.836   02 Jun 2027 14:39:31.961            22.125                  Delhi           691.406
       162   02 Jun 2027 14:40:34.609   02 Jun 2027 14:42:20.042           105.433                  Delhi          3294.781
       163   02 Jun 2027 14:43:39.180   02 Jun 2027 14:45:38.015           118.835                Novosib          3713.594
       164   02 Jun 2027 14:46:46.027   02 Jun 2027 14:47:16.178            30.151                Norilsk           942.219
       165   02 Jun 2027 14:48:24.515   02 Jun 2027 14:49:04.751            40.236                Norilsk          1257.375
       166   02 Jun 2027 14:54:24.909   02 Jun 2027 14:54:56.088            31.179                Norilsk           974.344
       167   02 Jun 2027 16:16:10.235   02 Jun 2027 16:19:23.838           193.603                 Moscow          6050.094
       168   02 Jun 2027 16:19:41.448   02 Jun 2027 16:20:29.750            48.302              Murmansk2          1509.437
       169   02 Jun 2027 16:24:37.544   02 Jun 2027 16:24:50.887            13.343              Murmansk1           416.969
       170   02 Jun 2027 16:25:14.199   02 Jun 2027 16:29:43.185           268.986                Norilsk          8405.813
       171   02 Jun 2027 17:37:21.523   02 Jun 2027 17:39:29.149           127.626               CapeTown          3988.313
       172   02 Jun 2027 17:54:36.783   02 Jun 2027 17:56:43.417           126.634                 Moscow          3957.312
       173   02 Jun 2027 18:06:57.304   02 Jun 2027 18:07:25.957            28.653              Murmansk2           895.406
       174   02 Jun 2027 18:10:26.129   02 Jun 2027 18:10:34.649             8.520                Anadyr2           266.250
       175   02 Jun 2027 18:11:11.967   02 Jun 2027 18:11:51.732            39.765                Anadyr2          1242.656
       176   02 Jun 2027 18:16:38.195   02 Jun 2027 18:17:00.603            22.408                Anadyr1           700.250
       177   02 Jun 2027 19:05:55.018   02 Jun 2027 19:07:29.748            94.730               CapeTown          2960.313
       178   02 Jun 2027 19:13:15.379   02 Jun 2027 19:14:19.954            64.575               CapeTown          2017.969
       179   02 Jun 2027 19:37:25.284   02 Jun 2027 19:43:23.941           358.657              Murmansk1         11208.031
       180   02 Jun 2027 19:58:31.737   02 Jun 2027 19:58:39.401             7.664               Magadan1           239.500
       181   02 Jun 2027 21:22:06.462   02 Jun 2027 21:25:51.602           225.140                Anadyr1          7035.625
       182   02 Jun 2027 21:25:52.920   02 Jun 2027 21:28:29.304           156.384               Magadan2          4887.000
       183   02 Jun 2027 21:29:09.045   02 Jun 2027 21:29:35.300            26.255               Magadan2           820.469
       184   02 Jun 2027 21:29:35.300   02 Jun 2027 21:30:25.432            50.132               Magadan1          1566.625
       185   02 Jun 2027 22:17:35.021   02 Jun 2027 22:20:28.309           173.288            RioGallegos          5415.250
       186   02 Jun 2027 22:22:47.155   02 Jun 2027 22:23:21.240            34.085            RioGallegos          1065.156
       187   02 Jun 2027 22:57:53.711   02 Jun 2027 22:58:47.853            54.142                Anadyr2          1691.937
       188   02 Jun 2027 22:58:50.697   02 Jun 2027 22:59:01.793            11.096                Anadyr1           346.750
       189   02 Jun 2027 22:59:38.279   02 Jun 2027 23:00:21.155            42.876                Anadyr2          1339.875
       190   02 Jun 2027 23:00:21.294   02 Jun 2027 23:01:25.537            64.243               Magadan2          2007.594
       191   02 Jun 2027 23:02:02.876   02 Jun 2027 23:02:22.522            19.646               Magadan1           613.937
       192   02 Jun 2027 23:04:12.314   02 Jun 2027 23:04:45.652            33.338               Magadan2          1041.812
       193   02 Jun 2027 23:05:06.416   02 Jun 2027 23:05:20.082            13.666                Norilsk           427.062
       194   02 Jun 2027 23:05:32.774   02 Jun 2027 23:05:43.299            10.525               Magadan2           328.906
       195   02 Jun 2027 23:06:40.333   02 Jun 2027 23:07:09.890            29.557                Irkutsk           923.656
       196   02 Jun 2027 23:08:52.455   02 Jun 2027 23:09:11.607            19.152                Irkutsk           598.500
       197   02 Jun 2027 23:12:30.211   02 Jun 2027 23:13:01.019            30.808                Irkutsk           962.750
       198   02 Jun 2027 23:14:03.877   02 Jun 2027 23:14:04.233             0.356                Irkutsk            11.125
       199   02 Jun 2027 23:19:10.022   02 Jun 2027 23:20:46.784            96.762                Sumatra          3023.813
       200   02 Jun 2027 23:24:07.394   02 Jun 2027 23:25:05.627            58.233                Sumatra          1819.781
       201   03 Jun 2027 00:00:16.833   03 Jun 2027 00:00:17.973             1.140            RioGallegos            35.625
       202   03 Jun 2027 00:02:31.382   03 Jun 2027 00:02:51.265            19.883            RioGallegos           621.344
       203   03 Jun 2027 00:33:03.723   03 Jun 2027 00:35:11.762           128.039                Anadyr1          4001.219
       204   03 Jun 2027 00:36:03.995   03 Jun 2027 00:36:20.444            16.449                Norilsk           514.031
       205   03 Jun 2027 00:36:29.066   03 Jun 2027 00:37:04.334            35.268               Magadan2          1102.125
       206   03 Jun 2027 00:37:17.858   03 Jun 2027 00:37:33.849            15.991                Norilsk           499.719
       207   03 Jun 2027 00:37:45.774   03 Jun 2027 00:38:03.357            17.583               Magadan2           549.469
       208   03 Jun 2027 00:39:43.647   03 Jun 2027 00:42:56.949           193.302                Irkutsk          6040.688
       209   03 Jun 2027 00:49:17.085   03 Jun 2027 00:51:13.522           116.437                  Delhi          3638.656
       210   03 Jun 2027 00:59:07.917   03 Jun 2027 00:59:22.015            14.098                Sumatra           440.562
       211   03 Jun 2027 01:02:25.970   03 Jun 2027 01:03:48.337            82.367                Sumatra          2573.969
       212   03 Jun 2027 01:35:57.895   03 Jun 2027 01:35:57.927             0.032            RioGallegos             1.000
       213   03 Jun 2027 01:36:29.975   03 Jun 2027 01:37:21.764            51.789            RioGallegos          1618.406
       214   03 Jun 2027 02:07:49.019   03 Jun 2027 02:07:50.980             1.961                Anadyr2            61.281
       215   03 Jun 2027 02:08:14.649   03 Jun 2027 02:08:49.111            34.462                Anadyr2          1076.938
       216   03 Jun 2027 02:09:10.385   03 Jun 2027 02:09:14.932             4.547                Anadyr2           142.094
       217   03 Jun 2027 02:09:44.866   03 Jun 2027 02:09:53.464             8.598                Anadyr1           268.688
       218   03 Jun 2027 02:11:10.021   03 Jun 2027 02:11:38.020            27.999                Anadyr1           874.969
       219   03 Jun 2027 02:11:51.021   03 Jun 2027 02:13:05.734            74.713                Norilsk          2334.781
       220   03 Jun 2027 02:14:31.502   03 Jun 2027 02:14:56.973            25.471              Murmansk1           795.969
       221   03 Jun 2027 02:15:37.720   03 Jun 2027 02:16:24.365            46.645                Novosib          1457.656
       222   03 Jun 2027 02:16:35.014   03 Jun 2027 02:17:25.859            50.845                Novosib          1588.906
       223   03 Jun 2027 02:17:32.295   03 Jun 2027 02:17:38.334             6.039                Irkutsk           188.719
       224   03 Jun 2027 02:18:40.217   03 Jun 2027 02:18:53.236            13.019                Novosib           406.844
       225   03 Jun 2027 02:20:28.839   03 Jun 2027 02:20:36.683             7.844                Irkutsk           245.125
       226   03 Jun 2027 02:20:40.782   03 Jun 2027 02:22:06.631            85.849                Irkutsk          2682.781
       227   03 Jun 2027 02:32:16.189   03 Jun 2027 02:32:25.335             9.146                  Delhi           285.813
       228   03 Jun 2027 02:34:36.408   03 Jun 2027 02:34:44.913             8.505                  Delhi           265.781
       229   03 Jun 2027 03:05:15.759   03 Jun 2027 03:08:25.887           190.128            RioGallegos          5941.500
       230   03 Jun 2027 03:09:09.403   03 Jun 2027 03:10:32.753            83.350            RioGallegos          2604.688
       231   03 Jun 2027 03:55:55.587   03 Jun 2027 03:56:00.847             5.260                Irkutsk           164.375
       232   03 Jun 2027 03:56:50.949   03 Jun 2027 03:57:20.614            29.665                Irkutsk           927.031
       233   03 Jun 2027 03:58:57.840   03 Jun 2027 04:00:47.204           109.364                 Moscow          3417.625
       234   03 Jun 2027 04:02:24.929   03 Jun 2027 04:02:52.892            27.963                Novosib           873.844
       235   03 Jun 2027 04:03:10.744   03 Jun 2027 04:05:37.148           146.404                  Delhi          4575.125
       236   03 Jun 2027 05:32:38.310   03 Jun 2027 05:33:25.863            47.553                Novosib          1486.031
       237   03 Jun 2027 05:34:30.569   03 Jun 2027 05:35:23.939            53.370              Murmansk2          1667.812
       238   03 Jun 2027 05:35:32.274   03 Jun 2027 05:38:00.071           147.797              Murmansk2          4618.656
       239   03 Jun 2027 05:53:28.056   03 Jun 2027 05:55:02.201            94.145               CapeTown          2942.031
       240   03 Jun 2027 06:55:53.189   03 Jun 2027 06:57:31.627            98.438                Anadyr2          3076.188
       241   03 Jun 2027 06:57:32.911   03 Jun 2027 06:58:12.826            39.915                Anadyr1          1247.344
       242   03 Jun 2027 08:31:38.412   03 Jun 2027 08:31:51.968            13.556                Anadyr2           423.625
       243   03 Jun 2027 08:32:28.732   03 Jun 2027 08:33:40.664            71.932                Anadyr1          2247.875
       244   03 Jun 2027 08:33:46.980   03 Jun 2027 08:35:02.735            75.755               Magadan2          2367.344
       245   03 Jun 2027 08:35:45.258   03 Jun 2027 08:35:53.130             7.872                Norilsk           246.000
       246   03 Jun 2027 08:35:53.946   03 Jun 2027 08:37:42.778           108.832                Anadyr2          3401.000
       247   03 Jun 2027 09:19:27.816   03 Jun 2027 09:20:06.306            38.490            RioGallegos          1202.813
       248   03 Jun 2027 10:06:33.507   03 Jun 2027 10:08:01.750            88.243               Magadan2          2757.594
       249   03 Jun 2027 10:08:12.275   03 Jun 2027 10:09:05.736            53.461               Magadan1          1670.656
       250   03 Jun 2027 10:09:36.969   03 Jun 2027 10:11:00.991            84.022               Magadan1          2625.688
       251   03 Jun 2027 10:11:00.991   03 Jun 2027 10:12:16.151            75.160               Magadan2          2348.750
       252   03 Jun 2027 10:12:41.652   03 Jun 2027 10:13:10.714            29.062              Murmansk2           908.188
       253   03 Jun 2027 10:13:10.781   03 Jun 2027 10:13:25.482            14.701                Novosib           459.406
       254   03 Jun 2027 10:13:25.611   03 Jun 2027 10:13:27.914             2.303               Magadan2            71.969
       255   03 Jun 2027 10:13:34.765   03 Jun 2027 10:13:53.091            18.326               Magadan1           572.688
       256   03 Jun 2027 10:14:12.606   03 Jun 2027 10:14:21.254             8.648              Murmansk1           270.250
       257   03 Jun 2027 10:14:21.254   03 Jun 2027 10:15:07.564            46.310              Murmansk2          1447.188
       258   03 Jun 2027 10:48:49.128   03 Jun 2027 10:49:26.695            37.567            RioGallegos          1173.969
       259   03 Jun 2027 10:53:49.734   03 Jun 2027 10:54:51.309            61.575            RioGallegos          1924.219
       260   03 Jun 2027 11:30:16.296   03 Jun 2027 11:31:07.919            51.623                Sumatra          1613.219
       261   03 Jun 2027 11:43:30.388   03 Jun 2027 11:44:00.903            30.515                Norilsk           953.594
       262   03 Jun 2027 11:44:02.564   03 Jun 2027 11:45:09.329            66.765                Novosib          2086.406
       263   03 Jun 2027 11:45:10.655   03 Jun 2027 11:45:41.626            30.971                Novosib           967.844
       264   03 Jun 2027 11:45:49.273   03 Jun 2027 11:46:23.738            34.465                Norilsk          1077.031
       265   03 Jun 2027 11:46:46.057   03 Jun 2027 11:47:45.747            59.690                Irkutsk          1865.313
       266   03 Jun 2027 11:47:50.499   03 Jun 2027 11:48:56.498            65.999                Irkutsk          2062.469
       267   03 Jun 2027 11:49:10.337   03 Jun 2027 11:49:41.974            31.637                Norilsk           988.656
       268   03 Jun 2027 11:49:45.678   03 Jun 2027 11:50:29.567            43.889              Murmansk1          1371.531
       269   03 Jun 2027 11:50:29.567   03 Jun 2027 11:50:40.304            10.737              Murmansk2           335.531
       270   03 Jun 2027 11:54:52.276   03 Jun 2027 11:55:09.239            16.963              Murmansk2           530.094
       271   03 Jun 2027 12:25:43.886   03 Jun 2027 12:26:01.050            17.164            RioGallegos           536.375
       272   03 Jun 2027 12:27:35.514   03 Jun 2027 12:29:50.883           135.369            RioGallegos          4230.281
       273   03 Jun 2027 13:00:00.212   03 Jun 2027 13:00:52.824            52.612                Sumatra          1644.125
       274   03 Jun 2027 13:08:22.948   03 Jun 2027 13:09:53.587            90.639                Sumatra          2832.469
       275   03 Jun 2027 13:14:40.997   03 Jun 2027 13:15:39.093            58.096                Novosib          1815.500
       276   03 Jun 2027 13:15:43.183   03 Jun 2027 13:16:51.999            68.816                Irkutsk          2150.500
       277   03 Jun 2027 13:24:40.823   03 Jun 2027 13:25:11.038            30.215                Norilsk           944.219
       278   03 Jun 2027 13:30:32.400   03 Jun 2027 13:30:59.855            27.455                Norilsk           857.969
       279   03 Jun 2027 14:44:52.529   03 Jun 2027 14:50:00.022           307.493                  Delhi          9609.156
       280   03 Jun 2027 14:55:36.763   03 Jun 2027 14:57:36.519           119.756                Novosib          3742.375
       281   03 Jun 2027 14:58:30.373   03 Jun 2027 14:59:01.624            31.251                Novosib           976.594
       282   03 Jun 2027 15:05:42.995   03 Jun 2027 15:06:50.540            67.545                Norilsk          2110.781
       283   03 Jun 2027 16:28:17.753   03 Jun 2027 16:31:25.874           188.121                 Moscow          5878.781
       284   03 Jun 2027 16:35:56.238   03 Jun 2027 16:36:39.018            42.780              Murmansk1          1336.875
       285   03 Jun 2027 16:38:15.368   03 Jun 2027 16:42:00.184           224.816                Norilsk          7025.500
       286   03 Jun 2027 17:47:03.250   03 Jun 2027 17:47:49.034            45.784               CapeTown          1430.750
       287   03 Jun 2027 18:07:20.593   03 Jun 2027 18:09:04.485           103.892                 Moscow          3246.625
       288   03 Jun 2027 18:09:40.853   03 Jun 2027 18:10:02.391            21.538              Murmansk1           673.062
       289   03 Jun 2027 18:12:17.727   03 Jun 2027 18:13:31.184            73.457              Murmansk2          2295.531
       290   03 Jun 2027 18:14:38.418   03 Jun 2027 18:14:54.095            15.677              Murmansk1           489.906
       291   03 Jun 2027 18:18:03.283   03 Jun 2027 18:18:16.611            13.328              Murmansk2           416.500
       292   03 Jun 2027 18:18:31.586   03 Jun 2027 18:19:29.201            57.615              Murmansk2          1800.469
       293   03 Jun 2027 18:32:56.462   03 Jun 2027 18:33:28.557            32.095                Anadyr1          1002.969
       294   03 Jun 2027 19:18:10.347   03 Jun 2027 19:19:32.297            81.950               CapeTown          2560.937
       295   03 Jun 2027 19:22:42.890   03 Jun 2027 19:22:49.765             6.875               CapeTown           214.844
       296   03 Jun 2027 19:23:21.401   03 Jun 2027 19:23:37.831            16.430               CapeTown           513.437
       297   03 Jun 2027 19:25:12.906   03 Jun 2027 19:26:06.693            53.787               CapeTown          1680.844
       298   03 Jun 2027 19:50:16.600   03 Jun 2027 19:54:46.973           270.373              Murmansk2          8449.156
       299   03 Jun 2027 20:00:56.046   03 Jun 2027 20:01:10.467            14.421               Magadan2           450.656
       300   03 Jun 2027 20:01:32.386   03 Jun 2027 20:01:51.220            18.834               Magadan2           588.563
       301   03 Jun 2027 20:03:22.059   03 Jun 2027 20:03:52.678            30.619               Magadan2           956.844
       302   03 Jun 2027 20:07:47.167   03 Jun 2027 20:07:52.520             5.353               Magadan2           167.281
       303   03 Jun 2027 21:34:07.950   03 Jun 2027 21:39:18.395           310.445                Anadyr2          9701.406
       304   03 Jun 2027 21:39:38.313   03 Jun 2027 21:41:53.528           135.215               Magadan1          4225.469
       305   03 Jun 2027 21:42:27.125   03 Jun 2027 21:42:29.753             2.628               Magadan2            82.125
       306   03 Jun 2027 21:43:29.079   03 Jun 2027 21:43:47.596            18.517               Magadan2           578.656
       307   03 Jun 2027 21:47:05.295   03 Jun 2027 21:47:18.213            12.918               Magadan2           403.688
       308   03 Jun 2027 22:29:09.383   03 Jun 2027 22:31:33.334           143.951            RioGallegos          4498.469
       309   03 Jun 2027 22:31:36.713   03 Jun 2027 22:32:16.112            39.399            RioGallegos          1231.219
       310   03 Jun 2027 23:09:52.402   03 Jun 2027 23:11:43.814           111.412                Anadyr2          3481.625
       311   03 Jun 2027 23:11:58.626   03 Jun 2027 23:13:35.420            96.794                Norilsk          3024.813
       312   03 Jun 2027 23:13:39.417   03 Jun 2027 23:14:34.971            55.554               Magadan1          1736.062
       313   03 Jun 2027 23:16:27.652   03 Jun 2027 23:17:29.956            62.304                Irkutsk          1947.000
       314   03 Jun 2027 23:18:44.436   03 Jun 2027 23:19:51.762            67.326                Irkutsk          2103.938
       315   03 Jun 2027 23:30:37.336   03 Jun 2027 23:31:26.348            49.012                Sumatra          1531.625
       316   03 Jun 2027 23:31:51.068   03 Jun 2027 23:33:36.202           105.134                Sumatra          3285.437
       317   04 Jun 2027 00:13:25.753   04 Jun 2027 00:13:36.328            10.575            RioGallegos           330.469
       318   04 Jun 2027 00:14:07.104   04 Jun 2027 00:14:25.565            18.461            RioGallegos           576.906
       319   04 Jun 2027 00:44:54.851   04 Jun 2027 00:46:08.687            73.836                Anadyr1          2307.375
       320   04 Jun 2027 00:47:12.544   04 Jun 2027 00:47:17.632             5.088                Anadyr2           159.000
       321   04 Jun 2027 00:47:28.234   04 Jun 2027 00:47:59.425            31.191                Anadyr2           974.719
       322   04 Jun 2027 00:48:01.251   04 Jun 2027 00:49:06.459            65.208                Norilsk          2037.750
       323   04 Jun 2027 00:49:24.450   04 Jun 2027 00:49:48.011            23.561               Magadan2           736.281
       324   04 Jun 2027 00:50:06.039   04 Jun 2027 00:50:39.325            33.286               Magadan2          1040.187
       325   04 Jun 2027 00:51:44.779   04 Jun 2027 00:52:34.851            50.072                Irkutsk          1564.750
       326   04 Jun 2027 00:52:38.432   04 Jun 2027 00:54:28.441           110.009                Novosib          3437.781
       327   04 Jun 2027 01:00:35.957   04 Jun 2027 01:01:16.164            40.207                  Delhi          1256.469
       328   04 Jun 2027 01:04:34.395   04 Jun 2027 01:04:37.745             3.350                Irkutsk           104.688
       329   04 Jun 2027 01:05:28.057   04 Jun 2027 01:06:40.795            72.738                  Delhi          2273.063
       330   04 Jun 2027 01:11:24.871   04 Jun 2027 01:11:31.907             7.036                Sumatra           219.875
       331   04 Jun 2027 01:16:06.571   04 Jun 2027 01:16:08.673             2.102                Sumatra            65.688
       332   04 Jun 2027 01:41:31.011   04 Jun 2027 01:41:43.245            12.234            RioGallegos           382.312
       333   04 Jun 2027 01:42:04.148   04 Jun 2027 01:42:09.117             4.969            RioGallegos           155.281
       334   04 Jun 2027 01:44:02.762   04 Jun 2027 01:44:34.859            32.097            RioGallegos          1003.031
       335   04 Jun 2027 01:50:39.752   04 Jun 2027 01:51:20.486            40.734            RioGallegos          1272.938
       336   04 Jun 2027 02:18:43.613   04 Jun 2027 02:19:06.460            22.847                Anadyr2           713.969
       337   04 Jun 2027 02:19:56.123   04 Jun 2027 02:20:15.214            19.091                Anadyr2           596.594
       338   04 Jun 2027 02:20:49.651   04 Jun 2027 02:21:12.977            23.326                Anadyr1           728.938
       339   04 Jun 2027 02:23:53.097   04 Jun 2027 02:25:01.290            68.193                Norilsk          2131.031
       340   04 Jun 2027 02:25:05.525   04 Jun 2027 02:25:31.077            25.552                Norilsk           798.500
       341   04 Jun 2027 02:26:24.650   04 Jun 2027 02:26:33.154             8.504              Murmansk1           265.750
       342   04 Jun 2027 02:26:58.637   04 Jun 2027 02:27:53.000            54.363              Murmansk2          1698.844
       343   04 Jun 2027 02:27:58.109   04 Jun 2027 02:28:25.631            27.522                Novosib           860.062
       344   04 Jun 2027 02:28:32.276   04 Jun 2027 02:29:21.060            48.784                Irkutsk          1524.500
       345   04 Jun 2027 02:31:59.089   04 Jun 2027 02:32:10.377            11.288                Irkutsk           352.750
       346   04 Jun 2027 02:34:29.243   04 Jun 2027 02:34:32.182             2.939                Novosib            91.844
       347   04 Jun 2027 02:34:48.929   04 Jun 2027 02:36:04.169            75.240                Novosib          2351.250
       348   04 Jun 2027 02:43:54.091   04 Jun 2027 02:44:51.689            57.598                  Delhi          1799.937
       349   04 Jun 2027 03:17:48.223   04 Jun 2027 03:20:08.529           140.306            RioGallegos          4384.563
       350   04 Jun 2027 03:20:27.767   04 Jun 2027 03:21:55.822            88.055            RioGallegos          2751.719
       351   04 Jun 2027 04:08:57.485   04 Jun 2027 04:09:32.065            34.580              Murmansk2          1080.625
       352   04 Jun 2027 04:10:43.431   04 Jun 2027 04:11:13.743            30.312                Novosib           947.250
       353   04 Jun 2027 04:11:14.079   04 Jun 2027 04:11:20.688             6.609                Norilsk           206.531
       354   04 Jun 2027 04:11:32.528   04 Jun 2027 04:13:53.768           141.240                 Moscow          4413.750
       355   04 Jun 2027 04:14:18.063   04 Jun 2027 04:14:20.550             2.487                Novosib            77.719
       356   04 Jun 2027 04:17:12.386   04 Jun 2027 04:17:16.329             3.943                 Moscow           123.219
       357   04 Jun 2027 04:30:35.892   04 Jun 2027 04:34:20.205           224.313               CapeTown          7009.781
       358   04 Jun 2027 04:34:53.357   04 Jun 2027 04:35:03.950            10.593               CapeTown           331.031
       359   04 Jun 2027 04:35:36.844   04 Jun 2027 04:35:53.216            16.372               CapeTown           511.625
       360   04 Jun 2027 04:36:40.547   04 Jun 2027 04:37:25.440            44.893               CapeTown          1402.906
       361   04 Jun 2027 05:45:21.121   04 Jun 2027 05:45:22.426             1.305                Novosib            40.781
       362   04 Jun 2027 05:46:03.002   04 Jun 2027 05:46:25.343            22.341              Murmansk1           698.156
       363   04 Jun 2027 05:46:51.533   04 Jun 2027 05:47:34.738            43.205              Murmansk2          1350.156
       364   04 Jun 2027 05:47:40.673   04 Jun 2027 05:47:56.743            16.070                 Moscow           502.187
       365   04 Jun 2027 05:48:05.644   04 Jun 2027 05:49:14.049            68.405              Murmansk1          2137.656
       366   04 Jun 2027 05:51:35.080   04 Jun 2027 05:52:33.610            58.530                 Moscow          1829.063
       367   04 Jun 2027 06:05:16.420   04 Jun 2027 06:05:51.524            35.104               CapeTown          1097.000
       368   04 Jun 2027 06:11:11.876   04 Jun 2027 06:11:29.946            18.070               CapeTown           564.687
       369   04 Jun 2027 06:14:04.972   04 Jun 2027 06:15:02.975            58.003               CapeTown          1812.594
       370   04 Jun 2027 07:08:08.751   04 Jun 2027 07:08:32.722            23.971               Magadan1           749.094
       371   04 Jun 2027 07:08:32.722   04 Jun 2027 07:09:04.940            32.218               Magadan2          1006.813
       372   04 Jun 2027 07:09:21.443   04 Jun 2027 07:10:14.599            53.156               Magadan1          1661.125
       373   04 Jun 2027 07:10:17.289   04 Jun 2027 07:10:31.934            14.645                Anadyr1           457.656
       374   04 Jun 2027 07:10:31.934   04 Jun 2027 07:10:56.661            24.727                Anadyr2           772.719
       375   04 Jun 2027 07:13:54.461   04 Jun 2027 07:14:13.910            19.449              Murmansk2           607.781
       376   04 Jun 2027 07:18:16.871   04 Jun 2027 07:18:26.823             9.952                 Moscow           311.000
       377   04 Jun 2027 07:21:05.520   04 Jun 2027 07:21:13.238             7.718                 Moscow           241.187
       378   04 Jun 2027 08:40:14.813   04 Jun 2027 08:40:38.787            23.974                Anadyr1           749.188
       379   04 Jun 2027 08:44:23.556   04 Jun 2027 08:45:04.088            40.532                Anadyr1          1266.625
       380   04 Jun 2027 08:45:19.863   04 Jun 2027 08:47:42.423           142.560                Anadyr1          4455.000
       381   04 Jun 2027 10:18:32.994   04 Jun 2027 10:20:35.710           122.716               Magadan2          3834.875
       382   04 Jun 2027 10:20:44.413   04 Jun 2027 10:21:15.631            31.218               Magadan1           975.562
       383   04 Jun 2027 10:21:56.238   04 Jun 2027 10:22:51.951            55.713                Irkutsk          1741.031
       384   04 Jun 2027 10:22:56.709   04 Jun 2027 10:23:09.151            12.442                Irkutsk           388.813
       385   04 Jun 2027 10:23:09.344   04 Jun 2027 10:23:19.240             9.896                Norilsk           309.250
       386   04 Jun 2027 10:23:44.268   04 Jun 2027 10:24:50.407            66.139                Norilsk          2066.844
       387   04 Jun 2027 10:24:58.669   04 Jun 2027 10:25:18.351            19.682                Norilsk           615.063
       388   04 Jun 2027 10:25:25.805   04 Jun 2027 10:25:40.289            14.484                Novosib           452.625
       389   04 Jun 2027 10:25:45.539   04 Jun 2027 10:25:46.829             1.290               Magadan1            40.312
       390   04 Jun 2027 10:25:51.130   04 Jun 2027 10:26:08.252            17.122                Norilsk           535.063
       391   04 Jun 2027 10:26:13.503   04 Jun 2027 10:27:07.009            53.506              Murmansk2          1672.063
       392   04 Jun 2027 11:00:45.834   04 Jun 2027 11:01:36.542            50.708            RioGallegos          1584.625
       393   04 Jun 2027 11:36:24.634   04 Jun 2027 11:37:33.094            68.460                Sumatra          2139.375
       394   04 Jun 2027 11:56:08.764   04 Jun 2027 11:57:22.197            73.433                Irkutsk          2294.781
       395   04 Jun 2027 11:57:25.774   04 Jun 2027 11:57:53.318            27.544                Norilsk           860.750
       396   04 Jun 2027 11:58:13.729   04 Jun 2027 11:59:22.599            68.870                Novosib          2152.188
       397   04 Jun 2027 11:59:36.246   04 Jun 2027 12:00:31.751            55.505                Novosib          1734.531
       398   04 Jun 2027 12:00:45.727   04 Jun 2027 12:00:59.154            13.427                Novosib           419.594
       399   04 Jun 2027 12:01:49.623   04 Jun 2027 12:02:11.632            22.009                Norilsk           687.781
       400   04 Jun 2027 12:02:40.364   04 Jun 2027 12:02:42.234             1.870              Murmansk2            58.437
       401   04 Jun 2027 12:02:54.847   04 Jun 2027 12:03:06.884            12.037                Norilsk           376.156
       402   04 Jun 2027 12:03:15.337   04 Jun 2027 12:03:18.809             3.472              Murmansk1           108.500
       403   04 Jun 2027 12:03:29.949   04 Jun 2027 12:03:31.647             1.698                Novosib            53.062
       404   04 Jun 2027 12:03:33.847   04 Jun 2027 12:03:55.542            21.695              Murmansk1           677.969
       405   04 Jun 2027 12:04:37.216   04 Jun 2027 12:04:51.357            14.141                Norilsk           441.906
       406   04 Jun 2027 12:05:01.708   04 Jun 2027 12:05:15.059            13.351              Murmansk1           417.219
       407   04 Jun 2027 12:05:36.446   04 Jun 2027 12:06:04.340            27.894              Murmansk2           871.687
       408   04 Jun 2027 12:06:43.267   04 Jun 2027 12:07:01.536            18.269                Norilsk           570.906
       409   04 Jun 2027 12:07:05.651   04 Jun 2027 12:07:10.118             4.467              Murmansk1           139.594
       410   04 Jun 2027 12:07:47.325   04 Jun 2027 12:08:15.811            28.486              Murmansk2           890.188
       411   04 Jun 2027 12:43:19.586   04 Jun 2027 12:44:18.477            58.891            RioGallegos          1840.344
       412   04 Jun 2027 12:45:29.307   04 Jun 2027 12:47:33.977           124.670            RioGallegos          3895.937
       413   04 Jun 2027 13:16:40.605   04 Jun 2027 13:17:39.248            58.643                Sumatra          1832.594
       414   04 Jun 2027 13:22:26.634   04 Jun 2027 13:23:02.000            35.366                Sumatra          1105.187
       415   04 Jun 2027 13:27:49.951   04 Jun 2027 13:30:08.346           138.395                Irkutsk          4324.844
       416   04 Jun 2027 13:41:40.220   04 Jun 2027 13:42:30.652            50.432                Norilsk          1576.000
       417   04 Jun 2027 14:57:31.769   04 Jun 2027 14:59:53.299           141.530                  Delhi          4422.812
       418   04 Jun 2027 15:05:28.326   04 Jun 2027 15:05:58.264            29.938                 Moscow           935.562
       419   04 Jun 2027 15:06:00.425   04 Jun 2027 15:10:45.690           285.265                Novosib          8914.531
       420   04 Jun 2027 16:40:28.514   04 Jun 2027 16:42:07.299            98.785                 Moscow          3087.031
       421   04 Jun 2027 16:43:25.421   04 Jun 2027 16:44:21.782            56.361                 Moscow          1761.281
       422   04 Jun 2027 16:46:31.915   04 Jun 2027 16:46:51.594            19.679              Murmansk1           614.969
       423   04 Jun 2027 16:49:31.671   04 Jun 2027 16:50:13.745            42.074                 Moscow          1314.813
       424   04 Jun 2027 16:51:41.318   04 Jun 2027 16:53:20.294            98.976                Norilsk          3093.000
       425   04 Jun 2027 16:59:29.805   04 Jun 2027 17:00:12.617            42.812                Anadyr2          1337.875
       426   04 Jun 2027 17:03:51.691   04 Jun 2027 17:04:11.694            20.003                Anadyr2           625.094
       427   04 Jun 2027 17:05:30.142   04 Jun 2027 17:05:33.856             3.714                Anadyr2           116.063
       428   04 Jun 2027 17:53:47.138   04 Jun 2027 17:54:27.910            40.772               CapeTown          1274.125
       429   04 Jun 2027 17:57:47.205   04 Jun 2027 17:59:48.585           121.380               CapeTown          3793.125
       430   04 Jun 2027 18:20:14.058   04 Jun 2027 18:20:59.560            45.502                 Moscow          1421.937
       431   04 Jun 2027 18:22:06.905   04 Jun 2027 18:24:09.587           122.682              Murmansk2          3833.813
       432   04 Jun 2027 18:24:25.043   04 Jun 2027 18:24:43.224            18.181                 Moscow           568.156
       433   04 Jun 2027 18:30:13.767   04 Jun 2027 18:32:27.361           133.594              Murmansk2          4174.812
       434   04 Jun 2027 19:30:30.389   04 Jun 2027 19:30:50.672            20.283               CapeTown           633.844
       435   04 Jun 2027 19:31:14.826   04 Jun 2027 19:31:37.640            22.814               CapeTown           712.938
       436   04 Jun 2027 19:33:23.981   04 Jun 2027 19:34:37.215            73.234               CapeTown          2288.563
       437   04 Jun 2027 20:03:16.747   04 Jun 2027 20:07:30.170           253.423              Murmansk1          7919.469
       438   04 Jun 2027 20:14:58.888   04 Jun 2027 20:15:23.955            25.067               Magadan2           783.344
       439   04 Jun 2027 20:17:14.209   04 Jun 2027 20:17:28.156            13.947               Magadan2           435.844
       440   04 Jun 2027 20:18:33.869   04 Jun 2027 20:18:35.964             2.095               Magadan1            65.469
       441   04 Jun 2027 20:18:48.358   04 Jun 2027 20:19:26.287            37.929               Magadan1          1185.281
       442   04 Jun 2027 20:21:13.636   04 Jun 2027 20:21:50.883            37.247               Magadan2          1163.969
       443   04 Jun 2027 21:46:09.265   04 Jun 2027 21:49:40.782           211.517                Anadyr2          6609.906
       444   04 Jun 2027 21:49:43.737   04 Jun 2027 21:51:30.834           107.097               Magadan1          3346.781
       445   04 Jun 2027 21:51:34.502   04 Jun 2027 21:51:49.748            15.246                Norilsk           476.438
       446   04 Jun 2027 21:52:31.493   04 Jun 2027 21:54:03.841            92.348               Magadan2          2885.875
       447   04 Jun 2027 22:40:51.124   04 Jun 2027 22:42:47.132           116.008            RioGallegos          3625.250
       448   04 Jun 2027 22:43:09.685   04 Jun 2027 22:43:27.779            18.094            RioGallegos           565.438
       449   04 Jun 2027 22:45:39.646   04 Jun 2027 22:45:46.394             6.748            RioGallegos           210.875
       450   04 Jun 2027 22:50:12.566   04 Jun 2027 22:50:14.431             1.865            RioGallegos            58.281
       451   04 Jun 2027 23:21:50.459   04 Jun 2027 23:25:13.441           202.982                Anadyr1          6343.187
       452   04 Jun 2027 23:25:19.234   04 Jun 2027 23:25:53.815            34.581               Magadan1          1080.656
       453   04 Jun 2027 23:25:54.315   04 Jun 2027 23:26:44.711            50.396               Magadan2          1574.875
       454   04 Jun 2027 23:28:18.357   04 Jun 2027 23:29:30.213            71.856                Irkutsk          2245.500
       455   04 Jun 2027 23:31:44.645   04 Jun 2027 23:32:42.915            58.270                Novosib          1820.937
       456   04 Jun 2027 23:42:13.987   04 Jun 2027 23:42:42.995            29.008                Sumatra           906.500
       457   04 Jun 2027 23:43:41.541   04 Jun 2027 23:44:18.038            36.497                Sumatra          1140.531
       458   04 Jun 2027 23:46:02.990   04 Jun 2027 23:47:12.431            69.441                Sumatra          2170.031
       459   05 Jun 2027 00:19:07.809   05 Jun 2027 00:19:37.802            29.993            RioGallegos           937.281
       460   05 Jun 2027 00:22:59.372   05 Jun 2027 00:23:27.499            28.127            RioGallegos           878.969
       461   05 Jun 2027 00:56:44.665   05 Jun 2027 00:57:08.179            23.514                Anadyr1           734.813
       462   05 Jun 2027 00:57:08.179   05 Jun 2027 00:59:00.717           112.538                Anadyr2          3516.812
       463   05 Jun 2027 00:59:54.532   05 Jun 2027 00:59:57.481             2.949                Norilsk            92.156
       464   05 Jun 2027 01:00:34.985   05 Jun 2027 01:02:24.292           109.307               Magadan1          3415.844
       465   05 Jun 2027 01:03:46.767   05 Jun 2027 01:05:33.240           106.473                Irkutsk          3327.281
       466   05 Jun 2027 01:05:40.866   05 Jun 2027 01:05:58.443            17.577                Novosib           549.281
       467   05 Jun 2027 01:07:03.234   05 Jun 2027 01:07:24.052            20.818                Irkutsk           650.562
       468   05 Jun 2027 01:10:49.416   05 Jun 2027 01:11:04.805            15.389                Novosib           480.906
       469   05 Jun 2027 01:12:07.212   05 Jun 2027 01:12:31.897            24.685                  Delhi           771.406
       470   05 Jun 2027 01:15:39.324   05 Jun 2027 01:15:55.838            16.514                  Delhi           516.063
       471   05 Jun 2027 01:17:36.421   05 Jun 2027 01:18:37.307            60.886                  Delhi          1902.688
       472   05 Jun 2027 01:22:40.370   05 Jun 2027 01:23:48.342            67.972                Sumatra          2124.125
       473   05 Jun 2027 01:58:46.627   05 Jun 2027 01:59:07.822            21.195            RioGallegos           662.344
       474   05 Jun 2027 02:00:27.294   05 Jun 2027 02:00:35.069             7.775            RioGallegos           242.969
       475   05 Jun 2027 02:00:35.735   05 Jun 2027 02:01:49.992            74.257            RioGallegos          2320.531
       476   05 Jun 2027 02:35:55.038   05 Jun 2027 02:37:31.473            96.435                Norilsk          3013.594
       477   05 Jun 2027 02:37:59.442   05 Jun 2027 02:38:12.094            12.652               Magadan2           395.375
       478   05 Jun 2027 02:38:20.200   05 Jun 2027 02:40:03.576           103.376              Murmansk1          3230.500
       479   05 Jun 2027 02:40:24.667   05 Jun 2027 02:40:53.344            28.677                Irkutsk           896.156
       480   05 Jun 2027 02:43:44.757   05 Jun 2027 02:44:12.804            28.047                Irkutsk           876.469
       481   05 Jun 2027 02:47:10.272   05 Jun 2027 02:47:22.575            12.303                Irkutsk           384.469
       482   05 Jun 2027 02:49:02.630   05 Jun 2027 02:49:57.215            54.585                  Delhi          1705.781
