uniorb/output/strategy_2/Drop/Drop_KinoSat_110901.txt

KinoSat_110901
-------------------------
    Access    *     Start Time (UTCG)     *     Stop Time (UTCG)  *   Duration (s)        *       Station  *  Data (Mbytes)
         1   01 Jun 2027 04:09:38.208   01 Jun 2027 04:09:57.065            18.857               Magadan1           589.281
         2   01 Jun 2027 04:10:23.040   01 Jun 2027 04:12:31.983           128.943                Anadyr2          4029.469
         3   01 Jun 2027 04:12:31.983   01 Jun 2027 04:12:41.127             9.144                Anadyr1           285.750
         4   01 Jun 2027 04:12:46.222   01 Jun 2027 04:13:07.901            21.679               Magadan1           677.469
         5   01 Jun 2027 04:13:12.854   01 Jun 2027 04:13:21.893             9.039                Anadyr1           282.469
         6   01 Jun 2027 04:13:31.568   01 Jun 2027 04:14:10.493            38.925               Magadan1          1216.406
         7   01 Jun 2027 04:14:53.444   01 Jun 2027 04:15:08.993            15.549               Magadan1           485.906
         8   01 Jun 2027 04:15:45.680   01 Jun 2027 04:15:47.258             1.578               Magadan1            49.313
         9   01 Jun 2027 04:16:09.672   01 Jun 2027 04:16:25.241            15.569                Anadyr1           486.531
        10   01 Jun 2027 05:47:27.202   01 Jun 2027 05:50:15.228           168.026                Anadyr2          5250.813
        11   01 Jun 2027 07:22:24.244   01 Jun 2027 07:23:20.215            55.971                Irkutsk          1749.094
        12   01 Jun 2027 07:23:46.853   01 Jun 2027 07:24:59.074            72.221                Irkutsk          2256.906
        13   01 Jun 2027 07:25:29.498   01 Jun 2027 07:25:32.641             3.143                Novosib            98.219
        14   01 Jun 2027 07:25:49.740   01 Jun 2027 07:27:05.843            76.103               Magadan1          2378.219
        15   01 Jun 2027 07:27:32.825   01 Jun 2027 07:29:19.994           107.169              Murmansk2          3349.031
        16   01 Jun 2027 07:29:27.351   01 Jun 2027 07:29:28.944             1.593              Murmansk2            49.781
        17   01 Jun 2027 07:29:38.484   01 Jun 2027 07:30:30.507            52.023              Murmansk1          1625.719
        18   01 Jun 2027 08:02:33.806   01 Jun 2027 08:03:26.944            53.138            RioGallegos          1660.563
        19   01 Jun 2027 08:06:11.531   01 Jun 2027 08:07:04.536            53.005            RioGallegos          1656.406
        20   01 Jun 2027 08:37:35.291   01 Jun 2027 08:38:42.444            67.153                Sumatra          2098.531
        21   01 Jun 2027 08:41:09.384   01 Jun 2027 08:41:18.041             8.657                Sumatra           270.531
        22   01 Jun 2027 08:49:56.245   01 Jun 2027 08:51:02.603            66.358                  Delhi          2073.687
        23   01 Jun 2027 08:59:51.265   01 Jun 2027 09:00:44.165            52.900                Irkutsk          1653.125
        24   01 Jun 2027 09:00:56.522   01 Jun 2027 09:01:18.913            22.391                Novosib           699.719
        25   01 Jun 2027 09:01:36.084   01 Jun 2027 09:03:42.754           126.670                Irkutsk          3958.437
        26   01 Jun 2027 09:04:11.523   01 Jun 2027 09:04:26.290            14.767                 Moscow           461.469
        27   01 Jun 2027 09:04:30.259   01 Jun 2027 09:05:23.246            52.987                Novosib          1655.844
        28   01 Jun 2027 09:44:29.749   01 Jun 2027 09:44:59.624            29.875            RioGallegos           933.594
        29   01 Jun 2027 10:15:44.683   01 Jun 2027 10:17:17.146            92.463                Sumatra          2889.469
        30   01 Jun 2027 10:25:59.961   01 Jun 2027 10:26:03.965             4.004                  Delhi           125.125
        31   01 Jun 2027 10:37:24.624   01 Jun 2027 10:37:27.848             3.224                Irkutsk           100.750
        32   01 Jun 2027 10:37:45.640   01 Jun 2027 10:37:48.771             3.131              Murmansk2            97.844
        33   01 Jun 2027 10:37:59.439   01 Jun 2027 10:40:33.835           154.396              Murmansk2          4824.875
        34   01 Jun 2027 10:40:48.931   01 Jun 2027 10:40:53.803             4.872                Norilsk           152.250
        35   01 Jun 2027 10:41:01.188   01 Jun 2027 10:41:16.092            14.904              Murmansk2           465.750
        36   01 Jun 2027 10:41:38.915   01 Jun 2027 10:41:53.528            14.613              Murmansk2           456.656
        37   01 Jun 2027 10:42:41.609   01 Jun 2027 10:42:50.894             9.285              Murmansk1           290.156
        38   01 Jun 2027 10:43:01.793   01 Jun 2027 10:43:27.860            26.067                Norilsk           814.594
        39   01 Jun 2027 12:01:48.284   01 Jun 2027 12:05:07.645           199.361                  Delhi          6230.031
        40   01 Jun 2027 12:10:11.515   01 Jun 2027 12:12:59.861           168.346                Novosib          5260.813
        41   01 Jun 2027 12:13:05.953   01 Jun 2027 12:14:48.865           102.912                Norilsk          3216.000
        42   01 Jun 2027 13:22:30.532   01 Jun 2027 13:22:47.564            17.032               CapeTown           532.250
        43   01 Jun 2027 13:23:22.243   01 Jun 2027 13:24:18.980            56.737               CapeTown          1773.031
        44   01 Jun 2027 13:25:43.094   01 Jun 2027 13:27:11.206            88.112               CapeTown          2753.500
        45   01 Jun 2027 13:29:35.842   01 Jun 2027 13:29:48.434            12.592               CapeTown           393.500
        46   01 Jun 2027 13:51:26.310   01 Jun 2027 13:52:03.460            37.150              Murmansk2          1160.937
        47   01 Jun 2027 13:52:52.576   01 Jun 2027 13:53:00.367             7.791              Murmansk1           243.469
        48   01 Jun 2027 13:54:23.287   01 Jun 2027 13:54:58.427            35.140              Murmansk2          1098.125
        49   01 Jun 2027 13:55:08.115   01 Jun 2027 13:55:49.283            41.168              Murmansk1          1286.500
        50   01 Jun 2027 14:00:48.313   01 Jun 2027 14:02:15.400            87.087                Anadyr1          2721.469
        51   01 Jun 2027 14:02:45.615   01 Jun 2027 14:04:32.094           106.479                Anadyr2          3327.469
        52   01 Jun 2027 14:04:43.055   01 Jun 2027 14:05:09.346            26.291                Anadyr1           821.594
        53   01 Jun 2027 14:05:37.081   01 Jun 2027 14:05:47.452            10.371                Anadyr1           324.094
        54   01 Jun 2027 15:28:43.022   01 Jun 2027 15:29:10.052            27.030              Murmansk2           844.688
        55   01 Jun 2027 15:30:26.888   01 Jun 2027 15:30:35.823             8.935              Murmansk1           279.219
        56   01 Jun 2027 15:31:23.458   01 Jun 2027 15:32:10.818            47.360              Murmansk2          1480.000
        57   01 Jun 2027 15:37:59.412   01 Jun 2027 15:38:22.498            23.086                Anadyr2           721.437
        58   01 Jun 2027 15:39:02.933   01 Jun 2027 15:40:10.415            67.482                Anadyr2          2108.812
        59   01 Jun 2027 15:40:18.326   01 Jun 2027 15:42:02.018           103.692               Magadan2          3240.375
        60   01 Jun 2027 15:43:09.018   01 Jun 2027 15:43:17.917             8.899               Magadan2           278.094
        61   01 Jun 2027 15:43:37.330   01 Jun 2027 15:45:18.824           101.494               Magadan1          3171.688
        62   01 Jun 2027 17:14:27.833   01 Jun 2027 17:15:07.139            39.306               Magadan1          1228.313
        63   01 Jun 2027 17:16:05.554   01 Jun 2027 17:16:50.514            44.960                Anadyr2          1405.000
        64   01 Jun 2027 17:17:58.896   01 Jun 2027 17:17:59.092             0.196                Anadyr1             6.125
        65   01 Jun 2027 17:18:13.811   01 Jun 2027 17:18:17.156             3.345                Anadyr2           104.531
        66   01 Jun 2027 17:18:17.156   01 Jun 2027 17:18:19.801             2.645                Anadyr1            82.656
        67   01 Jun 2027 17:18:24.846   01 Jun 2027 17:18:56.283            31.437               Magadan2           982.406
        68   01 Jun 2027 17:20:13.500   01 Jun 2027 17:21:20.155            66.655               Magadan1          2082.969
        69   01 Jun 2027 17:23:38.993   01 Jun 2027 17:23:57.275            18.282                Anadyr2           571.313
        70   01 Jun 2027 17:25:32.284   01 Jun 2027 17:25:50.876            18.592               Magadan1           581.000
        71   01 Jun 2027 17:26:11.128   01 Jun 2027 17:26:13.806             2.678               Magadan2            83.687
        72   01 Jun 2027 17:26:17.258   01 Jun 2027 17:26:22.988             5.730               Magadan2           179.062
        73   01 Jun 2027 18:48:33.755   01 Jun 2027 18:48:53.378            19.623                Anadyr2           613.219
        74   01 Jun 2027 18:49:57.677   01 Jun 2027 18:50:09.783            12.106                Anadyr2           378.313
        75   01 Jun 2027 18:50:12.478   01 Jun 2027 18:50:59.989            47.511               Magadan1          1484.719
        76   01 Jun 2027 18:51:29.468   01 Jun 2027 18:51:46.416            16.948               Magadan2           529.625
        77   01 Jun 2027 18:51:47.414   01 Jun 2027 18:55:21.521           214.107                Norilsk          6690.844
        78   01 Jun 2027 18:56:50.265   01 Jun 2027 18:59:16.791           146.526                Irkutsk          4578.938
        79   01 Jun 2027 19:44:41.101   01 Jun 2027 19:45:20.119            39.018            RioGallegos          1219.313
        80   01 Jun 2027 19:48:06.776   01 Jun 2027 19:48:11.904             5.128            RioGallegos           160.250
        81   01 Jun 2027 19:49:34.506   01 Jun 2027 19:49:59.140            24.634            RioGallegos           769.812
        82   01 Jun 2027 19:50:26.737   01 Jun 2027 19:51:39.823            73.086            RioGallegos          2283.938
        83   01 Jun 2027 20:29:50.474   01 Jun 2027 20:30:24.419            33.945                Norilsk          1060.781
        84   01 Jun 2027 20:31:16.850   01 Jun 2027 20:32:41.272            84.422                Novosib          2638.188
        85   01 Jun 2027 20:33:27.737   01 Jun 2027 20:34:25.010            57.273                Novosib          1789.781
        86   01 Jun 2027 20:35:09.771   01 Jun 2027 20:35:26.834            17.063                Novosib           533.219
        87   01 Jun 2027 20:36:30.867   01 Jun 2027 20:36:59.510            28.643                Novosib           895.094
        88   01 Jun 2027 20:37:12.735   01 Jun 2027 20:38:10.075            57.340                Novosib          1791.875
        89   01 Jun 2027 20:53:03.097   01 Jun 2027 20:54:21.227            78.130                Sumatra          2441.562
        90   01 Jun 2027 22:03:23.477   01 Jun 2027 22:03:47.529            24.052                Norilsk           751.625
        91   01 Jun 2027 22:04:02.514   01 Jun 2027 22:04:14.844            12.330                Anadyr2           385.313
        92   01 Jun 2027 22:05:16.833   01 Jun 2027 22:05:25.157             8.324                Anadyr2           260.125
        93   01 Jun 2027 22:05:26.142   01 Jun 2027 22:06:22.451            56.309               Magadan1          1759.656
        94   01 Jun 2027 22:07:30.921   01 Jun 2027 22:08:14.163            43.242                Novosib          1351.312
        95   01 Jun 2027 22:10:32.061   01 Jun 2027 22:11:10.203            38.142                Irkutsk          1191.937
        96   01 Jun 2027 22:13:01.886   01 Jun 2027 22:13:07.114             5.228                Novosib           163.375
        97   01 Jun 2027 22:13:14.628   01 Jun 2027 22:13:45.800            31.172                  Delhi           974.125
        98   01 Jun 2027 22:14:38.281   01 Jun 2027 22:15:33.684            55.403                  Delhi          1731.344
        99   01 Jun 2027 22:17:20.490   01 Jun 2027 22:17:53.924            33.434                Novosib          1044.813
       100   01 Jun 2027 22:20:08.137   01 Jun 2027 22:22:36.600           148.463                  Delhi          4639.469
       101   01 Jun 2027 23:37:33.732   01 Jun 2027 23:38:59.589            85.857               Magadan1          2683.031
       102   01 Jun 2027 23:39:53.671   01 Jun 2027 23:40:11.293            17.622               Magadan1           550.688
       103   01 Jun 2027 23:40:16.172   01 Jun 2027 23:42:52.841           156.669              Murmansk1          4895.906
       104   01 Jun 2027 23:43:52.697   01 Jun 2027 23:44:51.724            59.027              Murmansk1          1844.594
       105   01 Jun 2027 23:46:40.950   01 Jun 2027 23:48:25.172           104.222                 Moscow          3256.937
       106   01 Jun 2027 23:50:50.564   01 Jun 2027 23:51:07.757            17.193                 Moscow           537.281
       107   02 Jun 2027 00:14:01.551   02 Jun 2027 00:15:36.858            95.307               CapeTown          2978.344
       108   02 Jun 2027 01:09:42.444   02 Jun 2027 01:10:28.077            45.633               Magadan2          1426.031
       109   02 Jun 2027 01:10:28.077   02 Jun 2027 01:10:36.338             8.261               Magadan1           258.156
       110   02 Jun 2027 01:10:59.740   02 Jun 2027 01:11:49.608            49.868               Magadan2          1558.375
       111   02 Jun 2027 01:13:30.056   02 Jun 2027 01:13:39.606             9.550               Magadan1           298.437
       112   02 Jun 2027 01:15:44.836   02 Jun 2027 01:15:56.726            11.890               Magadan2           371.563
       113   02 Jun 2027 01:16:02.937   02 Jun 2027 01:16:56.398            53.461              Murmansk2          1670.656
       114   02 Jun 2027 01:18:41.666   02 Jun 2027 01:19:10.214            28.548              Murmansk1           892.125
       115   02 Jun 2027 01:21:45.663   02 Jun 2027 01:22:26.645            40.982                Novosib          1280.688
       116   02 Jun 2027 01:23:33.340   02 Jun 2027 01:23:41.222             7.882              Murmansk2           246.312
       117   02 Jun 2027 01:26:28.580   02 Jun 2027 01:27:07.884            39.304              Murmansk2          1228.250
       118   02 Jun 2027 01:30:31.660   02 Jun 2027 01:30:43.270            11.610                 Moscow           362.813
       119   02 Jun 2027 01:31:07.608   02 Jun 2027 01:31:23.314            15.706                 Moscow           490.813
       120   02 Jun 2027 01:46:54.059   02 Jun 2027 01:47:02.181             8.122               CapeTown           253.813
       121   02 Jun 2027 01:49:25.477   02 Jun 2027 01:50:15.695            50.218               CapeTown          1569.313
       122   02 Jun 2027 01:54:10.400   02 Jun 2027 01:55:37.527            87.127               CapeTown          2722.719
       123   02 Jun 2027 02:40:41.149   02 Jun 2027 02:41:34.857            53.708                Anadyr1          1678.375
       124   02 Jun 2027 02:41:43.746   02 Jun 2027 02:41:52.152             8.406               Magadan1           262.688
       125   02 Jun 2027 02:42:28.900   02 Jun 2027 02:42:56.256            27.356               Magadan2           854.875
       126   02 Jun 2027 02:45:00.560   02 Jun 2027 02:45:20.819            20.259               Magadan2           633.094
       127   02 Jun 2027 02:46:41.188   02 Jun 2027 02:47:15.385            34.197               Magadan1          1068.656
       128   02 Jun 2027 02:48:43.048   02 Jun 2027 02:49:23.418            40.370                Norilsk          1261.562
       129   02 Jun 2027 02:51:48.555   02 Jun 2027 02:52:22.705            34.150              Murmansk2          1067.188
       130   02 Jun 2027 02:53:23.316   02 Jun 2027 02:53:32.954             9.638              Murmansk1           301.187
       131   02 Jun 2027 02:53:48.662   02 Jun 2027 02:53:48.747             0.085              Murmansk1             2.656
       132   02 Jun 2027 02:55:04.828   02 Jun 2027 02:56:01.148            56.320                 Moscow          1760.000
       133   02 Jun 2027 02:59:20.359   02 Jun 2027 03:00:01.799            41.440              Murmansk1          1295.000
       134   02 Jun 2027 04:22:58.052   02 Jun 2027 04:23:43.475            45.423               Magadan2          1419.469
       135   02 Jun 2027 04:24:32.864   02 Jun 2027 04:26:49.720           136.856                Anadyr1          4276.750
       136   02 Jun 2027 04:26:53.951   02 Jun 2027 04:28:14.092            80.141               Magadan1          2504.406
       137   02 Jun 2027 05:56:53.644   02 Jun 2027 06:00:08.241           194.597                Anadyr1          6081.156
       138   02 Jun 2027 06:00:16.537   02 Jun 2027 06:00:27.122            10.585                Irkutsk           330.781
       139   02 Jun 2027 06:00:38.448   02 Jun 2027 06:00:44.570             6.122                Anadyr2           191.313
       140   02 Jun 2027 06:01:02.847   02 Jun 2027 06:02:29.598            86.751                Irkutsk          2710.969
       141   02 Jun 2027 06:02:43.058   02 Jun 2027 06:03:43.818            60.760                Anadyr2          1898.750
       142   02 Jun 2027 06:04:24.250   02 Jun 2027 06:04:46.168            21.918                Norilsk           684.937
       143   02 Jun 2027 07:35:02.514   02 Jun 2027 07:36:09.456            66.942               Magadan2          2091.938
       144   02 Jun 2027 07:36:09.456   02 Jun 2027 07:36:48.928            39.472               Magadan1          1233.500
       145   02 Jun 2027 07:36:53.718   02 Jun 2027 07:37:27.745            34.027                Novosib          1063.344
       146   02 Jun 2027 07:37:47.973   02 Jun 2027 07:38:48.299            60.326               Magadan1          1885.188
       147   02 Jun 2027 07:39:22.452   02 Jun 2027 07:40:35.319            72.867                Norilsk          2277.094
       148   02 Jun 2027 07:40:39.747   02 Jun 2027 07:41:02.603            22.856              Murmansk1           714.250
       149   02 Jun 2027 07:41:04.873   02 Jun 2027 07:41:43.793            38.920                Norilsk          1216.250
       150   02 Jun 2027 07:42:21.849   02 Jun 2027 07:43:02.345            40.496              Murmansk1          1265.500
       151   02 Jun 2027 08:14:40.934   02 Jun 2027 08:15:57.740            76.806            RioGallegos          2400.187
       152   02 Jun 2027 08:17:48.040   02 Jun 2027 08:18:24.825            36.785            RioGallegos          1149.531
       153   02 Jun 2027 08:49:29.288   02 Jun 2027 08:52:00.449           151.161                Sumatra          4723.781
       154   02 Jun 2027 09:00:08.986   02 Jun 2027 09:00:44.555            35.569                  Delhi          1111.531
       155   02 Jun 2027 09:11:15.260   02 Jun 2027 09:12:17.256            61.996                Norilsk          1937.375
       156   02 Jun 2027 09:12:21.793   02 Jun 2027 09:13:32.894            71.101              Murmansk1          2221.906
       157   02 Jun 2027 09:13:43.307   02 Jun 2027 09:15:38.854           115.547                Irkutsk          3610.844
       158   02 Jun 2027 09:15:42.662   02 Jun 2027 09:16:44.683            62.021                 Moscow          1938.156
       159   02 Jun 2027 09:17:13.123   02 Jun 2027 09:17:39.162            26.039                 Moscow           813.719
       160   02 Jun 2027 10:29:20.742   02 Jun 2027 10:31:04.491           103.749                Sumatra          3242.156
       161   02 Jun 2027 10:36:49.852   02 Jun 2027 10:38:15.372            85.520                  Delhi          2672.500
       162   02 Jun 2027 10:47:43.345   02 Jun 2027 10:48:17.802            34.457                Novosib          1076.781
       163   02 Jun 2027 10:48:26.584   02 Jun 2027 10:48:31.861             5.277              Murmansk2           164.906
       164   02 Jun 2027 10:48:37.652   02 Jun 2027 10:49:00.165            22.513              Murmansk2           703.531
       165   02 Jun 2027 10:49:05.556   02 Jun 2027 10:49:41.962            36.406              Murmansk1          1137.688
       166   02 Jun 2027 10:49:53.848   02 Jun 2027 10:50:10.894            17.046              Murmansk1           532.687
       167   02 Jun 2027 10:50:10.894   02 Jun 2027 10:50:53.610            42.716              Murmansk2          1334.875
       168   02 Jun 2027 10:50:59.951   02 Jun 2027 10:51:41.801            41.850                 Moscow          1307.812
       169   02 Jun 2027 10:53:51.666   02 Jun 2027 10:53:57.416             5.750              Murmansk1           179.688
       170   02 Jun 2027 10:54:41.265   02 Jun 2027 10:54:43.999             2.734                 Moscow            85.437
       171   02 Jun 2027 12:18:05.732   02 Jun 2027 12:19:57.426           111.694                 Moscow          3490.437
       172   02 Jun 2027 12:20:31.638   02 Jun 2027 12:22:11.302            99.664                 Moscow          3114.500
       173   02 Jun 2027 12:22:18.008   02 Jun 2027 12:23:22.516            64.508              Murmansk2          2015.875
       174   02 Jun 2027 12:23:32.784   02 Jun 2027 12:24:50.943            78.159              Murmansk1          2442.469
       175   02 Jun 2027 12:26:33.641   02 Jun 2027 12:26:57.204            23.563              Murmansk2           736.344
       176   02 Jun 2027 13:32:59.331   02 Jun 2027 13:34:33.504            94.173               CapeTown          2942.906
       177   02 Jun 2027 13:35:14.659   02 Jun 2027 13:36:04.557            49.898               CapeTown          1559.312
       178   02 Jun 2027 13:37:41.033   02 Jun 2027 13:39:24.167           103.134               CapeTown          3222.937
       179   02 Jun 2027 13:58:24.398   02 Jun 2027 13:59:19.367            54.969              Murmansk2          1717.781
       180   02 Jun 2027 13:59:27.191   02 Jun 2027 14:00:40.809            73.618              Murmansk1          2300.562
       181   02 Jun 2027 14:02:35.529   02 Jun 2027 14:02:49.825            14.296              Murmansk2           446.750
       182   02 Jun 2027 14:06:25.024   02 Jun 2027 14:06:32.466             7.442              Murmansk1           232.562
       183   02 Jun 2027 14:07:04.305   02 Jun 2027 14:07:42.130            37.825              Murmansk1          1182.031
       184   02 Jun 2027 14:12:40.286   02 Jun 2027 14:15:45.065           184.779                Anadyr1          5774.344
       185   02 Jun 2027 15:11:55.081   02 Jun 2027 15:12:07.947            12.866               CapeTown           402.063
       186   02 Jun 2027 15:37:31.576   02 Jun 2027 15:39:18.240           106.664              Murmansk2          3333.250
       187   02 Jun 2027 15:48:08.122   02 Jun 2027 15:49:58.553           110.431                Anadyr1          3450.969
       188   02 Jun 2027 15:50:06.161   02 Jun 2027 15:50:23.077            16.916                Anadyr2           528.625
       189   02 Jun 2027 15:50:49.670   02 Jun 2027 15:51:04.272            14.602                Anadyr2           456.313
       190   02 Jun 2027 15:51:48.338   02 Jun 2027 15:55:06.868           198.530               Magadan2          6204.062
       191   02 Jun 2027 15:55:56.229   02 Jun 2027 15:57:20.913            84.684               Magadan1          2646.375
       192   02 Jun 2027 15:58:33.733   02 Jun 2027 15:58:42.639             8.906               Magadan1           278.312
       193   02 Jun 2027 17:24:02.050   02 Jun 2027 17:24:48.298            46.248                Anadyr1          1445.250
       194   02 Jun 2027 17:24:48.298   02 Jun 2027 17:25:21.606            33.308                Anadyr2          1040.875
       195   02 Jun 2027 17:25:58.548   02 Jun 2027 17:26:12.154            13.606                Anadyr1           425.187
       196   02 Jun 2027 17:26:25.663   02 Jun 2027 17:27:52.187            86.524               Magadan2          2703.875
       197   02 Jun 2027 17:27:52.187   02 Jun 2027 17:28:17.109            24.922               Magadan1           778.813
       198   02 Jun 2027 17:37:45.273   02 Jun 2027 17:37:53.638             8.365               Magadan2           261.406
       199   02 Jun 2027 17:37:53.638   02 Jun 2027 17:38:15.929            22.291               Magadan1           696.594
       200   02 Jun 2027 18:59:53.982   02 Jun 2027 19:03:37.574           223.592                Anadyr1          6987.250
       201   02 Jun 2027 19:03:39.591   02 Jun 2027 19:05:21.297           101.706               Magadan2          3178.312
       202   02 Jun 2027 19:05:28.116   02 Jun 2027 19:05:59.183            31.067               Magadan2           970.844
       203   02 Jun 2027 19:07:51.910   02 Jun 2027 19:10:43.068           171.158                Irkutsk          5348.688
       204   02 Jun 2027 19:11:35.473   02 Jun 2027 19:12:52.281            76.808                Irkutsk          2400.250
       205   02 Jun 2027 19:24:37.811   02 Jun 2027 19:25:11.166            33.355                Sumatra          1042.344
       206   02 Jun 2027 19:25:40.102   02 Jun 2027 19:27:23.252           103.150                Sumatra          3223.438
       207   02 Jun 2027 20:38:47.007   02 Jun 2027 20:38:58.454            11.447               Magadan2           357.719
       208   02 Jun 2027 20:39:02.730   02 Jun 2027 20:39:33.325            30.595                Norilsk           956.094
       209   02 Jun 2027 20:41:42.548   02 Jun 2027 20:42:45.896            63.348                Norilsk          1979.625
       210   02 Jun 2027 20:42:52.747   02 Jun 2027 20:47:01.435           248.688                Novosib          7771.500
       211   02 Jun 2027 21:04:03.190   02 Jun 2027 21:05:04.387            61.197                Sumatra          1912.406
       212   02 Jun 2027 22:14:21.623   02 Jun 2027 22:15:38.495            76.872               Magadan2          2402.250
       213   02 Jun 2027 22:17:37.665   02 Jun 2027 22:19:28.878           111.213                Novosib          3475.406
       214   02 Jun 2027 22:25:04.947   02 Jun 2027 22:28:06.755           181.808                  Delhi          5681.500
       215   02 Jun 2027 23:43:07.670   02 Jun 2027 23:43:15.558             7.888                Anadyr1           246.500
       216   02 Jun 2027 23:45:29.124   02 Jun 2027 23:45:48.593            19.469                Anadyr1           608.406
       217   02 Jun 2027 23:48:36.273   02 Jun 2027 23:49:05.765            29.492                Anadyr2           921.625
       218   02 Jun 2027 23:49:16.702   02 Jun 2027 23:50:12.422            55.720               Magadan2          1741.250
       219   02 Jun 2027 23:50:51.118   02 Jun 2027 23:51:40.712            49.594               Magadan1          1549.813
       220   02 Jun 2027 23:52:00.436   02 Jun 2027 23:54:01.886           121.450              Murmansk1          3795.313
       221   02 Jun 2027 23:54:54.387   02 Jun 2027 23:56:32.066            97.679              Murmansk2          3052.469
       222   02 Jun 2027 23:57:31.248   03 Jun 2027 00:00:29.707           178.459                 Moscow          5576.844
       223   03 Jun 2027 00:23:47.640   03 Jun 2027 00:25:10.139            82.499               CapeTown          2578.094
       224   03 Jun 2027 00:26:33.197   03 Jun 2027 00:26:58.387            25.190               CapeTown           787.187
       225   03 Jun 2027 01:21:10.722   03 Jun 2027 01:21:37.636            26.914               Magadan2           841.062
       226   03 Jun 2027 01:21:37.636   03 Jun 2027 01:22:21.519            43.883               Magadan1          1371.344
       227   03 Jun 2027 01:24:58.000   03 Jun 2027 01:25:20.820            22.820               Magadan1           713.125
       228   03 Jun 2027 01:27:52.001   03 Jun 2027 01:27:58.609             6.608              Murmansk1           206.500
       229   03 Jun 2027 01:28:53.320   03 Jun 2027 01:30:36.367           103.047              Murmansk1          3220.219
       230   03 Jun 2027 01:31:07.770   03 Jun 2027 01:32:56.058           108.288                 Moscow          3384.000
       231   03 Jun 2027 01:55:05.337   03 Jun 2027 01:56:20.125            74.788               CapeTown          2337.125
       232   03 Jun 2027 02:51:42.308   03 Jun 2027 02:53:18.956            96.648                Anadyr2          3020.250
       233   03 Jun 2027 02:53:22.296   03 Jun 2027 02:54:35.007            72.711               Magadan1          2272.219
       234   03 Jun 2027 02:56:07.968   03 Jun 2027 02:56:12.236             4.268               Magadan1           133.375
       235   03 Jun 2027 02:57:42.326   03 Jun 2027 02:58:06.799            24.473               Magadan2           764.781
       236   03 Jun 2027 04:35:15.001   03 Jun 2027 04:35:52.639            37.638               Magadan1          1176.187
       237   03 Jun 2027 04:35:55.517   03 Jun 2027 04:36:29.722            34.205                Anadyr1          1068.906
       238   03 Jun 2027 04:36:41.286   03 Jun 2027 04:36:51.084             9.798               Magadan2           306.187
       239   03 Jun 2027 04:36:58.979   03 Jun 2027 04:38:53.987           115.008               Magadan2          3594.000
       240   03 Jun 2027 04:39:19.073   03 Jun 2027 04:39:56.423            37.350               Magadan1          1167.188
       241   03 Jun 2027 04:39:56.423   03 Jun 2027 04:40:15.954            19.531               Magadan2           610.344
       242   03 Jun 2027 06:08:08.162   03 Jun 2027 06:09:03.411            55.249               Magadan2          1726.531
       243   03 Jun 2027 06:09:03.411   03 Jun 2027 06:09:11.753             8.342               Magadan1           260.687
       244   03 Jun 2027 06:09:29.911   03 Jun 2027 06:10:31.377            61.466                Anadyr1          1920.813
       245   03 Jun 2027 06:10:43.813   03 Jun 2027 06:11:37.903            54.090               Magadan2          1690.313
       246   03 Jun 2027 06:11:37.903   03 Jun 2027 06:12:06.224            28.321               Magadan1           885.031
       247   03 Jun 2027 06:12:09.787   03 Jun 2027 06:13:09.148            59.361               Magadan2          1855.031
       248   03 Jun 2027 06:13:13.675   03 Jun 2027 06:14:39.321            85.646               Magadan2          2676.437
       249   03 Jun 2027 06:15:02.408   03 Jun 2027 06:15:49.527            47.119              Murmansk1          1472.469
       250   03 Jun 2027 06:16:07.270   03 Jun 2027 06:16:36.207            28.937              Murmansk2           904.281
       251   03 Jun 2027 06:16:42.368   03 Jun 2027 06:16:51.678             9.310                Norilsk           290.937
       252   03 Jun 2027 06:19:43.094   03 Jun 2027 06:20:09.859            26.765              Murmansk1           836.406
       253   03 Jun 2027 06:51:15.442   03 Jun 2027 06:52:17.720            62.278            RioGallegos          1946.187
       254   03 Jun 2027 06:53:47.229   03 Jun 2027 06:53:55.353             8.124            RioGallegos           253.875
       255   03 Jun 2027 07:29:32.119   03 Jun 2027 07:30:53.451            81.332                Sumatra          2541.625
       256   03 Jun 2027 07:33:34.648   03 Jun 2027 07:34:00.303            25.655                Sumatra           801.719
       257   03 Jun 2027 07:44:59.495   03 Jun 2027 07:46:06.350            66.855               Magadan1          2089.219
       258   03 Jun 2027 07:46:29.879   03 Jun 2027 07:46:53.707            23.828                Novosib           744.625
       259   03 Jun 2027 07:47:36.896   03 Jun 2027 07:47:45.233             8.337                Norilsk           260.531
       260   03 Jun 2027 07:47:51.038   03 Jun 2027 07:48:07.180            16.142                Novosib           504.438
       261   03 Jun 2027 07:48:12.872   03 Jun 2027 07:48:58.465            45.593               Magadan1          1424.781
       262   03 Jun 2027 07:49:20.030   03 Jun 2027 07:50:33.793            73.763                Irkutsk          2305.094
       263   03 Jun 2027 07:51:11.616   03 Jun 2027 07:51:47.699            36.083              Murmansk1          1127.594
       264   03 Jun 2027 07:51:53.946   03 Jun 2027 07:51:57.580             3.634                Irkutsk           113.563
       265   03 Jun 2027 07:52:30.514   03 Jun 2027 07:52:56.025            25.511              Murmansk1           797.219
       266   03 Jun 2027 07:58:02.042   03 Jun 2027 07:58:07.647             5.605              Murmansk1           175.156
       267   03 Jun 2027 08:26:51.714   03 Jun 2027 08:27:25.734            34.020            RioGallegos          1063.125
       268   03 Jun 2027 08:28:04.753   03 Jun 2027 08:28:18.719            13.966            RioGallegos           436.437
       269   03 Jun 2027 08:29:46.372   03 Jun 2027 08:30:27.595            41.223            RioGallegos          1288.219
       270   03 Jun 2027 09:01:28.914   03 Jun 2027 09:01:39.124            10.210                Sumatra           319.063
       271   03 Jun 2027 09:05:29.905   03 Jun 2027 09:06:00.485            30.580                Sumatra           955.625
       272   03 Jun 2027 09:10:08.843   03 Jun 2027 09:10:26.726            17.883                Sumatra           558.844
       273   03 Jun 2027 09:11:28.133   03 Jun 2027 09:12:54.409            86.276                  Delhi          2696.125
       274   03 Jun 2027 09:21:52.475   03 Jun 2027 09:22:00.195             7.720                Norilsk           241.250
       275   03 Jun 2027 09:22:04.546   03 Jun 2027 09:22:28.658            24.112                Irkutsk           753.500
       276   03 Jun 2027 09:22:28.817   03 Jun 2027 09:23:07.204            38.387                Novosib          1199.594
       277   03 Jun 2027 09:23:41.268   03 Jun 2027 09:23:41.288             0.020              Murmansk2             0.625
       278   03 Jun 2027 09:23:44.495   03 Jun 2027 09:23:49.038             4.543                Irkutsk           141.969
       279   03 Jun 2027 09:23:55.406   03 Jun 2027 09:24:45.456            50.050                Novosib          1564.063
       280   03 Jun 2027 09:25:04.932   03 Jun 2027 09:26:14.898            69.966              Murmansk1          2186.437
       281   03 Jun 2027 09:26:22.614   03 Jun 2027 09:27:33.325            70.711                Irkutsk          2209.719
       282   03 Jun 2027 09:27:40.319   03 Jun 2027 09:28:43.805            63.486              Murmansk1          1983.938
       283   03 Jun 2027 10:07:23.309   03 Jun 2027 10:08:17.907            54.598            RioGallegos          1706.187
       284   03 Jun 2027 10:46:03.789   03 Jun 2027 10:47:08.953            65.164                  Delhi          2036.375
       285   03 Jun 2027 10:50:04.509   03 Jun 2027 10:50:26.514            22.005                  Delhi           687.656
       286   03 Jun 2027 10:54:29.638   03 Jun 2027 10:54:40.443            10.805                  Delhi           337.656
       287   03 Jun 2027 10:59:34.692   03 Jun 2027 10:59:36.841             2.149              Murmansk2            67.156
       288   03 Jun 2027 10:59:56.216   03 Jun 2027 11:01:14.261            78.045                Novosib          2438.906
       289   03 Jun 2027 11:01:17.851   03 Jun 2027 11:01:45.427            27.576                 Moscow           861.750
       290   03 Jun 2027 11:01:49.449   03 Jun 2027 11:02:37.095            47.646              Murmansk1          1488.938
       291   03 Jun 2027 11:02:46.883   03 Jun 2027 11:02:52.290             5.407                Norilsk           168.969
       292   03 Jun 2027 11:02:58.903   03 Jun 2027 11:03:17.475            18.572                Norilsk           580.375
       293   03 Jun 2027 11:03:20.569   03 Jun 2027 11:03:42.466            21.897                Norilsk           684.281
       294   03 Jun 2027 11:03:43.848   03 Jun 2027 11:03:54.695            10.847              Murmansk2           338.969
       295   03 Jun 2027 11:04:46.703   03 Jun 2027 11:05:01.925            15.222                 Moscow           475.687
       296   03 Jun 2027 12:30:04.697   03 Jun 2027 12:32:44.463           159.766                 Moscow          4992.687
       297   03 Jun 2027 12:33:23.491   03 Jun 2027 12:34:15.070            51.579                 Moscow          1611.844
       298   03 Jun 2027 12:34:22.865   03 Jun 2027 12:36:14.379           111.514              Murmansk1          3484.812
       299   03 Jun 2027 12:36:14.379   03 Jun 2027 12:37:17.975            63.596              Murmansk2          1987.375
       300   03 Jun 2027 13:44:33.584   03 Jun 2027 13:47:52.561           198.977               CapeTown          6218.031
       301   03 Jun 2027 13:49:07.638   03 Jun 2027 13:51:09.481           121.843               CapeTown          3807.594
       302   03 Jun 2027 14:10:41.560   03 Jun 2027 14:12:42.159           120.599              Murmansk2          3768.719
       303   03 Jun 2027 14:24:34.444   03 Jun 2027 14:27:12.545           158.101                Anadyr2          4940.656
       304   03 Jun 2027 15:28:03.067   03 Jun 2027 15:28:20.736            17.669               CapeTown           552.156
       305   03 Jun 2027 15:29:17.373   03 Jun 2027 15:29:30.725            13.352               CapeTown           417.250
       306   03 Jun 2027 15:50:09.510   03 Jun 2027 15:51:27.078            77.568              Murmansk1          2424.000
       307   03 Jun 2027 15:52:17.379   03 Jun 2027 15:53:13.456            56.077              Murmansk2          1752.406
       308   03 Jun 2027 16:00:08.655   03 Jun 2027 16:01:56.998           108.343                Anadyr2          3385.719
       309   03 Jun 2027 16:02:08.661   03 Jun 2027 16:02:16.525             7.864                Anadyr1           245.750
       310   03 Jun 2027 16:02:23.388   03 Jun 2027 16:02:31.291             7.903                Anadyr1           246.969
       311   03 Jun 2027 16:03:01.970   03 Jun 2027 16:03:05.579             3.609                Anadyr1           112.781
       312   03 Jun 2027 16:03:28.533   03 Jun 2027 16:08:00.187           271.654               Magadan2          8489.188
       313   03 Jun 2027 16:08:11.892   03 Jun 2027 16:09:23.178            71.286               Magadan2          2227.688
       314   03 Jun 2027 17:36:40.900   03 Jun 2027 17:36:59.219            18.319                Anadyr2           572.469
       315   03 Jun 2027 17:37:54.466   03 Jun 2027 17:38:10.554            16.088                Anadyr1           502.750
       316   03 Jun 2027 17:38:24.312   03 Jun 2027 17:38:48.155            23.843               Magadan1           745.094
       317   03 Jun 2027 17:39:23.744   03 Jun 2027 17:40:25.481            61.737               Magadan2          1929.281
       318   03 Jun 2027 17:42:09.164   03 Jun 2027 17:42:23.119            13.955               Magadan2           436.094
       319   03 Jun 2027 17:42:23.119   03 Jun 2027 17:42:24.924             1.805               Magadan1            56.406
       320   03 Jun 2027 17:46:06.113   03 Jun 2027 17:46:14.033             7.920               Magadan2           247.500
       321   03 Jun 2027 17:46:14.033   03 Jun 2027 17:46:25.100            11.067               Magadan1           345.844
       322   03 Jun 2027 18:33:17.998   03 Jun 2027 18:35:12.625           114.627            RioGallegos          3582.094
       323   03 Jun 2027 19:12:18.448   03 Jun 2027 19:12:54.702            36.254                Anadyr2          1132.938
       324   03 Jun 2027 19:13:33.875   03 Jun 2027 19:14:03.980            30.105                Anadyr2           940.781
       325   03 Jun 2027 19:14:07.686   03 Jun 2027 19:18:01.885           234.199                Norilsk          7318.719
       326   03 Jun 2027 19:18:34.612   03 Jun 2027 19:19:25.707            51.095                Norilsk          1596.719
       327   03 Jun 2027 19:20:06.575   03 Jun 2027 19:22:29.988           143.413                Irkutsk          4481.656
       328   03 Jun 2027 19:23:05.654   03 Jun 2027 19:23:48.072            42.418                Irkutsk          1325.563
       329   03 Jun 2027 19:24:58.336   03 Jun 2027 19:26:12.351            74.015                Irkutsk          2312.969
       330   03 Jun 2027 19:34:47.996   03 Jun 2027 19:36:38.368           110.372                Sumatra          3449.125
       331   03 Jun 2027 19:39:48.273   03 Jun 2027 19:41:10.142            81.869                Sumatra          2558.406
       332   03 Jun 2027 20:54:35.587   03 Jun 2027 20:56:01.109            85.522                Novosib          2672.562
       333   03 Jun 2027 20:57:39.658   03 Jun 2027 20:58:57.121            77.463                Novosib          2420.719
       334   03 Jun 2027 21:01:01.955   03 Jun 2027 21:01:32.386            30.431                Novosib           950.969
       335   03 Jun 2027 21:07:06.128   03 Jun 2027 21:07:22.601            16.473                  Delhi           514.781
       336   03 Jun 2027 21:12:11.585   03 Jun 2027 21:13:09.798            58.213                Sumatra          1819.156
       337   03 Jun 2027 22:26:22.034   03 Jun 2027 22:27:18.532            56.498               Magadan2          1765.562
       338   03 Jun 2027 22:29:02.587   03 Jun 2027 22:33:15.567           252.980              Murmansk1          7905.625
       339   03 Jun 2027 22:39:33.242   03 Jun 2027 22:39:48.264            15.022                  Delhi           469.438
       340   03 Jun 2027 22:45:14.898   03 Jun 2027 22:46:31.675            76.777                  Delhi          2399.281
       341   03 Jun 2027 23:54:49.026   03 Jun 2027 23:54:52.204             3.178                Anadyr2            99.312
       342   04 Jun 2027 00:00:23.344   04 Jun 2027 00:00:50.205            26.861                Anadyr1           839.406
       343   04 Jun 2027 00:00:55.378   04 Jun 2027 00:02:03.062            67.684               Magadan2          2115.125
       344   04 Jun 2027 00:02:03.062   04 Jun 2027 00:02:23.897            20.835               Magadan1           651.094
       345   04 Jun 2027 00:02:56.133   04 Jun 2027 00:03:09.279            13.146               Magadan1           410.813
       346   04 Jun 2027 00:03:59.991   04 Jun 2027 00:06:02.525           122.534              Murmansk1          3829.188
       347   04 Jun 2027 00:06:02.525   04 Jun 2027 00:08:04.693           122.168              Murmansk2          3817.750
       348   04 Jun 2027 00:08:15.224   04 Jun 2027 00:09:34.536            79.312                 Moscow          2478.500
       349   04 Jun 2027 00:34:36.243   04 Jun 2027 00:36:35.949           119.706               CapeTown          3740.812
       350   04 Jun 2027 00:37:54.953   04 Jun 2027 00:38:46.411            51.458               CapeTown          1608.063
       351   04 Jun 2027 00:41:27.612   04 Jun 2027 00:42:12.555            44.943               CapeTown          1404.469
       352   04 Jun 2027 01:32:39.647   04 Jun 2027 01:33:07.732            28.085               Magadan2           877.656
       353   04 Jun 2027 01:33:40.325   04 Jun 2027 01:33:58.529            18.204               Magadan2           568.875
       354   04 Jun 2027 01:39:53.684   04 Jun 2027 01:41:33.188            99.504              Murmansk2          3109.500
       355   04 Jun 2027 01:41:56.618   04 Jun 2027 01:42:48.581            51.963              Murmansk1          1623.844
       356   04 Jun 2027 01:45:02.887   04 Jun 2027 01:45:11.592             8.705                 Moscow           272.031
       357   04 Jun 2027 01:46:22.425   04 Jun 2027 01:47:06.863            44.438                 Moscow          1388.687
       358   04 Jun 2027 02:07:00.985   04 Jun 2027 02:08:22.163            81.178               CapeTown          2536.813
       359   04 Jun 2027 02:16:28.880   04 Jun 2027 02:16:30.556             1.676               CapeTown            52.375
       360   04 Jun 2027 02:16:31.427   04 Jun 2027 02:16:35.558             4.131               CapeTown           129.094
       361   04 Jun 2027 02:17:43.935   04 Jun 2027 02:19:04.226            80.291               CapeTown          2509.094
       362   04 Jun 2027 03:10:07.772   04 Jun 2027 03:10:08.311             0.539               Magadan1            16.844
       363   04 Jun 2027 03:10:45.152   04 Jun 2027 03:12:55.798           130.646                Anadyr2          4082.687
       364   04 Jun 2027 03:12:55.798   04 Jun 2027 03:14:54.973           119.175                Anadyr1          3724.219
       365   04 Jun 2027 03:14:54.973   04 Jun 2027 03:15:08.679            13.706                Anadyr2           428.312
       366   04 Jun 2027 03:16:36.667   04 Jun 2027 03:16:40.037             3.370                Anadyr1           105.312
       367   04 Jun 2027 04:48:33.790   04 Jun 2027 04:48:45.251            11.461                Anadyr2           358.156
       368   04 Jun 2027 04:48:45.251   04 Jun 2027 04:49:03.884            18.633                Anadyr1           582.281
       369   04 Jun 2027 04:49:10.941   04 Jun 2027 04:52:27.855           196.914                Anadyr2          6153.562
       370   04 Jun 2027 06:21:33.049   04 Jun 2027 06:21:41.679             8.630               Magadan1           269.687
       371   04 Jun 2027 06:21:44.269   04 Jun 2027 06:22:01.874            17.605                Anadyr2           550.156
       372   04 Jun 2027 06:22:09.101   04 Jun 2027 06:22:29.249            20.148                Norilsk           629.625
       373   04 Jun 2027 06:22:31.308   04 Jun 2027 06:23:25.893            54.585                Anadyr1          1705.781
       374   04 Jun 2027 06:23:42.985   04 Jun 2027 06:24:26.466            43.481                Novosib          1358.781
       375   04 Jun 2027 06:24:41.141   04 Jun 2027 06:25:34.592            53.451                Anadyr2          1670.344
       376   04 Jun 2027 06:25:41.750   04 Jun 2027 06:26:46.659            64.909                Anadyr1          2028.406
       377   04 Jun 2027 06:26:52.406   04 Jun 2027 06:27:38.933            46.527              Murmansk1          1453.969
       378   04 Jun 2027 06:27:38.933   04 Jun 2027 06:27:52.810            13.877              Murmansk2           433.656
       379   04 Jun 2027 06:28:02.419   04 Jun 2027 06:29:04.090            61.671              Murmansk2          1927.219
       380   04 Jun 2027 06:29:04.090   04 Jun 2027 06:29:18.717            14.627              Murmansk1           457.094
       381   04 Jun 2027 07:03:03.019   04 Jun 2027 07:03:39.933            36.914            RioGallegos          1153.563
       382   04 Jun 2027 07:04:37.099   04 Jun 2027 07:05:52.131            75.032            RioGallegos          2344.750
       383   04 Jun 2027 07:40:13.882   04 Jun 2027 07:40:37.162            23.280                Sumatra           727.500
       384   04 Jun 2027 07:42:25.552   04 Jun 2027 07:43:35.295            69.743                Sumatra          2179.469
       385   04 Jun 2027 07:57:02.044   04 Jun 2027 07:57:21.880            19.836                Irkutsk           619.875
       386   04 Jun 2027 07:58:15.781   04 Jun 2027 07:58:44.385            28.604                Norilsk           893.875
       387   04 Jun 2027 07:58:55.185   04 Jun 2027 07:59:55.205            60.020                Novosib          1875.625
       388   04 Jun 2027 08:00:07.734   04 Jun 2027 08:00:39.648            31.914                Irkutsk           997.312
       389   04 Jun 2027 08:00:42.889   04 Jun 2027 08:01:40.204            57.315                Irkutsk          1791.094
       390   04 Jun 2027 08:01:44.711   04 Jun 2027 08:01:51.166             6.455                Norilsk           201.719
       391   04 Jun 2027 08:02:08.693   04 Jun 2027 08:02:12.759             4.066                Novosib           127.063
       392   04 Jun 2027 08:02:15.989   04 Jun 2027 08:02:31.212            15.223                Irkutsk           475.719
       393   04 Jun 2027 08:02:35.480   04 Jun 2027 08:02:54.044            18.564                Irkutsk           580.125
       394   04 Jun 2027 08:02:56.285   04 Jun 2027 08:03:07.528            11.243                Irkutsk           351.344
       395   04 Jun 2027 08:03:12.399   04 Jun 2027 08:03:12.813             0.414              Murmansk2            12.938
       396   04 Jun 2027 08:03:12.813   04 Jun 2027 08:03:48.793            35.980              Murmansk1          1124.375
       397   04 Jun 2027 08:04:16.706   04 Jun 2027 08:04:17.104             0.398                Norilsk            12.438
       398   04 Jun 2027 08:04:27.006   04 Jun 2027 08:04:43.496            16.490              Murmansk1           515.312
       399   04 Jun 2027 08:05:12.730   04 Jun 2027 08:05:19.627             6.897                Novosib           215.531
       400   04 Jun 2027 08:05:26.062   04 Jun 2027 08:06:06.778            40.716              Murmansk1          1272.375
       401   04 Jun 2027 08:39:06.383   04 Jun 2027 08:40:08.407            62.024            RioGallegos          1938.250
       402   04 Jun 2027 09:13:34.171   04 Jun 2027 09:14:33.245            59.074                Sumatra          1846.063
       403   04 Jun 2027 09:22:56.343   04 Jun 2027 09:24:17.529            81.186                  Delhi          2537.063
       404   04 Jun 2027 09:34:16.182   04 Jun 2027 09:34:22.147             5.965                Novosib           186.406
       405   04 Jun 2027 09:35:28.841   04 Jun 2027 09:35:35.110             6.269              Murmansk1           195.906
       406   04 Jun 2027 09:35:35.110   04 Jun 2027 09:36:04.255            29.145              Murmansk2           910.781
       407   04 Jun 2027 09:36:15.750   04 Jun 2027 09:36:54.206            38.456                Irkutsk          1201.750
       408   04 Jun 2027 09:36:58.537   04 Jun 2027 09:37:25.197            26.660              Murmansk1           833.125
       409   04 Jun 2027 09:37:25.197   04 Jun 2027 09:38:05.124            39.927              Murmansk2          1247.719
       410   04 Jun 2027 09:38:10.297   04 Jun 2027 09:39:10.094            59.797                Novosib          1868.656
       411   04 Jun 2027 09:39:18.056   04 Jun 2027 09:39:37.260            19.204                 Moscow           600.125
       412   04 Jun 2027 09:39:44.283   04 Jun 2027 09:40:54.376            70.093                Norilsk          2190.406
       413   04 Jun 2027 09:42:08.749   04 Jun 2027 09:42:10.531             1.782                 Moscow            55.687
       414   04 Jun 2027 10:21:25.606   04 Jun 2027 10:22:42.288            76.682            RioGallegos          2396.313
       415   04 Jun 2027 10:58:06.124   04 Jun 2027 10:59:30.223            84.099                  Delhi          2628.094
       416   04 Jun 2027 11:10:50.389   04 Jun 2027 11:11:02.287            11.898                Novosib           371.813
       417   04 Jun 2027 11:11:07.707   04 Jun 2027 11:11:38.076            30.369              Murmansk2           949.031
       418   04 Jun 2027 11:11:45.393   04 Jun 2027 11:12:59.002            73.609                Norilsk          2300.281
       419   04 Jun 2027 11:13:25.307   04 Jun 2027 11:13:28.550             3.243                Novosib           101.344
       420   04 Jun 2027 11:13:30.595   04 Jun 2027 11:13:46.317            15.722              Murmansk2           491.312
       421   04 Jun 2027 11:13:46.317   04 Jun 2027 11:14:50.045            63.728              Murmansk1          1991.500
       422   04 Jun 2027 11:14:55.589   04 Jun 2027 11:15:28.953            33.364                 Moscow          1042.625
       423   04 Jun 2027 12:42:06.530   04 Jun 2027 12:44:51.927           165.397                 Moscow          5168.656
       424   04 Jun 2027 12:45:24.633   04 Jun 2027 12:46:28.525            63.892                 Moscow          1996.625
       425   04 Jun 2027 12:46:41.084   04 Jun 2027 12:47:36.032            54.948              Murmansk2          1717.125
       426   04 Jun 2027 12:47:36.032   04 Jun 2027 12:49:59.220           143.188              Murmansk1          4474.625
       427   04 Jun 2027 13:56:14.839   04 Jun 2027 13:59:47.914           213.075               CapeTown          6658.594
       428   04 Jun 2027 14:00:53.938   04 Jun 2027 14:00:57.018             3.080               CapeTown            96.250
       429   04 Jun 2027 14:23:00.829   04 Jun 2027 14:25:12.327           131.498              Murmansk1          4109.312
       430   04 Jun 2027 14:26:33.253   04 Jun 2027 14:27:30.560            57.307              Murmansk2          1790.844
       431   04 Jun 2027 14:36:30.201   04 Jun 2027 14:39:11.642           161.441                Anadyr2          5045.031
       432   04 Jun 2027 14:44:26.880   04 Jun 2027 14:45:18.920            52.040                Anadyr1          1626.250
       433   04 Jun 2027 16:02:51.357   04 Jun 2027 16:03:37.726            46.369              Murmansk1          1449.031
       434   04 Jun 2027 16:04:04.489   04 Jun 2027 16:04:47.724            43.235              Murmansk2          1351.094
       435   04 Jun 2027 16:06:15.164   04 Jun 2027 16:06:32.926            17.762              Murmansk1           555.063
       436   04 Jun 2027 16:12:09.453   04 Jun 2027 16:14:09.241           119.788                Anadyr1          3743.375
       437   04 Jun 2027 16:15:06.807   04 Jun 2027 16:15:12.896             6.089                Anadyr1           190.281
       438   04 Jun 2027 16:15:14.405   04 Jun 2027 16:18:52.361           217.956               Magadan2          6811.125
       439   04 Jun 2027 16:19:54.343   04 Jun 2027 16:21:24.300            89.957               Magadan1          2811.156
       440   04 Jun 2027 17:48:04.729   04 Jun 2027 17:48:58.402            53.673                Anadyr2          1677.281
       441   04 Jun 2027 17:48:58.402   04 Jun 2027 17:49:25.181            26.779                Anadyr1           836.844
       442   04 Jun 2027 17:49:49.471   04 Jun 2027 17:50:16.149            26.678                Anadyr1           833.688
       443   04 Jun 2027 17:50:23.646   04 Jun 2027 17:52:06.501           102.855               Magadan1          3214.219
       444   04 Jun 2027 17:52:19.188   04 Jun 2027 17:52:43.538            24.350               Magadan2           760.938
       445   04 Jun 2027 17:57:39.978   04 Jun 2027 17:57:48.990             9.012               Magadan1           281.625
       446   04 Jun 2027 18:00:04.245   04 Jun 2027 18:01:17.619            73.374               Magadan1          2292.937
       447   04 Jun 2027 18:44:09.055   04 Jun 2027 18:46:53.675           164.620            RioGallegos          5144.375
       448   04 Jun 2027 19:23:52.949   04 Jun 2027 19:23:54.915             1.966                Anadyr2            61.438
       449   04 Jun 2027 19:25:31.096   04 Jun 2027 19:25:41.382            10.286                Anadyr1           321.438
       450   04 Jun 2027 19:26:03.991   04 Jun 2027 19:28:05.404           121.413                Norilsk          3794.156
       451   04 Jun 2027 19:28:15.496   04 Jun 2027 19:29:38.286            82.790                Norilsk          2587.188
       452   04 Jun 2027 19:30:55.769   04 Jun 2027 19:32:10.525            74.756                Irkutsk          2336.125
       453   04 Jun 2027 19:33:15.344   04 Jun 2027 19:34:56.028           100.684                Irkutsk          3146.375
       454   04 Jun 2027 19:37:05.318   04 Jun 2027 19:37:25.936            20.618                Irkutsk           644.313
       455   04 Jun 2027 19:45:46.109   04 Jun 2027 19:48:14.760           148.651                Sumatra          4645.344
       456   04 Jun 2027 19:49:30.836   04 Jun 2027 19:50:18.498            47.662                Sumatra          1489.438
       457   04 Jun 2027 19:51:51.641   04 Jun 2027 19:52:23.865            32.224                Sumatra          1007.000
       458   04 Jun 2027 19:52:38.774   04 Jun 2027 19:53:58.496            79.722                Sumatra          2491.313
       459   04 Jun 2027 21:07:11.501   04 Jun 2027 21:08:04.496            52.995                Novosib          1656.094
       460   04 Jun 2027 21:16:09.210   04 Jun 2027 21:18:08.966           119.756                  Delhi          3742.375
       461   04 Jun 2027 21:20:36.485   04 Jun 2027 21:21:29.665            53.180                  Delhi          1661.875
       462   04 Jun 2027 22:38:21.499   04 Jun 2027 22:39:28.120            66.621               Magadan1          2081.906
       463   04 Jun 2027 22:40:44.831   04 Jun 2027 22:46:15.193           330.362              Murmansk1         10323.812
       464   05 Jun 2027 00:06:30.818   05 Jun 2027 00:06:41.580            10.762                Anadyr1           336.312
       465   05 Jun 2027 00:09:13.358   05 Jun 2027 00:09:25.537            12.179                Anadyr1           380.594
       466   05 Jun 2027 00:12:30.260   05 Jun 2027 00:14:16.704           106.444               Magadan1          3326.375
       467   05 Jun 2027 00:14:37.263   05 Jun 2027 00:14:56.168            18.905               Magadan2           590.781
       468   05 Jun 2027 00:15:27.816   05 Jun 2027 00:15:40.263            12.447               Magadan2           388.969
       469   05 Jun 2027 00:16:00.086   05 Jun 2027 00:18:57.676           177.590              Murmansk2          5549.687
       470   05 Jun 2027 00:18:57.676   05 Jun 2027 00:20:27.250            89.574              Murmansk1          2799.187
       471   05 Jun 2027 00:21:19.095   05 Jun 2027 00:21:38.305            19.210                 Moscow           600.313
       472   05 Jun 2027 00:22:10.385   05 Jun 2027 00:23:37.177            86.792                 Moscow          2712.250
       473   05 Jun 2027 00:47:22.484   05 Jun 2027 00:48:08.896            46.412               CapeTown          1450.375
       474   05 Jun 2027 00:49:53.879   05 Jun 2027 00:51:05.732            71.853               CapeTown          2245.406
       475   05 Jun 2027 01:44:09.460   05 Jun 2027 01:45:09.695            60.235               Magadan2          1882.344
       476   05 Jun 2027 01:45:09.695   05 Jun 2027 01:45:26.619            16.924               Magadan1           528.875
       477   05 Jun 2027 01:51:05.524   05 Jun 2027 01:51:16.701            11.177                Norilsk           349.281
       478   05 Jun 2027 01:51:55.411   05 Jun 2027 01:53:28.900            93.489              Murmansk1          2921.531
       479   05 Jun 2027 01:53:58.640   05 Jun 2027 01:54:54.172            55.532              Murmansk1          1735.375
       480   05 Jun 2027 01:56:37.372   05 Jun 2027 01:56:59.513            22.141                 Moscow           691.906
       481   05 Jun 2027 02:00:43.405   05 Jun 2027 02:00:54.749            11.344                Novosib           354.500
       482   05 Jun 2027 02:02:53.343   05 Jun 2027 02:03:00.031             6.688                 Moscow           209.000
