uniorb/output/strategy_2/Drop/Drop_KinoSat_110801.txt

KinoSat_110801
-------------------------
    Access    *     Start Time (UTCG)     *     Stop Time (UTCG)  *   Duration (s)        *       Station  *  Data (Mbytes)
         1   01 Jun 2027 04:15:08.993   01 Jun 2027 04:15:45.680            36.687               Magadan1          1146.469
         2   01 Jun 2027 04:16:09.672   01 Jun 2027 04:16:53.893            44.221                Anadyr2          1381.906
         3   01 Jun 2027 04:16:59.097   01 Jun 2027 04:17:48.430            49.333               Magadan1          1541.656
         4   01 Jun 2027 04:18:13.516   01 Jun 2027 04:18:52.012            38.496                Anadyr2          1203.000
         5   01 Jun 2027 04:19:06.945   01 Jun 2027 04:19:12.594             5.649               Magadan1           176.531
         6   01 Jun 2027 04:19:14.436   01 Jun 2027 04:20:29.085            74.649                Anadyr2          2332.781
         7   01 Jun 2027 04:24:50.438   01 Jun 2027 04:24:50.514             0.076                Norilsk             2.375
         8   01 Jun 2027 04:58:41.239   01 Jun 2027 05:00:50.340           129.101            RioGallegos          4034.406
         9   01 Jun 2027 05:02:34.135   01 Jun 2027 05:03:43.500            69.365            RioGallegos          2167.656
        10   01 Jun 2027 05:50:15.228   01 Jun 2027 05:50:41.268            26.040                Anadyr2           813.750
        11   01 Jun 2027 05:51:00.498   01 Jun 2027 05:51:39.383            38.885                Irkutsk          1215.156
        12   01 Jun 2027 05:51:53.274   01 Jun 2027 05:55:15.658           202.384                Anadyr2          6324.500
        13   01 Jun 2027 05:55:33.385   01 Jun 2027 05:56:05.441            32.056                Novosib          1001.750
        14   01 Jun 2027 05:58:17.314   01 Jun 2027 05:58:39.832            22.518                Norilsk           703.687
        15   01 Jun 2027 05:59:28.088   01 Jun 2027 05:59:57.933            29.845              Murmansk2           932.656
        16   01 Jun 2027 06:31:06.106   01 Jun 2027 06:34:53.326           227.220            RioGallegos          7100.625
        17   01 Jun 2027 07:08:26.539   01 Jun 2027 07:10:33.558           127.019                Sumatra          3969.344
        18   01 Jun 2027 07:26:32.562   01 Jun 2027 07:27:15.790            43.228                Novosib          1350.875
        19   01 Jun 2027 07:28:05.909   01 Jun 2027 07:28:44.448            38.539               Magadan1          1204.344
        20   01 Jun 2027 07:28:49.391   01 Jun 2027 07:29:02.190            12.799                Novosib           399.969
        21   01 Jun 2027 07:29:28.944   01 Jun 2027 07:30:30.507            61.563              Murmansk2          1923.844
        22   01 Jun 2027 07:30:30.801   01 Jun 2027 07:30:33.852             3.051                Irkutsk            95.344
        23   01 Jun 2027 07:30:38.966   01 Jun 2027 07:31:25.452            46.486                Novosib          1452.687
        24   01 Jun 2027 07:31:35.363   01 Jun 2027 07:32:00.126            24.763              Murmansk2           773.844
        25   01 Jun 2027 07:32:08.207   01 Jun 2027 07:32:36.467            28.260                Norilsk           883.125
        26   01 Jun 2027 07:32:46.441   01 Jun 2027 07:32:57.753            11.312              Murmansk1           353.500
        27   01 Jun 2027 07:33:01.681   01 Jun 2027 07:33:19.887            18.206                Novosib           568.937
        28   01 Jun 2027 07:33:39.679   01 Jun 2027 07:34:34.633            54.954                Norilsk          1717.312
        29   01 Jun 2027 08:07:04.536   01 Jun 2027 08:08:08.528            63.992            RioGallegos          1999.750
        30   01 Jun 2027 08:41:33.868   01 Jun 2027 08:42:55.099            81.231                Sumatra          2538.469
        31   01 Jun 2027 08:51:02.603   01 Jun 2027 08:53:36.355           153.752                  Delhi          4804.750
        32   01 Jun 2027 09:03:42.754   01 Jun 2027 09:04:23.310            40.556                Irkutsk          1267.375
        33   01 Jun 2027 09:05:03.913   01 Jun 2027 09:05:32.097            28.184                Irkutsk           880.750
        34   01 Jun 2027 09:05:37.049   01 Jun 2027 09:06:10.837            33.788                Novosib          1055.875
        35   01 Jun 2027 09:06:18.383   01 Jun 2027 09:07:10.505            52.122                Norilsk          1628.812
        36   01 Jun 2027 09:07:23.771   01 Jun 2027 09:07:28.333             4.562                Irkutsk           142.562
        37   01 Jun 2027 09:07:30.589   01 Jun 2027 09:08:48.887            78.298                Norilsk          2446.812
        38   01 Jun 2027 09:09:07.873   01 Jun 2027 09:09:20.567            12.694                 Moscow           396.687
        39   01 Jun 2027 09:09:21.379   01 Jun 2027 09:10:48.560            87.181              Murmansk1          2724.406
        40   01 Jun 2027 09:10:48.560   01 Jun 2027 09:11:08.315            19.755              Murmansk2           617.344
        41   01 Jun 2027 09:12:07.443   01 Jun 2027 09:12:30.644            23.201                Norilsk           725.031
        42   01 Jun 2027 09:48:53.936   01 Jun 2027 09:49:53.272            59.336            RioGallegos          1854.250
        43   01 Jun 2027 10:26:03.965   01 Jun 2027 10:28:40.327           156.362                  Delhi          4886.313
        44   01 Jun 2027 10:41:01.188   01 Jun 2027 10:41:53.528            52.340              Murmansk1          1635.625
        45   01 Jun 2027 10:41:53.528   01 Jun 2027 10:42:41.609            48.081              Murmansk2          1502.531
        46   01 Jun 2027 10:42:50.894   01 Jun 2027 10:44:25.119            94.225              Murmansk1          2944.531
        47   01 Jun 2027 10:44:33.339   01 Jun 2027 10:44:51.782            18.443                Novosib           576.344
        48   01 Jun 2027 10:45:05.554   01 Jun 2027 10:46:03.869            58.315                Norilsk          1822.344
        49   01 Jun 2027 10:46:45.382   01 Jun 2027 10:47:09.417            24.035                Norilsk           751.094
        50   01 Jun 2027 12:10:07.070   01 Jun 2027 12:10:50.917            43.847                 Moscow          1370.219
        51   01 Jun 2027 12:12:03.052   01 Jun 2027 12:14:35.764           152.712                 Moscow          4772.250
        52   01 Jun 2027 12:15:08.237   01 Jun 2027 12:16:36.736            88.499              Murmansk1          2765.594
        53   01 Jun 2027 12:16:36.736   01 Jun 2027 12:17:50.414            73.678              Murmansk2          2302.438
        54   01 Jun 2027 12:18:28.522   01 Jun 2027 12:18:37.085             8.563                Norilsk           267.594
        55   01 Jun 2027 12:18:54.465   01 Jun 2027 12:19:37.682            43.217              Murmansk1          1350.531
        56   01 Jun 2027 12:22:26.999   01 Jun 2027 12:22:42.008            15.009                Norilsk           469.031
        57   01 Jun 2027 13:24:18.980   01 Jun 2027 13:25:43.094            84.114               CapeTown          2628.563
        58   01 Jun 2027 13:27:11.206   01 Jun 2027 13:29:35.842           144.636               CapeTown          4519.875
        59   01 Jun 2027 13:54:31.634   01 Jun 2027 13:54:58.427            26.793              Murmansk1           837.281
        60   01 Jun 2027 13:55:49.283   01 Jun 2027 13:56:12.409            23.126              Murmansk1           722.687
        61   01 Jun 2027 14:00:03.727   01 Jun 2027 14:00:24.069            20.342              Murmansk2           635.688
        62   01 Jun 2027 14:04:32.094   01 Jun 2027 14:09:01.172           269.078                Anadyr2          8408.688
        63   01 Jun 2027 15:32:30.815   01 Jun 2027 15:34:11.178           100.363              Murmansk2          3136.344
        64   01 Jun 2027 15:42:20.674   01 Jun 2027 15:42:32.743            12.069                Anadyr1           377.156
        65   01 Jun 2027 15:42:41.411   01 Jun 2027 15:42:56.997            15.586                Anadyr1           487.063
        66   01 Jun 2027 15:43:17.917   01 Jun 2027 15:46:54.088           216.171               Magadan2          6755.344
        67   01 Jun 2027 15:46:54.088   01 Jun 2027 15:48:00.347            66.259               Magadan1          2070.594
        68   01 Jun 2027 17:17:10.462   01 Jun 2027 17:17:25.260            14.798                Anadyr1           462.438
        69   01 Jun 2027 17:17:59.092   01 Jun 2027 17:18:13.811            14.719                Anadyr1           459.969
        70   01 Jun 2027 17:18:24.846   01 Jun 2027 17:18:56.283            31.437               Magadan1           982.406
        71   01 Jun 2027 17:20:13.500   01 Jun 2027 17:20:31.223            17.723               Magadan2           553.844
        72   01 Jun 2027 17:21:20.155   01 Jun 2027 17:21:31.040            10.885               Magadan2           340.156
        73   01 Jun 2027 17:21:41.580   01 Jun 2027 17:22:24.731            43.151               Magadan2          1348.469
        74   01 Jun 2027 17:24:28.083   01 Jun 2027 17:24:35.132             7.049               Magadan2           220.281
        75   01 Jun 2027 17:25:32.284   01 Jun 2027 17:25:50.876            18.592               Magadan2           581.000
        76   01 Jun 2027 17:26:13.806   01 Jun 2027 17:26:17.258             3.452               Magadan2           107.875
        77   01 Jun 2027 17:26:22.988   01 Jun 2027 17:28:18.520           115.532               Magadan2          3610.375
        78   01 Jun 2027 18:12:19.357   01 Jun 2027 18:15:01.489           162.132            RioGallegos          5066.625
        79   01 Jun 2027 18:55:21.521   01 Jun 2027 18:58:08.522           167.001                Norilsk          5218.781
        80   01 Jun 2027 18:59:16.791   01 Jun 2027 19:00:26.355            69.564                Irkutsk          2173.875
        81   01 Jun 2027 19:01:36.742   01 Jun 2027 19:02:27.650            50.908                Irkutsk          1590.875
        82   01 Jun 2027 19:04:19.209   01 Jun 2027 19:05:35.269            76.060                Irkutsk          2376.875
        83   01 Jun 2027 19:15:06.173   01 Jun 2027 19:16:22.619            76.446                Sumatra          2388.938
        84   01 Jun 2027 19:18:24.846   01 Jun 2027 19:20:05.085           100.239                Sumatra          3132.469
        85   01 Jun 2027 20:36:59.510   01 Jun 2027 20:37:12.735            13.225                Novosib           413.281
        86   01 Jun 2027 20:38:10.075   01 Jun 2027 20:38:36.331            26.256                Novosib           820.500
        87   01 Jun 2027 20:38:59.126   01 Jun 2027 20:39:26.264            27.138                Norilsk           848.062
        88   01 Jun 2027 20:41:32.207   01 Jun 2027 20:41:39.112             6.905                Novosib           215.781
        89   01 Jun 2027 20:42:44.580   01 Jun 2027 20:43:52.364            67.784                Novosib          2118.250
        90   01 Jun 2027 20:44:25.443   01 Jun 2027 20:45:04.774            39.331                  Delhi          1229.094
        91   01 Jun 2027 20:47:32.038   01 Jun 2027 20:49:08.868            96.830                  Delhi          3025.937
        92   01 Jun 2027 22:08:48.864   01 Jun 2027 22:14:05.898           317.034              Murmansk2          9907.312
        93   01 Jun 2027 23:39:32.679   01 Jun 2027 23:39:33.477             0.798                Anadyr1            24.938
        94   01 Jun 2027 23:39:48.595   01 Jun 2027 23:40:29.232            40.637                Anadyr2          1269.906
        95   01 Jun 2027 23:40:35.707   01 Jun 2027 23:41:12.330            36.623               Magadan2          1144.469
        96   01 Jun 2027 23:41:12.330   01 Jun 2027 23:42:14.334            62.004               Magadan1          1937.625
        97   01 Jun 2027 23:44:01.228   01 Jun 2027 23:45:44.976           103.748              Murmansk2          3242.125
        98   01 Jun 2027 23:46:47.865   01 Jun 2027 23:48:15.843            87.978              Murmansk2          2749.312
        99   01 Jun 2027 23:48:15.843   01 Jun 2027 23:49:26.074            70.231              Murmansk1          2194.719
       100   01 Jun 2027 23:49:35.457   01 Jun 2027 23:50:14.615            39.158                 Moscow          1223.688
       101   01 Jun 2027 23:52:32.390   01 Jun 2027 23:52:34.481             2.091                 Moscow            65.344
       102   01 Jun 2027 23:55:44.497   01 Jun 2027 23:56:12.580            28.083                 Moscow           877.594
       103   02 Jun 2027 00:13:53.172   02 Jun 2027 00:14:01.551             8.379               CapeTown           261.844
       104   02 Jun 2027 00:15:36.858   02 Jun 2027 00:17:36.523           119.665               CapeTown          3739.531
       105   02 Jun 2027 00:19:42.516   02 Jun 2027 00:21:39.726           117.210               CapeTown          3662.813
       106   02 Jun 2027 01:19:56.210   02 Jun 2027 01:21:07.707            71.497              Murmansk1          2234.281
       107   02 Jun 2027 01:24:48.842   02 Jun 2027 01:24:51.719             2.877                 Moscow            89.906
       108   02 Jun 2027 01:25:11.187   02 Jun 2027 01:25:26.169            14.982              Murmansk2           468.187
       109   02 Jun 2027 01:26:55.182   02 Jun 2027 01:27:07.682            12.500                 Moscow           390.625
       110   02 Jun 2027 01:27:42.855   02 Jun 2027 01:28:08.171            25.316              Murmansk2           791.125
       111   02 Jun 2027 01:30:43.270   02 Jun 2027 01:31:07.608            24.338                 Moscow           760.562
       112   02 Jun 2027 01:33:52.054   02 Jun 2027 01:34:16.382            24.328                 Moscow           760.250
       113   02 Jun 2027 01:51:11.208   02 Jun 2027 01:51:20.644             9.436               CapeTown           294.875
       114   02 Jun 2027 01:51:39.077   02 Jun 2027 01:52:41.319            62.242               CapeTown          1945.062
       115   02 Jun 2027 02:43:48.415   02 Jun 2027 02:44:40.973            52.558                Anadyr2          1642.437
       116   02 Jun 2027 02:44:43.716   02 Jun 2027 02:45:25.955            42.239                Anadyr1          1319.969
       117   02 Jun 2027 02:45:27.605   02 Jun 2027 02:46:27.445            59.840               Magadan1          1870.000
       118   02 Jun 2027 02:46:41.188   02 Jun 2027 02:46:43.707             2.519               Magadan2            78.719
       119   02 Jun 2027 02:46:46.343   02 Jun 2027 02:47:15.385            29.042               Magadan2           907.563
       120   02 Jun 2027 02:49:30.999   02 Jun 2027 02:49:38.440             7.441               Magadan2           232.531
       121   02 Jun 2027 02:52:24.326   02 Jun 2027 02:52:57.493            33.167                Norilsk          1036.469
       122   02 Jun 2027 02:54:03.440   02 Jun 2027 02:54:30.721            27.281                Norilsk           852.531
       123   02 Jun 2027 02:55:53.017   02 Jun 2027 02:56:03.851            10.834              Murmansk1           338.563
       124   02 Jun 2027 02:56:50.670   02 Jun 2027 02:57:24.466            33.796              Murmansk2          1056.125
       125   02 Jun 2027 02:58:41.299   02 Jun 2027 02:59:09.138            27.839              Murmansk1           869.969
       126   02 Jun 2027 03:00:00.625   02 Jun 2027 03:00:37.789            37.164                 Moscow          1161.375
       127   02 Jun 2027 04:28:54.101   02 Jun 2027 04:30:14.760            80.659                Anadyr1          2520.594
       128   02 Jun 2027 04:30:44.039   02 Jun 2027 04:30:58.492            14.453                Anadyr2           451.656
       129   02 Jun 2027 05:10:02.506   02 Jun 2027 05:12:40.025           157.519            RioGallegos          4922.469
       130   02 Jun 2027 06:01:35.850   02 Jun 2027 06:02:01.667            25.817               Magadan1           806.781
       131   02 Jun 2027 06:02:16.344   02 Jun 2027 06:05:26.619           190.275               Magadan2          5946.094
       132   02 Jun 2027 06:05:38.784   02 Jun 2027 06:06:29.319            50.535                Anadyr2          1579.219
       133   02 Jun 2027 06:06:43.960   02 Jun 2027 06:07:31.475            47.515               Magadan2          1484.844
       134   02 Jun 2027 06:07:36.884   02 Jun 2027 06:07:50.399            13.515                Novosib           422.344
       135   02 Jun 2027 06:08:03.276   02 Jun 2027 06:09:24.602            81.326              Murmansk1          2541.438
       136   02 Jun 2027 06:42:56.270   02 Jun 2027 06:45:48.462           172.192            RioGallegos          5381.000
       137   02 Jun 2027 07:19:32.012   02 Jun 2027 07:22:13.523           161.511                Sumatra          5047.219
       138   02 Jun 2027 07:39:54.542   02 Jun 2027 07:42:40.232           165.690                Irkutsk          5177.812
       139   02 Jun 2027 07:42:41.318   02 Jun 2027 07:42:50.272             8.954                Irkutsk           279.812
       140   02 Jun 2027 07:43:08.808   02 Jun 2027 07:44:02.183            53.375                Irkutsk          1667.969
       141   02 Jun 2027 07:44:02.225   02 Jun 2027 07:44:43.675            41.450              Murmansk2          1295.312
       142   02 Jun 2027 07:46:07.770   02 Jun 2027 07:46:25.260            17.490              Murmansk2           546.563
       143   02 Jun 2027 08:19:22.596   02 Jun 2027 08:20:09.218            46.622            RioGallegos          1456.937
       144   02 Jun 2027 08:53:43.915   02 Jun 2027 08:55:24.401           100.486                Sumatra          3140.188
       145   02 Jun 2027 09:02:36.911   02 Jun 2027 09:03:51.583            74.672                  Delhi          2333.500
       146   02 Jun 2027 09:04:33.623   02 Jun 2027 09:06:01.444            87.821                  Delhi          2744.406
       147   02 Jun 2027 09:15:38.854   02 Jun 2027 09:16:32.680            53.826                Irkutsk          1682.063
       148   02 Jun 2027 09:16:48.239   02 Jun 2027 09:16:50.865             2.626                Norilsk            82.063
       149   02 Jun 2027 09:17:08.994   02 Jun 2027 09:17:38.933            29.939                Norilsk           935.594
       150   02 Jun 2027 09:17:39.162   02 Jun 2027 09:18:19.238            40.076                 Moscow          1252.375
       151   02 Jun 2027 09:18:28.164   02 Jun 2027 09:18:54.340            26.176              Murmansk1           818.000
       152   02 Jun 2027 09:18:59.230   02 Jun 2027 09:19:57.816            58.586                Novosib          1830.812
       153   02 Jun 2027 09:23:51.046   02 Jun 2027 09:24:24.195            33.149              Murmansk2          1035.906
       154   02 Jun 2027 10:38:24.716   02 Jun 2027 10:40:13.901           109.185                  Delhi          3412.031
       155   02 Jun 2027 10:41:49.856   02 Jun 2027 10:42:21.340            31.484                  Delhi           983.875
       156   02 Jun 2027 10:51:06.629   02 Jun 2027 10:51:13.014             6.385                Novosib           199.531
       157   02 Jun 2027 10:51:15.597   02 Jun 2027 10:51:37.828            22.231              Murmansk1           694.719
       158   02 Jun 2027 10:51:41.801   02 Jun 2027 10:51:51.545             9.744                 Moscow           304.500
       159   02 Jun 2027 10:51:51.597   02 Jun 2027 10:52:28.156            36.559                Novosib          1142.469
       160   02 Jun 2027 10:52:50.852   02 Jun 2027 10:53:18.098            27.246                Norilsk           851.438
       161   02 Jun 2027 10:53:18.534   02 Jun 2027 10:54:00.656            42.122                Norilsk          1316.313
       162   02 Jun 2027 10:54:38.824   02 Jun 2027 10:55:13.552            34.728              Murmansk2          1085.250
       163   02 Jun 2027 10:55:27.559   02 Jun 2027 10:55:30.458             2.899                Norilsk            90.594
       164   02 Jun 2027 10:55:39.724   02 Jun 2027 10:55:44.883             5.159              Murmansk2           161.219
       165   02 Jun 2027 10:55:46.897   02 Jun 2027 10:56:07.286            20.389                Norilsk           637.156
       166   02 Jun 2027 10:56:18.668   02 Jun 2027 10:56:45.580            26.912              Murmansk2           841.000
       167   02 Jun 2027 10:57:08.392   02 Jun 2027 10:57:14.364             5.972                 Moscow           186.625
       168   02 Jun 2027 12:22:11.302   02 Jun 2027 12:24:36.473           145.171                 Moscow          4536.594
       169   02 Jun 2027 12:25:26.137   02 Jun 2027 12:25:58.804            32.667                 Moscow          1020.844
       170   02 Jun 2027 12:26:04.507   02 Jun 2027 12:26:13.721             9.214                 Moscow           287.937
       171   02 Jun 2027 12:26:14.094   02 Jun 2027 12:28:56.536           162.442              Murmansk1          5076.313
       172   02 Jun 2027 12:29:43.846   02 Jun 2027 12:30:16.894            33.048              Murmansk2          1032.750
       173   02 Jun 2027 12:43:09.630   02 Jun 2027 12:44:33.942            84.312                Anadyr2          2634.750
       174   02 Jun 2027 13:36:04.557   02 Jun 2027 13:37:41.033            96.476               CapeTown          3014.875
       175   02 Jun 2027 13:39:24.167   02 Jun 2027 13:40:01.717            37.550               CapeTown          1173.438
       176   02 Jun 2027 13:47:09.645   02 Jun 2027 13:48:02.332            52.687               CapeTown          1646.469
       177   02 Jun 2027 14:03:19.361   02 Jun 2027 14:03:36.258            16.897              Murmansk1           528.031
       178   02 Jun 2027 14:03:37.722   02 Jun 2027 14:04:53.591            75.869              Murmansk2          2370.906
       179   02 Jun 2027 14:04:58.990   02 Jun 2027 14:05:20.747            21.757              Murmansk2           679.906
       180   02 Jun 2027 14:07:42.130   02 Jun 2027 14:08:12.422            30.292              Murmansk1           946.625
       181   02 Jun 2027 14:16:28.841   02 Jun 2027 14:18:36.570           127.729                Anadyr1          3991.531
       182   02 Jun 2027 14:19:03.727   02 Jun 2027 14:20:58.350           114.623                Anadyr2          3581.969
       183   02 Jun 2027 15:43:30.398   02 Jun 2027 15:44:32.573            62.175              Murmansk2          1942.969
       184   02 Jun 2027 15:46:08.803   02 Jun 2027 15:46:29.230            20.427              Murmansk1           638.344
       185   02 Jun 2027 15:47:00.287   02 Jun 2027 15:47:01.178             0.891              Murmansk2            27.844
       186   02 Jun 2027 15:52:11.356   02 Jun 2027 15:53:46.818            95.462                Anadyr2          2983.187
       187   02 Jun 2027 15:54:21.282   02 Jun 2027 15:54:56.371            35.089                Anadyr1          1096.531
       188   02 Jun 2027 15:55:06.868   02 Jun 2027 15:58:44.477           217.609               Magadan2          6800.281
       189   02 Jun 2027 17:28:06.749   02 Jun 2027 17:29:55.013           108.264                Anadyr2          3383.250
       190   02 Jun 2027 17:30:24.631   02 Jun 2027 17:32:09.315           104.684               Magadan2          3271.375
       191   02 Jun 2027 17:33:22.803   02 Jun 2027 17:34:33.829            71.026               Magadan1          2219.563
       192   02 Jun 2027 17:38:19.924   02 Jun 2027 17:38:39.717            19.793               Magadan1           618.531
       193   02 Jun 2027 18:23:39.086   02 Jun 2027 18:26:47.244           188.158            RioGallegos          5879.937
       194   02 Jun 2027 18:29:42.551   02 Jun 2027 18:30:35.603            53.052            RioGallegos          1657.875
       195   02 Jun 2027 19:06:03.313   02 Jun 2027 19:10:08.505           245.192                Norilsk          7662.250
       196   02 Jun 2027 19:10:43.068   02 Jun 2027 19:11:35.473            52.405                Irkutsk          1637.656
       197   02 Jun 2027 19:12:52.281   02 Jun 2027 19:14:20.161            87.880                Irkutsk          2746.250
       198   02 Jun 2027 19:25:11.166   02 Jun 2027 19:25:40.102            28.936                Sumatra           904.250
       199   02 Jun 2027 19:27:23.252   02 Jun 2027 19:29:32.649           129.397                Sumatra          4043.656
       200   02 Jun 2027 19:30:43.218   02 Jun 2027 19:31:57.716            74.498                Sumatra          2328.062
       201   02 Jun 2027 20:45:44.673   02 Jun 2027 20:46:50.742            66.069                Irkutsk          2064.656
       202   02 Jun 2027 20:47:01.435   02 Jun 2027 20:47:57.545            56.110                Novosib          1753.437
       203   02 Jun 2027 20:48:44.742   02 Jun 2027 20:50:05.848            81.106                Novosib          2534.562
       204   02 Jun 2027 20:55:19.798   02 Jun 2027 20:57:55.642           155.844                  Delhi          4870.125
       205   02 Jun 2027 21:01:23.923   02 Jun 2027 21:03:09.705           105.782                  Delhi          3305.687
       206   02 Jun 2027 22:20:36.905   02 Jun 2027 22:24:27.614           230.709              Murmansk2          7209.656
       207   02 Jun 2027 22:24:51.731   02 Jun 2027 22:26:57.984           126.253              Murmansk1          3945.406
       208   02 Jun 2027 23:52:59.148   02 Jun 2027 23:53:03.881             4.733               Magadan2           147.906
       209   02 Jun 2027 23:53:50.907   02 Jun 2027 23:53:58.689             7.782               Magadan1           243.188
       210   02 Jun 2027 23:54:08.815   02 Jun 2027 23:54:32.732            23.917               Magadan2           747.406
       211   02 Jun 2027 23:55:10.791   02 Jun 2027 23:55:43.630            32.839               Magadan2          1026.219
       212   02 Jun 2027 23:56:01.650   02 Jun 2027 23:58:46.898           165.248              Murmansk1          5164.000
       213   02 Jun 2027 23:58:46.898   03 Jun 2027 00:00:05.658            78.760              Murmansk2          2461.250
       214   03 Jun 2027 00:00:29.707   03 Jun 2027 00:02:19.167           109.460                 Moscow          3420.625
       215   03 Jun 2027 00:25:10.139   03 Jun 2027 00:26:33.197            83.058               CapeTown          2595.562
       216   03 Jun 2027 00:26:58.387   03 Jun 2027 00:27:55.761            57.374               CapeTown          1792.938
       217   03 Jun 2027 00:31:37.723   03 Jun 2027 00:32:23.274            45.551               CapeTown          1423.469
       218   03 Jun 2027 01:31:57.910   03 Jun 2027 01:33:00.566            62.656              Murmansk2          1958.000
       219   03 Jun 2027 01:33:00.566   03 Jun 2027 01:33:27.823            27.257              Murmansk1           851.781
       220   03 Jun 2027 01:35:07.118   03 Jun 2027 01:35:15.334             8.216              Murmansk2           256.750
       221   03 Jun 2027 01:35:23.032   03 Jun 2027 01:35:28.322             5.290              Murmansk1           165.313
       222   03 Jun 2027 01:35:30.400   03 Jun 2027 01:36:09.239            38.839                 Moscow          1213.719
       223   03 Jun 2027 01:36:39.095   03 Jun 2027 01:36:49.026             9.931                 Moscow           310.344
       224   03 Jun 2027 01:37:17.698   03 Jun 2027 01:38:26.513            68.815                 Moscow          2150.469
       225   03 Jun 2027 01:59:06.894   03 Jun 2027 01:59:53.292            46.398               CapeTown          1449.938
       226   03 Jun 2027 02:03:59.062   03 Jun 2027 02:04:01.010             1.948               CapeTown            60.875
       227   03 Jun 2027 02:07:28.117   03 Jun 2027 02:07:47.459            19.342               CapeTown           604.437
       228   03 Jun 2027 02:55:53.990   03 Jun 2027 02:57:22.610            88.620                Anadyr2          2769.375
       229   03 Jun 2027 02:57:42.326   03 Jun 2027 02:58:40.581            58.255               Magadan1          1820.469
       230   03 Jun 2027 02:58:43.869   03 Jun 2027 02:59:36.489            52.620               Magadan2          1644.375
       231   03 Jun 2027 03:01:54.386   03 Jun 2027 03:02:07.167            12.781               Magadan2           399.406
       232   03 Jun 2027 03:02:12.206   03 Jun 2027 03:04:36.506           144.300                Anadyr1          4509.375
       233   03 Jun 2027 03:04:36.506   03 Jun 2027 03:05:34.466            57.960                Anadyr2          1811.250
       234   03 Jun 2027 03:07:41.913   03 Jun 2027 03:07:49.329             7.416               Magadan1           231.750
       235   03 Jun 2027 04:38:27.268   03 Jun 2027 04:38:42.258            14.990                Irkutsk           468.437
       236   03 Jun 2027 04:41:34.160   03 Jun 2027 04:42:28.701            54.541               Magadan2          1704.406
       237   03 Jun 2027 04:42:44.390   03 Jun 2027 04:42:46.047             1.657               Magadan1            51.781
       238   03 Jun 2027 04:43:03.636   03 Jun 2027 04:44:20.710            77.074               Magadan2          2408.563
       239   03 Jun 2027 05:26:24.487   03 Jun 2027 05:26:39.141            14.654            RioGallegos           457.938
       240   03 Jun 2027 06:14:14.698   03 Jun 2027 06:14:39.321            24.623               Magadan1           769.469
       241   03 Jun 2027 06:14:53.227   03 Jun 2027 06:16:36.758           103.531               Magadan1          3235.344
       242   03 Jun 2027 06:16:36.758   03 Jun 2027 06:17:20.035            43.277               Magadan2          1352.406
       243   03 Jun 2027 06:17:53.117   03 Jun 2027 06:18:04.470            11.353               Magadan2           354.781
       244   03 Jun 2027 06:18:04.470   03 Jun 2027 06:18:56.333            51.863               Magadan1          1620.719
       245   03 Jun 2027 06:19:01.221   03 Jun 2027 06:19:18.444            17.223               Magadan1           538.219
       246   03 Jun 2027 06:19:35.237   03 Jun 2027 06:19:53.077            17.840                Novosib           557.500
       247   03 Jun 2027 06:20:02.639   03 Jun 2027 06:20:42.154            39.515                Norilsk          1234.844
       248   03 Jun 2027 06:20:42.745   03 Jun 2027 06:20:52.416             9.671                Novosib           302.219
       249   03 Jun 2027 06:22:55.710   03 Jun 2027 06:23:02.958             7.248              Murmansk2           226.500
       250   03 Jun 2027 06:25:26.580   03 Jun 2027 06:25:37.877            11.297              Murmansk2           353.031
       251   03 Jun 2027 06:54:49.606   03 Jun 2027 06:55:52.236            62.630            RioGallegos          1957.188
       252   03 Jun 2027 06:56:48.054   03 Jun 2027 06:57:13.843            25.789            RioGallegos           805.906
       253   03 Jun 2027 07:30:53.451   03 Jun 2027 07:33:34.648           161.197                Sumatra          5037.406
       254   03 Jun 2027 07:50:37.347   03 Jun 2027 07:51:13.359            36.012                Irkutsk          1125.375
       255   03 Jun 2027 07:51:16.476   03 Jun 2027 07:51:47.070            30.594                Novosib           956.063
       256   03 Jun 2027 07:51:57.580   03 Jun 2027 07:52:46.801            49.221                Irkutsk          1538.156
       257   03 Jun 2027 07:52:59.294   03 Jun 2027 07:53:29.582            30.288                Norilsk           946.500
       258   03 Jun 2027 07:53:40.445   03 Jun 2027 07:53:45.302             4.857                Norilsk           151.781
       259   03 Jun 2027 07:54:05.111   03 Jun 2027 07:54:21.810            16.699                Norilsk           521.844
       260   03 Jun 2027 07:54:34.412   03 Jun 2027 07:54:38.531             4.119                Irkutsk           128.719
       261   03 Jun 2027 07:54:53.949   03 Jun 2027 07:55:09.120            15.171                Irkutsk           474.094
       262   03 Jun 2027 07:55:15.486   03 Jun 2027 07:55:34.133            18.647                Norilsk           582.719
       263   03 Jun 2027 07:55:36.225   03 Jun 2027 07:55:51.726            15.501                Norilsk           484.406
       264   03 Jun 2027 07:55:52.342   03 Jun 2027 07:56:03.204            10.862              Murmansk2           339.437
       265   03 Jun 2027 07:56:34.981   03 Jun 2027 07:56:41.454             6.473              Murmansk2           202.281
       266   03 Jun 2027 08:00:03.996   03 Jun 2027 08:00:46.888            42.892              Murmansk2          1340.375
       267   03 Jun 2027 08:31:45.226   03 Jun 2027 08:32:13.276            28.050            RioGallegos           876.562
       268   03 Jun 2027 08:36:02.663   03 Jun 2027 08:36:37.589            34.926            RioGallegos          1091.437
       269   03 Jun 2027 09:06:00.485   03 Jun 2027 09:07:13.176            72.691                Sumatra          2271.594
       270   03 Jun 2027 09:15:46.790   03 Jun 2027 09:16:47.490            60.700                  Delhi          1896.875
       271   03 Jun 2027 09:27:23.574   03 Jun 2027 09:27:24.090             0.516                Norilsk            16.125
       272   03 Jun 2027 09:27:53.328   03 Jun 2027 09:28:09.463            16.135                 Moscow           504.219
       273   03 Jun 2027 09:28:22.199   03 Jun 2027 09:28:48.223            26.024                Novosib           813.250
       274   03 Jun 2027 09:28:48.629   03 Jun 2027 09:29:20.372            31.743                 Moscow           991.969
       275   03 Jun 2027 09:29:25.156   03 Jun 2027 09:30:41.630            76.474                Irkutsk          2389.812
       276   03 Jun 2027 09:30:44.713   03 Jun 2027 09:31:15.903            31.190              Murmansk2           974.688
       277   03 Jun 2027 09:31:15.903   03 Jun 2027 09:31:58.429            42.526              Murmansk1          1328.937
       278   03 Jun 2027 10:50:53.368   03 Jun 2027 10:52:12.232            78.864                  Delhi          2464.500
       279   03 Jun 2027 10:53:55.775   03 Jun 2027 10:54:29.638            33.863                  Delhi          1058.219
       280   03 Jun 2027 10:54:40.443   03 Jun 2027 10:55:37.020            56.577                  Delhi          1768.031
       281   03 Jun 2027 11:03:17.172   03 Jun 2027 11:03:43.848            26.676              Murmansk1           833.625
       282   03 Jun 2027 11:03:54.695   03 Jun 2027 11:03:57.800             3.105              Murmansk1            97.031
       283   03 Jun 2027 11:03:57.800   03 Jun 2027 11:04:15.283            17.483              Murmansk2           546.344
       284   03 Jun 2027 11:04:40.701   03 Jun 2027 11:04:57.195            16.494                Novosib           515.438
       285   03 Jun 2027 11:05:01.925   03 Jun 2027 11:05:42.106            40.181                 Moscow          1255.656
       286   03 Jun 2027 11:05:44.843   03 Jun 2027 11:06:29.086            44.243                Novosib          1382.594
       287   03 Jun 2027 11:06:39.428   03 Jun 2027 11:07:33.004            53.576              Murmansk2          1674.250
       288   03 Jun 2027 11:08:07.949   03 Jun 2027 11:08:19.899            11.950                 Moscow           373.437
       289   03 Jun 2027 12:34:18.582   03 Jun 2027 12:37:26.014           187.432                 Moscow          5857.250
       290   03 Jun 2027 12:37:50.054   03 Jun 2027 12:39:52.583           122.529              Murmansk1          3829.031
       291   03 Jun 2027 12:40:15.986   03 Jun 2027 12:40:35.893            19.907              Murmansk2           622.094
       292   03 Jun 2027 12:40:35.893   03 Jun 2027 12:40:58.233            22.340              Murmansk1           698.125
       293   03 Jun 2027 12:41:38.046   03 Jun 2027 12:42:28.524            50.478              Murmansk2          1577.437
       294   03 Jun 2027 12:54:02.957   03 Jun 2027 12:57:13.733           190.776                Anadyr2          5961.750
       295   03 Jun 2027 12:57:17.209   03 Jun 2027 12:58:22.080            64.871                Anadyr1          2027.219
       296   03 Jun 2027 14:15:42.703   03 Jun 2027 14:15:49.673             6.970              Murmansk1           217.812
       297   03 Jun 2027 14:16:27.788   03 Jun 2027 14:18:26.697           118.909              Murmansk1          3715.906
       298   03 Jun 2027 14:28:26.583   03 Jun 2027 14:30:25.890           119.307                Anadyr2          3728.344
       299   03 Jun 2027 14:31:03.200   03 Jun 2027 14:32:43.102            99.902                Anadyr1          3121.937
       300   03 Jun 2027 15:56:22.185   03 Jun 2027 15:58:05.112           102.927              Murmansk2          3216.469
       301   03 Jun 2027 15:58:30.502   03 Jun 2027 15:59:00.366            29.864              Murmansk2           933.250
       302   03 Jun 2027 16:04:12.473   03 Jun 2027 16:06:18.010           125.537                Anadyr2          3923.031
       303   03 Jun 2027 16:06:55.274   03 Jun 2027 16:07:28.126            32.852                Anadyr2          1026.625
       304   03 Jun 2027 16:08:00.187   03 Jun 2027 16:10:51.607           171.420               Magadan1          5356.875
       305   03 Jun 2027 16:12:51.498   03 Jun 2027 16:13:03.155            11.657               Magadan1           364.281
       306   03 Jun 2027 16:14:13.010   03 Jun 2027 16:15:00.311            47.301               Magadan1          1478.156
       307   03 Jun 2027 17:40:07.809   03 Jun 2027 17:40:50.517            42.708                Anadyr2          1334.625
       308   03 Jun 2027 17:41:03.653   03 Jun 2027 17:41:39.679            36.026                Anadyr1          1125.812
       309   03 Jun 2027 17:42:24.924   03 Jun 2027 17:44:06.322           101.398               Magadan1          3168.687
       310   03 Jun 2027 17:45:29.308   03 Jun 2027 17:46:06.113            36.805               Magadan1          1150.156
       311   03 Jun 2027 17:46:14.033   03 Jun 2027 17:46:35.218            21.185               Magadan2           662.031
       312   03 Jun 2027 17:51:18.083   03 Jun 2027 17:51:42.256            24.173               Magadan2           755.406
       313   03 Jun 2027 18:35:12.625   03 Jun 2027 18:39:26.212           253.587            RioGallegos          7924.594
       314   03 Jun 2027 18:40:26.831   03 Jun 2027 18:41:45.038            78.207            RioGallegos          2443.969
       315   03 Jun 2027 19:18:23.871   03 Jun 2027 19:19:14.530            50.659               Magadan1          1583.094
       316   03 Jun 2027 19:19:25.707   03 Jun 2027 19:22:08.974           163.267                Norilsk          5102.094
       317   03 Jun 2027 19:22:29.988   03 Jun 2027 19:23:05.654            35.666                Irkutsk          1114.562
       318   03 Jun 2027 19:23:48.072   03 Jun 2027 19:24:58.336            70.264                Irkutsk          2195.750
       319   03 Jun 2027 19:26:12.351   03 Jun 2027 19:26:19.480             7.129                Irkutsk           222.781
       320   03 Jun 2027 19:36:38.368   03 Jun 2027 19:39:48.273           189.905                Sumatra          5934.531
       321   03 Jun 2027 19:41:51.105   03 Jun 2027 19:42:40.260            49.155                Sumatra          1536.094
       322   03 Jun 2027 19:42:54.825   03 Jun 2027 19:43:31.211            36.386                Sumatra          1137.063
       323   03 Jun 2027 20:57:45.326   03 Jun 2027 20:59:10.296            84.970                Irkutsk          2655.312
       324   03 Jun 2027 20:59:21.064   03 Jun 2027 20:59:49.066            28.002                Novosib           875.062
       325   03 Jun 2027 21:00:49.397   03 Jun 2027 21:01:01.955            12.558                Novosib           392.437
       326   03 Jun 2027 21:06:38.202   03 Jun 2027 21:07:06.128            27.926                  Delhi           872.688
       327   03 Jun 2027 21:07:22.601   03 Jun 2027 21:09:40.254           137.653                  Delhi          4301.656
       328   03 Jun 2027 21:13:33.609   03 Jun 2027 21:13:44.184            10.575                  Delhi           330.469
       329   03 Jun 2027 22:31:48.171   03 Jun 2027 22:31:59.837            11.666               Magadan1           364.563
       330   03 Jun 2027 22:32:29.064   03 Jun 2027 22:39:43.867           434.803              Murmansk2         13587.594
       331   04 Jun 2027 00:03:38.373   04 Jun 2027 00:04:35.822            57.449               Magadan1          1795.281
       332   04 Jun 2027 00:06:38.942   04 Jun 2027 00:07:12.207            33.265               Magadan1          1039.531
       333   04 Jun 2027 00:08:02.427   04 Jun 2027 00:08:50.947            48.520              Murmansk1          1516.250
       334   04 Jun 2027 00:08:57.786   04 Jun 2027 00:09:40.071            42.285              Murmansk2          1321.406
       335   04 Jun 2027 00:10:45.487   04 Jun 2027 00:10:55.867            10.380              Murmansk1           324.375
       336   04 Jun 2027 00:11:21.735   04 Jun 2027 00:11:54.308            32.573              Murmansk1          1017.906
       337   04 Jun 2027 00:12:19.904   04 Jun 2027 00:13:23.547            63.643                 Moscow          1988.844
       338   04 Jun 2027 00:15:13.015   04 Jun 2027 00:15:32.113            19.098                 Moscow           596.813
       339   04 Jun 2027 00:18:59.907   04 Jun 2027 00:19:29.172            29.265                 Moscow           914.531
       340   04 Jun 2027 00:19:44.745   04 Jun 2027 00:20:40.131            55.386                 Moscow          1730.812
       341   04 Jun 2027 00:36:35.949   04 Jun 2027 00:37:54.953            79.004               CapeTown          2468.875
       342   04 Jun 2027 00:38:46.411   04 Jun 2027 00:39:40.201            53.790               CapeTown          1680.937
       343   04 Jun 2027 01:35:18.481   04 Jun 2027 01:36:10.984            52.503               Magadan1          1640.719
       344   04 Jun 2027 01:37:35.396   04 Jun 2027 01:37:43.693             8.297               Magadan2           259.281
       345   04 Jun 2027 01:39:31.609   04 Jun 2027 01:39:35.111             3.502               Magadan2           109.438
       346   04 Jun 2027 01:40:09.517   04 Jun 2027 01:40:37.742            28.225               Magadan2           882.031
       347   04 Jun 2027 01:42:43.854   04 Jun 2027 01:43:07.571            23.717               Magadan2           741.156
       348   04 Jun 2027 01:43:59.600   04 Jun 2027 01:44:52.417            52.817              Murmansk2          1650.531
       349   04 Jun 2027 01:44:52.417   04 Jun 2027 01:45:58.773            66.356              Murmansk1          2073.625
       350   04 Jun 2027 01:47:13.080   04 Jun 2027 01:47:38.434            25.354                Novosib           792.313
       351   04 Jun 2027 01:51:23.262   04 Jun 2027 01:51:27.111             3.849                 Moscow           120.281
       352   04 Jun 2027 01:51:35.574   04 Jun 2027 01:51:38.649             3.075                 Moscow            96.094
       353   04 Jun 2027 01:52:17.154   04 Jun 2027 01:52:42.599            25.445                 Moscow           795.156
       354   04 Jun 2027 01:57:44.300   04 Jun 2027 01:58:21.153            36.853                 Moscow          1151.656
       355   04 Jun 2027 02:14:10.357   04 Jun 2027 02:14:50.483            40.126               CapeTown          1253.938
       356   04 Jun 2027 02:19:49.115   04 Jun 2027 02:20:18.379            29.264               CapeTown           914.500
       357   04 Jun 2027 03:13:56.085   04 Jun 2027 03:14:05.434             9.349                Anadyr2           292.156
       358   04 Jun 2027 03:14:07.814   04 Jun 2027 03:14:19.413            11.599               Magadan1           362.469
       359   04 Jun 2027 03:14:27.458   04 Jun 2027 03:14:31.525             4.067                Anadyr2           127.094
       360   04 Jun 2027 03:14:54.973   04 Jun 2027 03:16:36.667           101.694                Anadyr1          3177.937
       361   04 Jun 2027 03:16:51.557   04 Jun 2027 03:17:34.495            42.938               Magadan2          1341.813
       362   04 Jun 2027 03:17:39.689   04 Jun 2027 03:17:41.430             1.741                Anadyr2            54.406
       363   04 Jun 2027 03:18:00.137   04 Jun 2027 03:18:50.400            50.263                Anadyr1          1570.719
       364   04 Jun 2027 03:19:29.498   04 Jun 2027 03:20:20.227            50.729                Anadyr1          1585.281
       365   04 Jun 2027 04:52:55.684   04 Jun 2027 04:54:08.762            73.078                Anadyr2          2283.688
       366   04 Jun 2027 06:26:46.810   04 Jun 2027 06:29:46.766           179.956                Irkutsk          5623.625
       367   04 Jun 2027 06:30:07.573   04 Jun 2027 06:31:07.535            59.962               Magadan1          1873.812
       368   04 Jun 2027 06:31:11.721   04 Jun 2027 06:31:17.113             5.392               Magadan1           168.500
       369   04 Jun 2027 06:31:34.632   04 Jun 2027 06:31:45.165            10.533               Magadan1           329.156
       370   04 Jun 2027 06:32:08.975   04 Jun 2027 06:32:16.244             7.269                Norilsk           227.156
       371   04 Jun 2027 06:32:22.398   04 Jun 2027 06:33:01.796            39.398                Novosib          1231.187
       372   04 Jun 2027 06:34:14.288   04 Jun 2027 06:34:15.656             1.368              Murmansk2            42.750
       373   04 Jun 2027 06:35:06.481   04 Jun 2027 06:35:12.190             5.709              Murmansk2           178.406
       374   04 Jun 2027 06:35:33.444   04 Jun 2027 06:36:28.114            54.670              Murmansk2          1708.437
       375   04 Jun 2027 07:06:46.128   04 Jun 2027 07:07:10.303            24.175            RioGallegos           755.469
       376   04 Jun 2027 07:08:46.230   04 Jun 2027 07:08:58.952            12.722            RioGallegos           397.563
       377   04 Jun 2027 07:14:11.245   04 Jun 2027 07:15:26.898            75.653            RioGallegos          2364.156
       378   04 Jun 2027 07:43:35.295   04 Jun 2027 07:45:53.106           137.811                Sumatra          4306.594
       379   04 Jun 2027 08:02:31.212   04 Jun 2027 08:02:35.480             4.268                Irkutsk           133.375
       380   04 Jun 2027 08:02:41.250   04 Jun 2027 08:02:43.990             2.740                Novosib            85.625
       381   04 Jun 2027 08:03:15.691   04 Jun 2027 08:04:11.850            56.159                Novosib          1754.969
       382   04 Jun 2027 08:04:17.104   04 Jun 2027 08:04:46.959            29.855                Norilsk           932.969
       383   04 Jun 2027 08:04:50.552   04 Jun 2027 08:04:52.214             1.662              Murmansk1            51.938
       384   04 Jun 2027 08:04:59.534   04 Jun 2027 08:05:38.304            38.770                Norilsk          1211.562
       385   04 Jun 2027 08:06:06.778   04 Jun 2027 08:06:55.184            48.406              Murmansk2          1512.688
       386   04 Jun 2027 08:07:04.505   04 Jun 2027 08:07:32.295            27.790                Novosib           868.438
       387   04 Jun 2027 08:07:37.242   04 Jun 2027 08:07:55.492            18.250              Murmansk1           570.313
       388   04 Jun 2027 08:08:24.473   04 Jun 2027 08:08:39.731            15.258              Murmansk1           476.812
       389   04 Jun 2027 08:14:07.754   04 Jun 2027 08:14:23.964            16.210              Murmansk1           506.562
       390   04 Jun 2027 08:44:13.015   04 Jun 2027 08:45:25.394            72.379            RioGallegos          2261.844
       391   04 Jun 2027 09:18:24.868   04 Jun 2027 09:19:07.845            42.977                Sumatra          1343.031
       392   04 Jun 2027 09:19:51.080   04 Jun 2027 09:20:29.040            37.960                Sumatra          1186.250
       393   04 Jun 2027 09:27:38.209   04 Jun 2027 09:28:53.440            75.231                  Delhi          2350.969
       394   04 Jun 2027 09:39:20.602   04 Jun 2027 09:39:27.159             6.557              Murmansk1           204.906
       395   04 Jun 2027 09:39:33.758   04 Jun 2027 09:40:02.230            28.472              Murmansk2           889.750
       396   04 Jun 2027 09:40:05.932   04 Jun 2027 09:40:28.229            22.297                 Moscow           696.781
       397   04 Jun 2027 09:40:50.931   04 Jun 2027 09:41:19.429            28.498              Murmansk2           890.563
       398   04 Jun 2027 09:41:27.924   04 Jun 2027 09:41:46.977            19.053              Murmansk2           595.406
       399   04 Jun 2027 09:41:56.382   04 Jun 2027 09:42:41.676            45.294                Norilsk          1415.437
       400   04 Jun 2027 09:42:49.707   04 Jun 2027 09:43:14.752            25.045                Novosib           782.656
       401   04 Jun 2027 09:43:18.151   04 Jun 2027 09:43:48.104            29.953                Novosib           936.031
       402   04 Jun 2027 09:44:00.098   04 Jun 2027 09:44:02.210             2.112              Murmansk1            66.000
       403   04 Jun 2027 09:44:02.210   04 Jun 2027 09:44:24.742            22.532              Murmansk2           704.125
       404   04 Jun 2027 09:45:00.323   04 Jun 2027 09:45:27.360            27.037                 Moscow           844.906
       405   04 Jun 2027 09:46:27.507   04 Jun 2027 09:46:39.124            11.617                 Moscow           363.031
       406   04 Jun 2027 11:03:40.570   04 Jun 2027 11:05:25.266           104.696                  Delhi          3271.750
       407   04 Jun 2027 11:15:31.763   04 Jun 2027 11:15:56.271            24.508              Murmansk2           765.875
       408   04 Jun 2027 11:16:07.016   04 Jun 2027 11:16:17.779            10.763                 Moscow           336.344
       409   04 Jun 2027 11:16:44.248   04 Jun 2027 11:17:44.255            60.007                 Moscow          1875.219
       410   04 Jun 2027 11:17:54.168   04 Jun 2027 11:18:59.791            65.623                Novosib          2050.719
       411   04 Jun 2027 11:19:03.926   04 Jun 2027 11:19:24.570            20.644                Norilsk           645.125
       412   04 Jun 2027 11:19:27.402   04 Jun 2027 11:19:32.255             4.853              Murmansk2           151.656
       413   04 Jun 2027 11:19:36.350   04 Jun 2027 11:20:09.669            33.319                 Moscow          1041.219
       414   04 Jun 2027 11:22:01.572   04 Jun 2027 11:22:58.809            57.237                 Moscow          1788.656
       415   04 Jun 2027 12:46:29.056   04 Jun 2027 12:47:44.369            75.313                 Moscow          2353.531
       416   04 Jun 2027 12:49:59.220   04 Jun 2027 12:54:30.005           270.785              Murmansk1          8462.031
       417   04 Jun 2027 13:05:35.262   04 Jun 2027 13:09:05.082           209.820                Anadyr1          6556.875
       418   04 Jun 2027 13:09:39.827   04 Jun 2027 13:11:29.637           109.810                Anadyr2          3431.562
       419   04 Jun 2027 14:28:29.547   04 Jun 2027 14:28:54.661            25.114              Murmansk1           784.812
       420   04 Jun 2027 14:30:28.273   04 Jun 2027 14:30:34.849             6.576              Murmansk2           205.500
       421   04 Jun 2027 14:30:58.623   04 Jun 2027 14:32:17.806            79.183              Murmansk2          2474.469
       422   04 Jun 2027 14:40:25.120   04 Jun 2027 14:42:18.203           113.083                Anadyr2          3533.844
       423   04 Jun 2027 14:43:02.210   04 Jun 2027 14:44:26.880            84.670                Anadyr1          2645.938
       424   04 Jun 2027 16:09:23.667   04 Jun 2027 16:09:59.590            35.923              Murmansk1          1122.594
       425   04 Jun 2027 16:09:59.590   04 Jun 2027 16:11:01.935            62.345              Murmansk2          1948.281
       426   04 Jun 2027 16:16:13.706   04 Jun 2027 16:17:46.988            93.282                Anadyr2          2915.063
       427   04 Jun 2027 16:18:13.031   04 Jun 2027 16:18:50.436            37.405                Anadyr1          1168.906
       428   04 Jun 2027 16:18:52.361   04 Jun 2027 16:22:49.200           236.839               Magadan2          7401.219
       429   04 Jun 2027 16:26:15.734   04 Jun 2027 16:27:00.112            44.378               Magadan2          1386.813
       430   04 Jun 2027 17:52:08.699   04 Jun 2027 17:53:54.812           106.113                Anadyr1          3316.031
       431   04 Jun 2027 17:54:25.657   04 Jun 2027 17:57:12.660           167.003               Magadan1          5218.844
       432   04 Jun 2027 17:57:17.542   04 Jun 2027 17:57:35.388            17.846                Norilsk           557.687
       433   04 Jun 2027 18:03:31.604   04 Jun 2027 18:03:40.685             9.081               Magadan2           283.781
       434   04 Jun 2027 18:46:53.675   04 Jun 2027 18:53:12.936           379.261            RioGallegos         11851.906
       435   04 Jun 2027 19:32:08.331   04 Jun 2027 19:35:10.198           181.867                Norilsk          5683.344
       436   04 Jun 2027 19:35:38.350   04 Jun 2027 19:37:05.318            86.968                Irkutsk          2717.750
       437   04 Jun 2027 19:44:20.411   04 Jun 2027 19:45:34.830            74.419                Irkutsk          2325.594
       438   04 Jun 2027 19:48:14.760   04 Jun 2027 19:49:30.836            76.076                Sumatra          2377.375
       439   04 Jun 2027 19:50:18.498   04 Jun 2027 19:51:51.641            93.143                Sumatra          2910.719
       440   04 Jun 2027 21:10:02.717   04 Jun 2027 21:10:06.699             3.982                Novosib           124.437
       441   04 Jun 2027 21:11:55.374   04 Jun 2027 21:12:29.194            33.820                Novosib          1056.875
       442   04 Jun 2027 21:13:39.009   04 Jun 2027 21:13:48.464             9.455                Irkutsk           295.469
       443   04 Jun 2027 21:14:01.033   04 Jun 2027 21:14:17.676            16.643                Novosib           520.094
       444   04 Jun 2027 21:14:21.294   04 Jun 2027 21:15:49.536            88.242                Novosib          2757.563
       445   04 Jun 2027 21:18:08.966   04 Jun 2027 21:20:36.485           147.519                  Delhi          4609.969
       446   04 Jun 2027 21:24:11.533   04 Jun 2027 21:24:54.100            42.567                  Delhi          1330.219
       447   04 Jun 2027 22:42:38.193   04 Jun 2027 22:42:55.386            17.193               Magadan2           537.281
       448   04 Jun 2027 22:43:02.264   04 Jun 2027 22:43:24.681            22.417                Norilsk           700.531
       449   04 Jun 2027 22:44:23.786   04 Jun 2027 22:48:23.913           240.127              Murmansk2          7503.969
       450   04 Jun 2027 22:49:46.643   04 Jun 2027 22:50:15.377            28.734              Murmansk1           897.938
       451   04 Jun 2027 22:50:30.384   04 Jun 2027 22:54:24.128           233.744                 Moscow          7304.500
       452   05 Jun 2027 00:20:03.485   05 Jun 2027 00:21:40.218            96.733              Murmansk2          3022.906
       453   05 Jun 2027 00:21:59.225   05 Jun 2027 00:22:25.971            26.746                Novosib           835.813
       454   05 Jun 2027 00:23:23.307   05 Jun 2027 00:24:14.811            51.504              Murmansk2          1609.500
       455   05 Jun 2027 00:24:54.314   05 Jun 2027 00:25:45.737            51.423                 Moscow          1606.969
       456   05 Jun 2027 00:26:36.821   05 Jun 2027 00:27:28.386            51.565                 Moscow          1611.406
       457   05 Jun 2027 00:31:37.814   05 Jun 2027 00:31:45.869             8.055                 Moscow           251.719
       458   05 Jun 2027 00:48:08.896   05 Jun 2027 00:49:53.879           104.983               CapeTown          3280.719
       459   05 Jun 2027 00:51:05.732   05 Jun 2027 00:51:29.832            24.100               CapeTown           753.125
       460   05 Jun 2027 01:45:49.478   05 Jun 2027 01:46:05.929            16.451                Anadyr1           514.094
       461   05 Jun 2027 01:46:51.853   05 Jun 2027 01:48:17.997            86.144               Magadan2          2692.000
       462   05 Jun 2027 01:49:48.366   05 Jun 2027 01:49:49.351             0.985               Magadan1            30.781
       463   05 Jun 2027 01:50:57.677   05 Jun 2027 01:51:28.396            30.719               Magadan1           959.969
       464   05 Jun 2027 01:53:10.528   05 Jun 2027 01:53:29.797            19.269                Norilsk           602.156
       465   05 Jun 2027 01:55:01.677   05 Jun 2027 01:55:03.934             2.257                Norilsk            70.531
       466   05 Jun 2027 01:55:12.996   05 Jun 2027 01:55:16.794             3.798                Norilsk           118.688
       467   05 Jun 2027 01:56:01.250   05 Jun 2027 01:57:31.021            89.771              Murmansk2          2805.344
       468   05 Jun 2027 01:59:02.863   05 Jun 2027 01:59:15.817            12.954              Murmansk1           404.813
       469   05 Jun 2027 01:59:23.905   05 Jun 2027 01:59:34.586            10.681                Novosib           333.781
       470   05 Jun 2027 01:59:47.414   05 Jun 2027 02:00:05.954            18.540                 Moscow           579.375
       471   05 Jun 2027 02:00:46.585   05 Jun 2027 02:02:24.346            97.761                 Moscow          3055.031
       472   05 Jun 2027 02:23:58.307   05 Jun 2027 02:24:43.508            45.201               CapeTown          1412.531
       473   05 Jun 2027 02:34:44.166   05 Jun 2027 02:35:28.966            44.800               CapeTown          1400.000
       474   05 Jun 2027 03:26:14.711   05 Jun 2027 03:26:21.642             6.931                Anadyr1           216.594
       475   05 Jun 2027 03:26:32.804   05 Jun 2027 03:26:37.715             4.911                Anadyr1           153.469
       476   05 Jun 2027 03:27:02.667   05 Jun 2027 03:29:18.912           136.245               Magadan2          4257.656
       477   05 Jun 2027 03:29:22.854   05 Jun 2027 03:29:31.916             9.062                Anadyr1           283.188
       478   05 Jun 2027 03:29:41.410   05 Jun 2027 03:29:55.580            14.170                Anadyr2           442.813
       479   05 Jun 2027 03:30:23.232   05 Jun 2027 03:30:49.352            26.120                Anadyr1           816.250
       480   05 Jun 2027 03:31:20.953   05 Jun 2027 03:31:45.333            24.380               Magadan1           761.875
       481   05 Jun 2027 03:32:21.278   05 Jun 2027 03:32:44.784            23.506                Anadyr2           734.562
       482   05 Jun 2027 05:05:18.329   05 Jun 2027 05:05:50.225            31.896               Magadan1           996.750
