uniorb/output/strategy_2/Drop/Drop_KinoSat_110204.txt

KinoSat_110204
-------------------------
    Access    *     Start Time (UTCG)     *     Stop Time (UTCG)  *   Duration (s)        *       Station  *  Data (Mbytes)
         1   01 Jun 2027 04:11:36.993   01 Jun 2027 04:12:52.572            75.579                Norilsk          9447.375
         2   01 Jun 2027 04:12:56.020   01 Jun 2027 04:13:03.882             7.862                Norilsk           982.750
         3   01 Jun 2027 04:13:06.668   01 Jun 2027 04:13:31.119            24.451                Novosib          3056.375
         4   01 Jun 2027 04:13:37.812   01 Jun 2027 04:14:27.528            49.716                Norilsk          4810.000
         5   01 Jun 2027 04:14:36.799   01 Jun 2027 04:15:52.090            75.291                Novosib          4635.500
         6   01 Jun 2027 04:15:52.372   01 Jun 2027 04:16:14.671            22.299              Murmansk1           141.000
         7   01 Jun 2027 04:16:16.470   01 Jun 2027 04:16:55.750            39.280              Murmansk1           899.500
         8   01 Jun 2027 04:17:09.703   01 Jun 2027 04:18:11.548            61.845                Novosib          6976.500
         9   01 Jun 2027 05:49:13.451   01 Jun 2027 05:51:06.835           113.384                Norilsk         10360.000
        10   01 Jun 2027 05:51:07.191   01 Jun 2027 05:51:08.024             0.833              Murmansk2           104.125
        11   01 Jun 2027 05:51:08.024   01 Jun 2027 05:51:29.643            21.619              Murmansk1            73.875
        12   01 Jun 2027 05:51:39.383   01 Jun 2027 05:52:22.153            42.770                Irkutsk          4870.000
        13   01 Jun 2027 05:52:23.517   01 Jun 2027 05:52:34.955            11.438                 Moscow           682.000
        14   01 Jun 2027 05:52:51.113   01 Jun 2027 05:53:58.534            67.421              Murmansk2          8079.000
        15   01 Jun 2027 07:25:01.023   01 Jun 2027 07:25:27.932            26.909                Norilsk          1908.000
        16   01 Jun 2027 07:25:28.521   01 Jun 2027 07:25:38.555            10.034                 Moscow           294.500
        17   01 Jun 2027 07:25:53.568   01 Jun 2027 07:27:22.802            89.234                Norilsk          7506.500
        18   01 Jun 2027 07:27:25.970   01 Jun 2027 07:27:40.229            14.259                Norilsk          1584.000
        19   01 Jun 2027 07:27:52.501   01 Jun 2027 07:28:12.219            19.718                 Moscow          2464.750
        20   01 Jun 2027 07:28:24.098   01 Jun 2027 07:28:59.808            35.710                Norilsk          4463.750
        21   01 Jun 2027 07:29:02.190   01 Jun 2027 07:30:08.311            66.121                Novosib          6338.000
        22   01 Jun 2027 09:03:55.702   01 Jun 2027 09:05:17.244            81.542              Murmansk1          1366.500
        23   02 Jun 2027 04:23:59.220   02 Jun 2027 04:25:18.682            79.462                Novosib          4915.000
        24   02 Jun 2027 04:25:26.035   02 Jun 2027 04:26:26.780            60.745                Irkutsk          3676.500
        25   02 Jun 2027 04:26:33.567   02 Jun 2027 04:26:59.277            25.710                Irkutsk          3213.750
        26   02 Jun 2027 04:27:00.338   02 Jun 2027 04:27:59.213            58.875                Novosib           710.250
        27   02 Jun 2027 04:28:04.649   02 Jun 2027 04:28:43.240            38.591              Murmansk2          2718.000
        28   02 Jun 2027 04:28:48.004   02 Jun 2027 04:29:27.196            39.192                Norilsk          2382.000
        29   02 Jun 2027 04:29:37.168   02 Jun 2027 04:30:44.515            67.347                Novosib          4986.000
        30   02 Jun 2027 06:01:07.208   02 Jun 2027 06:01:16.395             9.187              Murmansk1           151.000
        31   02 Jun 2027 06:01:17.939   02 Jun 2027 06:01:26.303             8.364                 Moscow           772.000
        32   02 Jun 2027 06:01:32.900   02 Jun 2027 06:02:22.858            49.958                Norilsk          3298.500
        33   02 Jun 2027 06:02:26.964   02 Jun 2027 06:03:05.470            38.506              Murmansk2          2053.000
        34   02 Jun 2027 06:03:10.029   02 Jun 2027 06:03:53.177            43.148                 Moscow          2279.500
        35   02 Jun 2027 06:03:56.176   02 Jun 2027 06:04:24.250            28.074                Norilsk          1499.500
        36   02 Jun 2027 06:04:35.440   02 Jun 2027 06:05:32.260            56.820                 Moscow          5595.000
        37   02 Jun 2027 06:05:40.497   02 Jun 2027 06:06:37.393            56.896              Murmansk2          4118.500
        38   02 Jun 2027 07:37:27.745   02 Jun 2027 07:38:26.749            59.004                Novosib          4156.000
        39   02 Jun 2027 07:38:33.260   02 Jun 2027 07:39:08.450            35.190                 Moscow          3255.500
        40   02 Jun 2027 07:39:09.244   02 Jun 2027 07:39:12.506             3.262              Murmansk1           397.000
        41   02 Jun 2027 07:39:16.479   02 Jun 2027 07:40:05.924            49.445                Novosib          1986.500
        42   02 Jun 2027 07:40:05.972   02 Jun 2027 07:40:17.566            11.594                 Moscow            24.000
        43   02 Jun 2027 07:40:32.614   02 Jun 2027 07:41:35.960            63.346                 Moscow          7524.000
        44   02 Jun 2027 07:41:43.793   02 Jun 2027 07:41:50.558             6.765                Norilsk           845.625
        45   02 Jun 2027 07:41:51.402   02 Jun 2027 07:42:01.132             9.730                 Moscow          1216.250
        46   02 Jun 2027 07:42:20.222   02 Jun 2027 07:42:21.791             1.569                Novosib           196.125
        47   02 Jun 2027 07:42:21.849   02 Jun 2027 07:43:02.345            40.496              Murmansk2          2080.500
        48   03 Jun 2027 03:00:04.264   03 Jun 2027 03:00:24.027            19.763               Magadan2          2132.000
        49   03 Jun 2027 03:00:28.722   03 Jun 2027 03:01:27.965            59.243                Novosib          2347.500
        50   03 Jun 2027 03:01:28.026   03 Jun 2027 03:01:44.615            16.589                Norilsk            30.500
        51   03 Jun 2027 03:01:44.962   03 Jun 2027 03:01:56.495            11.533                Novosib           173.500
        52   03 Jun 2027 03:02:07.167   03 Jun 2027 03:02:58.425            51.258               Magadan2          5336.000
        53   03 Jun 2027 03:03:04.625   03 Jun 2027 03:03:33.614            28.989                Novosib          3100.000
        54   03 Jun 2027 03:03:34.703   03 Jun 2027 03:04:12.312            37.609                Norilsk           544.500
        55   03 Jun 2027 03:04:20.172   03 Jun 2027 03:05:31.780            71.608                Novosib          3930.000
        56   03 Jun 2027 03:05:33.492   03 Jun 2027 03:06:23.990            50.498                Novosib           856.000
        57   03 Jun 2027 04:35:35.748   03 Jun 2027 04:35:42.691             6.943                Norilsk           867.875
        58   03 Jun 2027 04:35:43.792   03 Jun 2027 04:36:58.539            74.747                Novosib          6532.125
        59   03 Jun 2027 04:37:03.194   03 Jun 2027 04:37:08.562             5.368                Novosib           671.000
        60   03 Jun 2027 04:37:10.284   03 Jun 2027 04:37:33.220            22.936                Irkutsk          2517.500
        61   03 Jun 2027 04:37:34.935   03 Jun 2027 04:38:27.268            52.333                Irkutsk           857.500
        62   03 Jun 2027 04:38:36.059   03 Jun 2027 04:39:13.856            37.797                Norilsk          4395.500
        63   03 Jun 2027 04:39:19.985   03 Jun 2027 04:40:13.550            53.565                Norilsk          3064.500
        64   03 Jun 2027 04:40:18.459   03 Jun 2027 04:40:46.627            28.168                Novosib          2454.500
        65   03 Jun 2027 04:40:55.457   03 Jun 2027 04:41:43.944            48.487              Murmansk1          4415.000
        66   03 Jun 2027 04:41:59.509   03 Jun 2027 04:42:58.691            59.182              Murmansk2          2476.500
        67   03 Jun 2027 06:13:24.766   03 Jun 2027 06:13:56.103            31.337              Murmansk1           781.000
        68   03 Jun 2027 06:13:57.416   03 Jun 2027 06:14:41.244            43.828              Murmansk2           656.500
        69   03 Jun 2027 06:14:42.281   03 Jun 2027 06:15:09.809            27.528                 Moscow           518.500
        70   03 Jun 2027 06:15:14.833   03 Jun 2027 06:15:47.314            32.481                Irkutsk          2512.000
        71   03 Jun 2027 06:15:49.527   03 Jun 2027 06:16:07.270            17.743              Murmansk1          1106.500
        72   03 Jun 2027 06:16:12.595   03 Jun 2027 06:16:42.583            29.988                Novosib          2662.500
        73   03 Jun 2027 06:16:48.633   03 Jun 2027 06:17:43.680            55.047                 Moscow          3025.000
        74   03 Jun 2027 07:49:04.554   03 Jun 2027 07:49:42.597            38.043              Murmansk1           748.500
        75   03 Jun 2027 07:49:57.424   03 Jun 2027 07:51:11.616            74.192              Murmansk2          7413.500
        76   03 Jun 2027 07:51:12.960   03 Jun 2027 07:52:15.626            62.666                 Moscow           672.000
        77   03 Jun 2027 07:52:22.380   03 Jun 2027 07:52:55.304            32.924                 Moscow          3377.000
        78   03 Jun 2027 07:52:55.639   03 Jun 2027 07:52:59.294             3.655                Norilsk           167.500
        79   03 Jun 2027 07:53:13.578   03 Jun 2027 07:54:13.935            60.357              Murmansk2          7142.000
        80   03 Jun 2027 07:54:21.810   03 Jun 2027 07:54:58.603            36.793                Norilsk          3937.500
        81   04 Jun 2027 03:10:44.077   04 Jun 2027 03:11:06.344            22.267                Norilsk           416.500
        82   04 Jun 2027 03:11:16.660   04 Jun 2027 03:12:06.539            49.879                Novosib          5158.000
        83   04 Jun 2027 03:12:11.291   04 Jun 2027 03:12:34.676            23.385               Magadan2          2376.000
        84   04 Jun 2027 03:12:47.451   04 Jun 2027 03:13:50.337            62.886                Irkutsk          6387.500
        85   04 Jun 2027 03:13:50.614   04 Jun 2027 03:14:09.736            19.122                Novosib           138.500
        86   04 Jun 2027 03:14:14.684   04 Jun 2027 03:14:44.131            29.447                Norilsk          2474.000
        87   04 Jun 2027 03:14:53.670   04 Jun 2027 03:15:42.961            49.291                Novosib          4769.500
        88   04 Jun 2027 03:15:58.504   04 Jun 2027 03:17:34.495            95.991               Magadan1          7771.500
        89   04 Jun 2027 03:17:34.701   04 Jun 2027 03:17:49.447            14.746              Murmansk1           103.000
        90   04 Jun 2027 03:17:57.630   04 Jun 2027 03:18:27.381            29.751                Novosib          3718.875
        91   04 Jun 2027 03:18:32.188   04 Jun 2027 03:18:40.717             8.529                Norilsk           372.625
        92   04 Jun 2027 04:47:48.569   04 Jun 2027 04:48:12.379            23.810                Novosib          2526.000
        93   04 Jun 2027 04:48:29.202   04 Jun 2027 04:49:36.650            67.448                Norilsk          8411.500
        94   04 Jun 2027 04:49:41.395   04 Jun 2027 04:51:01.749            80.354                Irkutsk          2372.500
        95   04 Jun 2027 04:51:03.501   04 Jun 2027 04:51:17.825            14.324                Novosib           876.000
        96   04 Jun 2027 04:51:20.870   04 Jun 2027 04:53:45.591           144.721                Irkutsk          1522.500
        97   04 Jun 2027 04:53:46.025   04 Jun 2027 04:54:04.371            18.346              Murmansk1           217.000
        98   04 Jun 2027 06:25:46.198   04 Jun 2027 06:25:57.871            11.673              Murmansk2           714.000
        99   04 Jun 2027 06:26:23.919   04 Jun 2027 06:28:14.618           110.699                 Moscow         13024.000
       100   04 Jun 2027 06:28:26.459   04 Jun 2027 06:29:16.886            50.427                 Moscow          5920.500
       101   04 Jun 2027 06:29:18.717   04 Jun 2027 06:29:28.891            10.174              Murmansk1           915.500
       102   04 Jun 2027 06:29:32.929   04 Jun 2027 06:29:56.971            24.042                Norilsk          2019.000
       103   04 Jun 2027 07:59:07.005   04 Jun 2027 07:59:42.339            35.334                 Moscow          4079.500
       104   04 Jun 2027 07:59:51.862   04 Jun 2027 08:00:40.391            48.529              Murmansk2          4761.500
       105   04 Jun 2027 08:00:58.318   04 Jun 2027 08:02:27.688            89.370              Murmansk1          8963.500
       106   04 Jun 2027 08:02:37.138   04 Jun 2027 08:03:17.118            39.980                Norilsk          4725.000
       107   04 Jun 2027 08:03:17.974   04 Jun 2027 08:04:02.161            44.187                 Moscow           428.000
       108   04 Jun 2027 08:04:11.850   04 Jun 2027 08:05:12.730            60.880                Novosib          4844.500
       109   04 Jun 2027 08:05:19.627   04 Jun 2027 08:05:20.731             1.104                Novosib           138.000
       110   04 Jun 2027 08:05:23.719   04 Jun 2027 08:05:54.618            30.899                 Moscow          3862.375
       111   04 Jun 2027 08:06:01.860   04 Jun 2027 08:06:47.634            45.774                Norilsk          4563.125
       112   04 Jun 2027 08:06:55.184   04 Jun 2027 08:07:24.448            29.264              Murmansk2          1657.000
       113   05 Jun 2027 03:22:58.997   05 Jun 2027 03:23:47.046            48.049               Magadan2          3702.000
       114   05 Jun 2027 03:23:50.794   05 Jun 2027 03:24:14.090            23.296               Magadan2          1874.000
       115   05 Jun 2027 03:24:16.076   05 Jun 2027 03:24:49.697            33.621                Novosib           993.000
       116   05 Jun 2027 03:24:54.396   05 Jun 2027 03:25:40.101            45.705                Novosib          2349.500
       117   05 Jun 2027 03:25:44.339   05 Jun 2027 03:26:11.888            27.549                Norilsk          2119.000
       118   05 Jun 2027 03:26:15.353   05 Jun 2027 03:26:37.979            22.626               Magadan1          1732.500
       119   05 Jun 2027 03:26:39.411   05 Jun 2027 03:27:05.604            26.193                Norilsk           716.000
       120   05 Jun 2027 03:27:12.877   05 Jun 2027 03:27:52.427            39.550                Norilsk          3636.500
       121   05 Jun 2027 03:27:54.446   05 Jun 2027 03:28:30.327            35.881                Novosib          1009.500
       122   05 Jun 2027 03:28:53.887   05 Jun 2027 03:30:31.620            97.733              Murmansk1         11780.000
       123   05 Jun 2027 05:00:02.419   05 Jun 2027 05:00:53.995            51.576                Irkutsk          6447.000
       124   05 Jun 2027 05:00:55.082   05 Jun 2027 05:01:38.347            43.265                Norilsk           824.500
       125   05 Jun 2027 05:01:40.124   05 Jun 2027 05:01:50.747            10.623                Norilsk           888.500
       126   05 Jun 2027 05:01:52.160   05 Jun 2027 05:02:13.033            20.873                Norilsk           706.500
       127   05 Jun 2027 05:02:14.278   05 Jun 2027 05:02:40.240            25.962                Norilsk           622.500
       128   05 Jun 2027 05:02:43.276   05 Jun 2027 05:02:56.758            13.482                Novosib          1518.000
       129   05 Jun 2027 05:03:04.166   05 Jun 2027 05:03:49.621            45.455                Novosib          3704.000
       130   05 Jun 2027 05:03:53.642   05 Jun 2027 05:04:20.931            27.289                 Moscow          2010.500
       131   05 Jun 2027 05:04:26.350   05 Jun 2027 05:04:50.527            24.177                Novosib          2709.500
       132   05 Jun 2027 05:04:51.223   05 Jun 2027 05:05:09.691            18.468                 Moscow           348.000
       133   05 Jun 2027 05:05:15.711   05 Jun 2027 05:05:43.886            28.175                 Moscow          3010.000
       134   05 Jun 2027 05:05:46.683   05 Jun 2027 05:07:00.507            73.824              Murmansk1          1398.500
       135   05 Jun 2027 06:37:46.699   05 Jun 2027 06:38:24.936            38.237                Norilsk          2375.000
       136   05 Jun 2027 06:38:29.318   05 Jun 2027 06:38:55.634            26.316                Norilsk          2191.000
       137   05 Jun 2027 06:39:04.062   05 Jun 2027 06:39:54.980            50.918              Murmansk1          4214.000
       138   05 Jun 2027 06:39:57.350   05 Jun 2027 06:40:38.017            40.667                Novosib          1185.000
       139   05 Jun 2027 06:40:41.233   05 Jun 2027 06:41:20.881            39.648                Norilsk          1608.000
       140   05 Jun 2027 06:41:21.584   05 Jun 2027 06:42:15.984            54.400                 Moscow           351.500
       141   05 Jun 2027 08:11:40.681   05 Jun 2027 08:13:47.024           126.343                 Moscow         15282.000
       142   05 Jun 2027 08:13:57.290   05 Jun 2027 08:15:23.505            86.215                 Moscow          5133.000
       143   05 Jun 2027 08:15:27.593   05 Jun 2027 08:16:08.490            40.897                Norilsk          2044.000
       144   05 Jun 2027 08:16:13.710   05 Jun 2027 08:16:48.865            35.155              Murmansk2          2610.000
       145   05 Jun 2027 08:16:50.262   05 Jun 2027 08:16:56.589             6.327              Murmansk2           698.500
       146   05 Jun 2027 08:17:00.065   05 Jun 2027 08:17:36.736            36.671                Norilsk          1738.000
       147   05 Jun 2027 08:17:37.426   05 Jun 2027 08:17:47.343             9.917                Norilsk           345.000
       148   05 Jun 2027 08:17:48.306   05 Jun 2027 08:18:03.182            14.876                 Moscow           481.500
       149   05 Jun 2027 08:18:06.267   05 Jun 2027 08:18:34.182            27.915                 Moscow          1542.500
       150   05 Jun 2027 08:18:49.425   05 Jun 2027 08:19:12.973            23.548                Norilsk          2943.500
       151   05 Jun 2027 08:19:30.282   05 Jun 2027 08:20:51.345            81.063                 Moscow          4212.500
       152   06 Jun 2027 03:35:13.639   06 Jun 2027 03:36:40.915            87.276                Irkutsk         10289.000
       153   06 Jun 2027 03:36:52.344   06 Jun 2027 03:37:43.453            51.109                Irkutsk          5714.500
       154   06 Jun 2027 03:37:44.674   06 Jun 2027 03:37:51.097             6.423                Norilsk           610.500
       155   06 Jun 2027 03:37:52.584   06 Jun 2027 03:38:01.486             8.902               Magadan2           743.500
       156   06 Jun 2027 03:38:03.770   06 Jun 2027 03:38:25.339            21.569                Novosib          1142.000
       157   06 Jun 2027 03:38:29.885   06 Jun 2027 03:39:02.835            32.950                Novosib          2273.000
       158   06 Jun 2027 03:39:04.473   06 Jun 2027 03:39:14.070             9.597               Magadan2           819.000
       159   06 Jun 2027 03:39:18.421   06 Jun 2027 03:39:36.060            17.639                Norilsk          2175.500
       160   06 Jun 2027 03:39:39.002   06 Jun 2027 03:41:14.702            95.700                Irkutsk          1471.000
       161   06 Jun 2027 03:41:23.278   06 Jun 2027 03:42:04.666            41.388                Irkutsk          4288.000
       162   06 Jun 2027 03:42:18.505   06 Jun 2027 03:42:20.323             1.818                Irkutsk           227.250
       163   06 Jun 2027 03:42:30.784   06 Jun 2027 03:43:03.562            32.778                Norilsk          4097.250
       164   06 Jun 2027 03:43:03.980   06 Jun 2027 03:43:32.414            28.434              Murmansk2          2595.000
       165   06 Jun 2027 05:11:46.261   06 Jun 2027 05:11:55.992             9.731                Novosib          1216.375
       166   06 Jun 2027 05:12:12.815   06 Jun 2027 05:12:28.654            15.839                Novosib          1979.875
       167   06 Jun 2027 05:12:41.602   06 Jun 2027 05:15:12.312           150.710                Irkutsk         14220.250
       168   06 Jun 2027 05:15:14.067   06 Jun 2027 05:15:53.979            39.912              Murmansk2           877.500
       169   06 Jun 2027 05:15:57.780   06 Jun 2027 05:16:44.871            47.091              Murmansk1          1900.500
       170   06 Jun 2027 05:16:56.922   06 Jun 2027 05:17:50.147            53.225              Murmansk1          6025.500
       171   06 Jun 2027 05:17:55.663   06 Jun 2027 05:18:22.366            26.703                Novosib          2758.000
       172   06 Jun 2027 05:18:33.833   06 Jun 2027 05:18:34.179             0.346                Norilsk            43.250
       173   06 Jun 2027 05:18:48.018   06 Jun 2027 05:19:04.924            16.906              Murmansk1           689.750
       174   06 Jun 2027 06:49:48.551   06 Jun 2027 06:50:17.849            29.298                Norilsk          2488.500
       175   06 Jun 2027 06:50:26.073   06 Jun 2027 06:51:14.106            48.033                Norilsk          4112.000
       176   06 Jun 2027 06:51:15.894   06 Jun 2027 06:51:23.776             7.882              Murmansk1           894.000
       177   06 Jun 2027 06:51:24.870   06 Jun 2027 06:52:03.067            38.197                Novosib           547.000
       178   06 Jun 2027 06:52:07.160   06 Jun 2027 06:52:26.411            19.251                 Moscow          2046.500
       179   06 Jun 2027 06:52:28.907   06 Jun 2027 06:53:18.718            49.811                Norilsk          1248.000
       180   06 Jun 2027 06:53:26.791   06 Jun 2027 06:53:59.430            32.639                 Moscow          4036.500
       181   06 Jun 2027 08:23:45.793   06 Jun 2027 08:24:50.805            65.012                 Moscow          5139.500
       182   06 Jun 2027 08:24:58.926   06 Jun 2027 08:25:15.045            16.119                 Moscow          2014.875
       183   06 Jun 2027 08:25:20.201   06 Jun 2027 08:26:05.765            45.564              Murmansk1          4623.625
       184   06 Jun 2027 08:26:06.800   06 Jun 2027 08:27:03.286            56.486                 Moscow           517.500
       185   06 Jun 2027 08:27:06.738   06 Jun 2027 08:27:29.696            22.958              Murmansk2          1726.000
       186   06 Jun 2027 08:27:39.765   06 Jun 2027 08:28:21.721            41.956              Murmansk2          5034.500
       187   06 Jun 2027 08:28:31.547   06 Jun 2027 08:29:28.634            57.087                Norilsk          4913.000
       188   06 Jun 2027 08:29:33.378   06 Jun 2027 08:30:22.658            49.280                Norilsk          2372.000
       189   07 Jun 2027 03:47:03.021   07 Jun 2027 03:48:04.321            61.300                Irkutsk          3340.500
       190   07 Jun 2027 03:48:17.481   07 Jun 2027 03:49:40.506            83.025               Magadan1          6580.000
       191   07 Jun 2027 03:49:42.942   07 Jun 2027 03:49:57.343            14.401               Magadan2          1218.000
       192   07 Jun 2027 03:50:01.979   07 Jun 2027 03:51:07.288            65.309                Irkutsk          2318.000
       193   07 Jun 2027 03:51:13.297   07 Jun 2027 03:51:38.141            24.844                Norilsk          3004.500
       194   07 Jun 2027 03:51:52.097   07 Jun 2027 03:52:52.924            60.827              Murmansk1          6978.000
       195   07 Jun 2027 03:52:54.773   07 Jun 2027 03:53:05.922            11.149              Murmansk1           924.500
       196   07 Jun 2027 03:53:12.600   07 Jun 2027 03:53:43.047            30.447                Norilsk          3339.000
       197   07 Jun 2027 03:53:53.313   07 Jun 2027 03:54:44.328            51.015              Murmansk2          5133.000
       198   07 Jun 2027 05:24:04.363   07 Jun 2027 05:24:38.444            34.081                Novosib          4260.125
       199   07 Jun 2027 05:25:23.495   07 Jun 2027 05:28:33.001           189.506                Novosib         23688.250
       200   07 Jun 2027 05:28:36.878   07 Jun 2027 05:29:18.234            41.356                 Moscow          3091.625
       201   07 Jun 2027 05:29:22.188   07 Jun 2027 05:29:28.410             6.222                Norilsk           777.750
       202   07 Jun 2027 05:29:30.694   07 Jun 2027 05:29:52.136            21.442              Murmansk2          2341.250
       203   07 Jun 2027 05:29:54.012   07 Jun 2027 05:30:10.200            16.188                Novosib           938.000
       204   07 Jun 2027 05:30:30.186   07 Jun 2027 05:31:04.044            33.858              Murmansk1           960.000
       205   07 Jun 2027 07:01:16.336   07 Jun 2027 07:02:38.144            81.808              Murmansk2          9586.500
       206   07 Jun 2027 07:02:54.467   07 Jun 2027 07:04:08.224            73.757                Novosib          8161.500
       207   07 Jun 2027 07:04:14.513   07 Jun 2027 07:04:40.166            25.653                 Moscow          3144.500
       208   07 Jun 2027 07:04:44.926   07 Jun 2027 07:05:02.177            17.251                Novosib          2156.375
       209   07 Jun 2027 07:05:05.762   07 Jun 2027 07:05:40.873            35.111              Murmansk2          2016.125
       210   07 Jun 2027 07:05:45.724   07 Jun 2027 07:06:19.198            33.474              Murmansk1          2425.500
       211   07 Jun 2027 08:35:58.660   07 Jun 2027 08:36:07.483             8.823              Murmansk2           570.000
       212   07 Jun 2027 08:36:13.794   07 Jun 2027 08:36:53.868            40.074              Murmansk1          3155.500
       213   07 Jun 2027 08:37:43.023   07 Jun 2027 08:38:04.425            21.402              Murmansk2          2168.500
       214   07 Jun 2027 08:38:17.694   07 Jun 2027 08:39:33.141            75.447                 Moscow          6634.500
       215   07 Jun 2027 08:39:33.536   07 Jun 2027 08:39:36.334             2.798                 Moscow           197.500
       216   07 Jun 2027 08:39:52.303   07 Jun 2027 08:41:15.749            83.446              Murmansk1          7984.500
       217   08 Jun 2027 03:59:34.071   08 Jun 2027 04:01:23.658           109.587                Irkutsk          6005.000
       218   08 Jun 2027 04:01:25.862   08 Jun 2027 04:01:46.189            20.327                Novosib          1102.000
       219   08 Jun 2027 04:01:54.321   08 Jun 2027 04:02:51.052            56.731                Norilsk          4066.000
       220   08 Jun 2027 04:03:06.367   08 Jun 2027 04:04:29.121            82.754                Irkutsk          7657.500
       221   08 Jun 2027 04:04:42.301   08 Jun 2027 04:05:38.778            56.477              Murmansk2          6590.000
       222   08 Jun 2027 04:05:39.755   08 Jun 2027 04:05:46.010             6.255                Novosib           488.500
       223   08 Jun 2027 04:05:55.062   08 Jun 2027 04:06:53.212            58.150              Murmansk1          4526.000
       224   08 Jun 2027 05:36:36.687   08 Jun 2027 05:37:19.799            43.112                Norilsk          5389.000
       225   08 Jun 2027 05:37:26.616   08 Jun 2027 05:38:31.219            64.603                Irkutsk          7093.500
       226   08 Jun 2027 05:38:33.092   08 Jun 2027 05:38:52.575            19.483                 Moscow           936.500
       227   08 Jun 2027 05:38:59.555   08 Jun 2027 05:39:44.092            44.537                Irkutsk          3490.000
       228   08 Jun 2027 05:39:47.020   08 Jun 2027 05:40:01.865            14.845              Murmansk1          1464.000
       229   08 Jun 2027 05:40:05.648   08 Jun 2027 05:40:12.116             6.468                Norilsk           808.500
       230   08 Jun 2027 05:40:19.596   08 Jun 2027 05:41:13.331            53.735                 Moscow          4823.000
       231   08 Jun 2027 05:41:18.441   08 Jun 2027 05:41:48.776            30.335              Murmansk2          2555.000
       232   08 Jun 2027 05:41:54.034   08 Jun 2027 05:42:24.198            30.164              Murmansk2          2629.000
       233   08 Jun 2027 07:13:20.824   08 Jun 2027 07:14:50.502            89.678                Novosib          5778.500
       234   08 Jun 2027 07:14:51.104   08 Jun 2027 07:15:23.437            32.333              Murmansk1           301.000
       235   08 Jun 2027 07:15:24.061   08 Jun 2027 07:15:29.866             5.805              Murmansk1           312.000
       236   08 Jun 2027 07:15:31.653   08 Jun 2027 07:15:39.831             8.178                 Moscow           893.500
       237   08 Jun 2027 07:15:45.898   08 Jun 2027 07:16:20.441            34.543                Norilsk          3033.500
       238   08 Jun 2027 07:16:25.834   08 Jun 2027 07:17:15.810            49.976                Norilsk          2696.500
       239   08 Jun 2027 07:17:16.845   08 Jun 2027 07:17:47.508            30.663                Novosib           517.500
       240   08 Jun 2027 08:50:56.052   08 Jun 2027 08:51:40.684            44.632              Murmansk1          5217.500
       241   08 Jun 2027 08:51:43.776   08 Jun 2027 08:52:30.202            46.426                 Moscow          1546.000
       242   09 Jun 2027 04:11:54.135   09 Jun 2027 04:13:12.100            77.965                Norilsk          9745.625
       243   09 Jun 2027 04:13:21.818   09 Jun 2027 04:14:44.156            82.338                Norilsk          7995.375
       244   09 Jun 2027 04:14:51.587   09 Jun 2027 04:16:09.736            78.149                Novosib          3715.500
       245   09 Jun 2027 04:16:11.009   09 Jun 2027 04:16:31.027            20.018              Murmansk1           636.500
       246   09 Jun 2027 04:16:34.952   09 Jun 2027 04:17:11.503            36.551              Murmansk1          1962.500
       247   09 Jun 2027 04:17:24.291   09 Jun 2027 04:17:50.400            26.109                Novosib          3263.625
       248   09 Jun 2027 04:17:56.942   09 Jun 2027 04:19:03.227            66.285              Murmansk1          6401.375
       249   09 Jun 2027 05:49:22.840   09 Jun 2027 05:50:01.516            38.676                Irkutsk          4834.500
       250   09 Jun 2027 05:50:08.116   09 Jun 2027 05:50:58.771            50.655                Novosib          5427.500
       251   09 Jun 2027 05:51:08.822   09 Jun 2027 05:52:43.423            94.601                Novosib          5025.500
       252   09 Jun 2027 05:52:48.285   09 Jun 2027 05:53:09.246            20.961                Novosib          2431.000
       253   09 Jun 2027 05:53:11.026   09 Jun 2027 05:53:50.136            39.110                Norilsk           890.000
       254   09 Jun 2027 07:25:16.315   09 Jun 2027 07:25:43.104            26.789                Norilsk          2273.000
       255   09 Jun 2027 07:25:46.412   09 Jun 2027 07:25:52.866             6.454                 Moscow           806.750
       256   09 Jun 2027 07:26:03.753   09 Jun 2027 07:27:12.254            68.501              Murmansk2          6290.750
       257   09 Jun 2027 07:27:21.059   09 Jun 2027 07:28:08.670            47.611                 Moscow          4402.500
       258   09 Jun 2027 07:28:09.752   09 Jun 2027 07:28:27.006            17.254                 Moscow           541.000
       259   09 Jun 2027 07:28:37.361   09 Jun 2027 07:29:24.098            46.737              Murmansk2          5177.500
       260   09 Jun 2027 07:29:31.389   09 Jun 2027 07:30:03.175            31.786                Norilsk          3645.500
       261   10 Jun 2027 04:24:14.049   10 Jun 2027 04:25:33.090            79.041                Novosib          4809.000
       262   10 Jun 2027 04:25:40.777   10 Jun 2027 04:26:45.966            65.189                Irkutsk          3843.500
       263   10 Jun 2027 04:26:57.376   10 Jun 2027 04:28:16.907            79.531                Novosib          5705.000
       264   10 Jun 2027 04:28:19.199   10 Jun 2027 04:28:29.719            10.520              Murmansk1          1146.000
       265   10 Jun 2027 04:28:30.623   10 Jun 2027 04:29:03.290            32.667              Murmansk2           452.000
       266   10 Jun 2027 04:29:05.329   10 Jun 2027 04:29:44.628            39.299                Norilsk          1019.500
       267   10 Jun 2027 04:29:52.383   10 Jun 2027 04:30:38.051            45.668              Murmansk2          3877.500
       268   10 Jun 2027 06:01:21.039   10 Jun 2027 06:01:34.079            13.040                Norilsk            13.500
       269   10 Jun 2027 06:01:35.562   10 Jun 2027 06:01:43.527             7.965                 Moscow           741.500
       270   10 Jun 2027 06:01:47.763   10 Jun 2027 06:02:07.517            19.754                Norilsk          2118.000
       271   10 Jun 2027 06:02:11.526   10 Jun 2027 06:02:46.282            34.756              Murmansk2          2004.500
       272   10 Jun 2027 06:03:10.566   10 Jun 2027 06:04:35.699            85.133                Novosib         10641.625
       273   10 Jun 2027 06:04:39.875   10 Jun 2027 06:05:01.585            21.710                Norilsk          2713.750
       274   10 Jun 2027 06:05:11.383   10 Jun 2027 06:06:14.526            63.143                 Moscow          5773.625
       275   10 Jun 2027 07:37:42.103   10 Jun 2027 07:38:13.819            31.716                Novosib          3815.500
       276   10 Jun 2027 07:38:17.633   10 Jun 2027 07:38:32.194            14.561                Norilsk          1820.125
       277   10 Jun 2027 07:38:40.550   10 Jun 2027 07:39:38.306            57.756                Norilsk          4264.875
       278   10 Jun 2027 07:39:46.026   10 Jun 2027 07:40:49.250            63.224              Murmansk2          3860.000
       279   10 Jun 2027 07:40:56.377   10 Jun 2027 07:41:17.223            20.846              Murmansk1          2605.750
       280   10 Jun 2027 07:41:17.223   10 Jun 2027 07:41:40.942            23.719              Murmansk2           957.750
       281   10 Jun 2027 07:41:41.109   10 Jun 2027 07:41:53.701            12.592                 Moscow            83.500
       282   10 Jun 2027 07:41:58.707   10 Jun 2027 07:42:06.824             8.117                Norilsk          1014.625
       283   10 Jun 2027 07:42:08.268   10 Jun 2027 07:42:33.954            25.686                 Moscow          2210.375
       284   11 Jun 2027 03:00:04.236   11 Jun 2027 03:00:44.759            40.523                Novosib          2118.000
       285   11 Jun 2027 03:00:51.506   11 Jun 2027 03:01:39.380            47.874                Norilsk          3373.500
       286   11 Jun 2027 03:01:42.502   11 Jun 2027 03:01:57.279            14.777                Novosib          1561.000
       287   11 Jun 2027 03:01:59.428   11 Jun 2027 03:02:23.793            24.365                Norilsk          1074.500
       288   11 Jun 2027 03:02:29.245   11 Jun 2027 03:03:03.397            34.152                Novosib          2726.000
       289   11 Jun 2027 03:03:03.523   11 Jun 2027 03:03:26.605            23.082                Norilsk            63.000
       290   11 Jun 2027 03:03:31.471   11 Jun 2027 03:03:51.635            20.164                Norilsk          2433.000
       291   11 Jun 2027 03:03:52.281   11 Jun 2027 03:04:28.198            35.917                Norilsk           323.000
       292   11 Jun 2027 03:04:34.165   11 Jun 2027 03:04:59.455            25.290                Novosib          2983.500
       293   11 Jun 2027 03:05:03.255   11 Jun 2027 03:05:18.564            15.309                Norilsk          1900.000
       294   11 Jun 2027 03:05:20.923   11 Jun 2027 03:05:46.245            25.322                Irkutsk          1179.500
       295   11 Jun 2027 03:05:46.344   11 Jun 2027 03:05:51.368             5.024              Murmansk2            49.500
       296   11 Jun 2027 03:05:51.811   11 Jun 2027 03:06:00.949             9.138              Murmansk1           221.500
       297   11 Jun 2027 03:06:05.779   11 Jun 2027 03:06:38.893            33.114              Murmansk1          2415.000
       298   11 Jun 2027 04:35:37.151   11 Jun 2027 04:35:52.820            15.669                Norilsk           208.500
       299   11 Jun 2027 04:35:58.769   11 Jun 2027 04:36:23.423            24.654                Novosib          2974.500
       300   11 Jun 2027 04:36:38.616   11 Jun 2027 04:36:51.197            12.581                Norilsk          1572.625
       301   11 Jun 2027 04:37:04.033   11 Jun 2027 04:38:51.748           107.715                Norilsk         12441.875
       302   11 Jun 2027 04:38:51.849   11 Jun 2027 04:38:56.051             4.202                Novosib            50.500
       303   11 Jun 2027 04:38:58.866   11 Jun 2027 04:39:18.637            19.771                Norilsk          1407.500
       304   11 Jun 2027 04:39:20.079   11 Jun 2027 04:39:55.701            35.622              Murmansk1           721.000
       305   11 Jun 2027 04:40:04.221   11 Jun 2027 04:40:24.899            20.678                Novosib          2584.750
       306   11 Jun 2027 04:40:28.066   11 Jun 2027 04:41:00.566            32.500                Norilsk          3258.750
       307   11 Jun 2027 04:41:11.098   11 Jun 2027 04:41:41.193            30.095              Murmansk2          3761.875
       308   11 Jun 2027 04:41:41.193   11 Jun 2027 04:42:00.974            19.781              Murmansk1          1504.125
       309   11 Jun 2027 04:42:16.910   11 Jun 2027 04:42:24.458             7.548                Irkutsk           943.500
       310   11 Jun 2027 04:42:29.033   11 Jun 2027 04:43:15.196            46.163              Murmansk1           554.500
       311   11 Jun 2027 06:13:51.710   11 Jun 2027 06:14:56.860            65.150                 Moscow          1766.500
       312   11 Jun 2027 06:15:00.379   11 Jun 2027 06:15:18.765            18.386              Murmansk1          1759.500
       313   11 Jun 2027 06:15:27.747   11 Jun 2027 06:16:38.434            70.687                 Moscow          4491.000
       314   11 Jun 2027 06:16:40.164   11 Jun 2027 06:17:24.843            44.679              Murmansk1           865.000
       315   11 Jun 2027 06:17:25.727   11 Jun 2027 06:17:30.133             4.406                 Moscow           442.000
       316   11 Jun 2027 06:17:34.985   11 Jun 2027 06:18:47.398            72.413              Murmansk1          2426.000
       317   11 Jun 2027 07:49:21.533   11 Jun 2027 07:49:58.508            36.975              Murmansk1          1973.000
       318   11 Jun 2027 07:50:12.652   11 Jun 2027 07:51:26.459            73.807              Murmansk1          7072.000
       319   11 Jun 2027 07:51:31.082   11 Jun 2027 07:52:45.115            74.033              Murmansk1          2311.500
       320   11 Jun 2027 07:52:48.560   11 Jun 2027 07:53:11.455            22.895              Murmansk1          1722.500
       321   11 Jun 2027 07:53:11.666   11 Jun 2027 07:53:28.647            16.981              Murmansk1           105.500
       322   11 Jun 2027 07:53:29.536   11 Jun 2027 07:53:37.239             7.703                Novosib           444.500
       323   11 Jun 2027 07:53:44.261   11 Jun 2027 07:54:28.656            44.395              Murmansk1          2139.500
       324   11 Jun 2027 07:54:36.539   11 Jun 2027 07:55:00.418            23.879                Norilsk          2984.875
       325   11 Jun 2027 07:55:27.180   11 Jun 2027 07:55:35.867             8.687                 Moscow           956.625
       326   12 Jun 2027 03:11:01.368   12 Jun 2027 03:11:34.844            33.476               Magadan1          1779.000
       327   12 Jun 2027 03:11:37.361   12 Jun 2027 03:12:08.431            31.070                Irkutsk          1258.500
       328   12 Jun 2027 03:12:08.454   12 Jun 2027 03:12:56.745            48.291                Norilsk            11.500
       329   12 Jun 2027 03:13:02.553   12 Jun 2027 03:13:49.717            47.164                Irkutsk          2904.000
       330   12 Jun 2027 03:13:50.798   12 Jun 2027 03:13:57.314             6.516                Novosib           540.500
       331   12 Jun 2027 03:13:59.129   12 Jun 2027 03:14:12.526            13.397                Norilsk           907.500
       332   12 Jun 2027 03:14:22.434   12 Jun 2027 03:14:36.355            13.921               Magadan1          1740.125
       333   12 Jun 2027 03:14:36.355   12 Jun 2027 03:15:15.391            39.036               Magadan2          3213.875
       334   12 Jun 2027 03:15:18.722   12 Jun 2027 03:15:43.945            25.223                Novosib          1665.500
       335   12 Jun 2027 03:15:45.187   12 Jun 2027 03:15:52.373             7.186                Norilsk           621.000
       336   12 Jun 2027 03:16:00.419   12 Jun 2027 03:16:31.788            31.369                Novosib          3921.125
       337   12 Jun 2027 03:16:33.958   12 Jun 2027 03:17:06.129            32.171               Magadan2          1186.875
       338   12 Jun 2027 03:17:08.976   12 Jun 2027 03:17:51.387            42.411                Novosib          1423.500
       339   12 Jun 2027 03:17:56.559   12 Jun 2027 03:18:36.383            39.824                Norilsk          2586.000
       340   12 Jun 2027 04:48:24.995   12 Jun 2027 04:49:40.929            75.934                Irkutsk          9491.750
       341   12 Jun 2027 04:49:51.507   12 Jun 2027 04:51:08.822            77.315                Norilsk          9044.750
       342   12 Jun 2027 04:51:14.795   12 Jun 2027 04:51:32.551            17.756                Novosib          2219.500
       343   12 Jun 2027 04:51:35.438   12 Jun 2027 04:53:59.901           144.463                Irkutsk          2210.500
       344   12 Jun 2027 04:54:03.050   12 Jun 2027 04:54:19.159            16.109              Murmansk1          1574.500
       345   12 Jun 2027 06:25:59.568   12 Jun 2027 06:26:38.650            39.082                Norilsk           166.500
       346   12 Jun 2027 06:26:41.651   12 Jun 2027 06:27:12.247            30.596                Novosib          1500.500
       347   12 Jun 2027 06:27:12.546   12 Jun 2027 06:27:14.359             1.813              Murmansk1           149.500
       348   12 Jun 2027 06:27:23.652   12 Jun 2027 06:28:24.471            60.819                Norilsk          4646.500
       349   12 Jun 2027 06:28:27.288   12 Jun 2027 06:29:16.916            49.628              Murmansk1          1408.500
       350   12 Jun 2027 06:29:18.966   12 Jun 2027 06:29:35.895            16.929              Murmansk1          1025.000
       351   12 Jun 2027 06:29:43.430   12 Jun 2027 06:30:40.302            56.872              Murmansk1          3767.500
       352   12 Jun 2027 07:59:22.822   12 Jun 2027 07:59:36.190            13.368                 Moscow          1671.000
       353   12 Jun 2027 07:59:44.616   12 Jun 2027 08:01:33.672           109.056                 Moscow          7394.000
       354   12 Jun 2027 08:01:46.894   12 Jun 2027 08:02:42.517            55.623              Murmansk2          6611.000
       355   12 Jun 2027 08:02:43.733   12 Jun 2027 08:03:05.750            22.017                Novosib           608.000
       356   12 Jun 2027 08:03:18.482   12 Jun 2027 08:04:39.787            81.305              Murmansk1          6366.000
       357   12 Jun 2027 08:04:41.615   12 Jun 2027 08:04:59.124            17.509              Murmansk1           914.000
       358   12 Jun 2027 08:05:03.741   12 Jun 2027 08:05:53.270            49.529                Norilsk          2308.500
       359   12 Jun 2027 08:06:11.712   12 Jun 2027 08:07:02.269            50.557                Norilsk          5901.000
       360   12 Jun 2027 08:07:12.447   12 Jun 2027 08:07:54.674            42.227              Murmansk2          1744.500
       361   13 Jun 2027 03:23:13.647   13 Jun 2027 03:23:17.521             3.874               Magadan1           484.250
       362   13 Jun 2027 03:23:30.051   13 Jun 2027 03:24:34.235            64.184               Magadan1          8023.000
       363   13 Jun 2027 03:24:36.700   13 Jun 2027 03:24:49.872            13.172                Norilsk          1646.500
       364   13 Jun 2027 03:24:57.340   13 Jun 2027 03:25:51.376            54.036                Irkutsk          4624.750
       365   13 Jun 2027 03:25:58.117   13 Jun 2027 03:26:35.455            37.338                Novosib          3370.500
       366   13 Jun 2027 03:26:43.430   13 Jun 2027 03:28:04.762            81.332                Novosib          3987.500
       367   13 Jun 2027 03:28:07.023   13 Jun 2027 03:28:40.301            33.278                Norilsk          1130.500
       368   13 Jun 2027 03:28:46.591   13 Jun 2027 03:29:15.312            28.721                Novosib          3145.000
       369   13 Jun 2027 03:29:18.424   13 Jun 2027 03:29:56.776            38.352                Irkutsk          1556.000
       370   13 Jun 2027 03:30:07.426   13 Jun 2027 03:30:54.344            46.918              Murmansk1          5325.000
       371   13 Jun 2027 05:00:18.964   13 Jun 2027 05:01:12.562            53.598                Norilsk          6699.750
       372   13 Jun 2027 05:01:45.270   13 Jun 2027 05:05:35.736           230.466                Irkutsk         17166.750
       373   13 Jun 2027 05:05:58.124   13 Jun 2027 05:07:40.729           102.605                 Moscow         11194.000
       374   13 Jun 2027 06:38:01.361   13 Jun 2027 06:38:39.592            38.231                Norilsk          2269.500
       375   13 Jun 2027 06:38:44.759   13 Jun 2027 06:39:12.339            27.580                Norilsk          2583.500
       376   13 Jun 2027 06:39:16.130   13 Jun 2027 06:39:40.190            24.060                Norilsk          1895.500
       377   13 Jun 2027 06:39:42.957   13 Jun 2027 06:40:12.825            29.868              Murmansk1          1383.500
       378   13 Jun 2027 06:40:12.861   13 Jun 2027 06:40:14.551             1.690              Murmansk2            18.000
       379   13 Jun 2027 06:40:16.566   13 Jun 2027 06:40:36.615            20.049                 Moscow          1007.500
       380   13 Jun 2027 06:40:46.936   13 Jun 2027 06:41:36.031            49.095                Norilsk          5160.500
       381   13 Jun 2027 06:41:39.101   13 Jun 2027 06:42:32.422            53.321                 Moscow          1535.000
       382   13 Jun 2027 08:11:55.388   13 Jun 2027 08:14:01.572           126.184                 Moscow         14900.000
       383   13 Jun 2027 08:14:15.415   13 Jun 2027 08:15:41.937            86.522                 Moscow          6921.500
       384   13 Jun 2027 08:15:42.454   13 Jun 2027 08:15:54.207            11.753                Norilsk           258.500
       385   13 Jun 2027 08:15:58.533   13 Jun 2027 08:16:38.136            39.603                 Moscow          2163.000
       386   13 Jun 2027 08:16:38.700   13 Jun 2027 08:16:46.381             7.681              Murmansk2           282.000
       387   13 Jun 2027 08:16:46.465   13 Jun 2027 08:16:49.933             3.468                 Moscow            42.000
       388   13 Jun 2027 08:16:52.339   13 Jun 2027 08:17:03.537            11.198              Murmansk1          1203.000
       389   13 Jun 2027 08:17:05.363   13 Jun 2027 08:17:40.831            35.468              Murmansk2           913.000
       390   13 Jun 2027 08:17:52.420   13 Jun 2027 08:18:41.210            48.790                Norilsk          5794.500
       391   13 Jun 2027 08:18:42.247   13 Jun 2027 08:19:06.905            24.658              Murmansk2           518.500
