uniorb/output/strategy_2/Drop/Drop_KinoSat_111401.txt

KinoSat_111401
-------------------------
    Access    *     Start Time (UTCG)     *     Stop Time (UTCG)  *   Duration (s)        *       Station  *  Data (Mbytes)
         1   01 Jun 2027 04:04:58.196   01 Jun 2027 04:05:48.713            50.517              Murmansk1          1578.656
         2   01 Jun 2027 04:06:01.583   01 Jun 2027 04:06:15.914            14.331              Murmansk1           447.844
         3   01 Jun 2027 04:07:19.795   01 Jun 2027 04:08:38.158            78.363              Murmansk2          2448.844
         4   01 Jun 2027 04:08:38.158   01 Jun 2027 04:09:02.507            24.349              Murmansk1           760.906
         5   01 Jun 2027 04:10:09.469   01 Jun 2027 04:10:27.569            18.100                 Moscow           565.625
         6   01 Jun 2027 04:11:10.145   01 Jun 2027 04:11:24.598            14.453                 Moscow           451.656
         7   01 Jun 2027 05:27:03.920   01 Jun 2027 05:28:54.730           110.810               Magadan1          3462.813
         8   01 Jun 2027 05:28:56.243   01 Jun 2027 05:29:44.999            48.756               Magadan1          1523.625
         9   01 Jun 2027 05:29:44.999   01 Jun 2027 05:30:45.352            60.353               Magadan2          1886.031
        10   01 Jun 2027 07:05:26.340   01 Jun 2027 07:06:01.618            35.278                Anadyr1          1102.437
        11   01 Jun 2027 07:06:42.136   01 Jun 2027 07:07:45.395            63.259               Magadan1          1976.844
        12   01 Jun 2027 07:07:45.395   01 Jun 2027 07:08:15.495            30.100               Magadan2           940.625
        13   01 Jun 2027 08:38:28.021   01 Jun 2027 08:41:47.053           199.032               Magadan1          6219.750
        14   01 Jun 2027 08:41:50.861   01 Jun 2027 08:42:50.857            59.996               Magadan2          1874.875
        15   01 Jun 2027 08:43:03.548   01 Jun 2027 08:43:51.324            47.776               Magadan2          1493.000
        16   01 Jun 2027 09:25:39.617   01 Jun 2027 09:25:51.003            11.386            RioGallegos           355.812
        17   01 Jun 2027 09:31:10.335   01 Jun 2027 09:31:20.853            10.518            RioGallegos           328.687
        18   01 Jun 2027 09:56:17.845   01 Jun 2027 09:57:41.243            83.398                Sumatra          2606.187
        19   01 Jun 2027 10:01:44.412   01 Jun 2027 10:02:32.277            47.865                Sumatra          1495.781
        20   01 Jun 2027 10:15:06.322   01 Jun 2027 10:16:59.064           112.742               Magadan2          3523.188
        21   01 Jun 2027 10:16:59.064   01 Jun 2027 10:17:37.753            38.689               Magadan1          1209.031
        22   01 Jun 2027 10:18:21.160   01 Jun 2027 10:18:33.207            12.047                Irkutsk           376.469
        23   01 Jun 2027 10:18:52.428   01 Jun 2027 10:20:40.846           108.418              Murmansk1          3388.063
        24   01 Jun 2027 10:20:40.846   01 Jun 2027 10:21:20.604            39.758              Murmansk2          1242.437
        25   01 Jun 2027 10:21:36.814   01 Jun 2027 10:23:53.291           136.477                Norilsk          4264.906
        26   01 Jun 2027 10:24:52.848   01 Jun 2027 10:24:59.275             6.427              Murmansk2           200.844
        27   01 Jun 2027 10:25:47.226   01 Jun 2027 10:26:32.931            45.705              Murmansk2          1428.281
        28   01 Jun 2027 10:55:43.665   01 Jun 2027 10:57:12.884            89.219            RioGallegos          2788.094
        29   01 Jun 2027 10:58:11.664   01 Jun 2027 10:59:30.521            78.857            RioGallegos          2464.281
        30   01 Jun 2027 11:30:08.135   01 Jun 2027 11:32:20.435           132.300                Sumatra          4134.375
        31   01 Jun 2027 11:51:30.938   01 Jun 2027 11:53:36.328           125.390                Irkutsk          3918.438
        32   01 Jun 2027 11:54:23.617   01 Jun 2027 11:55:11.721            48.104                 Moscow          1503.250
        33   01 Jun 2027 11:55:23.657   01 Jun 2027 11:57:43.359           139.702              Murmansk2          4365.688
        34   01 Jun 2027 11:57:43.359   01 Jun 2027 11:57:52.376             9.017              Murmansk1           281.781
        35   01 Jun 2027 13:14:44.713   01 Jun 2027 13:15:29.342            44.629                  Delhi          1394.656
        36   01 Jun 2027 13:16:19.178   01 Jun 2027 13:16:50.530            31.352                  Delhi           979.750
        37   01 Jun 2027 13:19:31.144   01 Jun 2027 13:19:42.506            11.362                  Delhi           355.062
        38   01 Jun 2027 13:21:00.391   01 Jun 2027 13:22:02.415            62.024                  Delhi          1938.250
        39   01 Jun 2027 13:22:54.740   01 Jun 2027 13:28:11.954           317.214                Novosib          9912.937
        40   01 Jun 2027 13:28:52.176   01 Jun 2027 13:29:22.763            30.587                Norilsk           955.844
        41   01 Jun 2027 13:30:11.171   01 Jun 2027 13:30:54.357            43.186                Novosib          1349.562
        42   01 Jun 2027 13:32:12.368   01 Jun 2027 13:33:15.419            63.051                Novosib          1970.344
        43   01 Jun 2027 13:35:15.155   01 Jun 2027 13:35:43.594            28.439                Norilsk           888.719
        44   01 Jun 2027 13:36:45.083   01 Jun 2027 13:37:24.437            39.354                Norilsk          1229.812
        45   01 Jun 2027 13:37:33.597   01 Jun 2027 13:37:51.916            18.319              Murmansk2           572.469
        46   01 Jun 2027 13:38:03.467   01 Jun 2027 13:38:32.659            29.192              Murmansk2           912.250
        47   01 Jun 2027 14:58:37.860   01 Jun 2027 15:02:39.685           241.825                 Moscow          7557.031
        48   01 Jun 2027 15:03:18.120   01 Jun 2027 15:03:59.160            41.040                 Moscow          1282.500
        49   01 Jun 2027 15:04:09.273   01 Jun 2027 15:06:33.835           144.562              Murmansk1          4517.563
        50   01 Jun 2027 15:07:03.437   01 Jun 2027 15:07:18.232            14.795                 Moscow           462.344
        51   01 Jun 2027 15:07:21.477   01 Jun 2027 15:07:46.019            24.542                 Moscow           766.938
        52   01 Jun 2027 15:07:53.581   01 Jun 2027 15:10:57.973           184.392                Norilsk          5762.250
        53   01 Jun 2027 15:11:40.067   01 Jun 2027 15:12:04.966            24.899                Norilsk           778.094
        54   01 Jun 2027 15:14:53.291   01 Jun 2027 15:15:00.562             7.271              Murmansk2           227.219
        55   01 Jun 2027 16:12:37.198   01 Jun 2027 16:13:17.544            40.346               CapeTown          1260.812
        56   01 Jun 2027 16:14:30.320   01 Jun 2027 16:15:02.407            32.087               CapeTown          1002.719
        57   01 Jun 2027 16:16:56.812   01 Jun 2027 16:18:18.451            81.639               CapeTown          2551.219
        58   01 Jun 2027 16:20:06.191   01 Jun 2027 16:22:02.248           116.057               CapeTown          3626.781
        59   01 Jun 2027 16:24:04.302   01 Jun 2027 16:24:23.746            19.444               CapeTown           607.625
        60   01 Jun 2027 16:42:12.813   01 Jun 2027 16:42:58.310            45.497              Murmansk2          1421.781
        61   01 Jun 2027 16:43:44.582   01 Jun 2027 16:44:24.233            39.651                 Moscow          1239.094
        62   01 Jun 2027 16:45:28.468   01 Jun 2027 16:46:17.487            49.019              Murmansk1          1531.844
        63   01 Jun 2027 16:47:13.924   01 Jun 2027 16:47:51.345            37.421              Murmansk2          1169.406
        64   01 Jun 2027 16:48:49.449   01 Jun 2027 16:49:15.488            26.039              Murmansk1           813.719
        65   01 Jun 2027 16:49:31.484   01 Jun 2027 16:50:17.616            46.132              Murmansk2          1441.625
        66   01 Jun 2027 16:50:17.616   01 Jun 2027 16:50:29.866            12.250              Murmansk1           382.813
        67   01 Jun 2027 16:55:46.236   01 Jun 2027 16:56:07.522            21.286                Anadyr1           665.188
        68   01 Jun 2027 16:56:35.320   01 Jun 2027 16:56:54.428            19.108                Anadyr1           597.125
        69   01 Jun 2027 16:57:23.755   01 Jun 2027 16:58:14.370            50.615                Anadyr2          1581.719
        70   01 Jun 2027 16:58:20.619   01 Jun 2027 16:58:25.802             5.183                Anadyr2           161.969
        71   01 Jun 2027 16:58:34.678   01 Jun 2027 16:58:55.919            21.241                Anadyr1           663.781
        72   01 Jun 2027 16:59:19.192   01 Jun 2027 16:59:35.071            15.879                Anadyr2           496.219
        73   01 Jun 2027 17:00:00.780   01 Jun 2027 17:00:06.861             6.081                Anadyr1           190.031
        74   01 Jun 2027 17:00:11.015   01 Jun 2027 17:00:18.791             7.776                Anadyr1           243.000
        75   01 Jun 2027 17:00:35.299   01 Jun 2027 17:01:05.222            29.923                Anadyr2           935.094
        76   01 Jun 2027 17:01:39.911   01 Jun 2027 17:02:25.027            45.116                Anadyr2          1409.875
        77   01 Jun 2027 17:02:48.314   01 Jun 2027 17:03:04.671            16.357                Anadyr1           511.156
        78   01 Jun 2027 17:03:26.217   01 Jun 2027 17:03:30.255             4.038                Anadyr2           126.187
        79   01 Jun 2027 17:58:53.830   01 Jun 2027 17:59:04.584            10.754               CapeTown           336.062
        80   01 Jun 2027 17:59:28.161   01 Jun 2027 18:00:00.865            32.704               CapeTown          1022.000
        81   01 Jun 2027 18:19:39.379   01 Jun 2027 18:22:58.725           199.346              Murmansk1          6229.562
        82   01 Jun 2027 18:22:58.725   01 Jun 2027 18:24:27.039            88.314              Murmansk2          2759.812
        83   01 Jun 2027 18:24:58.153   01 Jun 2027 18:26:23.482            85.329              Murmansk1          2666.531
        84   01 Jun 2027 18:36:12.172   01 Jun 2027 18:36:40.447            28.275                Anadyr1           883.594
        85   01 Jun 2027 18:36:56.848   01 Jun 2027 18:37:16.268            19.420                Anadyr2           606.875
        86   01 Jun 2027 18:37:50.413   01 Jun 2027 18:38:14.515            24.102               Magadan1           753.187
        87   01 Jun 2027 18:38:19.335   01 Jun 2027 18:38:34.338            15.003               Magadan1           468.844
        88   01 Jun 2027 18:38:45.744   01 Jun 2027 18:38:51.714             5.970                Anadyr1           186.562
        89   01 Jun 2027 18:39:27.525   01 Jun 2027 18:40:02.758            35.233                Anadyr2          1101.031
        90   01 Jun 2027 18:40:36.752   01 Jun 2027 18:41:06.159            29.407               Magadan2           918.969
        91   01 Jun 2027 18:41:06.848   01 Jun 2027 18:41:27.664            20.816                Anadyr2           650.500
        92   01 Jun 2027 20:04:35.193   01 Jun 2027 20:08:19.986           224.793                Anadyr2          7024.781
        93   01 Jun 2027 20:08:26.632   01 Jun 2027 20:09:23.248            56.616               Magadan2          1769.250
        94   01 Jun 2027 20:09:23.248   01 Jun 2027 20:09:55.976            32.728               Magadan1          1022.750
        95   01 Jun 2027 20:10:10.677   01 Jun 2027 20:11:05.451            54.774               Magadan2          1711.688
        96   01 Jun 2027 20:11:51.582   01 Jun 2027 20:11:56.738             5.156                Anadyr2           161.125
        97   01 Jun 2027 20:12:01.215   01 Jun 2027 20:12:05.444             4.229                Anadyr2           132.156
        98   01 Jun 2027 20:12:22.687   01 Jun 2027 20:13:26.197            63.510               Magadan1          1984.687
        99   01 Jun 2027 20:14:14.655   01 Jun 2027 20:14:34.643            19.988               Magadan1           624.625
       100   01 Jun 2027 20:15:06.695   01 Jun 2027 20:15:10.095             3.400               Magadan2           106.250
       101   01 Jun 2027 20:15:10.095   01 Jun 2027 20:15:16.350             6.255               Magadan1           195.469
       102   01 Jun 2027 20:15:20.937   01 Jun 2027 20:15:26.542             5.605               Magadan1           175.156
       103   01 Jun 2027 20:15:30.027   01 Jun 2027 20:15:36.368             6.341               Magadan2           198.156
       104   01 Jun 2027 20:15:50.629   01 Jun 2027 20:16:16.959            26.330                Anadyr1           822.812
       105   01 Jun 2027 20:16:17.576   01 Jun 2027 20:16:39.657            22.081               Magadan2           690.031
       106   01 Jun 2027 20:17:04.028   01 Jun 2027 20:17:07.272             3.244                Anadyr1           101.375
       107   01 Jun 2027 20:17:12.977   01 Jun 2027 20:18:07.628            54.651               Magadan2          1707.844
       108   01 Jun 2027 20:18:34.016   01 Jun 2027 20:18:54.260            20.244               Magadan1           632.625
       109   01 Jun 2027 20:19:13.651   01 Jun 2027 20:19:37.745            24.094               Magadan1           752.938
       110   01 Jun 2027 21:03:03.614   01 Jun 2027 21:04:06.346            62.732            RioGallegos          1960.375
       111   01 Jun 2027 21:05:40.364   01 Jun 2027 21:06:20.250            39.886            RioGallegos          1246.437
       112   01 Jun 2027 21:06:46.401   01 Jun 2027 21:06:54.725             8.324            RioGallegos           260.125
       113   01 Jun 2027 21:40:47.519   01 Jun 2027 21:41:28.826            41.307                Anadyr2          1290.844
       114   01 Jun 2027 21:42:30.667   01 Jun 2027 21:43:38.698            68.031                Norilsk          2125.969
       115   01 Jun 2027 21:45:10.882   01 Jun 2027 21:45:32.283            21.401                Norilsk           668.781
       116   01 Jun 2027 21:46:10.999   01 Jun 2027 21:46:31.955            20.956                Norilsk           654.875
       117   01 Jun 2027 21:46:37.834   01 Jun 2027 21:47:06.400            28.566               Magadan1           892.688
       118   01 Jun 2027 21:47:36.123   01 Jun 2027 21:47:40.783             4.660                Anadyr2           145.625
       119   01 Jun 2027 21:47:50.730   01 Jun 2027 21:48:06.850            16.120                Norilsk           503.750
       120   01 Jun 2027 21:48:35.748   01 Jun 2027 21:49:06.794            31.046                Anadyr1           970.188
       121   01 Jun 2027 21:49:48.079   01 Jun 2027 21:49:56.350             8.271                Anadyr1           258.469
       122   01 Jun 2027 21:50:09.455   01 Jun 2027 21:50:20.350            10.895                Norilsk           340.469
       123   01 Jun 2027 21:50:33.611   01 Jun 2027 21:50:44.477            10.866                Norilsk           339.563
       124   01 Jun 2027 21:50:48.345   01 Jun 2027 21:51:05.169            16.824                Anadyr1           525.750
       125   01 Jun 2027 21:51:49.490   01 Jun 2027 21:52:12.814            23.324                Irkutsk           728.875
       126   01 Jun 2027 21:52:26.018   01 Jun 2027 21:52:43.044            17.026               Magadan1           532.063
       127   01 Jun 2027 21:53:37.316   01 Jun 2027 21:54:00.492            23.176                Irkutsk           724.250
       128   01 Jun 2027 21:54:01.582   01 Jun 2027 21:54:22.504            20.922               Magadan1           653.812
       129   01 Jun 2027 21:54:55.645   01 Jun 2027 21:55:08.139            12.494               Magadan1           390.437
       130   01 Jun 2027 21:55:16.652   01 Jun 2027 21:56:30.381            73.729                Irkutsk          2304.031
       131   01 Jun 2027 22:06:29.063   01 Jun 2027 22:07:41.437            72.374                Sumatra          2261.687
       132   01 Jun 2027 22:10:46.064   01 Jun 2027 22:11:35.185            49.121                Sumatra          1535.031
       133   01 Jun 2027 22:45:46.463   01 Jun 2027 22:46:22.979            36.516            RioGallegos          1141.125
       134   01 Jun 2027 23:15:35.105   01 Jun 2027 23:15:55.250            20.145                Anadyr1           629.531
       135   01 Jun 2027 23:16:40.488   01 Jun 2027 23:16:48.203             7.715                Anadyr1           241.094
       136   01 Jun 2027 23:18:06.553   01 Jun 2027 23:18:10.029             3.476                Anadyr2           108.625
       137   01 Jun 2027 23:18:19.257   01 Jun 2027 23:20:11.243           111.986                Norilsk          3499.562
       138   01 Jun 2027 23:20:57.524   01 Jun 2027 23:21:21.598            24.074                Norilsk           752.313
       139   01 Jun 2027 23:22:13.056   01 Jun 2027 23:23:16.975            63.919                Irkutsk          1997.469
       140   01 Jun 2027 23:25:29.659   01 Jun 2027 23:25:40.586            10.927                Novosib           341.469
       141   01 Jun 2027 23:25:49.697   01 Jun 2027 23:26:51.162            61.465               Magadan1          1920.781
       142   01 Jun 2027 23:28:09.074   01 Jun 2027 23:28:52.072            42.998                Novosib          1343.687
       143   01 Jun 2027 23:30:53.667   01 Jun 2027 23:31:12.056            18.389                Novosib           574.656
       144   01 Jun 2027 23:32:01.372   01 Jun 2027 23:32:27.558            26.186                Irkutsk           818.313
       145   01 Jun 2027 23:34:04.042   01 Jun 2027 23:34:43.471            39.429                Irkutsk          1232.156
       146   01 Jun 2027 23:37:22.890   01 Jun 2027 23:38:22.453            59.563                  Delhi          1861.344
       147   01 Jun 2027 23:46:38.870   01 Jun 2027 23:46:59.020            20.150                Sumatra           629.688
       148   02 Jun 2027 00:17:45.624   02 Jun 2027 00:17:56.137            10.513            RioGallegos           328.531
       149   02 Jun 2027 00:18:39.024   02 Jun 2027 00:19:05.519            26.495            RioGallegos           827.969
       150   02 Jun 2027 00:20:58.852   02 Jun 2027 00:21:55.559            56.707            RioGallegos          1772.094
       151   02 Jun 2027 00:50:13.109   02 Jun 2027 00:50:52.806            39.697                Anadyr1          1240.531
       152   02 Jun 2027 00:51:56.998   02 Jun 2027 00:52:03.825             6.827                Anadyr2           213.344
       153   02 Jun 2027 00:52:35.443   02 Jun 2027 00:52:48.619            13.176                Anadyr2           411.750
       154   02 Jun 2027 00:53:40.410   02 Jun 2027 00:54:25.606            45.196                Anadyr2          1412.375
       155   02 Jun 2027 00:54:52.834   02 Jun 2027 00:56:23.590            90.756                Norilsk          2836.125
       156   02 Jun 2027 00:57:39.403   02 Jun 2027 00:58:26.363            46.960               Magadan2          1467.500
       157   02 Jun 2027 01:00:33.089   02 Jun 2027 01:00:44.499            11.410              Murmansk1           356.563
       158   02 Jun 2027 01:01:13.992   02 Jun 2027 01:01:18.630             4.638                Irkutsk           144.937
       159   02 Jun 2027 01:02:07.736   02 Jun 2027 01:02:59.636            51.900              Murmansk1          1621.875
       160   02 Jun 2027 01:05:07.690   02 Jun 2027 01:05:36.188            28.498                Novosib           890.562
       161   02 Jun 2027 01:06:34.566   02 Jun 2027 01:07:41.995            67.429                Irkutsk          2107.156
       162   02 Jun 2027 01:13:38.522   02 Jun 2027 01:14:20.330            41.808                  Delhi          1306.500
       163   02 Jun 2027 01:15:24.543   02 Jun 2027 01:17:17.762           113.219                  Delhi          3538.094
       164   02 Jun 2027 01:52:05.154   02 Jun 2027 01:52:51.005            45.851            RioGallegos          1432.844
       165   02 Jun 2027 02:23:50.482   02 Jun 2027 02:23:56.212             5.730                Anadyr1           179.062
       166   02 Jun 2027 02:25:10.111   02 Jun 2027 02:25:55.572            45.461                Anadyr2          1420.656
       167   02 Jun 2027 02:27:55.491   02 Jun 2027 02:28:54.663            59.172                Anadyr2          1849.125
       168   02 Jun 2027 02:30:14.386   02 Jun 2027 02:30:38.163            23.777                Norilsk           743.031
       169   02 Jun 2027 02:31:20.436   02 Jun 2027 02:31:27.891             7.455                Norilsk           232.969
       170   02 Jun 2027 02:31:47.200   02 Jun 2027 02:31:58.091            10.891                Norilsk           340.344
       171   02 Jun 2027 02:32:29.003   02 Jun 2027 02:32:37.134             8.131              Murmansk2           254.094
       172   02 Jun 2027 02:32:50.375   02 Jun 2027 02:32:53.061             2.686              Murmansk2            83.937
       173   02 Jun 2027 02:33:07.429   02 Jun 2027 02:33:37.527            30.098              Murmansk2           940.563
       174   02 Jun 2027 02:35:31.809   02 Jun 2027 02:35:57.100            25.291              Murmansk1           790.344
       175   02 Jun 2027 02:37:02.262   02 Jun 2027 02:37:35.811            33.549                Irkutsk          1048.406
       176   02 Jun 2027 02:39:09.137   02 Jun 2027 02:39:38.449            29.312                Irkutsk           916.000
       177   02 Jun 2027 02:41:25.957   02 Jun 2027 02:42:04.109            38.152              Murmansk1          1192.250
       178   02 Jun 2027 02:44:02.160   02 Jun 2027 02:45:03.431            61.271                Novosib          1914.719
       179   02 Jun 2027 02:49:28.862   02 Jun 2027 02:49:45.031            16.169                  Delhi           505.281
       180   02 Jun 2027 03:08:25.877   02 Jun 2027 03:09:05.075            39.198               CapeTown          1224.938
       181   02 Jun 2027 04:16:51.712   02 Jun 2027 04:17:15.074            23.362                Norilsk           730.062
       182   02 Jun 2027 04:17:16.561   02 Jun 2027 04:18:01.515            44.954              Murmansk1          1404.813
       183   02 Jun 2027 04:18:17.307   02 Jun 2027 04:18:46.624            29.317              Murmansk1           916.156
       184   02 Jun 2027 04:19:21.556   02 Jun 2027 04:19:50.245            28.689              Murmansk1           896.531
       185   02 Jun 2027 04:19:50.245   02 Jun 2027 04:20:06.013            15.768              Murmansk2           492.750
       186   02 Jun 2027 05:38:56.051   02 Jun 2027 05:41:05.000           128.949                Anadyr2          4029.656
       187   02 Jun 2027 05:41:27.249   02 Jun 2027 05:41:36.717             9.468                Anadyr2           295.875
       188   02 Jun 2027 05:41:50.829   02 Jun 2027 05:42:54.456            63.627                Anadyr2          1988.344
       189   02 Jun 2027 05:43:17.848   02 Jun 2027 05:44:37.656            79.808               Magadan1          2494.000
       190   02 Jun 2027 07:17:42.549   02 Jun 2027 07:17:58.636            16.087                Irkutsk           502.719
       191   02 Jun 2027 07:18:41.546   02 Jun 2027 07:19:05.736            24.190               Magadan2           755.938
       192   02 Jun 2027 07:19:27.610   02 Jun 2027 07:20:55.828            88.218                Anadyr1          2756.812
       193   02 Jun 2027 08:50:17.534   02 Jun 2027 08:51:17.415            59.881               Magadan2          1871.281
       194   02 Jun 2027 08:51:33.237   02 Jun 2027 08:52:00.492            27.255                Irkutsk           851.719
       195   02 Jun 2027 08:52:02.580   02 Jun 2027 08:53:03.545            60.965               Magadan2          1905.156
       196   02 Jun 2027 08:53:19.168   02 Jun 2027 08:54:17.932            58.764                Norilsk          1836.375
       197   02 Jun 2027 08:54:23.174   02 Jun 2027 08:56:14.934           111.760                Irkutsk          3492.500
       198   02 Jun 2027 08:56:22.973   02 Jun 2027 08:56:51.030            28.057                Norilsk           876.781
       199   02 Jun 2027 08:56:51.940   02 Jun 2027 08:56:54.341             2.401              Murmansk2            75.031
       200   02 Jun 2027 08:56:54.341   02 Jun 2027 08:58:09.334            74.993              Murmansk1          2343.531
       201   02 Jun 2027 09:31:20.444   02 Jun 2027 09:32:16.596            56.152            RioGallegos          1754.750
       202   02 Jun 2027 09:36:19.082   02 Jun 2027 09:36:37.357            18.275            RioGallegos           571.094
       203   02 Jun 2027 09:38:14.904   02 Jun 2027 09:38:17.089             2.185            RioGallegos            68.281
       204   02 Jun 2027 10:07:34.347   02 Jun 2027 10:07:57.415            23.068                Sumatra           720.875
       205   02 Jun 2027 10:12:08.971   02 Jun 2027 10:12:29.884            20.913                Sumatra           653.531
       206   02 Jun 2027 10:16:28.275   02 Jun 2027 10:16:43.063            14.788                Sumatra           462.125
       207   02 Jun 2027 10:25:49.574   02 Jun 2027 10:26:05.861            16.287                Novosib           508.969
       208   02 Jun 2027 10:26:56.503   02 Jun 2027 10:27:52.978            56.475                Norilsk          1764.844
       209   02 Jun 2027 10:28:03.468   02 Jun 2027 10:28:17.228            13.760                Norilsk           430.000
       210   02 Jun 2027 10:28:18.343   02 Jun 2027 10:28:33.505            15.162                Novosib           473.812
       211   02 Jun 2027 10:28:46.059   02 Jun 2027 10:29:37.337            51.278                Irkutsk          1602.437
       212   02 Jun 2027 10:29:49.160   02 Jun 2027 10:30:14.880            25.720              Murmansk2           803.750
       213   02 Jun 2027 10:30:18.198   02 Jun 2027 10:31:36.704            78.506                Irkutsk          2453.312
       214   02 Jun 2027 10:31:38.630   02 Jun 2027 10:32:09.024            30.394                Norilsk           949.813
       215   02 Jun 2027 10:32:11.872   02 Jun 2027 10:32:57.927            46.055                Norilsk          1439.219
       216   02 Jun 2027 11:08:04.760   02 Jun 2027 11:08:17.736            12.976            RioGallegos           405.500
       217   02 Jun 2027 11:08:45.571   02 Jun 2027 11:09:18.740            33.169            RioGallegos          1036.531
       218   02 Jun 2027 11:12:30.006   02 Jun 2027 11:12:57.142            27.136            RioGallegos           848.000
       219   02 Jun 2027 11:42:22.543   02 Jun 2027 11:42:55.515            32.972                Sumatra          1030.375
       220   02 Jun 2027 11:46:06.867   02 Jun 2027 11:47:10.744            63.877                Sumatra          1996.156
       221   02 Jun 2027 12:09:28.499   02 Jun 2027 12:09:39.914            11.415              Murmansk2           356.719
       222   02 Jun 2027 12:10:42.777   02 Jun 2027 12:10:51.051             8.274                Norilsk           258.563
       223   02 Jun 2027 12:11:27.240   02 Jun 2027 12:11:45.122            17.882                Norilsk           558.813
       224   02 Jun 2027 12:12:17.261   02 Jun 2027 12:13:28.114            70.853                Norilsk          2214.156
       225   02 Jun 2027 13:27:10.555   02 Jun 2027 13:28:10.370            59.815                  Delhi          1869.219
       226   02 Jun 2027 13:28:39.836   02 Jun 2027 13:29:34.286            54.450                  Delhi          1701.563
       227   02 Jun 2027 13:32:11.883   02 Jun 2027 13:32:27.485            15.602                  Delhi           487.562
       228   02 Jun 2027 13:35:30.376   02 Jun 2027 13:37:12.489           102.113                Novosib          3191.031
       229   02 Jun 2027 13:38:16.003   02 Jun 2027 13:38:43.531            27.528                Novosib           860.250
       230   02 Jun 2027 13:39:09.819   02 Jun 2027 13:40:27.903            78.084                Novosib          2440.125
       231   02 Jun 2027 13:44:11.580   02 Jun 2027 13:45:03.648            52.068                Novosib          1627.125
       232   02 Jun 2027 13:47:12.957   02 Jun 2027 13:47:45.898            32.941                Norilsk          1029.406
       233   02 Jun 2027 15:10:44.165   02 Jun 2027 15:12:48.466           124.301                 Moscow          3884.406
       234   02 Jun 2027 15:14:15.686   02 Jun 2027 15:15:44.763            89.077              Murmansk1          2783.656
       235   02 Jun 2027 15:15:45.808   02 Jun 2027 15:16:41.426            55.618              Murmansk1          1738.063
       236   02 Jun 2027 15:20:24.104   02 Jun 2027 15:23:28.892           184.788                Norilsk          5774.625
       237   02 Jun 2027 16:26:53.574   02 Jun 2027 16:27:52.507            58.933               CapeTown          1841.656
       238   02 Jun 2027 16:33:54.045   02 Jun 2027 16:34:49.462            55.417               CapeTown          1731.781
       239   02 Jun 2027 16:49:33.977   02 Jun 2027 16:50:08.980            35.003                 Moscow          1093.844
       240   02 Jun 2027 16:51:53.361   02 Jun 2027 16:52:36.223            42.862                 Moscow          1339.437
       241   02 Jun 2027 16:55:56.411   02 Jun 2027 16:57:06.609            70.198              Murmansk1          2193.687
       242   02 Jun 2027 17:04:54.961   02 Jun 2027 17:05:58.980            64.019                Anadyr1          2000.594
       243   02 Jun 2027 17:06:27.005   02 Jun 2027 17:06:54.341            27.336                Anadyr2           854.250
       244   02 Jun 2027 17:09:08.930   02 Jun 2027 17:09:36.044            27.114                Anadyr2           847.312
       245   02 Jun 2027 17:12:06.154   02 Jun 2027 17:13:06.202            60.048                Anadyr1          1876.500
       246   02 Jun 2027 18:07:47.933   02 Jun 2027 18:08:01.210            13.277               CapeTown           414.906
       247   02 Jun 2027 18:10:21.534   02 Jun 2027 18:10:34.990            13.456               CapeTown           420.500
       248   02 Jun 2027 18:10:55.562   02 Jun 2027 18:11:12.584            17.022               CapeTown           531.938
       249   02 Jun 2027 18:32:28.512   02 Jun 2027 18:37:08.577           280.065              Murmansk1          8752.031
       250   02 Jun 2027 18:38:07.578   02 Jun 2027 18:38:18.970            11.392              Murmansk2           356.000
       251   02 Jun 2027 18:43:28.743   02 Jun 2027 18:44:04.641            35.898               Magadan2          1121.812
       252   02 Jun 2027 18:45:19.104   02 Jun 2027 18:45:35.985            16.881               Magadan2           527.531
       253   02 Jun 2027 18:50:15.501   02 Jun 2027 18:50:21.369             5.868               Magadan1           183.375
       254   02 Jun 2027 18:51:09.106   02 Jun 2027 18:51:22.837            13.731               Magadan1           429.094
       255   02 Jun 2027 20:16:36.565   02 Jun 2027 20:20:20.861           224.296                Anadyr2          7009.250
       256   02 Jun 2027 20:20:27.071   02 Jun 2027 20:23:26.473           179.402               Magadan2          5606.312
       257   02 Jun 2027 20:23:48.467   02 Jun 2027 20:24:01.097            12.630               Magadan1           394.688
       258   02 Jun 2027 20:26:29.092   02 Jun 2027 20:26:34.198             5.106               Magadan2           159.562
       259   02 Jun 2027 20:27:03.924   02 Jun 2027 20:27:28.916            24.992               Magadan2           781.000
       260   02 Jun 2027 21:11:48.048   02 Jun 2027 21:14:37.876           169.828            RioGallegos          5307.125
       261   02 Jun 2027 21:17:32.232   02 Jun 2027 21:18:13.412            41.180            RioGallegos          1286.875
       262   02 Jun 2027 21:52:21.670   02 Jun 2027 21:52:49.386            27.716                Anadyr1           866.125
       263   02 Jun 2027 21:54:29.284   02 Jun 2027 21:56:36.432           127.148                Norilsk          3973.375
       264   02 Jun 2027 21:56:49.824   02 Jun 2027 21:57:03.270            13.446                Norilsk           420.187
       265   02 Jun 2027 21:57:23.782   02 Jun 2027 21:57:34.571            10.789                Norilsk           337.156
       266   02 Jun 2027 21:57:55.637   02 Jun 2027 21:58:35.172            39.535               Magadan2          1235.469
       267   02 Jun 2027 21:59:01.846   02 Jun 2027 22:00:07.573            65.727                Irkutsk          2053.969
       268   02 Jun 2027 22:01:45.062   02 Jun 2027 22:02:48.481            63.419                Irkutsk          1981.844
       269   02 Jun 2027 22:13:17.439   02 Jun 2027 22:14:29.386            71.947                Sumatra          2248.344
       270   02 Jun 2027 22:16:09.478   02 Jun 2027 22:16:54.711            45.233                Sumatra          1413.531
       271   02 Jun 2027 23:27:26.567   02 Jun 2027 23:28:40.635            74.068                Anadyr2          2314.625
       272   02 Jun 2027 23:29:50.582   02 Jun 2027 23:30:05.838            15.256                Anadyr1           476.750
       273   02 Jun 2027 23:30:21.244   02 Jun 2027 23:32:13.189           111.945                Norilsk          3498.281
       274   02 Jun 2027 23:32:28.225   02 Jun 2027 23:33:20.072            51.847               Magadan2          1620.219
       275   02 Jun 2027 23:34:13.676   02 Jun 2027 23:35:57.635           103.959                Irkutsk          3248.719
       276   02 Jun 2027 23:37:45.141   02 Jun 2027 23:38:16.476            31.335                Novosib           979.219
       277   02 Jun 2027 23:40:52.010   02 Jun 2027 23:41:57.998            65.988                Novosib          2062.125
       278   02 Jun 2027 23:44:06.770   02 Jun 2027 23:44:10.983             4.213                  Delhi           131.656
       279   02 Jun 2027 23:45:06.306   02 Jun 2027 23:45:58.428            52.122                  Delhi          1628.813
       280   02 Jun 2027 23:52:06.169   02 Jun 2027 23:52:21.684            15.515                  Delhi           484.844
       281   03 Jun 2027 00:28:12.414   03 Jun 2027 00:28:35.197            22.783            RioGallegos           711.969
       282   03 Jun 2027 00:30:07.000   03 Jun 2027 00:30:10.219             3.219            RioGallegos           100.594
       283   03 Jun 2027 00:30:29.878   03 Jun 2027 00:30:37.764             7.886            RioGallegos           246.438
       284   03 Jun 2027 00:30:55.263   03 Jun 2027 00:32:07.562            72.299            RioGallegos          2259.344
       285   03 Jun 2027 01:01:18.600   03 Jun 2027 01:01:23.338             4.738                Anadyr2           148.062
       286   03 Jun 2027 01:01:52.185   03 Jun 2027 01:02:14.022            21.837                Anadyr1           682.406
       287   03 Jun 2027 01:02:54.122   03 Jun 2027 01:03:38.499            44.377                Anadyr1          1386.781
       288   03 Jun 2027 01:06:21.792   03 Jun 2027 01:06:31.939            10.147                Norilsk           317.094
       289   03 Jun 2027 01:06:51.374   03 Jun 2027 01:06:57.544             6.170               Magadan2           192.813
       290   03 Jun 2027 01:07:37.743   03 Jun 2027 01:08:25.900            48.157                Norilsk          1504.906
       291   03 Jun 2027 01:08:41.419   03 Jun 2027 01:09:32.010            50.591               Magadan1          1580.969
       292   03 Jun 2027 01:09:48.524   03 Jun 2027 01:11:40.940           112.416              Murmansk2          3513.000
       293   03 Jun 2027 01:12:30.735   03 Jun 2027 01:13:15.384            44.649                Novosib          1395.281
       294   03 Jun 2027 01:17:29.650   03 Jun 2027 01:17:41.977            12.327                  Delhi           385.219
       295   03 Jun 2027 01:19:57.074   03 Jun 2027 01:20:03.545             6.471                Novosib           202.219
       296   03 Jun 2027 01:21:13.596   03 Jun 2027 01:21:31.864            18.268                  Delhi           570.875
       297   03 Jun 2027 01:23:16.669   03 Jun 2027 01:23:19.917             3.248                  Delhi           101.500
       298   03 Jun 2027 01:23:53.840   03 Jun 2027 01:25:00.611            66.771                  Delhi          2086.594
       299   03 Jun 2027 02:00:01.984   03 Jun 2027 02:00:54.529            52.545            RioGallegos          1642.031
       300   03 Jun 2027 02:02:20.266   03 Jun 2027 02:02:32.746            12.480            RioGallegos           390.000
       301   03 Jun 2027 02:03:01.637   03 Jun 2027 02:03:13.775            12.138            RioGallegos           379.313
       302   03 Jun 2027 02:03:21.167   03 Jun 2027 02:04:07.025            45.858            RioGallegos          1433.062
       303   03 Jun 2027 02:34:35.910   03 Jun 2027 02:34:47.696            11.786                Anadyr2           368.313
       304   03 Jun 2027 02:35:49.243   03 Jun 2027 02:36:37.027            47.784                Anadyr1          1493.250
       305   03 Jun 2027 02:40:21.765   03 Jun 2027 02:41:28.277            66.512               Magadan1          2078.500
       306   03 Jun 2027 02:42:14.660   03 Jun 2027 02:42:32.835            18.175                Norilsk           567.969
       307   03 Jun 2027 02:44:29.963   03 Jun 2027 02:45:59.169            89.206              Murmansk2          2787.687
       308   03 Jun 2027 02:46:21.069   03 Jun 2027 02:46:21.928             0.859                Novosib            26.844
       309   03 Jun 2027 02:46:26.907   03 Jun 2027 02:46:27.854             0.947              Murmansk2            29.594
       310   03 Jun 2027 02:46:34.147   03 Jun 2027 02:46:46.933            12.786              Murmansk2           399.562
       311   03 Jun 2027 02:47:38.043   03 Jun 2027 02:47:51.510            13.467                Novosib           420.844
       312   03 Jun 2027 02:48:13.926   03 Jun 2027 02:48:51.702            37.776                Novosib          1180.500
       313   03 Jun 2027 02:49:54.682   03 Jun 2027 02:50:50.760            56.078                Irkutsk          1752.437
       314   03 Jun 2027 02:59:35.198   03 Jun 2027 02:59:38.354             3.156                  Delhi            98.625
       315   03 Jun 2027 04:30:40.602   03 Jun 2027 04:32:08.006            87.404              Murmansk2          2731.375
       316   03 Jun 2027 05:51:18.431   03 Jun 2027 05:53:00.635           102.204               Magadan2          3193.875
       317   03 Jun 2027 05:53:01.785   03 Jun 2027 05:53:35.646            33.861                Anadyr1          1058.156
       318   03 Jun 2027 05:54:43.221   03 Jun 2027 05:54:51.657             8.436               Magadan2           263.625
       319   03 Jun 2027 05:54:51.657   03 Jun 2027 05:55:01.031             9.374               Magadan1           292.937
       320   03 Jun 2027 07:27:35.530   03 Jun 2027 07:27:41.640             6.110                Anadyr1           190.938
       321   03 Jun 2027 07:27:45.968   03 Jun 2027 07:29:17.219            91.251                Anadyr2          2851.594
       322   03 Jun 2027 07:29:30.206   03 Jun 2027 07:30:16.407            46.201                Anadyr1          1443.781
       323   03 Jun 2027 07:32:32.675   03 Jun 2027 07:32:53.125            20.450                Anadyr2           639.063
       324   03 Jun 2027 08:09:38.302   03 Jun 2027 08:09:55.866            17.564            RioGallegos           548.875
       325   03 Jun 2027 08:10:39.487   03 Jun 2027 08:12:02.270            82.783            RioGallegos          2586.969
       326   03 Jun 2027 09:01:58.711   03 Jun 2027 09:03:01.794            63.083               Magadan2          1971.344
       327   03 Jun 2027 09:03:18.927   03 Jun 2027 09:04:48.232            89.305               Magadan1          2790.781
       328   03 Jun 2027 09:05:06.300   03 Jun 2027 09:05:43.667            37.367               Magadan2          1167.719
       329   03 Jun 2027 09:06:20.448   03 Jun 2027 09:06:22.384             1.936                Irkutsk            60.500
       330   03 Jun 2027 09:06:24.084   03 Jun 2027 09:06:25.163             1.079                Norilsk            33.719
       331   03 Jun 2027 09:06:32.671   03 Jun 2027 09:07:06.654            33.983                Irkutsk          1061.969
       332   03 Jun 2027 09:07:20.158   03 Jun 2027 09:07:57.336            37.178              Murmansk2          1161.812
       333   03 Jun 2027 09:07:58.658   03 Jun 2027 09:08:22.995            24.337              Murmansk1           760.531
       334   03 Jun 2027 09:08:43.423   03 Jun 2027 09:09:26.820            43.397              Murmansk2          1356.156
       335   03 Jun 2027 09:10:47.946   03 Jun 2027 09:10:55.937             7.991              Murmansk2           249.719
       336   03 Jun 2027 09:16:47.822   03 Jun 2027 09:17:02.101            14.279              Murmansk2           446.219
       337   03 Jun 2027 09:43:15.915   03 Jun 2027 09:43:20.871             4.956            RioGallegos           154.875
       338   03 Jun 2027 09:44:24.404   03 Jun 2027 09:45:26.541            62.137            RioGallegos          1941.781
       339   03 Jun 2027 10:19:03.078   03 Jun 2027 10:20:08.221            65.143                Sumatra          2035.719
       340   03 Jun 2027 10:38:46.033   03 Jun 2027 10:39:31.078            45.045                Irkutsk          1407.656
       341   03 Jun 2027 10:39:46.514   03 Jun 2027 10:40:08.128            21.614                Novosib           675.437
       342   03 Jun 2027 10:40:13.004   03 Jun 2027 10:40:14.049             1.045                Novosib            32.656
       343   03 Jun 2027 10:40:20.630   03 Jun 2027 10:40:24.370             3.740                Norilsk           116.875
       344   03 Jun 2027 10:40:37.562   03 Jun 2027 10:40:48.563            11.001                Irkutsk           343.781
       345   03 Jun 2027 10:40:59.024   03 Jun 2027 10:41:19.147            20.123                Irkutsk           628.844
       346   03 Jun 2027 10:41:24.001   03 Jun 2027 10:41:44.850            20.849                Norilsk           651.531
       347   03 Jun 2027 10:41:51.450   03 Jun 2027 10:42:03.439            11.989              Murmansk1           374.656
       348   03 Jun 2027 10:42:07.948   03 Jun 2027 10:42:08.419             0.471                Novosib            14.719
       349   03 Jun 2027 10:42:13.756   03 Jun 2027 10:42:45.430            31.674                Irkutsk           989.813
       350   03 Jun 2027 10:42:48.011   03 Jun 2027 10:43:46.162            58.151              Murmansk1          1817.219
       351   03 Jun 2027 10:43:50.896   03 Jun 2027 10:43:53.528             2.632                Novosib            82.250
       352   03 Jun 2027 10:43:56.172   03 Jun 2027 10:44:03.125             6.953                Novosib           217.281
       353   03 Jun 2027 10:44:05.552   03 Jun 2027 10:44:43.292            37.740              Murmansk2          1179.375
       354   03 Jun 2027 11:20:30.801   03 Jun 2027 11:21:17.306            46.505            RioGallegos          1453.281
       355   03 Jun 2027 11:25:13.842   03 Jun 2027 11:25:38.498            24.656            RioGallegos           770.500
       356   03 Jun 2027 11:54:44.280   03 Jun 2027 11:55:17.616            33.336                Sumatra          1041.750
       357   03 Jun 2027 11:58:49.664   03 Jun 2027 11:59:03.002            13.338                Sumatra           416.813
       358   03 Jun 2027 12:03:25.290   03 Jun 2027 12:04:50.117            84.827                  Delhi          2650.844
       359   03 Jun 2027 12:10:04.156   03 Jun 2027 12:11:09.225            65.069                Irkutsk          2033.406
       360   03 Jun 2027 12:14:11.251   03 Jun 2027 12:14:44.356            33.105                Norilsk          1034.531
       361   03 Jun 2027 12:18:48.779   03 Jun 2027 12:19:10.463            21.684              Murmansk2           677.625
       362   03 Jun 2027 12:21:41.417   03 Jun 2027 12:21:46.510             5.093              Murmansk2           159.156
       363   03 Jun 2027 12:21:48.470   03 Jun 2027 12:22:04.041            15.571                Norilsk           486.594
       364   03 Jun 2027 12:23:44.729   03 Jun 2027 12:24:27.369            42.640              Murmansk1          1332.500
       365   03 Jun 2027 13:39:45.605   03 Jun 2027 13:41:04.012            78.407                  Delhi          2450.219
       366   03 Jun 2027 13:42:39.471   03 Jun 2027 13:44:49.293           129.822                  Delhi          4056.938
       367   03 Jun 2027 13:48:12.935   03 Jun 2027 13:48:15.185             2.250                Novosib            70.313
       368   03 Jun 2027 13:49:19.992   03 Jun 2027 13:50:12.301            52.309                Novosib          1634.656
       369   03 Jun 2027 13:50:16.297   03 Jun 2027 13:50:42.586            26.289              Murmansk2           821.531
       370   03 Jun 2027 13:51:07.808   03 Jun 2027 13:51:20.653            12.845              Murmansk2           401.406
       371   03 Jun 2027 13:51:45.543   03 Jun 2027 13:53:09.705            84.162                Norilsk          2630.063
       372   03 Jun 2027 13:59:48.123   03 Jun 2027 14:00:02.161            14.038                Norilsk           438.687
       373   03 Jun 2027 15:22:53.638   03 Jun 2027 15:24:46.432           112.794                 Moscow          3524.813
       374   03 Jun 2027 15:25:54.754   03 Jun 2027 15:27:00.112            65.358                 Moscow          2042.437
       375   03 Jun 2027 15:27:26.929   03 Jun 2027 15:29:28.325           121.396              Murmansk2          3793.625
       376   03 Jun 2027 15:31:33.544   03 Jun 2027 15:32:05.179            31.635              Murmansk1           988.594
       377   03 Jun 2027 15:33:38.371   03 Jun 2027 15:35:26.839           108.468                Norilsk          3389.625
       378   03 Jun 2027 15:42:08.943   03 Jun 2027 15:42:49.564            40.621                Anadyr1          1269.406
       379   03 Jun 2027 15:43:40.329   03 Jun 2027 15:43:51.351            11.022                Anadyr2           344.438
       380   03 Jun 2027 16:36:18.429   03 Jun 2027 16:37:11.529            53.100               CapeTown          1659.375
       381   03 Jun 2027 17:02:23.528   03 Jun 2027 17:03:13.257            49.729                 Moscow          1554.031
       382   03 Jun 2027 17:03:38.910   03 Jun 2027 17:04:33.512            54.602                 Moscow          1706.312
       383   03 Jun 2027 17:05:24.579   03 Jun 2027 17:06:48.917            84.338              Murmansk1          2635.562
       384   03 Jun 2027 17:16:53.544   03 Jun 2027 17:18:18.399            84.855                Anadyr1          2651.719
       385   03 Jun 2027 17:18:18.399   03 Jun 2027 17:18:27.213             8.814                Anadyr2           275.437
       386   03 Jun 2027 17:18:41.822   03 Jun 2027 17:18:51.521             9.699                Anadyr1           303.094
       387   03 Jun 2027 17:21:44.955   03 Jun 2027 17:22:06.787            21.832                Anadyr1           682.250
       388   03 Jun 2027 18:12:51.238   03 Jun 2027 18:13:39.297            48.059               CapeTown          1501.844
       389   03 Jun 2027 18:17:17.383   03 Jun 2027 18:17:41.928            24.545               CapeTown           767.031
       390   03 Jun 2027 18:45:25.244   03 Jun 2027 18:49:39.164           253.920              Murmansk1          7935.000
       391   03 Jun 2027 18:52:42.014   03 Jun 2027 18:52:51.393             9.379                Anadyr1           293.094
       392   03 Jun 2027 18:53:39.038   03 Jun 2027 18:53:55.086            16.048                Anadyr1           501.500
       393   03 Jun 2027 18:55:22.188   03 Jun 2027 18:56:15.238            53.050               Magadan2          1657.812
       394   03 Jun 2027 18:56:25.834   03 Jun 2027 18:57:15.448            49.614               Magadan2          1550.437
       395   03 Jun 2027 20:28:37.784   03 Jun 2027 20:32:36.107           238.323                Anadyr1          7447.594
       396   03 Jun 2027 20:32:37.845   03 Jun 2027 20:35:12.249           154.404               Magadan2          4825.125
       397   03 Jun 2027 20:36:21.710   03 Jun 2027 20:36:42.257            20.547               Magadan2           642.094
       398   03 Jun 2027 20:41:22.388   03 Jun 2027 20:41:33.025            10.637               Magadan2           332.406
       399   03 Jun 2027 20:41:56.446   03 Jun 2027 20:42:22.970            26.524               Magadan2           828.875
       400   03 Jun 2027 21:23:27.249   03 Jun 2027 21:25:43.554           136.305            RioGallegos          4259.531
       401   03 Jun 2027 21:26:09.615   03 Jun 2027 21:26:39.494            29.879            RioGallegos           933.719
       402   03 Jun 2027 21:28:26.622   03 Jun 2027 21:29:15.815            49.193            RioGallegos          1537.281
       403   03 Jun 2027 22:04:19.810   03 Jun 2027 22:04:51.854            32.044                Anadyr2          1001.375
       404   03 Jun 2027 22:06:28.782   03 Jun 2027 22:08:39.560           130.778                Norilsk          4086.812
       405   03 Jun 2027 22:08:51.332   03 Jun 2027 22:09:17.287            25.955               Magadan1           811.094
       406   03 Jun 2027 22:10:51.287   03 Jun 2027 22:11:56.902            65.615                Irkutsk          2050.469
       407   03 Jun 2027 22:13:10.428   03 Jun 2027 22:14:09.229            58.801                Irkutsk          1837.531
       408   03 Jun 2027 22:24:50.927   03 Jun 2027 22:25:14.923            23.996                Sumatra           749.875
       409   03 Jun 2027 22:26:16.052   03 Jun 2027 22:27:58.341           102.289                Sumatra          3196.531
       410   03 Jun 2027 23:39:16.755   03 Jun 2027 23:41:35.708           138.953                Anadyr1          4342.281
       411   03 Jun 2027 23:42:23.337   03 Jun 2027 23:42:45.537            22.200                Norilsk           693.750
       412   03 Jun 2027 23:43:02.169   03 Jun 2027 23:44:40.030            97.861               Magadan1          3058.156
       413   03 Jun 2027 23:46:15.174   03 Jun 2027 23:46:58.276            43.102                Irkutsk          1346.937
       414   03 Jun 2027 23:47:17.943   03 Jun 2027 23:48:12.684            54.741                Novosib          1710.656
       415   03 Jun 2027 23:49:14.846   03 Jun 2027 23:49:55.382            40.536                Novosib          1266.750
       416   03 Jun 2027 23:54:46.350   03 Jun 2027 23:55:21.867            35.517                  Delhi          1109.906
       417   03 Jun 2027 23:55:41.793   03 Jun 2027 23:56:59.425            77.632                Novosib          2426.000
       418   03 Jun 2027 23:59:56.478   04 Jun 2027 00:01:09.622            73.144                  Delhi          2285.750
       419   04 Jun 2027 01:13:00.281   04 Jun 2027 01:13:11.325            11.044                Anadyr1           345.125
       420   04 Jun 2027 01:13:21.576   04 Jun 2027 01:13:48.095            26.519                Anadyr2           828.719
       421   04 Jun 2027 01:14:14.712   04 Jun 2027 01:14:55.466            40.754                Anadyr2          1273.562
       422   04 Jun 2027 01:15:26.342   04 Jun 2027 01:15:47.792            21.450                Anadyr1           670.312
       423   04 Jun 2027 01:18:23.629   04 Jun 2027 01:18:34.011            10.382                Norilsk           324.438
       424   04 Jun 2027 01:18:47.318   04 Jun 2027 01:20:32.391           105.073               Magadan1          3283.531
       425   04 Jun 2027 01:20:52.205   04 Jun 2027 01:22:24.195            91.990              Murmansk1          2874.688
       426   04 Jun 2027 01:22:41.098   04 Jun 2027 01:22:59.301            18.203              Murmansk2           568.844
       427   04 Jun 2027 01:23:09.967   04 Jun 2027 01:23:22.774            12.807                Novosib           400.219
       428   04 Jun 2027 01:23:42.786   04 Jun 2027 01:24:30.282            47.496              Murmansk2          1484.250
       429   04 Jun 2027 01:29:35.916   04 Jun 2027 01:30:14.298            38.382                  Delhi          1199.437
       430   04 Jun 2027 01:35:33.094   04 Jun 2027 01:37:47.097           134.003                  Delhi          4187.594
       431   04 Jun 2027 02:12:47.401   04 Jun 2027 02:13:14.432            27.031            RioGallegos           844.719
       432   04 Jun 2027 02:46:19.462   04 Jun 2027 02:46:49.360            29.898                Anadyr2           934.312
       433   04 Jun 2027 02:47:20.974   04 Jun 2027 02:47:53.268            32.294                Anadyr2          1009.188
       434   04 Jun 2027 02:49:12.102   04 Jun 2027 02:49:35.270            23.168                Anadyr1           724.000
       435   04 Jun 2027 02:51:50.634   04 Jun 2027 02:52:57.988            67.354               Magadan1          2104.812
       436   04 Jun 2027 02:55:11.234   04 Jun 2027 02:55:41.448            30.214                Norilsk           944.188
       437   04 Jun 2027 02:56:31.221   04 Jun 2027 02:58:21.628           110.407              Murmansk2          3450.219
       438   04 Jun 2027 02:59:32.779   04 Jun 2027 03:00:02.282            29.503                Novosib           921.969
       439   04 Jun 2027 03:02:11.750   04 Jun 2027 03:02:38.315            26.565              Murmansk2           830.156
       440   04 Jun 2027 03:02:47.265   04 Jun 2027 03:03:12.566            25.301              Murmansk2           790.656
       441   04 Jun 2027 03:03:38.637   04 Jun 2027 03:03:42.742             4.105              Murmansk1           128.281
       442   04 Jun 2027 03:03:42.742   04 Jun 2027 03:04:52.777            70.035              Murmansk2          2188.594
       443   04 Jun 2027 03:04:52.777   04 Jun 2027 03:05:36.391            43.614              Murmansk1          1362.937
       444   04 Jun 2027 03:05:55.364   04 Jun 2027 03:06:31.600            36.236                Novosib          1132.375
       445   04 Jun 2027 03:06:36.099   04 Jun 2027 03:07:08.613            32.514                Novosib          1016.062
       446   04 Jun 2027 03:07:51.113   04 Jun 2027 03:07:56.752             5.639              Murmansk2           176.219
       447   04 Jun 2027 03:24:46.966   04 Jun 2027 03:25:30.571            43.605               CapeTown          1362.656
       448   04 Jun 2027 04:20:35.265   04 Jun 2027 04:21:22.605            47.340                Anadyr2          1479.375
       449   04 Jun 2027 04:21:40.609   04 Jun 2027 04:21:58.100            17.491                Anadyr2           546.594
       450   04 Jun 2027 04:41:04.678   04 Jun 2027 04:41:10.992             6.314              Murmansk2           197.313
       451   04 Jun 2027 04:41:30.350   04 Jun 2027 04:43:20.685           110.335              Murmansk2          3447.969
       452   04 Jun 2027 04:44:10.066   04 Jun 2027 04:44:37.798            27.732              Murmansk2           866.625
       453   04 Jun 2027 06:03:04.636   04 Jun 2027 06:04:56.631           111.995               Magadan1          3499.844
       454   04 Jun 2027 06:04:56.631   04 Jun 2027 06:05:00.906             4.275               Magadan2           133.594
       455   04 Jun 2027 06:05:05.501   04 Jun 2027 06:06:28.978            83.477               Magadan2          2608.656
       456   04 Jun 2027 07:39:20.340   04 Jun 2027 07:39:45.568            25.228               Magadan2           788.375
       457   04 Jun 2027 07:40:05.775   04 Jun 2027 07:40:17.064            11.289               Magadan1           352.781
       458   04 Jun 2027 07:40:35.085   04 Jun 2027 07:40:47.636            12.551               Magadan1           392.219
       459   04 Jun 2027 07:40:58.424   04 Jun 2027 07:43:29.355           150.931                Anadyr2          4716.594
       460   04 Jun 2027 09:13:54.518   04 Jun 2027 09:13:59.223             4.705               Magadan2           147.031
       461   04 Jun 2027 09:14:14.153   04 Jun 2027 09:15:17.557            63.404                Novosib          1981.375
       462   04 Jun 2027 09:15:20.040   04 Jun 2027 09:15:27.901             7.861               Magadan1           245.656
       463   04 Jun 2027 09:15:45.142   04 Jun 2027 09:17:08.848            83.706               Magadan1          2615.813
       464   04 Jun 2027 09:17:14.986   04 Jun 2027 09:18:05.658            50.672                Irkutsk          1583.500
       465   04 Jun 2027 09:18:20.166   04 Jun 2027 09:18:35.520            15.354                Irkutsk           479.812
       466   04 Jun 2027 09:18:50.819   04 Jun 2027 09:19:47.649            56.830                Norilsk          1775.937
       467   04 Jun 2027 09:19:58.844   04 Jun 2027 09:20:09.403            10.559              Murmansk1           329.969
       468   04 Jun 2027 09:20:13.392   04 Jun 2027 09:20:16.280             2.888                Norilsk            90.250
       469   04 Jun 2027 09:20:21.743   04 Jun 2027 09:21:31.294            69.551              Murmansk2          2173.469
       470   04 Jun 2027 09:55:14.639   04 Jun 2027 09:56:22.325            67.686            RioGallegos          2115.188
       471   04 Jun 2027 10:30:40.759   04 Jun 2027 10:31:13.904            33.145                Sumatra          1035.781
       472   04 Jun 2027 10:31:55.367   04 Jun 2027 10:32:25.678            30.311                Sumatra           947.219
       473   04 Jun 2027 10:47:19.819   04 Jun 2027 10:47:52.909            33.090                  Delhi          1034.063
       474   04 Jun 2027 10:50:19.334   04 Jun 2027 10:51:24.217            64.883                Novosib          2027.594
       475   04 Jun 2027 10:51:44.634   04 Jun 2027 10:52:02.434            17.800                Novosib           556.250
       476   04 Jun 2027 10:52:06.860   04 Jun 2027 10:52:23.078            16.218                Norilsk           506.812
       477   04 Jun 2027 10:52:25.154   04 Jun 2027 10:52:31.362             6.208                Irkutsk           194.000
       478   04 Jun 2027 10:52:45.804   04 Jun 2027 10:52:47.864             2.060                Novosib            64.375
       479   04 Jun 2027 10:52:50.255   04 Jun 2027 10:53:36.050            45.795                Irkutsk          1431.094
       480   04 Jun 2027 10:53:46.886   04 Jun 2027 10:54:03.061            16.175                Norilsk           505.469
       481   04 Jun 2027 10:54:06.766   04 Jun 2027 10:54:12.953             6.187                Novosib           193.344
       482   04 Jun 2027 10:54:26.204   04 Jun 2027 10:54:52.244            26.040                Norilsk           813.750
