uniorb/output/strategy_2/Drop/Drop_KinoSat_111104.txt

KinoSat_111104
-------------------------
    Access    *     Start Time (UTCG)     *     Stop Time (UTCG)  *   Duration (s)        *       Station  *  Data (Mbytes)
         1   01 Jun 2027 03:34:21.548   01 Jun 2027 03:35:00.141            38.593                Anadyr1          1206.031
         2   01 Jun 2027 03:35:22.423   01 Jun 2027 03:35:43.744            21.321               Magadan1           666.281
         3   01 Jun 2027 03:36:47.461   01 Jun 2027 03:37:32.108            44.647               Magadan1          1395.219
         4   01 Jun 2027 05:10:29.353   01 Jun 2027 05:11:34.294            64.941               Magadan1          2029.406
         5   01 Jun 2027 05:11:34.294   01 Jun 2027 05:11:52.678            18.384               Magadan2           574.500
         6   01 Jun 2027 05:11:55.904   01 Jun 2027 05:13:51.262           115.358                Anadyr1          3604.938
         7   01 Jun 2027 05:13:59.083   01 Jun 2027 05:15:34.321            95.238                Anadyr2          2976.187
         8   01 Jun 2027 06:46:08.845   01 Jun 2027 06:47:27.745            78.900                Anadyr2          2465.625
         9   01 Jun 2027 06:47:33.039   01 Jun 2027 06:48:26.148            53.109               Magadan1          1659.656
        10   01 Jun 2027 06:48:34.599   01 Jun 2027 06:49:15.319            40.720                Irkutsk          1272.500
        11   01 Jun 2027 06:49:18.221   01 Jun 2027 06:50:02.918            44.697               Magadan1          1396.781
        12   01 Jun 2027 08:22:45.857   01 Jun 2027 08:23:52.741            66.884               Magadan2          2090.125
        13   01 Jun 2027 08:23:52.741   01 Jun 2027 08:24:42.955            50.214               Magadan1          1569.187
        14   01 Jun 2027 08:24:55.877   01 Jun 2027 08:25:29.275            33.398                Norilsk          1043.687
        15   01 Jun 2027 08:25:42.603   01 Jun 2027 08:27:41.231           118.628                Novosib          3707.125
        16   01 Jun 2027 08:28:10.312   01 Jun 2027 08:28:47.384            37.072              Murmansk1          1158.500
        17   01 Jun 2027 08:29:01.564   01 Jun 2027 08:29:08.337             6.773                Norilsk           211.656
        18   01 Jun 2027 08:29:23.942   01 Jun 2027 08:29:32.957             9.015              Murmansk1           281.719
        19   01 Jun 2027 08:30:48.656   01 Jun 2027 08:31:06.448            17.792                Norilsk           556.000
        20   01 Jun 2027 09:01:50.491   01 Jun 2027 09:03:01.142            70.651            RioGallegos          2207.844
        21   01 Jun 2027 09:05:52.851   01 Jun 2027 09:06:10.462            17.611            RioGallegos           550.344
        22   01 Jun 2027 09:36:47.480   01 Jun 2027 09:39:08.215           140.735                Sumatra          4397.969
        23   01 Jun 2027 09:58:58.690   01 Jun 2027 09:59:48.048            49.358                Novosib          1542.438
        24   01 Jun 2027 10:00:06.356   01 Jun 2027 10:02:32.639           146.283              Murmansk1          4571.344
        25   01 Jun 2027 10:02:36.006   01 Jun 2027 10:02:44.167             8.161              Murmansk2           255.031
        26   01 Jun 2027 10:02:50.692   01 Jun 2027 10:04:27.355            96.663                Novosib          3020.719
        27   01 Jun 2027 10:07:11.700   01 Jun 2027 10:08:11.089            59.389              Murmansk1          1855.906
        28   01 Jun 2027 10:40:49.916   01 Jun 2027 10:43:10.156           140.240            RioGallegos          4382.500
        29   01 Jun 2027 10:44:30.511   01 Jun 2027 10:45:02.375            31.864            RioGallegos           995.750
        30   01 Jun 2027 11:15:23.518   01 Jun 2027 11:16:46.278            82.760                Sumatra          2586.250
        31   01 Jun 2027 11:36:10.082   01 Jun 2027 11:36:26.673            16.591                Irkutsk           518.469
        32   01 Jun 2027 11:36:37.116   01 Jun 2027 11:39:16.629           159.513              Murmansk2          4984.781
        33   01 Jun 2027 11:39:35.259   01 Jun 2027 11:39:59.288            24.029              Murmansk2           750.906
        34   01 Jun 2027 11:40:52.511   01 Jun 2027 11:41:25.167            32.656                 Moscow          1020.500
        35   01 Jun 2027 13:01:49.103   01 Jun 2027 13:04:04.528           135.425                  Delhi          4232.031
        36   01 Jun 2027 13:04:11.306   01 Jun 2027 13:04:55.152            43.846                  Delhi          1370.187
        37   01 Jun 2027 13:07:33.893   01 Jun 2027 13:08:23.500            49.607                 Moscow          1550.219
        38   01 Jun 2027 13:08:43.260   01 Jun 2027 13:11:47.258           183.998              Murmansk1          5749.937
        39   01 Jun 2027 13:11:53.121   01 Jun 2027 13:13:47.686           114.565                Norilsk          3580.156
        40   01 Jun 2027 14:20:36.746   01 Jun 2027 14:23:22.209           165.463               CapeTown          5170.719
        41   01 Jun 2027 14:42:28.344   01 Jun 2027 14:42:43.842            15.498                 Moscow           484.312
        42   01 Jun 2027 14:45:28.635   01 Jun 2027 14:46:47.076            78.441              Murmansk2          2451.281
        43   01 Jun 2027 14:48:03.074   01 Jun 2027 14:48:42.143            39.069              Murmansk1          1220.906
        44   01 Jun 2027 14:49:59.253   01 Jun 2027 14:50:21.159            21.906              Murmansk2           684.562
        45   01 Jun 2027 14:59:59.667   01 Jun 2027 15:01:51.102           111.435                Anadyr2          3482.344
        46   01 Jun 2027 15:02:43.142   01 Jun 2027 15:03:28.584            45.442                Anadyr1          1420.062
        47   01 Jun 2027 15:54:43.620   01 Jun 2027 15:57:01.529           137.909               CapeTown          4309.656
        48   01 Jun 2027 16:24:22.275   01 Jun 2027 16:25:46.111            83.836              Murmansk1          2619.875
        49   01 Jun 2027 16:28:02.416   01 Jun 2027 16:28:38.963            36.547              Murmansk2          1142.094
        50   01 Jun 2027 16:29:41.512   01 Jun 2027 16:29:48.499             6.987              Murmansk1           218.344
        51   01 Jun 2027 16:35:22.572   01 Jun 2027 16:37:43.205           140.633                Anadyr2          4394.781
        52   01 Jun 2027 16:39:20.887   01 Jun 2027 16:41:10.787           109.900               Magadan1          3434.375
        53   01 Jun 2027 16:41:10.787   01 Jun 2027 16:42:21.232            70.445               Magadan2          2201.406
        54   01 Jun 2027 18:11:15.938   01 Jun 2027 18:15:20.989           245.051                Anadyr1          7657.844
        55   01 Jun 2027 18:15:54.356   01 Jun 2027 18:19:14.058           199.702               Magadan1          6240.687
        56   01 Jun 2027 19:47:08.989   01 Jun 2027 19:51:25.945           256.956                Anadyr2          8029.875
        57   01 Jun 2027 19:51:28.762   01 Jun 2027 19:53:09.801           101.039                Norilsk          3157.469
        58   01 Jun 2027 19:53:17.585   01 Jun 2027 19:54:36.137            78.552               Magadan1          2454.750
        59   01 Jun 2027 19:55:40.094   01 Jun 2027 19:58:03.359           143.265                Irkutsk          4477.031
        60   01 Jun 2027 19:59:34.237   01 Jun 2027 20:00:27.155            52.918                Irkutsk          1653.688
        61   01 Jun 2027 20:42:07.679   01 Jun 2027 20:42:27.364            19.685            RioGallegos           615.156
        62   01 Jun 2027 20:42:46.986   01 Jun 2027 20:42:51.143             4.157            RioGallegos           129.906
        63   01 Jun 2027 20:47:17.296   01 Jun 2027 20:47:27.507            10.211            RioGallegos           319.094
        64   01 Jun 2027 20:48:52.446   01 Jun 2027 20:49:51.879            59.433            RioGallegos          1857.281
        65   01 Jun 2027 20:52:37.920   01 Jun 2027 20:52:53.552            15.632            RioGallegos           488.500
        66   01 Jun 2027 21:23:47.605   01 Jun 2027 21:24:54.997            67.392                Anadyr2          2106.000
        67   01 Jun 2027 21:25:00.581   01 Jun 2027 21:26:21.963            81.382                Norilsk          2543.187
        68   01 Jun 2027 21:26:44.603   01 Jun 2027 21:27:03.000            18.397               Magadan1           574.906
        69   01 Jun 2027 21:27:16.258   01 Jun 2027 21:27:47.538            31.280               Magadan2           977.500
        70   01 Jun 2027 21:29:03.920   01 Jun 2027 21:30:29.465            85.545                Irkutsk          2673.281
        71   01 Jun 2027 21:30:45.203   01 Jun 2027 21:31:48.802            63.599                Novosib          1987.469
        72   01 Jun 2027 21:37:30.432   01 Jun 2027 21:37:48.568            18.136                Novosib           566.750
        73   01 Jun 2027 21:40:04.293   01 Jun 2027 21:40:27.969            23.676                Irkutsk           739.875
        74   01 Jun 2027 21:40:55.965   01 Jun 2027 21:41:22.862            26.897                Irkutsk           840.531
        75   01 Jun 2027 21:42:44.729   01 Jun 2027 21:43:29.616            44.887                Sumatra          1402.719
        76   01 Jun 2027 21:48:47.220   01 Jun 2027 21:49:36.846            49.626                Sumatra          1550.813
        77   01 Jun 2027 21:51:19.705   01 Jun 2027 21:52:17.718            58.013                Sumatra          1812.906
        78   01 Jun 2027 22:57:31.027   01 Jun 2027 22:57:58.294            27.267                Anadyr1           852.094
        79   01 Jun 2027 22:59:25.066   01 Jun 2027 23:00:01.595            36.529                Anadyr1          1141.531
        80   01 Jun 2027 23:00:20.891   01 Jun 2027 23:00:28.212             7.321                Anadyr1           228.781
        81   01 Jun 2027 23:00:59.128   01 Jun 2027 23:02:54.078           114.950                Norilsk          3592.188
        82   01 Jun 2027 23:03:07.039   01 Jun 2027 23:03:21.536            14.497               Magadan1           453.031
        83   01 Jun 2027 23:03:23.013   01 Jun 2027 23:03:59.183            36.170               Magadan2          1130.312
        84   01 Jun 2027 23:04:52.961   01 Jun 2027 23:05:33.803            40.842                Irkutsk          1276.313
        85   01 Jun 2027 23:05:34.704   01 Jun 2027 23:06:21.839            47.135                Novosib          1472.969
        86   01 Jun 2027 23:08:16.627   01 Jun 2027 23:10:14.198           117.571                Novosib          3674.094
        87   01 Jun 2027 23:12:25.716   01 Jun 2027 23:13:32.984            67.268                  Delhi          2102.125
        88   01 Jun 2027 23:18:37.189   01 Jun 2027 23:19:14.431            37.242                  Delhi          1163.813
        89   01 Jun 2027 23:20:24.328   01 Jun 2027 23:21:53.273            88.945                  Delhi          2779.531
        90   02 Jun 2027 00:30:35.594   02 Jun 2027 00:30:53.989            18.395                Anadyr2           574.844
        91   02 Jun 2027 00:31:41.763   02 Jun 2027 00:32:46.369            64.606                Anadyr2          2018.938
        92   02 Jun 2027 00:34:34.351   02 Jun 2027 00:35:08.298            33.947                Anadyr1          1060.844
        93   02 Jun 2027 00:36:06.273   02 Jun 2027 00:36:26.007            19.734                Anadyr1           616.688
        94   02 Jun 2027 00:36:44.961   02 Jun 2027 00:37:52.948            67.987               Magadan2          2124.594
        95   02 Jun 2027 00:38:11.577   02 Jun 2027 00:39:20.984            69.407               Magadan2          2168.969
        96   02 Jun 2027 00:39:27.944   02 Jun 2027 00:41:32.969           125.025              Murmansk1          3907.031
        97   02 Jun 2027 00:43:35.482   02 Jun 2027 00:44:52.364            76.882                 Moscow          2402.562
        98   02 Jun 2027 00:50:31.381   02 Jun 2027 00:50:48.870            17.489                 Moscow           546.531
        99   02 Jun 2027 00:52:42.348   02 Jun 2027 00:53:05.617            23.269                Novosib           727.156
       100   02 Jun 2027 00:55:52.425   02 Jun 2027 00:56:32.244            39.819                  Delhi          1244.344
       101   02 Jun 2027 00:58:38.566   02 Jun 2027 00:59:02.728            24.162                  Delhi           755.062
       102   02 Jun 2027 01:12:15.721   02 Jun 2027 01:12:50.873            35.152               CapeTown          1098.500
       103   02 Jun 2027 01:13:26.379   02 Jun 2027 01:14:17.251            50.872               CapeTown          1589.750
       104   02 Jun 2027 02:04:07.592   02 Jun 2027 02:04:13.194             5.602                Anadyr2           175.063
       105   02 Jun 2027 02:04:30.583   02 Jun 2027 02:04:39.431             8.848                Anadyr1           276.500
       106   02 Jun 2027 02:05:18.662   02 Jun 2027 02:05:52.082            33.420                Anadyr2          1044.375
       107   02 Jun 2027 02:06:47.629   02 Jun 2027 02:07:13.010            25.381                Anadyr2           793.156
       108   02 Jun 2027 02:08:47.613   02 Jun 2027 02:09:40.729            53.116               Magadan1          1659.875
       109   02 Jun 2027 02:10:07.238   02 Jun 2027 02:10:23.547            16.309               Magadan1           509.656
       110   02 Jun 2027 02:11:03.470   02 Jun 2027 02:11:16.218            12.748               Magadan2           398.375
       111   02 Jun 2027 02:12:29.687   02 Jun 2027 02:12:55.766            26.079               Magadan1           814.969
       112   02 Jun 2027 02:13:56.278   02 Jun 2027 02:14:10.672            14.394                Norilsk           449.813
       113   02 Jun 2027 02:15:05.569   02 Jun 2027 02:16:40.051            94.482              Murmansk2          2952.562
       114   02 Jun 2027 02:17:51.737   02 Jun 2027 02:18:52.701            60.964                Novosib          1905.125
       115   02 Jun 2027 02:23:18.002   02 Jun 2027 02:23:38.509            20.507                Novosib           640.844
       116   02 Jun 2027 02:25:04.544   02 Jun 2027 02:25:35.093            30.549              Murmansk2           954.656
       117   02 Jun 2027 02:27:14.309   02 Jun 2027 02:27:56.965            42.656                 Moscow          1333.000
       118   02 Jun 2027 02:30:09.030   02 Jun 2027 02:30:09.350             0.320                 Moscow            10.000
       119   02 Jun 2027 02:49:20.463   02 Jun 2027 02:50:28.910            68.447               CapeTown          2138.969
       120   02 Jun 2027 02:52:28.041   02 Jun 2027 02:52:55.966            27.925               CapeTown           872.656
       121   02 Jun 2027 03:46:11.512   02 Jun 2027 03:48:43.586           152.074                Anadyr2          4752.312
       122   02 Jun 2027 03:49:28.118   02 Jun 2027 03:49:38.376            10.258               Magadan1           320.563
       123   02 Jun 2027 03:57:53.833   02 Jun 2027 03:58:12.315            18.482                Norilsk           577.562
       124   02 Jun 2027 03:58:30.685   02 Jun 2027 03:58:35.717             5.032                Norilsk           157.250
       125   02 Jun 2027 05:22:07.311   02 Jun 2027 05:22:21.757            14.446               Magadan2           451.438
       126   02 Jun 2027 05:22:35.338   02 Jun 2027 05:23:36.881            61.543               Magadan2          1923.219
       127   02 Jun 2027 05:23:36.881   02 Jun 2027 05:23:44.647             7.766               Magadan1           242.688
       128   02 Jun 2027 05:23:46.524   02 Jun 2027 05:24:40.145            53.621               Magadan1          1675.656
       129   02 Jun 2027 05:24:40.145   02 Jun 2027 05:25:34.052            53.907               Magadan2          1684.594
       130   02 Jun 2027 05:25:38.024   02 Jun 2027 05:26:20.837            42.813               Magadan2          1337.906
       131   02 Jun 2027 06:56:39.895   02 Jun 2027 06:57:05.985            26.090                Anadyr1           815.313
       132   02 Jun 2027 06:57:33.133   02 Jun 2027 06:57:42.008             8.875               Magadan1           277.344
       133   02 Jun 2027 06:58:05.641   02 Jun 2027 06:58:18.724            13.083               Magadan2           408.844
       134   02 Jun 2027 06:58:18.724   02 Jun 2027 07:00:48.458           149.734               Magadan1          4679.187
       135   02 Jun 2027 07:00:54.037   02 Jun 2027 07:01:34.355            40.318                Novosib          1259.938
       136   02 Jun 2027 07:01:38.016   02 Jun 2027 07:02:07.515            29.499               Magadan2           921.844
       137   02 Jun 2027 07:02:12.731   02 Jun 2027 07:02:45.751            33.020                Anadyr1          1031.875
       138   02 Jun 2027 08:33:44.398   02 Jun 2027 08:36:35.888           171.490               Magadan1          5359.062
       139   02 Jun 2027 08:36:52.856   02 Jun 2027 08:37:28.755            35.899                Irkutsk          1121.844
       140   02 Jun 2027 08:37:34.313   02 Jun 2027 08:37:58.113            23.800              Murmansk2           743.750
       141   02 Jun 2027 08:38:09.920   02 Jun 2027 08:38:25.253            15.333                Norilsk           479.156
       142   02 Jun 2027 08:38:28.522   02 Jun 2027 08:38:33.756             5.234                Norilsk           163.562
       143   02 Jun 2027 08:38:40.386   02 Jun 2027 08:39:13.878            33.492              Murmansk2          1046.625
       144   02 Jun 2027 08:39:13.878   02 Jun 2027 08:40:02.931            49.053              Murmansk1          1532.906
       145   02 Jun 2027 08:40:57.474   02 Jun 2027 08:41:10.224            12.750                Norilsk           398.437
       146   02 Jun 2027 09:13:58.834   02 Jun 2027 09:14:53.141            54.307            RioGallegos          1697.094
       147   02 Jun 2027 09:16:57.644   02 Jun 2027 09:17:02.570             4.926            RioGallegos           153.937
       148   02 Jun 2027 09:23:20.518   02 Jun 2027 09:23:38.823            18.305            RioGallegos           572.031
       149   02 Jun 2027 09:48:43.396   02 Jun 2027 09:49:43.139            59.743                Sumatra          1866.969
       150   02 Jun 2027 09:57:26.924   02 Jun 2027 09:57:34.317             7.393                Sumatra           231.031
       151   02 Jun 2027 09:59:09.533   02 Jun 2027 09:59:22.718            13.185                  Delhi           412.031
       152   02 Jun 2027 10:01:09.282   02 Jun 2027 10:01:39.942            30.660                  Delhi           958.125
       153   02 Jun 2027 10:03:09.729   02 Jun 2027 10:03:39.519            29.790                  Delhi           930.938
       154   02 Jun 2027 10:08:56.385   02 Jun 2027 10:09:31.797            35.412                Irkutsk          1106.625
       155   02 Jun 2027 10:09:34.622   02 Jun 2027 10:09:48.874            14.252                Novosib           445.375
       156   02 Jun 2027 10:10:22.143   02 Jun 2027 10:11:13.442            51.299                Irkutsk          1603.094
       157   02 Jun 2027 10:11:20.381   02 Jun 2027 10:12:15.757            55.376                Irkutsk          1730.500
       158   02 Jun 2027 10:12:20.388   02 Jun 2027 10:12:47.553            27.165                Novosib           848.906
       159   02 Jun 2027 10:12:50.766   02 Jun 2027 10:12:51.089             0.323                Novosib            10.094
       160   02 Jun 2027 10:12:52.162   02 Jun 2027 10:13:31.176            39.014              Murmansk2          1219.188
       161   02 Jun 2027 10:13:42.137   02 Jun 2027 10:13:50.769             8.632                Irkutsk           269.750
       162   02 Jun 2027 10:14:01.051   02 Jun 2027 10:14:26.662            25.611                Norilsk           800.344
       163   02 Jun 2027 10:14:33.438   02 Jun 2027 10:14:52.303            18.865                Irkutsk           589.531
       164   02 Jun 2027 10:14:54.894   02 Jun 2027 10:15:56.101            61.207                Novosib          1912.719
       165   02 Jun 2027 10:53:47.657   02 Jun 2027 10:53:57.712            10.055            RioGallegos           314.219
       166   02 Jun 2027 10:54:34.570   02 Jun 2027 10:55:15.633            41.063            RioGallegos          1283.219
       167   02 Jun 2027 10:57:51.730   02 Jun 2027 10:58:05.165            13.435            RioGallegos           419.844
       168   02 Jun 2027 11:29:49.729   02 Jun 2027 11:31:14.470            84.741                Sumatra          2648.156
       169   02 Jun 2027 11:42:26.400   02 Jun 2027 11:42:41.744            15.344                  Delhi           479.500
       170   02 Jun 2027 11:47:02.407   02 Jun 2027 11:47:04.054             1.647                 Moscow            51.469
       171   02 Jun 2027 11:47:14.941   02 Jun 2027 11:48:26.711            71.770                Norilsk          2242.813
       172   02 Jun 2027 11:48:38.995   02 Jun 2027 11:49:00.677            21.682                Novosib           677.562
       173   02 Jun 2027 11:49:12.205   02 Jun 2027 11:50:01.722            49.517                Norilsk          1547.406
       174   02 Jun 2027 11:50:17.812   02 Jun 2027 11:51:25.567            67.755              Murmansk2          2117.344
       175   02 Jun 2027 13:17:19.957   02 Jun 2027 13:18:51.151            91.194                 Moscow          2849.813
       176   02 Jun 2027 13:19:52.423   02 Jun 2027 13:21:16.521            84.098                 Moscow          2628.062
       177   02 Jun 2027 13:21:38.097   02 Jun 2027 13:24:01.627           143.530              Murmansk2          4485.313
       178   02 Jun 2027 13:24:06.304   02 Jun 2027 13:24:54.335            48.031              Murmansk1          1500.969
       179   02 Jun 2027 13:25:22.596   02 Jun 2027 13:26:04.292            41.696              Murmansk1          1303.000
       180   02 Jun 2027 13:26:30.398   02 Jun 2027 13:27:11.644            41.246                Norilsk          1288.938
       181   02 Jun 2027 13:28:27.011   02 Jun 2027 13:28:33.654             6.643                Norilsk           207.594
       182   02 Jun 2027 13:30:15.002   02 Jun 2027 13:30:29.765            14.763                Norilsk           461.344
       183   02 Jun 2027 14:32:04.588   02 Jun 2027 14:33:41.038            96.450               CapeTown          3014.062
       184   02 Jun 2027 14:35:08.234   02 Jun 2027 14:36:24.065            75.831               CapeTown          2369.719
       185   02 Jun 2027 14:37:17.615   02 Jun 2027 14:37:41.270            23.655               CapeTown           739.219
       186   02 Jun 2027 14:38:45.516   02 Jun 2027 14:38:53.691             8.175               CapeTown           255.469
       187   02 Jun 2027 14:54:32.545   02 Jun 2027 14:54:45.329            12.784                 Moscow           399.500
       188   02 Jun 2027 14:55:18.990   02 Jun 2027 14:55:24.236             5.246                 Moscow           163.938
       189   02 Jun 2027 14:57:44.470   02 Jun 2027 14:58:58.215            73.745              Murmansk1          2304.531
       190   02 Jun 2027 15:00:04.672   02 Jun 2027 15:02:01.165           116.493              Murmansk1          3640.406
       191   02 Jun 2027 15:11:52.553   02 Jun 2027 15:14:49.028           176.475                Anadyr1          5514.844
       192   02 Jun 2027 16:16:10.241   02 Jun 2027 16:16:26.738            16.497               CapeTown           515.531
       193   02 Jun 2027 16:17:01.314   02 Jun 2027 16:17:11.149             9.835               CapeTown           307.344
       194   02 Jun 2027 16:36:57.925   02 Jun 2027 16:38:47.102           109.177              Murmansk2          3411.781
       195   02 Jun 2027 16:39:30.602   02 Jun 2027 16:40:04.236            33.634              Murmansk1          1051.062
       196   02 Jun 2027 16:42:50.020   02 Jun 2027 16:43:12.715            22.695              Murmansk2           709.219
       197   02 Jun 2027 16:47:22.976   02 Jun 2027 16:49:08.708           105.732                Anadyr2          3304.125
       198   02 Jun 2027 16:50:08.240   02 Jun 2027 16:50:24.104            15.864                Anadyr2           495.750
       199   02 Jun 2027 16:50:55.259   02 Jun 2027 16:52:09.507            74.248               Magadan2          2320.250
       200   02 Jun 2027 16:53:05.232   02 Jun 2027 16:54:12.303            67.071               Magadan1          2095.969
       201   02 Jun 2027 16:55:00.016   02 Jun 2027 16:55:09.480             9.464               Magadan1           295.750
       202   02 Jun 2027 16:56:49.332   02 Jun 2027 16:58:16.021            86.689               Magadan2          2709.031
       203   02 Jun 2027 18:23:17.413   02 Jun 2027 18:25:36.986           139.573                Anadyr1          4361.656
       204   02 Jun 2027 18:25:39.841   02 Jun 2027 18:27:55.803           135.962               Magadan2          4248.813
       205   02 Jun 2027 18:28:12.673   02 Jun 2027 18:28:38.426            25.753               Magadan1           804.781
       206   02 Jun 2027 18:35:46.222   02 Jun 2027 18:35:59.622            13.400               Magadan2           418.750
       207   02 Jun 2027 19:59:09.026   02 Jun 2027 20:03:25.689           256.663                Anadyr1          8020.719
       208   02 Jun 2027 20:03:27.204   02 Jun 2027 20:04:46.513            79.309               Magadan2          2478.406
       209   02 Jun 2027 20:04:57.076   02 Jun 2027 20:05:07.478            10.402                Norilsk           325.062
       210   02 Jun 2027 20:05:25.672   02 Jun 2027 20:06:25.431            59.759               Magadan2          1867.469
       211   02 Jun 2027 20:06:53.584   02 Jun 2027 20:09:46.325           172.741                Irkutsk          5398.156
       212   02 Jun 2027 20:12:44.093   02 Jun 2027 20:13:14.682            30.589                Irkutsk           955.906
       213   02 Jun 2027 20:23:06.187   02 Jun 2027 20:24:12.818            66.631                Sumatra          2082.219
       214   02 Jun 2027 20:25:36.747   02 Jun 2027 20:27:02.157            85.410                Sumatra          2669.062
       215   02 Jun 2027 21:37:01.768   02 Jun 2027 21:38:21.475            79.707                Norilsk          2490.844
       216   02 Jun 2027 21:41:00.914   02 Jun 2027 21:42:29.552            88.638                Irkutsk          2769.937
       217   02 Jun 2027 21:44:26.869   02 Jun 2027 21:45:24.597            57.728                Novosib          1804.000
       218   02 Jun 2027 21:48:23.365   02 Jun 2027 21:48:28.981             5.616                Novosib           175.500
       219   02 Jun 2027 21:54:43.453   02 Jun 2027 21:55:13.783            30.330                Sumatra           947.813
       220   02 Jun 2027 21:56:40.916   02 Jun 2027 21:57:29.740            48.824                Sumatra          1525.750
       221   02 Jun 2027 22:00:36.261   02 Jun 2027 22:01:24.699            48.438                Sumatra          1513.687
       222   02 Jun 2027 23:08:55.619   02 Jun 2027 23:09:45.897            50.278                Anadyr2          1571.188
       223   02 Jun 2027 23:13:01.149   02 Jun 2027 23:13:21.689            20.540                Norilsk           641.875
       224   02 Jun 2027 23:13:37.478   02 Jun 2027 23:15:06.117            88.639               Magadan2          2769.969
       225   02 Jun 2027 23:16:35.851   02 Jun 2027 23:19:42.532           186.681              Murmansk2          5833.781
       226   02 Jun 2027 23:24:17.458   02 Jun 2027 23:25:23.909            66.451                  Delhi          2076.594
       227   02 Jun 2027 23:27:10.866   02 Jun 2027 23:27:18.023             7.157                  Delhi           223.656
       228   02 Jun 2027 23:28:03.714   02 Jun 2027 23:28:27.994            24.280                  Delhi           758.750
       229   02 Jun 2027 23:32:27.943   02 Jun 2027 23:33:16.744            48.801                  Delhi          1525.031
       230   03 Jun 2027 00:11:47.261   03 Jun 2027 00:12:01.369            14.108            RioGallegos           440.875
       231   03 Jun 2027 00:12:48.507   03 Jun 2027 00:13:11.762            23.255            RioGallegos           726.719
       232   03 Jun 2027 00:42:16.753   03 Jun 2027 00:42:31.083            14.330                Anadyr1           447.812
       233   03 Jun 2027 00:42:31.083   03 Jun 2027 00:42:37.626             6.543                Anadyr2           204.469
       234   03 Jun 2027 00:42:44.514   03 Jun 2027 00:42:47.798             3.284                Anadyr2           102.625
       235   03 Jun 2027 00:43:03.411   03 Jun 2027 00:43:42.972            39.561                Anadyr1          1236.281
       236   03 Jun 2027 00:44:46.772   03 Jun 2027 00:45:06.419            19.647                Anadyr1           613.969
       237   03 Jun 2027 00:47:39.858   03 Jun 2027 00:48:01.755            21.897                Anadyr1           684.281
       238   03 Jun 2027 00:48:01.755   03 Jun 2027 00:48:07.363             5.608                Anadyr2           175.250
       239   03 Jun 2027 00:48:26.528   03 Jun 2027 00:51:11.561           165.033               Magadan1          5157.281
       240   03 Jun 2027 00:51:14.699   03 Jun 2027 00:52:29.469            74.770              Murmansk1          2336.563
       241   03 Jun 2027 00:52:29.469   03 Jun 2027 00:53:50.800            81.331              Murmansk2          2541.594
       242   03 Jun 2027 01:02:07.025   03 Jun 2027 01:02:14.690             7.665                 Moscow           239.531
       243   03 Jun 2027 01:04:17.986   03 Jun 2027 01:04:43.552            25.566                 Moscow           798.937
       244   03 Jun 2027 01:07:26.545   03 Jun 2027 01:07:34.191             7.646                  Delhi           238.937
       245   03 Jun 2027 01:22:36.719   03 Jun 2027 01:23:50.616            73.897               CapeTown          2309.281
       246   03 Jun 2027 01:25:53.049   03 Jun 2027 01:26:10.482            17.433               CapeTown           544.781
       247   03 Jun 2027 02:15:55.387   03 Jun 2027 02:16:13.426            18.039                Anadyr2           563.719
       248   03 Jun 2027 02:16:13.426   03 Jun 2027 02:16:21.672             8.246                Anadyr1           257.688
       249   03 Jun 2027 02:16:40.693   03 Jun 2027 02:17:25.119            44.426                Anadyr2          1388.312
       250   03 Jun 2027 02:18:23.974   03 Jun 2027 02:18:33.670             9.696                Anadyr1           303.000
       251   03 Jun 2027 02:18:47.974   03 Jun 2027 02:18:56.348             8.374                Anadyr1           261.688
       252   03 Jun 2027 02:19:14.571   03 Jun 2027 02:19:19.785             5.214                Anadyr2           162.937
       253   03 Jun 2027 02:20:16.003   03 Jun 2027 02:21:36.347            80.344               Magadan1          2510.750
       254   03 Jun 2027 02:23:33.478   03 Jun 2027 02:23:44.635            11.157               Magadan2           348.656
       255   03 Jun 2027 02:24:32.355   03 Jun 2027 02:24:59.290            26.935               Magadan1           841.719
       256   03 Jun 2027 02:26:14.102   03 Jun 2027 02:26:21.967             7.865                Norilsk           245.781
       257   03 Jun 2027 02:27:07.283   03 Jun 2027 02:28:45.581            98.298              Murmansk1          3071.813
       258   03 Jun 2027 02:29:25.335   03 Jun 2027 02:29:49.023            23.688                Novosib           740.250
       259   03 Jun 2027 02:30:21.438   03 Jun 2027 02:31:01.164            39.726                Novosib          1241.437
       260   03 Jun 2027 02:34:50.096   03 Jun 2027 02:34:58.679             8.583                Novosib           268.219
       261   03 Jun 2027 02:39:12.569   03 Jun 2027 02:39:32.544            19.975                 Moscow           624.219
       262   03 Jun 2027 02:41:41.539   03 Jun 2027 02:41:43.755             2.216                 Moscow            69.250
       263   03 Jun 2027 02:42:53.459   03 Jun 2027 02:43:12.527            19.068                 Moscow           595.875
       264   03 Jun 2027 02:58:12.292   03 Jun 2027 02:58:22.146             9.854               CapeTown           307.938
       265   03 Jun 2027 02:58:45.130   03 Jun 2027 03:00:21.532            96.402               CapeTown          3012.562
       266   03 Jun 2027 03:58:12.762   03 Jun 2027 04:00:03.429           110.667                Anadyr2          3458.344
       267   03 Jun 2027 04:00:16.661   03 Jun 2027 04:00:34.208            17.547               Magadan1           548.344
       268   03 Jun 2027 04:01:30.320   03 Jun 2027 04:01:47.324            17.004               Magadan1           531.375
       269   03 Jun 2027 05:33:57.460   03 Jun 2027 05:35:52.431           114.971                Anadyr1          3592.844
       270   03 Jun 2027 05:35:57.305   03 Jun 2027 05:36:49.572            52.267                Anadyr2          1633.344
       271   03 Jun 2027 05:37:37.047   03 Jun 2027 05:37:39.497             2.450               Magadan1            76.562
       272   03 Jun 2027 05:37:43.203   03 Jun 2027 05:37:54.421            11.218                Anadyr1           350.563
       273   03 Jun 2027 05:37:54.421   03 Jun 2027 05:38:02.138             7.717                Anadyr2           241.156
       274   03 Jun 2027 05:38:41.452   03 Jun 2027 05:38:56.562            15.110               Magadan2           472.188
       275   03 Jun 2027 05:39:15.634   03 Jun 2027 05:39:43.732            28.098                Anadyr2           878.063
       276   03 Jun 2027 07:06:39.878   03 Jun 2027 07:07:00.067            20.189               Magadan1           630.906
       277   03 Jun 2027 07:07:48.850   03 Jun 2027 07:08:03.692            14.842               Magadan2           463.812
       278   03 Jun 2027 07:08:18.423   03 Jun 2027 07:09:15.220            56.797                Anadyr2          1774.906
       279   03 Jun 2027 07:09:20.315   03 Jun 2027 07:09:26.307             5.992               Magadan1           187.250
       280   03 Jun 2027 07:09:34.813   03 Jun 2027 07:09:45.296            10.483               Magadan1           327.594
       281   03 Jun 2027 07:09:46.417   03 Jun 2027 07:09:54.450             8.033               Magadan1           251.031
       282   03 Jun 2027 07:09:54.450   03 Jun 2027 07:11:33.115            98.665               Magadan2          3083.281
       283   03 Jun 2027 07:11:49.673   03 Jun 2027 07:11:55.771             6.098                Norilsk           190.562
       284   03 Jun 2027 07:12:18.321   03 Jun 2027 07:12:37.108            18.787                Anadyr1           587.094
       285   03 Jun 2027 07:12:40.716   03 Jun 2027 07:13:02.567            21.851               Magadan1           682.844
       286   03 Jun 2027 07:13:08.097   03 Jun 2027 07:13:27.216            19.119                Irkutsk           597.469
       287   03 Jun 2027 07:13:28.053   03 Jun 2027 07:14:40.670            72.617                Anadyr2          2269.281
       288   03 Jun 2027 07:15:00.955   03 Jun 2027 07:15:11.800            10.845              Murmansk1           338.906
       289   03 Jun 2027 07:15:11.800   03 Jun 2027 07:15:15.667             3.867              Murmansk2           120.844
       290   03 Jun 2027 07:15:15.667   03 Jun 2027 07:15:35.872            20.205              Murmansk1           631.406
       291   03 Jun 2027 07:16:23.725   03 Jun 2027 07:17:40.513            76.788              Murmansk2          2399.625
       292   03 Jun 2027 08:28:16.711   03 Jun 2027 08:29:55.566            98.855                Sumatra          3089.219
       293   03 Jun 2027 08:44:07.859   03 Jun 2027 08:44:41.787            33.928               Magadan2          1060.250
       294   03 Jun 2027 08:45:32.788   03 Jun 2027 08:46:28.322            55.534                Irkutsk          1735.438
       295   03 Jun 2027 08:46:36.163   03 Jun 2027 08:46:39.787             3.624                Norilsk           113.250
       296   03 Jun 2027 08:46:51.968   03 Jun 2027 08:47:33.502            41.534                Irkutsk          1297.938
       297   03 Jun 2027 08:47:46.777   03 Jun 2027 08:47:59.423            12.646                Irkutsk           395.187
       298   03 Jun 2027 08:48:03.377   03 Jun 2027 08:48:06.883             3.506                Novosib           109.563
       299   03 Jun 2027 08:48:10.705   03 Jun 2027 08:48:48.116            37.411               Magadan2          1169.094
       300   03 Jun 2027 08:48:57.783   03 Jun 2027 08:49:09.265            11.482              Murmansk1           358.812
       301   03 Jun 2027 08:49:16.966   03 Jun 2027 08:49:45.809            28.843                Norilsk           901.344
       302   03 Jun 2027 08:49:45.939   03 Jun 2027 08:49:48.436             2.497              Murmansk1            78.031
       303   03 Jun 2027 08:50:00.105   03 Jun 2027 08:50:30.476            30.371                Irkutsk           949.094
       304   03 Jun 2027 08:50:41.663   03 Jun 2027 08:50:52.317            10.654              Murmansk1           332.938
       305   03 Jun 2027 08:50:53.953   03 Jun 2027 08:50:54.884             0.931                Norilsk            29.094
       306   03 Jun 2027 08:50:55.286   03 Jun 2027 08:51:09.168            13.882                Norilsk           433.813
       307   03 Jun 2027 08:51:13.349   03 Jun 2027 08:51:54.559            41.210              Murmansk1          1287.813
       308   03 Jun 2027 08:58:21.459   03 Jun 2027 08:58:32.955            11.496              Murmansk2           359.250
       309   03 Jun 2027 09:26:10.902   03 Jun 2027 09:26:42.462            31.560            RioGallegos           986.250
       310   03 Jun 2027 09:27:16.265   03 Jun 2027 09:27:23.210             6.945            RioGallegos           217.031
       311   03 Jun 2027 09:29:00.590   03 Jun 2027 09:29:19.926            19.336            RioGallegos           604.250
       312   03 Jun 2027 10:00:44.919   03 Jun 2027 10:00:49.444             4.525                Sumatra           141.406
       313   03 Jun 2027 10:01:48.610   03 Jun 2027 10:03:18.624            90.014                Sumatra          2812.937
       314   03 Jun 2027 10:10:31.852   03 Jun 2027 10:11:16.845            44.993                  Delhi          1406.031
       315   03 Jun 2027 10:21:07.097   03 Jun 2027 10:21:18.975            11.878                Norilsk           371.188
       316   03 Jun 2027 10:21:32.462   03 Jun 2027 10:21:37.512             5.050                Novosib           157.812
       317   03 Jun 2027 10:22:28.495   03 Jun 2027 10:22:32.721             4.226                Norilsk           132.062
       318   03 Jun 2027 10:22:52.287   03 Jun 2027 10:23:13.240            20.953              Murmansk2           654.781
       319   03 Jun 2027 10:23:19.777   03 Jun 2027 10:23:53.751            33.974                 Moscow          1061.688
       320   03 Jun 2027 10:23:58.308   03 Jun 2027 10:24:31.287            32.979                 Moscow          1030.594
       321   03 Jun 2027 10:24:33.603   03 Jun 2027 10:24:50.554            16.951                Novosib           529.719
       322   03 Jun 2027 10:24:53.592   03 Jun 2027 10:25:06.243            12.651                Irkutsk           395.344
       323   03 Jun 2027 10:25:22.072   03 Jun 2027 10:25:58.476            36.404                Irkutsk          1137.625
       324   03 Jun 2027 10:26:06.828   03 Jun 2027 10:26:12.346             5.518              Murmansk2           172.438
       325   03 Jun 2027 10:26:28.658   03 Jun 2027 10:26:35.143             6.485                Norilsk           202.656
       326   03 Jun 2027 10:26:43.100   03 Jun 2027 10:27:01.418            18.318              Murmansk2           572.437
       327   03 Jun 2027 10:27:05.466   03 Jun 2027 10:27:39.375            33.909              Murmansk2          1059.656
       328   03 Jun 2027 10:27:57.122   03 Jun 2027 10:27:58.145             1.023                 Moscow            31.969
       329   03 Jun 2027 10:28:12.185   03 Jun 2027 10:28:29.603            17.418                 Moscow           544.312
       330   03 Jun 2027 11:07:07.094   03 Jun 2027 11:07:53.996            46.902            RioGallegos          1465.687
       331   03 Jun 2027 11:45:10.043   03 Jun 2027 11:45:49.620            39.577                  Delhi          1236.781
       332   03 Jun 2027 11:47:02.677   03 Jun 2027 11:47:58.370            55.693                  Delhi          1740.406
       333   03 Jun 2027 11:58:24.974   03 Jun 2027 11:59:35.088            70.114                Novosib          2191.062
       334   03 Jun 2027 11:59:39.074   03 Jun 2027 12:00:49.780            70.706              Murmansk1          2209.562
       335   03 Jun 2027 12:01:13.708   03 Jun 2027 12:02:05.791            52.083                Norilsk          1627.594
       336   03 Jun 2027 12:02:46.403   03 Jun 2027 12:04:10.034            83.631                Novosib          2613.469
       337   03 Jun 2027 12:06:20.538   03 Jun 2027 12:06:32.052            11.514                Norilsk           359.812
       338   03 Jun 2027 12:08:05.493   03 Jun 2027 12:08:24.100            18.607              Murmansk2           581.469
       339   03 Jun 2027 12:09:04.679   03 Jun 2027 12:09:21.878            17.199              Murmansk2           537.469
       340   03 Jun 2027 12:09:47.021   03 Jun 2027 12:09:49.462             2.441              Murmansk2            76.281
       341   03 Jun 2027 13:29:19.887   03 Jun 2027 13:32:29.328           189.441                 Moscow          5920.031
       342   03 Jun 2027 13:32:48.477   03 Jun 2027 13:35:05.754           137.277              Murmansk2          4289.906
       343   03 Jun 2027 13:36:42.425   03 Jun 2027 13:37:07.598            25.173              Murmansk2           786.656
       344   03 Jun 2027 13:37:17.719   03 Jun 2027 13:37:38.442            20.723                Norilsk           647.594
       345   03 Jun 2027 13:38:53.995   03 Jun 2027 13:39:19.054            25.059                Norilsk           783.094
       346   03 Jun 2027 13:41:47.808   03 Jun 2027 13:42:16.086            28.278                Norilsk           883.687
       347   03 Jun 2027 13:43:31.671   03 Jun 2027 13:43:41.860            10.189                Norilsk           318.406
       348   03 Jun 2027 14:43:41.478   03 Jun 2027 14:45:17.066            95.588               CapeTown          2987.125
       349   03 Jun 2027 14:45:24.942   03 Jun 2027 14:46:58.499            93.557               CapeTown          2923.656
       350   03 Jun 2027 15:08:06.329   03 Jun 2027 15:08:49.121            42.792                 Moscow          1337.250
       351   03 Jun 2027 15:10:02.364   03 Jun 2027 15:10:16.695            14.331              Murmansk2           447.844
       352   03 Jun 2027 15:10:35.907   03 Jun 2027 15:11:05.333            29.426              Murmansk2           919.562
       353   03 Jun 2027 15:14:17.638   03 Jun 2027 15:14:49.330            31.692              Murmansk1           990.375
       354   03 Jun 2027 15:15:59.427   03 Jun 2027 15:16:07.236             7.809              Murmansk2           244.031
       355   03 Jun 2027 15:17:51.207   03 Jun 2027 15:18:08.427            17.220              Murmansk2           538.125
       356   03 Jun 2027 15:19:52.620   03 Jun 2027 15:19:54.736             2.116              Murmansk2            66.125
       357   03 Jun 2027 15:20:00.762   03 Jun 2027 15:20:10.456             9.694              Murmansk2           302.937
       358   03 Jun 2027 15:23:47.402   03 Jun 2027 15:24:43.197            55.795                Anadyr1          1743.594
       359   03 Jun 2027 15:25:09.795   03 Jun 2027 15:26:12.589            62.794                Anadyr2          1962.313
       360   03 Jun 2027 15:28:19.952   03 Jun 2027 15:28:39.104            19.152                Anadyr1           598.500
       361   03 Jun 2027 15:28:45.964   03 Jun 2027 15:28:48.752             2.788                Anadyr1            87.125
       362   03 Jun 2027 15:29:07.835   03 Jun 2027 15:30:01.253            53.418                Anadyr2          1669.313
       363   03 Jun 2027 16:28:20.840   03 Jun 2027 16:28:41.551            20.711               CapeTown           647.219
       364   03 Jun 2027 16:29:21.792   03 Jun 2027 16:29:23.124             1.332               CapeTown            41.625
       365   03 Jun 2027 16:49:37.086   03 Jun 2027 16:51:13.505            96.419              Murmansk1          3013.094
       366   03 Jun 2027 16:51:22.103   03 Jun 2027 16:52:05.907            43.804              Murmansk2          1368.875
       367   03 Jun 2027 16:55:27.669   03 Jun 2027 16:55:30.781             3.112              Murmansk1            97.250
       368   03 Jun 2027 16:55:49.601   03 Jun 2027 16:56:04.420            14.819              Murmansk2           463.094
       369   03 Jun 2027 16:59:23.685   03 Jun 2027 17:00:51.389            87.704                Anadyr2          2740.750
       370   03 Jun 2027 17:01:01.746   03 Jun 2027 17:01:45.944            44.198                Anadyr2          1381.187
       371   03 Jun 2027 17:02:37.787   03 Jun 2027 17:04:07.834            90.047               Magadan2          2813.969
       372   03 Jun 2027 17:06:45.571   03 Jun 2027 17:07:02.711            17.140               Magadan2           535.625
       373   03 Jun 2027 17:08:30.981   03 Jun 2027 17:10:26.259           115.278               Magadan1          3602.438
       374   03 Jun 2027 18:35:18.849   03 Jun 2027 18:37:16.316           117.467                Anadyr2          3670.844
       375   03 Jun 2027 18:37:38.808   03 Jun 2027 18:39:12.536            93.728               Magadan2          2929.000
       376   03 Jun 2027 18:40:27.798   03 Jun 2027 18:40:50.374            22.576               Magadan1           705.500
       377   03 Jun 2027 18:41:08.575   03 Jun 2027 18:42:34.356            85.781               Magadan2          2680.656
       378   03 Jun 2027 19:32:02.122   03 Jun 2027 19:34:15.271           133.149            RioGallegos          4160.906
       379   03 Jun 2027 20:11:08.669   03 Jun 2027 20:11:33.352            24.683                Anadyr1           771.344
       380   03 Jun 2027 20:12:22.073   03 Jun 2027 20:12:26.929             4.856                Anadyr1           151.750
       381   03 Jun 2027 20:12:33.148   03 Jun 2027 20:12:51.312            18.164                Anadyr1           567.625
       382   03 Jun 2027 20:12:54.116   03 Jun 2027 20:13:11.564            17.448                Anadyr1           545.250
       383   03 Jun 2027 20:13:20.519   03 Jun 2027 20:15:30.731           130.212                Norilsk          4069.125
       384   03 Jun 2027 20:16:05.943   03 Jun 2027 20:16:14.824             8.881               Magadan2           277.531
       385   03 Jun 2027 20:16:26.245   03 Jun 2027 20:16:36.090             9.845               Magadan2           307.656
       386   03 Jun 2027 20:16:41.545   03 Jun 2027 20:17:06.226            24.681                Norilsk           771.281
       387   03 Jun 2027 20:18:24.622   03 Jun 2027 20:19:17.288            52.666                Irkutsk          1645.813
       388   03 Jun 2027 20:19:18.867   03 Jun 2027 20:19:42.507            23.640                Norilsk           738.750
       389   03 Jun 2027 20:19:47.165   03 Jun 2027 20:21:33.640           106.475                Irkutsk          3327.344
       390   03 Jun 2027 20:22:50.660   03 Jun 2027 20:23:10.799            20.139                Irkutsk           629.344
       391   03 Jun 2027 20:25:15.501   03 Jun 2027 20:26:42.242            86.741                Irkutsk          2710.656
       392   03 Jun 2027 20:33:39.679   03 Jun 2027 20:35:40.887           121.208                Sumatra          3787.750
       393   03 Jun 2027 21:49:24.799   03 Jun 2027 21:49:40.984            16.185                Norilsk           505.781
       394   03 Jun 2027 21:50:24.789   03 Jun 2027 21:50:38.245            13.456                Norilsk           420.500
       395   03 Jun 2027 21:50:54.292   03 Jun 2027 21:51:02.259             7.967                Norilsk           248.969
       396   03 Jun 2027 21:52:59.175   03 Jun 2027 21:54:26.500            87.325                Irkutsk          2728.906
       397   03 Jun 2027 21:55:10.721   03 Jun 2027 21:57:19.987           129.266                Novosib          4039.562
       398   03 Jun 2027 22:04:33.325   03 Jun 2027 22:05:40.014            66.689                  Delhi          2084.031
       399   03 Jun 2027 23:20:39.754   03 Jun 2027 23:21:06.654            26.900                Anadyr1           840.625
       400   03 Jun 2027 23:21:34.843   03 Jun 2027 23:22:51.100            76.257                Anadyr1          2383.031
       401   03 Jun 2027 23:25:03.131   03 Jun 2027 23:25:16.950            13.819                Norilsk           431.844
       402   03 Jun 2027 23:25:37.754   03 Jun 2027 23:26:28.440            50.686               Magadan1          1583.937
       403   03 Jun 2027 23:26:28.440   03 Jun 2027 23:27:02.411            33.971               Magadan2          1061.594
       404   03 Jun 2027 23:28:09.372   03 Jun 2027 23:30:00.083           110.711              Murmansk2          3459.719
       405   03 Jun 2027 23:30:00.083   03 Jun 2027 23:32:30.503           150.420              Murmansk1          4700.625
       406   03 Jun 2027 23:43:11.107   03 Jun 2027 23:44:29.580            78.473                  Delhi          2452.281
       407   04 Jun 2027 00:53:58.231   04 Jun 2027 00:54:20.371            22.140                Anadyr2           691.875
       408   04 Jun 2027 00:55:04.430   04 Jun 2027 00:55:44.261            39.831                Anadyr1          1244.719
       409   04 Jun 2027 00:56:37.898   04 Jun 2027 00:56:49.088            11.190                Anadyr1           349.687
       410   04 Jun 2027 00:56:52.531   04 Jun 2027 00:57:05.711            13.180                Anadyr1           411.875
       411   04 Jun 2027 01:00:03.836   04 Jun 2027 01:01:49.127           105.291               Magadan2          3290.344
       412   04 Jun 2027 01:02:17.460   04 Jun 2027 01:03:49.127            91.667               Magadan1          2864.594
       413   04 Jun 2027 01:03:49.954   04 Jun 2027 01:05:36.135           106.181              Murmansk1          3318.156
       414   04 Jun 2027 01:13:20.441   04 Jun 2027 01:14:24.572            64.131                 Moscow          2004.094
       415   04 Jun 2027 01:33:32.641   04 Jun 2027 01:34:18.631            45.990               CapeTown          1437.188
       416   04 Jun 2027 01:37:19.309   04 Jun 2027 01:38:36.248            76.939               CapeTown          2404.344
       417   04 Jun 2027 02:27:44.544   04 Jun 2027 02:28:03.289            18.745                Anadyr1           585.781
       418   04 Jun 2027 02:28:42.038   04 Jun 2027 02:29:07.849            25.811                Anadyr2           806.594
       419   04 Jun 2027 02:31:45.126   04 Jun 2027 02:33:04.572            79.446               Magadan1          2482.688
       420   04 Jun 2027 02:35:31.972   04 Jun 2027 02:35:46.328            14.356               Magadan1           448.625
       421   04 Jun 2027 02:36:37.293   04 Jun 2027 02:36:50.617            13.324                Norilsk           416.375
       422   04 Jun 2027 02:37:08.005   04 Jun 2027 02:37:37.452            29.447                Norilsk           920.219
       423   04 Jun 2027 02:39:09.067   04 Jun 2027 02:39:32.228            23.161              Murmansk2           723.781
       424   04 Jun 2027 02:39:45.322   04 Jun 2027 02:40:22.675            37.353              Murmansk1          1167.281
       425   04 Jun 2027 02:40:49.485   04 Jun 2027 02:41:29.288            39.803              Murmansk2          1243.844
       426   04 Jun 2027 02:42:18.855   04 Jun 2027 02:42:32.410            13.555                Novosib           423.594
       427   04 Jun 2027 02:44:00.423   04 Jun 2027 02:44:47.128            46.705                Novosib          1459.531
       428   04 Jun 2027 02:52:08.742   04 Jun 2027 02:52:14.677             5.935                 Moscow           185.469
       429   04 Jun 2027 03:06:15.578   04 Jun 2027 03:06:28.665            13.087               CapeTown           408.969
       430   04 Jun 2027 03:09:29.117   04 Jun 2027 03:10:19.245            50.128               CapeTown          1566.500
       431   04 Jun 2027 03:16:26.215   04 Jun 2027 03:16:40.900            14.685               CapeTown           458.906
       432   04 Jun 2027 04:10:44.551   04 Jun 2027 04:14:36.716           232.165                Anadyr2          7255.156
       433   04 Jun 2027 05:47:41.568   04 Jun 2027 05:47:46.883             5.315               Magadan1           166.094
       434   04 Jun 2027 05:47:50.629   04 Jun 2027 05:49:39.966           109.337               Magadan1          3416.781
       435   04 Jun 2027 05:49:39.966   04 Jun 2027 05:51:32.976           113.010               Magadan2          3531.562
       436   04 Jun 2027 07:19:49.404   04 Jun 2027 07:20:06.917            17.513               Magadan2           547.281
       437   04 Jun 2027 07:20:40.343   04 Jun 2027 07:20:56.293            15.950               Magadan2           498.438
       438   04 Jun 2027 07:21:09.632   04 Jun 2027 07:21:48.668            39.036               Magadan1          1219.875
       439   04 Jun 2027 07:21:56.487   04 Jun 2027 07:22:57.032            60.545               Magadan2          1892.031
       440   04 Jun 2027 07:22:59.995   04 Jun 2027 07:23:18.567            18.572                Irkutsk           580.375
       441   04 Jun 2027 07:23:32.252   04 Jun 2027 07:23:58.366            26.114               Magadan2           816.062
       442   04 Jun 2027 07:24:09.377   04 Jun 2027 07:24:35.233            25.856               Magadan1           808.000
       443   04 Jun 2027 07:24:50.576   04 Jun 2027 07:25:33.526            42.950               Magadan1          1342.188
       444   04 Jun 2027 07:25:40.868   04 Jun 2027 07:26:23.665            42.797               Magadan2          1337.406
       445   04 Jun 2027 07:26:24.724   04 Jun 2027 07:27:13.275            48.551               Magadan2          1517.219
       446   04 Jun 2027 07:27:23.053   04 Jun 2027 07:28:14.205            51.152              Murmansk2          1598.500
       447   04 Jun 2027 08:02:14.654   04 Jun 2027 08:02:40.181            25.527            RioGallegos           797.719
       448   04 Jun 2027 08:39:09.959   04 Jun 2027 08:40:23.682            73.723                Sumatra          2303.844
       449   04 Jun 2027 08:56:20.169   04 Jun 2027 08:56:39.963            19.794                Irkutsk           618.562
       450   04 Jun 2027 08:57:38.395   04 Jun 2027 08:57:56.308            17.913               Magadan2           559.781
       451   04 Jun 2027 08:58:20.266   04 Jun 2027 08:58:35.196            14.930               Magadan1           466.562
       452   04 Jun 2027 08:58:36.648   04 Jun 2027 08:59:00.252            23.604                Novosib           737.625
       453   04 Jun 2027 08:59:20.866   04 Jun 2027 08:59:21.764             0.898                Irkutsk            28.062
       454   04 Jun 2027 08:59:22.175   04 Jun 2027 08:59:41.319            19.144                Novosib           598.250
       455   04 Jun 2027 08:59:56.102   04 Jun 2027 09:00:31.146            35.044               Magadan2          1095.125
       456   04 Jun 2027 09:00:35.612   04 Jun 2027 09:00:47.284            11.672              Murmansk2           364.750
       457   04 Jun 2027 09:00:57.284   04 Jun 2027 09:00:58.602             1.318              Murmansk2            41.187
       458   04 Jun 2027 09:01:01.297   04 Jun 2027 09:01:12.370            11.073                Norilsk           346.031
       459   04 Jun 2027 09:01:15.038   04 Jun 2027 09:01:16.414             1.376              Murmansk2            43.000
       460   04 Jun 2027 09:01:25.337   04 Jun 2027 09:02:14.596            49.259                Irkutsk          1539.344
       461   04 Jun 2027 09:02:28.093   04 Jun 2027 09:02:44.506            16.413                Irkutsk           512.906
       462   04 Jun 2027 09:02:53.042   04 Jun 2027 09:03:13.623            20.581                Norilsk           643.156
       463   04 Jun 2027 09:04:10.082   04 Jun 2027 09:04:23.477            13.395              Murmansk2           418.594
       464   04 Jun 2027 09:07:08.910   04 Jun 2027 09:07:14.794             5.884              Murmansk2           183.875
       465   04 Jun 2027 09:38:26.958   04 Jun 2027 09:38:52.708            25.750            RioGallegos           804.687
       466   04 Jun 2027 09:39:19.833   04 Jun 2027 09:39:48.960            29.127            RioGallegos           910.219
       467   04 Jun 2027 09:47:45.945   04 Jun 2027 09:48:06.777            20.832            RioGallegos           651.000
       468   04 Jun 2027 10:12:52.151   04 Jun 2027 10:15:01.867           129.716                Sumatra          4053.625
       469   04 Jun 2027 10:33:38.507   04 Jun 2027 10:34:06.971            28.464                Irkutsk           889.500
       470   04 Jun 2027 10:34:36.506   04 Jun 2027 10:34:57.075            20.569                 Moscow           642.781
       471   04 Jun 2027 10:35:00.005   04 Jun 2027 10:36:18.787            78.782                Novosib          2461.938
       472   04 Jun 2027 10:36:24.754   04 Jun 2027 10:36:38.220            13.466                Irkutsk           420.812
       473   04 Jun 2027 10:36:38.909   04 Jun 2027 10:36:43.797             4.888              Murmansk1           152.750
       474   04 Jun 2027 10:36:53.042   04 Jun 2027 10:37:04.939            11.897                Novosib           371.781
       475   04 Jun 2027 10:37:05.703   04 Jun 2027 10:37:46.675            40.972                Norilsk          1280.375
       476   04 Jun 2027 10:37:52.754   04 Jun 2027 10:38:48.567            55.813                Novosib          1744.156
       477   04 Jun 2027 10:38:58.799   04 Jun 2027 10:39:04.099             5.300                Norilsk           165.625
       478   04 Jun 2027 10:39:17.449   04 Jun 2027 10:39:35.933            18.484              Murmansk2           577.625
       479   04 Jun 2027 10:40:10.354   04 Jun 2027 10:40:18.891             8.537                 Moscow           266.781
       480   04 Jun 2027 10:40:23.996   04 Jun 2027 10:40:35.595            11.599              Murmansk2           362.469
       481   04 Jun 2027 11:57:27.501   04 Jun 2027 11:59:09.007           101.506                  Delhi          3172.062
       482   04 Jun 2027 12:02:01.835   04 Jun 2027 12:02:40.697            38.862                  Delhi          1214.438
