uniorb/output/strategy_2/Drop/Drop_KinoSat_110907.txt

KinoSat_110907
-------------------------
    Access    *     Start Time (UTCG)     *     Stop Time (UTCG)  *   Duration (s)        *       Station  *  Data (Mbytes)
         1   01 Jun 2027 03:12:47.740   01 Jun 2027 03:13:05.032            17.292               Magadan1           540.375
         2   01 Jun 2027 03:13:27.124   01 Jun 2027 03:18:58.277           331.153                Anadyr2         10348.531
         3   01 Jun 2027 04:51:16.091   01 Jun 2027 04:51:49.961            33.870               Magadan1          1058.437
         4   01 Jun 2027 04:52:45.246   01 Jun 2027 04:54:39.202           113.956                Anadyr1          3561.125
         5   01 Jun 2027 06:23:31.559   01 Jun 2027 06:23:44.522            12.963                Irkutsk           405.094
         6   01 Jun 2027 06:24:10.521   01 Jun 2027 06:24:35.817            25.296                Irkutsk           790.500
         7   01 Jun 2027 06:24:57.590   01 Jun 2027 06:25:22.228            24.638                Irkutsk           769.938
         8   01 Jun 2027 06:25:43.462   01 Jun 2027 06:26:11.475            28.013                Anadyr2           875.406
         9   01 Jun 2027 06:26:11.475   01 Jun 2027 06:28:08.462           116.987                Anadyr1          3655.844
        10   01 Jun 2027 06:28:09.151   01 Jun 2027 06:29:06.927            57.776               Magadan1          1805.500
        11   01 Jun 2027 06:29:15.673   01 Jun 2027 06:29:35.995            20.322                Novosib           635.062
        12   01 Jun 2027 06:30:08.554   01 Jun 2027 06:30:16.562             8.008               Magadan1           250.250
        13   01 Jun 2027 07:05:31.670   01 Jun 2027 07:05:42.363            10.693            RioGallegos           334.156
        14   01 Jun 2027 07:06:55.178   01 Jun 2027 07:08:10.961            75.783            RioGallegos          2368.219
        15   01 Jun 2027 07:08:24.807   01 Jun 2027 07:08:32.023             7.216            RioGallegos           225.500
        16   01 Jun 2027 07:42:20.615   01 Jun 2027 07:42:57.128            36.513                Sumatra          1141.031
        17   01 Jun 2027 07:45:51.870   01 Jun 2027 07:46:29.436            37.566                Sumatra          1173.938
        18   01 Jun 2027 07:46:57.305   01 Jun 2027 07:48:10.484            73.179                Sumatra          2286.844
        19   01 Jun 2027 08:00:47.551   01 Jun 2027 08:02:12.513            84.962                Irkutsk          2655.062
        20   01 Jun 2027 08:02:14.019   01 Jun 2027 08:02:37.367            23.348                Novosib           729.625
        21   01 Jun 2027 08:03:25.308   01 Jun 2027 08:04:08.412            43.104                Irkutsk          1347.000
        22   01 Jun 2027 08:04:09.798   01 Jun 2027 08:04:48.673            38.875                Irkutsk          1214.844
        23   01 Jun 2027 08:05:14.135   01 Jun 2027 08:06:18.198            64.063                Irkutsk          2001.969
        24   01 Jun 2027 08:06:30.432   01 Jun 2027 08:06:53.604            23.172                Novosib           724.125
        25   01 Jun 2027 08:06:58.709   01 Jun 2027 08:07:09.579            10.870              Murmansk1           339.687
        26   01 Jun 2027 08:07:17.314   01 Jun 2027 08:08:23.542            66.228              Murmansk1          2069.625
        27   01 Jun 2027 08:41:27.661   01 Jun 2027 08:43:43.887           136.226            RioGallegos          4257.063
        28   01 Jun 2027 08:44:00.672   01 Jun 2027 08:44:05.590             4.918            RioGallegos           153.687
        29   01 Jun 2027 09:15:53.839   01 Jun 2027 09:17:05.128            71.289                Sumatra          2227.781
        30   01 Jun 2027 09:19:10.375   01 Jun 2027 09:20:16.122            65.747                Sumatra          2054.594
        31   01 Jun 2027 09:25:09.132   01 Jun 2027 09:27:32.397           143.265                  Delhi          4477.031
        32   01 Jun 2027 09:37:50.805   01 Jun 2027 09:38:13.055            22.250                Novosib           695.313
        33   01 Jun 2027 09:39:09.905   01 Jun 2027 09:39:41.356            31.451                Irkutsk           982.844
        34   01 Jun 2027 09:39:42.582   01 Jun 2027 09:41:29.089           106.507              Murmansk1          3328.344
        35   01 Jun 2027 09:41:29.089   01 Jun 2027 09:43:24.078           114.989              Murmansk2          3593.406
        36   01 Jun 2027 11:00:27.789   01 Jun 2027 11:01:46.875            79.086                  Delhi          2471.437
        37   01 Jun 2027 11:02:53.507   01 Jun 2027 11:04:52.791           119.284                  Delhi          3727.625
        38   01 Jun 2027 11:14:44.970   01 Jun 2027 11:15:47.678            62.708                 Moscow          1959.625
        39   01 Jun 2027 11:15:54.587   01 Jun 2027 11:16:09.633            15.046                Norilsk           470.188
        40   01 Jun 2027 11:16:13.236   01 Jun 2027 11:18:34.726           141.490                Novosib          4421.562
        41   01 Jun 2027 11:20:09.662   01 Jun 2027 11:20:43.384            33.722              Murmansk1          1053.813
        42   01 Jun 2027 12:44:25.213   01 Jun 2027 12:47:10.658           165.445                 Moscow          5170.156
        43   01 Jun 2027 12:47:39.315   01 Jun 2027 12:48:49.523            70.208                 Moscow          2194.000
        44   01 Jun 2027 12:48:59.266   01 Jun 2027 12:52:19.256           199.990              Murmansk1          6249.687
        45   01 Jun 2027 13:58:29.883   01 Jun 2027 14:02:57.263           267.380               CapeTown          8355.625
        46   01 Jun 2027 14:25:22.766   01 Jun 2027 14:25:58.555            35.789              Murmansk1          1118.406
        47   01 Jun 2027 14:26:10.426   01 Jun 2027 14:28:51.414           160.988              Murmansk2          5030.875
        48   01 Jun 2027 14:38:47.533   01 Jun 2027 14:41:29.954           162.421                Anadyr2          5075.656
        49   01 Jun 2027 14:46:41.680   01 Jun 2027 14:46:49.375             7.695                Anadyr1           240.469
        50   01 Jun 2027 15:34:04.782   01 Jun 2027 15:35:34.486            89.704               CapeTown          2803.250
        51   01 Jun 2027 16:05:17.862   01 Jun 2027 16:05:46.455            28.593              Murmansk2           893.531
        52   01 Jun 2027 16:06:19.291   01 Jun 2027 16:06:45.784            26.493              Murmansk2           827.906
        53   01 Jun 2027 16:07:35.485   01 Jun 2027 16:08:32.681            57.196              Murmansk2          1787.375
        54   01 Jun 2027 16:14:27.629   01 Jun 2027 16:17:25.178           177.549                Anadyr1          5548.406
        55   01 Jun 2027 16:17:30.152   01 Jun 2027 16:19:43.777           133.625               Magadan2          4175.781
        56   01 Jun 2027 16:20:35.131   01 Jun 2027 16:21:09.414            34.283               Magadan2          1071.344
        57   01 Jun 2027 16:23:22.993   01 Jun 2027 16:23:44.185            21.192               Magadan1           662.250
        58   01 Jun 2027 17:50:22.968   01 Jun 2027 17:54:26.909           243.941                Anadyr1          7623.156
        59   01 Jun 2027 17:54:36.992   01 Jun 2027 17:55:39.231            62.239               Magadan1          1944.969
        60   01 Jun 2027 17:56:17.786   01 Jun 2027 17:57:11.989            54.203               Magadan1          1693.844
        61   01 Jun 2027 17:59:25.619   01 Jun 2027 18:00:02.678            37.059               Magadan1          1158.094
        62   01 Jun 2027 18:00:07.655   01 Jun 2027 18:00:54.178            46.523               Magadan1          1453.844
        63   01 Jun 2027 18:46:18.582   01 Jun 2027 18:49:08.686           170.104            RioGallegos          5315.750
        64   01 Jun 2027 19:26:10.759   01 Jun 2027 19:27:59.881           109.122                Anadyr1          3410.062
        65   01 Jun 2027 19:28:21.446   01 Jun 2027 19:30:23.692           122.246                Norilsk          3820.188
        66   01 Jun 2027 19:30:34.005   01 Jun 2027 19:32:02.569            88.564                Norilsk          2767.625
        67   01 Jun 2027 19:33:10.185   01 Jun 2027 19:34:23.491            73.306                Irkutsk          2290.813
        68   01 Jun 2027 19:34:59.278   01 Jun 2027 19:36:36.603            97.325                Irkutsk          3041.406
        69   01 Jun 2027 19:47:54.749   01 Jun 2027 19:50:29.159           154.410                Sumatra          4825.313
        70   01 Jun 2027 19:52:40.642   01 Jun 2027 19:54:09.558            88.916                Sumatra          2778.625
        71   01 Jun 2027 21:08:01.639   01 Jun 2027 21:09:37.125            95.486                Irkutsk          2983.938
        72   01 Jun 2027 21:10:23.356   01 Jun 2027 21:12:12.859           109.503                Novosib          3421.969
        73   01 Jun 2027 21:18:13.274   01 Jun 2027 21:20:22.397           129.123                  Delhi          4035.094
        74   01 Jun 2027 22:41:48.451   01 Jun 2027 22:42:00.643            12.192               Magadan2           381.000
        75   01 Jun 2027 22:42:22.710   01 Jun 2027 22:42:24.775             2.065               Magadan2            64.531
        76   01 Jun 2027 22:43:00.319   01 Jun 2027 22:46:41.040           220.721              Murmansk1          6897.531
        77   01 Jun 2027 22:47:27.236   01 Jun 2027 22:48:43.475            76.239              Murmansk2          2382.469
        78   01 Jun 2027 22:52:03.647   01 Jun 2027 22:53:39.360            95.713                  Delhi          2991.031
        79   02 Jun 2027 00:08:45.400   02 Jun 2027 00:08:56.019            10.619                Anadyr2           331.844
        80   02 Jun 2027 00:14:43.114   02 Jun 2027 00:15:30.920            47.806               Magadan2          1493.938
        81   02 Jun 2027 00:16:06.869   02 Jun 2027 00:16:24.133            17.264               Magadan1           539.500
        82   02 Jun 2027 00:16:48.990   02 Jun 2027 00:17:14.378            25.388               Magadan1           793.375
        83   02 Jun 2027 00:17:44.902   02 Jun 2027 00:17:56.397            11.495               Magadan1           359.219
        84   02 Jun 2027 00:18:18.148   02 Jun 2027 00:21:16.138           177.990              Murmansk1          5562.187
        85   02 Jun 2027 00:22:02.184   02 Jun 2027 00:25:46.363           224.179                 Moscow          7005.594
        86   02 Jun 2027 00:47:52.895   02 Jun 2027 00:49:35.200           102.305               CapeTown          3197.031
        87   02 Jun 2027 01:45:04.397   02 Jun 2027 01:45:09.972             5.575                Anadyr2           174.219
        88   02 Jun 2027 01:46:21.812   02 Jun 2027 01:48:01.008            99.196               Magadan2          3099.875
        89   02 Jun 2027 01:48:01.657   02 Jun 2027 01:48:50.504            48.847               Magadan1          1526.469
        90   02 Jun 2027 01:54:13.739   02 Jun 2027 01:55:46.064            92.325              Murmansk2          2885.156
        91   02 Jun 2027 01:56:48.536   02 Jun 2027 01:57:11.868            23.332                Novosib           729.125
        92   02 Jun 2027 01:58:48.479   02 Jun 2027 02:00:35.030           106.551                 Moscow          3329.719
        93   02 Jun 2027 02:24:32.512   02 Jun 2027 02:25:54.444            81.932               CapeTown          2560.375
        94   02 Jun 2027 03:24:27.275   02 Jun 2027 03:24:47.977            20.702               Magadan2           646.937
        95   02 Jun 2027 03:25:03.808   02 Jun 2027 03:27:00.357           116.549                Anadyr1          3642.156
        96   02 Jun 2027 03:27:36.199   02 Jun 2027 03:29:04.588            88.389               Magadan2          2762.156
        97   02 Jun 2027 03:29:23.227   02 Jun 2027 03:30:54.771            91.544                Anadyr1          2860.750
        98   02 Jun 2027 05:03:18.017   02 Jun 2027 05:04:17.342            59.325               Magadan1          1853.906
        99   02 Jun 2027 06:35:37.160   02 Jun 2027 06:35:46.313             9.153                Irkutsk           286.031
       100   02 Jun 2027 06:36:46.665   02 Jun 2027 06:37:08.322            21.657               Magadan2           676.781
       101   02 Jun 2027 06:37:34.687   02 Jun 2027 06:40:44.508           189.821                Anadyr1          5931.906
       102   02 Jun 2027 06:40:59.572   02 Jun 2027 06:41:18.214            18.642               Magadan1           582.562
       103   02 Jun 2027 06:41:39.471   02 Jun 2027 06:42:18.513            39.042                Norilsk          1220.062
       104   02 Jun 2027 06:42:56.318   02 Jun 2027 06:43:02.444             6.126                Novosib           191.437
       105   02 Jun 2027 06:45:49.470   02 Jun 2027 06:46:02.278            12.808                Norilsk           400.250
       106   02 Jun 2027 07:17:10.358   02 Jun 2027 07:18:54.383           104.025            RioGallegos          3250.781
       107   02 Jun 2027 07:20:01.629   02 Jun 2027 07:20:52.256            50.627            RioGallegos          1582.094
       108   02 Jun 2027 07:53:33.013   02 Jun 2027 07:55:10.237            97.224                Sumatra          3038.250
       109   02 Jun 2027 08:12:44.120   02 Jun 2027 08:13:14.290            30.170                Novosib           942.813
       110   02 Jun 2027 08:14:00.346   02 Jun 2027 08:14:18.470            18.124                Irkutsk           566.375
       111   02 Jun 2027 08:14:30.730   02 Jun 2027 08:14:31.349             0.619                Irkutsk            19.344
       112   02 Jun 2027 08:14:51.125   02 Jun 2027 08:16:57.999           126.874                Novosib          3964.813
       113   02 Jun 2027 08:17:08.399   02 Jun 2027 08:17:50.389            41.990                Irkutsk          1312.187
       114   02 Jun 2027 08:18:03.474   02 Jun 2027 08:19:37.352            93.878                Novosib          2933.687
       115   02 Jun 2027 08:19:40.993   02 Jun 2027 08:20:17.271            36.278              Murmansk2          1133.688
       116   02 Jun 2027 08:54:03.584   02 Jun 2027 08:54:38.313            34.729            RioGallegos          1085.281
       117   02 Jun 2027 09:28:06.249   02 Jun 2027 09:29:43.723            97.474                Sumatra          3046.063
       118   02 Jun 2027 09:36:45.970   02 Jun 2027 09:37:55.885            69.915                  Delhi          2184.844
       119   02 Jun 2027 09:48:40.675   02 Jun 2027 09:48:40.864             0.189                  Delhi             5.906
       120   02 Jun 2027 09:48:47.533   02 Jun 2027 09:48:51.567             4.034                Irkutsk           126.062
       121   02 Jun 2027 09:49:04.967   02 Jun 2027 09:50:11.499            66.532                 Moscow          2079.125
       122   02 Jun 2027 09:50:18.554   02 Jun 2027 09:51:18.920            60.366                Norilsk          1886.438
       123   02 Jun 2027 09:51:23.238   02 Jun 2027 09:51:35.992            12.754                Novosib           398.563
       124   02 Jun 2027 09:51:39.763   02 Jun 2027 09:52:09.648            29.885              Murmansk2           933.906
       125   02 Jun 2027 09:52:16.415   02 Jun 2027 09:52:36.712            20.297              Murmansk2           634.281
       126   02 Jun 2027 09:52:50.684   02 Jun 2027 09:53:32.904            42.220                Novosib          1319.375
       127   02 Jun 2027 09:53:52.789   02 Jun 2027 09:54:24.595            31.806                 Moscow           993.938
       128   02 Jun 2027 11:12:51.342   02 Jun 2027 11:14:40.242           108.900                  Delhi          3403.125
       129   02 Jun 2027 11:16:34.471   02 Jun 2027 11:16:56.216            21.745                  Delhi           679.531
       130   02 Jun 2027 11:25:22.821   02 Jun 2027 11:25:57.844            35.023              Murmansk2          1094.469
       131   02 Jun 2027 11:26:14.489   02 Jun 2027 11:26:28.332            13.843              Murmansk2           432.594
       132   02 Jun 2027 11:26:28.886   02 Jun 2027 11:27:01.515            32.629                Novosib          1019.656
       133   02 Jun 2027 11:27:05.145   02 Jun 2027 11:27:18.650            13.505              Murmansk1           422.031
       134   02 Jun 2027 11:27:22.847   02 Jun 2027 11:27:50.248            27.401                Novosib           856.281
       135   02 Jun 2027 11:27:50.899   02 Jun 2027 11:28:35.387            44.488                 Moscow          1390.250
       136   02 Jun 2027 11:28:45.814   02 Jun 2027 11:29:08.972            23.158                 Moscow           723.688
       137   02 Jun 2027 11:29:10.051   02 Jun 2027 11:29:44.111            34.060                Novosib          1064.375
       138   02 Jun 2027 11:31:16.815   02 Jun 2027 11:31:22.347             5.532              Murmansk1           172.875
       139   02 Jun 2027 11:31:59.240   02 Jun 2027 11:32:13.438            14.198              Murmansk1           443.687
       140   02 Jun 2027 11:33:03.416   02 Jun 2027 11:33:10.296             6.880                Norilsk           215.000
       141   02 Jun 2027 12:56:30.583   02 Jun 2027 12:59:43.144           192.561                 Moscow          6017.531
       142   02 Jun 2027 13:00:02.132   02 Jun 2027 13:01:33.966            91.834              Murmansk1          2869.813
       143   02 Jun 2027 13:01:49.633   02 Jun 2027 13:04:09.369           139.736              Murmansk1          4366.750
       144   02 Jun 2027 13:16:49.565   02 Jun 2027 13:17:46.783            57.218                Anadyr1          1788.062
       145   02 Jun 2027 13:18:47.066   02 Jun 2027 13:19:43.799            56.733                Anadyr2          1772.906
       146   02 Jun 2027 14:11:02.930   02 Jun 2027 14:11:45.141            42.211               CapeTown          1319.094
       147   02 Jun 2027 14:12:36.325   02 Jun 2027 14:13:20.762            44.437               CapeTown          1388.656
       148   02 Jun 2027 14:21:38.220   02 Jun 2027 14:22:15.364            37.144               CapeTown          1160.750
       149   02 Jun 2027 14:37:44.677   02 Jun 2027 14:38:45.585            60.908              Murmansk1          1903.375
       150   02 Jun 2027 14:39:28.035   02 Jun 2027 14:40:24.079            56.044              Murmansk1          1751.375
       151   02 Jun 2027 14:47:00.166   02 Jun 2027 14:47:14.466            14.300              Murmansk1           446.875
       152   02 Jun 2027 14:50:44.714   02 Jun 2027 14:52:35.733           111.019                Anadyr2          3469.344
       153   02 Jun 2027 14:52:35.733   02 Jun 2027 14:52:51.373            15.640                Anadyr1           488.750
       154   02 Jun 2027 14:56:21.531   02 Jun 2027 14:56:43.905            22.374                Anadyr2           699.188
       155   02 Jun 2027 14:57:55.334   02 Jun 2027 14:58:24.454            29.120                Anadyr2           910.000
       156   02 Jun 2027 15:46:17.092   02 Jun 2027 15:46:40.746            23.654               CapeTown           739.188
       157   02 Jun 2027 16:18:05.572   02 Jun 2027 16:19:41.448            95.876              Murmansk2          2996.125
       158   02 Jun 2027 16:20:29.750   02 Jun 2027 16:21:30.022            60.272              Murmansk2          1883.500
       159   02 Jun 2027 16:26:28.670   02 Jun 2027 16:26:48.868            20.198                Anadyr1           631.188
       160   02 Jun 2027 16:28:03.094   02 Jun 2027 16:29:48.015           104.921                Anadyr1          3278.781
       161   02 Jun 2027 16:29:51.276   02 Jun 2027 16:32:34.317           163.041               Magadan2          5095.031
       162   02 Jun 2027 16:35:35.177   02 Jun 2027 16:35:46.735            11.558               Magadan2           361.188
       163   02 Jun 2027 16:36:07.077   02 Jun 2027 16:37:23.179            76.102               Magadan2          2378.187
       164   02 Jun 2027 18:02:24.147   02 Jun 2027 18:05:04.509           160.362                Anadyr2          5011.312
       165   02 Jun 2027 18:05:21.832   02 Jun 2027 18:05:42.236            20.404                Anadyr2           637.625
       166   02 Jun 2027 18:05:52.070   02 Jun 2027 18:07:51.017           118.947               Magadan1          3717.094
       167   02 Jun 2027 18:08:31.292   02 Jun 2027 18:09:00.597            29.305               Magadan1           915.781
       168   02 Jun 2027 18:57:44.779   02 Jun 2027 19:00:55.382           190.603            RioGallegos          5956.344
       169   02 Jun 2027 19:03:28.046   02 Jun 2027 19:03:33.129             5.083            RioGallegos           158.844
       170   02 Jun 2027 19:04:39.752   02 Jun 2027 19:04:46.490             6.738            RioGallegos           210.562
       171   02 Jun 2027 19:38:09.429   02 Jun 2027 19:38:34.152            24.723                Anadyr1           772.594
       172   02 Jun 2027 19:38:58.784   02 Jun 2027 19:39:39.057            40.273                Anadyr1          1258.531
       173   02 Jun 2027 19:40:19.411   02 Jun 2027 19:44:19.422           240.011                Norilsk          7500.344
       174   02 Jun 2027 19:44:54.541   02 Jun 2027 19:46:34.393            99.852                Irkutsk          3120.375
       175   02 Jun 2027 19:47:11.017   02 Jun 2027 19:48:58.261           107.244                Irkutsk          3351.375
       176   02 Jun 2027 19:59:44.694   02 Jun 2027 20:02:14.201           149.507                Sumatra          4672.094
       177   02 Jun 2027 20:04:57.389   02 Jun 2027 20:06:03.125            65.736                Sumatra          2054.250
       178   02 Jun 2027 21:20:29.762   02 Jun 2027 21:21:44.972            75.210                Novosib          2350.312
       179   02 Jun 2027 21:22:27.318   02 Jun 2027 21:23:30.278            62.960                Novosib          1967.500
       180   02 Jun 2027 21:29:19.157   02 Jun 2027 21:32:02.538           163.381                  Delhi          5105.656
       181   02 Jun 2027 21:35:10.799   02 Jun 2027 21:35:40.379            29.580                  Delhi           924.375
       182   02 Jun 2027 22:53:12.239   02 Jun 2027 22:53:40.793            28.554               Magadan2           892.312
       183   02 Jun 2027 22:54:50.245   02 Jun 2027 23:01:21.217           390.972              Murmansk2         12217.875
       184   03 Jun 2027 00:26:14.582   03 Jun 2027 00:27:23.567            68.985               Magadan2          2155.781
       185   03 Jun 2027 00:27:47.613   03 Jun 2027 00:28:09.351            21.738               Magadan2           679.313
       186   03 Jun 2027 00:28:16.737   03 Jun 2027 00:28:26.711             9.974               Magadan2           311.688
       187   03 Jun 2027 00:28:47.262   03 Jun 2027 00:29:15.315            28.053               Magadan1           876.656
       188   03 Jun 2027 00:29:41.175   03 Jun 2027 00:29:44.869             3.694               Magadan1           115.438
       189   03 Jun 2027 00:30:18.747   03 Jun 2027 00:32:19.523           120.776              Murmansk2          3774.250
       190   03 Jun 2027 00:33:54.953   03 Jun 2027 00:34:53.092            58.139                 Moscow          1816.844
       191   03 Jun 2027 00:36:01.577   03 Jun 2027 00:36:39.182            37.605                 Moscow          1175.156
       192   03 Jun 2027 00:39:48.007   03 Jun 2027 00:40:02.481            14.474                 Moscow           452.312
       193   03 Jun 2027 00:40:25.060   03 Jun 2027 00:40:55.485            30.425                 Moscow           950.781
       194   03 Jun 2027 00:41:48.804   03 Jun 2027 00:42:12.847            24.043                 Moscow           751.344
       195   03 Jun 2027 00:59:13.416   03 Jun 2027 01:00:30.178            76.762               CapeTown          2398.813
       196   03 Jun 2027 01:01:00.899   03 Jun 2027 01:02:02.684            61.785               CapeTown          1930.781
       197   03 Jun 2027 01:56:09.977   03 Jun 2027 01:56:39.059            29.082                Anadyr2           908.813
       198   03 Jun 2027 01:57:52.972   03 Jun 2027 01:58:37.589            44.617               Magadan1          1394.281
       199   03 Jun 2027 01:59:05.796   03 Jun 2027 02:00:04.268            58.472               Magadan1          1827.250
       200   03 Jun 2027 02:03:16.275   03 Jun 2027 02:03:43.713            27.438               Magadan2           857.437
       201   03 Jun 2027 02:06:15.471   03 Jun 2027 02:07:55.686           100.215              Murmansk1          3131.719
       202   03 Jun 2027 02:08:23.592   03 Jun 2027 02:09:09.509            45.917              Murmansk2          1434.906
       203   03 Jun 2027 02:13:05.196   03 Jun 2027 02:13:12.383             7.187                Novosib           224.594
       204   03 Jun 2027 02:14:44.628   03 Jun 2027 02:15:04.611            19.983                 Moscow           624.469
       205   03 Jun 2027 02:16:51.615   03 Jun 2027 02:17:06.196            14.581                 Moscow           455.656
       206   03 Jun 2027 02:20:00.827   03 Jun 2027 02:20:04.959             4.132                 Moscow           129.125
       207   03 Jun 2027 02:20:48.375   03 Jun 2027 02:22:19.129            90.754                 Moscow          2836.063
       208   03 Jun 2027 03:36:04.940   03 Jun 2027 03:36:29.378            24.438               Magadan2           763.687
       209   03 Jun 2027 03:37:39.844   03 Jun 2027 03:37:46.316             6.472               Magadan2           202.250
       210   03 Jun 2027 03:38:34.365   03 Jun 2027 03:38:35.345             0.980               Magadan1            30.625
       211   03 Jun 2027 03:39:01.755   03 Jun 2027 03:42:55.607           233.852                Anadyr1          7307.875
       212   03 Jun 2027 03:42:55.607   03 Jun 2027 03:43:00.544             4.937                Anadyr2           154.281
       213   03 Jun 2027 05:12:40.705   03 Jun 2027 05:13:23.509            42.804                Irkutsk          1337.625
       214   03 Jun 2027 05:15:17.051   03 Jun 2027 05:15:22.454             5.403               Magadan1           168.844
       215   03 Jun 2027 05:15:28.814   03 Jun 2027 05:16:26.507            57.693               Magadan1          1802.906
       216   03 Jun 2027 06:48:15.297   03 Jun 2027 06:48:21.985             6.688               Magadan1           209.000
       217   03 Jun 2027 06:48:27.868   03 Jun 2027 06:49:04.136            36.268                Norilsk          1133.375
       218   03 Jun 2027 06:49:12.242   03 Jun 2027 06:49:13.152             0.910                Novosib            28.437
       219   03 Jun 2027 06:49:14.197   03 Jun 2027 06:50:23.190            68.993               Magadan1          2156.031
       220   03 Jun 2027 06:50:29.244   03 Jun 2027 06:50:34.980             5.736                Novosib           179.250
       221   03 Jun 2027 06:50:42.047   03 Jun 2027 06:52:24.360           102.313               Magadan1          3197.281
       222   03 Jun 2027 06:52:40.554   03 Jun 2027 06:53:04.707            24.153                Irkutsk           754.781
       223   03 Jun 2027 06:53:14.191   03 Jun 2027 06:53:14.959             0.768                Novosib            24.000
       224   03 Jun 2027 06:53:24.850   03 Jun 2027 06:54:22.292            57.442                Novosib          1795.063
       225   03 Jun 2027 06:55:13.371   03 Jun 2027 06:55:29.447            16.076              Murmansk2           502.375
       226   03 Jun 2027 06:56:06.764   03 Jun 2027 06:56:23.144            16.380              Murmansk2           511.875
       227   03 Jun 2027 07:29:04.890   03 Jun 2027 07:29:31.734            26.844            RioGallegos           838.875
       228   03 Jun 2027 07:29:38.237   03 Jun 2027 07:30:49.347            71.110            RioGallegos          2222.188
       229   03 Jun 2027 08:04:58.861   03 Jun 2027 08:05:44.283            45.422                Sumatra          1419.438
       230   03 Jun 2027 08:10:13.711   03 Jun 2027 08:11:03.259            49.548                Sumatra          1548.375
       231   03 Jun 2027 08:26:20.745   03 Jun 2027 08:27:08.502            47.757                Novosib          1492.406
       232   03 Jun 2027 08:27:15.528   03 Jun 2027 08:27:21.680             6.152              Murmansk2           192.250
       233   03 Jun 2027 08:27:26.387   03 Jun 2027 08:27:40.169            13.782                Norilsk           430.688
       234   03 Jun 2027 08:27:50.142   03 Jun 2027 08:29:07.135            76.993                Novosib          2406.031
       235   03 Jun 2027 08:29:19.592   03 Jun 2027 08:29:38.344            18.752                Irkutsk           586.000
       236   03 Jun 2027 08:29:47.587   03 Jun 2027 08:30:17.588            30.001                Norilsk           937.531
       237   03 Jun 2027 08:30:18.638   03 Jun 2027 08:30:33.119            14.481              Murmansk2           452.531
       238   03 Jun 2027 08:30:55.270   03 Jun 2027 08:31:04.714             9.444              Murmansk2           295.125
       239   03 Jun 2027 09:06:11.890   03 Jun 2027 09:06:44.532            32.642            RioGallegos          1020.062
       240   03 Jun 2027 09:07:49.191   03 Jun 2027 09:08:43.809            54.618            RioGallegos          1706.812
       241   03 Jun 2027 09:40:25.587   03 Jun 2027 09:41:36.224            70.637                Sumatra          2207.406
       242   03 Jun 2027 09:48:29.020   03 Jun 2027 09:49:48.134            79.114                  Delhi          2472.313
       243   03 Jun 2027 10:01:36.333   03 Jun 2027 10:02:12.420            36.087                 Moscow          1127.719
       244   03 Jun 2027 10:02:20.556   03 Jun 2027 10:02:48.556            28.000                Irkutsk           875.000
       245   03 Jun 2027 10:02:56.661   03 Jun 2027 10:04:05.324            68.663                Irkutsk          2145.719
       246   03 Jun 2027 10:04:13.769   03 Jun 2027 10:04:19.400             5.631                Norilsk           175.969
       247   03 Jun 2027 10:04:24.101   03 Jun 2027 10:04:45.378            21.277              Murmansk2           664.906
       248   03 Jun 2027 10:04:52.617   03 Jun 2027 10:05:04.802            12.185                Novosib           380.781
       249   03 Jun 2027 10:05:17.606   03 Jun 2027 10:05:44.122            26.516                Norilsk           828.625
       250   03 Jun 2027 10:05:47.556   03 Jun 2027 10:05:55.847             8.291                Norilsk           259.094
       251   03 Jun 2027 10:06:04.784   03 Jun 2027 10:06:43.386            38.602                 Moscow          1206.313
       252   03 Jun 2027 11:25:23.472   03 Jun 2027 11:28:14.097           170.625                  Delhi          5332.031
       253   03 Jun 2027 11:37:39.398   03 Jun 2027 11:37:50.410            11.012              Murmansk2           344.125
       254   03 Jun 2027 11:38:02.275   03 Jun 2027 11:38:19.571            17.296              Murmansk2           540.500
       255   03 Jun 2027 11:38:24.979   03 Jun 2027 11:39:04.475            39.496                Norilsk          1234.250
       256   03 Jun 2027 11:39:12.893   03 Jun 2027 11:39:15.933             3.040                Novosib            95.000
       257   03 Jun 2027 11:39:19.385   03 Jun 2027 11:39:38.908            19.523              Murmansk1           610.094
       258   03 Jun 2027 11:39:53.632   03 Jun 2027 11:40:26.098            32.466                 Moscow          1014.563
       259   03 Jun 2027 11:40:47.598   03 Jun 2027 11:40:55.852             8.254                 Moscow           257.938
       260   03 Jun 2027 11:40:59.245   03 Jun 2027 11:42:32.745            93.500                 Moscow          2921.875
       261   03 Jun 2027 13:08:39.063   03 Jun 2027 13:10:12.424            93.361                 Moscow          2917.531
       262   03 Jun 2027 13:12:10.211   03 Jun 2027 13:15:43.431           213.220              Murmansk1          6663.125
       263   03 Jun 2027 13:16:04.122   03 Jun 2027 13:16:43.793            39.671              Murmansk1          1239.719
       264   03 Jun 2027 13:17:52.960   03 Jun 2027 13:18:13.411            20.451              Murmansk2           639.094
       265   03 Jun 2027 13:18:54.920   03 Jun 2027 13:19:21.614            26.694              Murmansk1           834.188
       266   03 Jun 2027 13:28:07.285   03 Jun 2027 13:29:44.900            97.615                Anadyr2          3050.469
       267   03 Jun 2027 13:31:12.995   03 Jun 2027 13:31:58.855            45.860                Anadyr1          1433.125
       268   03 Jun 2027 14:22:08.528   03 Jun 2027 14:23:36.853            88.325               CapeTown          2760.156
       269   03 Jun 2027 14:50:08.924   03 Jun 2027 14:50:25.916            16.992              Murmansk2           531.000
       270   03 Jun 2027 14:51:04.939   03 Jun 2027 14:52:54.822           109.883              Murmansk1          3433.844
       271   03 Jun 2027 14:57:11.890   03 Jun 2027 14:58:10.356            58.466              Murmansk1          1827.063
       272   03 Jun 2027 15:02:42.810   03 Jun 2027 15:03:30.177            47.367                Anadyr2          1480.219
       273   03 Jun 2027 15:03:30.177   03 Jun 2027 15:04:08.183            38.006                Anadyr1          1187.687
       274   03 Jun 2027 15:04:35.473   03 Jun 2027 15:04:52.592            17.119                Anadyr1           534.969
       275   03 Jun 2027 15:08:49.769   03 Jun 2027 15:08:54.579             4.810                Anadyr2           150.312
       276   03 Jun 2027 15:09:07.520   03 Jun 2027 15:09:29.582            22.062                Anadyr2           689.438
       277   03 Jun 2027 15:10:06.551   03 Jun 2027 15:10:50.595            44.044                Anadyr2          1376.375
       278   03 Jun 2027 16:08:32.829   03 Jun 2027 16:09:01.638            28.809               CapeTown           900.281
       279   03 Jun 2027 16:31:00.307   03 Jun 2027 16:33:31.157           150.850              Murmansk2          4714.063
       280   03 Jun 2027 16:34:32.566   03 Jun 2027 16:34:58.125            25.559              Murmansk1           798.719
       281   03 Jun 2027 16:38:29.868   03 Jun 2027 16:40:22.228           112.360                Anadyr2          3511.250
       282   03 Jun 2027 16:41:12.880   03 Jun 2027 16:43:44.261           151.381               Magadan1          4730.656
       283   03 Jun 2027 16:43:59.502   03 Jun 2027 16:45:01.886            62.384               Magadan2          1949.500
       284   03 Jun 2027 18:14:25.175   03 Jun 2027 18:17:24.349           179.174                Anadyr2          5599.187
       285   03 Jun 2027 18:17:34.559   03 Jun 2027 18:19:57.903           143.344               Magadan2          4479.500
       286   03 Jun 2027 18:28:47.462   03 Jun 2027 18:29:20.642            33.180               Magadan1          1036.875
       287   03 Jun 2027 19:09:21.625   03 Jun 2027 19:12:45.375           203.750            RioGallegos          6367.188
       288   03 Jun 2027 19:14:09.608   03 Jun 2027 19:14:24.161            14.553            RioGallegos           454.781
       289   03 Jun 2027 19:15:35.397   03 Jun 2027 19:15:52.566            17.169            RioGallegos           536.531
       290   03 Jun 2027 19:51:06.434   03 Jun 2027 19:52:06.639            60.205                Anadyr1          1881.406
       291   03 Jun 2027 19:52:18.360   03 Jun 2027 19:56:20.021           241.661                Norilsk          7551.906
       292   03 Jun 2027 19:56:42.824   03 Jun 2027 19:57:35.661            52.837                Irkutsk          1651.156
       293   03 Jun 2027 19:58:40.083   03 Jun 2027 19:59:29.270            49.187                Irkutsk          1537.094
       294   03 Jun 2027 20:10:45.507   03 Jun 2027 20:14:05.447           199.940                Sumatra          6248.125
       295   03 Jun 2027 20:17:07.595   03 Jun 2027 20:17:28.399            20.804                Sumatra           650.125
       296   03 Jun 2027 21:32:22.951   03 Jun 2027 21:32:59.204            36.253                Novosib          1132.906
       297   03 Jun 2027 21:33:18.023   03 Jun 2027 21:33:53.627            35.604                Irkutsk          1112.625
       298   03 Jun 2027 21:34:31.755   03 Jun 2027 21:34:56.422            24.667                Novosib           770.844
       299   03 Jun 2027 21:38:16.962   03 Jun 2027 21:38:57.448            40.486                Novosib          1265.187
       300   03 Jun 2027 21:40:42.971   03 Jun 2027 21:43:44.338           181.367                  Delhi          5667.719
       301   03 Jun 2027 23:04:11.276   03 Jun 2027 23:05:48.325            97.049                Norilsk          3032.781
       302   03 Jun 2027 23:06:43.558   03 Jun 2027 23:10:35.741           232.183              Murmansk2          7255.719
       303   03 Jun 2027 23:11:09.434   03 Jun 2027 23:12:37.413            87.979              Murmansk1          2749.344
       304   03 Jun 2027 23:13:17.024   03 Jun 2027 23:14:53.962            96.938                 Moscow          3029.313
       305   04 Jun 2027 00:37:44.163   04 Jun 2027 00:38:50.192            66.029               Magadan2          2063.406
       306   04 Jun 2027 00:39:25.482   04 Jun 2027 00:39:44.786            19.304               Magadan1           603.250
       307   04 Jun 2027 00:40:11.712   04 Jun 2027 00:40:15.260             3.548               Magadan1           110.875
       308   04 Jun 2027 00:40:29.357   04 Jun 2027 00:41:16.788            47.431               Magadan1          1482.219
       309   04 Jun 2027 00:42:19.672   04 Jun 2027 00:43:05.040            45.368              Murmansk2          1417.750
       310   04 Jun 2027 00:43:19.025   04 Jun 2027 00:44:06.177            47.152              Murmansk1          1473.500
       311   04 Jun 2027 00:44:12.569   04 Jun 2027 00:44:58.111            45.542                Novosib          1423.188
       312   04 Jun 2027 00:45:49.573   04 Jun 2027 00:47:02.919            73.346                 Moscow          2292.063
       313   04 Jun 2027 00:48:06.415   04 Jun 2027 00:48:19.283            12.868                 Moscow           402.125
       314   04 Jun 2027 00:53:02.138   04 Jun 2027 00:53:49.350            47.212                 Moscow          1475.375
       315   04 Jun 2027 01:10:42.041   04 Jun 2027 01:12:00.093            78.052               CapeTown          2439.125
       316   04 Jun 2027 01:16:37.352   04 Jun 2027 01:16:52.489            15.137               CapeTown           473.031
       317   04 Jun 2027 01:18:59.350   04 Jun 2027 01:19:56.376            57.026               CapeTown          1782.063
       318   04 Jun 2027 02:08:11.293   04 Jun 2027 02:08:21.780            10.487                Anadyr1           327.719
       319   04 Jun 2027 02:08:44.218   04 Jun 2027 02:08:56.885            12.667                Anadyr1           395.844
       320   04 Jun 2027 02:09:25.440   04 Jun 2027 02:09:31.585             6.145               Magadan2           192.031
       321   04 Jun 2027 02:10:33.309   04 Jun 2027 02:11:09.159            35.850               Magadan1          1120.313
       322   04 Jun 2027 02:11:31.283   04 Jun 2027 02:12:06.795            35.512               Magadan1          1109.750
       323   04 Jun 2027 02:14:32.538   04 Jun 2027 02:14:46.010            13.472               Magadan2           421.000
       324   04 Jun 2027 02:15:32.282   04 Jun 2027 02:16:10.655            38.373                Norilsk          1199.156
       325   04 Jun 2027 02:18:17.175   04 Jun 2027 02:19:35.158            77.983              Murmansk1          2436.969
       326   04 Jun 2027 02:19:35.158   04 Jun 2027 02:19:57.344            22.186              Murmansk2           693.312
       327   04 Jun 2027 02:21:23.430   04 Jun 2027 02:21:50.865            27.435                Novosib           857.344
       328   04 Jun 2027 02:23:37.631   04 Jun 2027 02:23:46.191             8.560                Novosib           267.500
       329   04 Jun 2027 02:25:12.487   04 Jun 2027 02:25:24.436            11.949                Novosib           373.406
       330   04 Jun 2027 02:29:36.066   04 Jun 2027 02:29:58.607            22.541                 Moscow           704.406
       331   04 Jun 2027 02:32:47.996   04 Jun 2027 02:34:14.888            86.892                 Moscow          2715.375
       332   04 Jun 2027 02:56:33.144   04 Jun 2027 02:56:42.870             9.726               CapeTown           303.938
       333   04 Jun 2027 03:48:07.158   04 Jun 2027 03:48:53.110            45.952                Anadyr2          1436.000
       334   04 Jun 2027 03:48:58.901   04 Jun 2027 03:49:28.790            29.889                Anadyr2           934.031
       335   04 Jun 2027 03:50:04.655   04 Jun 2027 03:50:38.130            33.475               Magadan2          1046.094
       336   04 Jun 2027 03:51:01.135   04 Jun 2027 03:51:56.434            55.299               Magadan2          1728.094
       337   04 Jun 2027 03:51:56.698   04 Jun 2027 03:52:53.670            56.972                Anadyr1          1780.375
       338   04 Jun 2027 03:52:53.670   04 Jun 2027 03:53:23.542            29.872                Anadyr2           933.500
       339   04 Jun 2027 05:27:29.513   04 Jun 2027 05:28:29.039            59.526               Magadan1          1860.188
       340   04 Jun 2027 05:28:42.868   04 Jun 2027 05:29:00.908            18.040                Irkutsk           563.750
       341   04 Jun 2027 05:29:04.956   04 Jun 2027 05:29:20.026            15.070               Magadan2           470.937
       342   04 Jun 2027 05:29:41.899   04 Jun 2027 05:30:32.966            51.067                Anadyr1          1595.844
       343   04 Jun 2027 07:00:39.513   04 Jun 2027 07:00:53.276            13.763               Magadan1           430.094
       344   04 Jun 2027 07:01:14.408   04 Jun 2027 07:01:24.159             9.751                Norilsk           304.719
       345   04 Jun 2027 07:01:25.532   04 Jun 2027 07:02:03.226            37.694               Magadan1          1177.938
       346   04 Jun 2027 07:02:18.989   04 Jun 2027 07:02:34.961            15.972               Magadan1           499.125
       347   04 Jun 2027 07:02:38.644   04 Jun 2027 07:02:47.330             8.686                Norilsk           271.438
       348   04 Jun 2027 07:03:06.499   04 Jun 2027 07:03:27.528            21.029                Irkutsk           657.156
       349   04 Jun 2027 07:04:24.456   04 Jun 2027 07:04:45.124            20.668               Magadan1           645.875
       350   04 Jun 2027 07:04:46.556   04 Jun 2027 07:04:54.046             7.490              Murmansk1           234.063
       351   04 Jun 2027 07:04:54.046   04 Jun 2027 07:05:41.875            47.829              Murmansk2          1494.656
       352   04 Jun 2027 07:05:48.601   04 Jun 2027 07:06:16.313            27.712              Murmansk2           866.000
       353   04 Jun 2027 07:06:19.751   04 Jun 2027 07:06:27.274             7.523                Novosib           235.094
       354   04 Jun 2027 07:07:11.465   04 Jun 2027 07:07:22.634            11.169              Murmansk1           349.031
       355   04 Jun 2027 07:08:13.160   04 Jun 2027 07:08:34.609            21.449              Murmansk2           670.281
       356   04 Jun 2027 07:41:02.635   04 Jun 2027 07:41:47.286            44.651            RioGallegos          1395.344
       357   04 Jun 2027 07:42:22.626   04 Jun 2027 07:42:42.922            20.296            RioGallegos           634.250
       358   04 Jun 2027 08:16:34.237   04 Jun 2027 08:17:15.985            41.748                Sumatra          1304.625
       359   04 Jun 2027 08:17:39.265   04 Jun 2027 08:18:32.633            53.368                Sumatra          1667.750
       360   04 Jun 2027 08:30:27.856   04 Jun 2027 08:31:41.720            73.864                  Delhi          2308.250
       361   04 Jun 2027 08:36:41.453   04 Jun 2027 08:36:55.019            13.566                Irkutsk           423.938
       362   04 Jun 2027 08:37:09.654   04 Jun 2027 08:37:13.645             3.991                Novosib           124.719
       363   04 Jun 2027 08:37:28.540   04 Jun 2027 08:37:42.034            13.494                Irkutsk           421.687
       364   04 Jun 2027 08:38:20.417   04 Jun 2027 08:38:23.077             2.660                Irkutsk            83.125
       365   04 Jun 2027 08:38:23.372   04 Jun 2027 08:38:47.856            24.484                Novosib           765.125
       366   04 Jun 2027 08:39:02.838   04 Jun 2027 08:39:08.983             6.145              Murmansk1           192.031
       367   04 Jun 2027 08:39:08.983   04 Jun 2027 08:39:24.189            15.206              Murmansk2           475.187
       368   04 Jun 2027 08:39:26.846   04 Jun 2027 08:39:29.656             2.810                Norilsk            87.813
       369   04 Jun 2027 08:39:59.820   04 Jun 2027 08:40:10.996            11.176              Murmansk1           349.250
       370   04 Jun 2027 08:40:21.162   04 Jun 2027 08:41:17.934            56.772              Murmansk2          1774.125
       371   04 Jun 2027 08:41:30.341   04 Jun 2027 08:41:49.322            18.981                Norilsk           593.156
       372   04 Jun 2027 08:42:07.212   04 Jun 2027 08:42:27.538            20.326              Murmansk1           635.188
       373   04 Jun 2027 08:44:51.090   04 Jun 2027 08:45:21.502            30.412              Murmansk2           950.375
       374   04 Jun 2027 09:18:41.837   04 Jun 2027 09:18:54.360            12.523            RioGallegos           391.344
       375   04 Jun 2027 09:19:40.187   04 Jun 2027 09:20:27.244            47.057            RioGallegos          1470.531
       376   04 Jun 2027 09:52:53.478   04 Jun 2027 09:53:34.424            40.946                Sumatra          1279.563
       377   04 Jun 2027 09:53:57.773   04 Jun 2027 09:54:09.883            12.110                Sumatra           378.437
       378   04 Jun 2027 09:55:40.108   04 Jun 2027 09:56:23.181            43.073                Sumatra          1346.031
       379   04 Jun 2027 10:03:17.025   04 Jun 2027 10:03:44.155            27.130                  Delhi           847.813
       380   04 Jun 2027 10:08:36.610   04 Jun 2027 10:09:09.067            32.457                  Delhi          1014.281
       381   04 Jun 2027 10:13:47.228   04 Jun 2027 10:13:47.599             0.371                Novosib            11.594
       382   04 Jun 2027 10:14:00.258   04 Jun 2027 10:14:06.785             6.527              Murmansk1           203.969
       383   04 Jun 2027 10:14:12.675   04 Jun 2027 10:14:49.669            36.994                 Moscow          1156.063
       384   04 Jun 2027 10:15:04.237   04 Jun 2027 10:15:33.929            29.692              Murmansk2           927.875
       385   04 Jun 2027 10:15:35.730   04 Jun 2027 10:15:39.211             3.481              Murmansk2           108.781
       386   04 Jun 2027 10:15:46.566   04 Jun 2027 10:15:50.822             4.256              Murmansk1           133.000
       387   04 Jun 2027 10:15:51.124   04 Jun 2027 10:16:54.619            63.495                Novosib          1984.219
       388   04 Jun 2027 10:17:10.039   04 Jun 2027 10:17:47.618            37.579                 Moscow          1174.344
       389   04 Jun 2027 10:17:53.685   04 Jun 2027 10:18:03.083             9.398                Novosib           293.688
       390   04 Jun 2027 10:18:22.502   04 Jun 2027 10:19:05.784            43.282              Murmansk1          1352.563
       391   04 Jun 2027 11:38:07.004   04 Jun 2027 11:39:59.729           112.725                  Delhi          3522.656
       392   04 Jun 2027 11:40:53.094   04 Jun 2027 11:42:07.803            74.709                  Delhi          2334.656
       393   04 Jun 2027 11:49:50.455   04 Jun 2027 11:50:00.952            10.497              Murmansk1           328.031
       394   04 Jun 2027 11:50:11.761   04 Jun 2027 11:50:35.938            24.177              Murmansk1           755.531
       395   04 Jun 2027 11:50:43.246   04 Jun 2027 11:51:51.187            67.941                 Moscow          2123.156
       396   04 Jun 2027 11:51:55.857   04 Jun 2027 11:52:52.338            56.481                 Moscow          1765.031
       397   04 Jun 2027 11:53:05.837   04 Jun 2027 11:53:13.710             7.873              Murmansk2           246.031
       398   04 Jun 2027 11:53:18.690   04 Jun 2027 11:54:23.409            64.719                 Moscow          2022.469
       399   04 Jun 2027 11:54:50.979   04 Jun 2027 11:56:06.139            75.160                 Moscow          2348.750
       400   04 Jun 2027 13:02:24.423   04 Jun 2027 13:03:32.593            68.170               CapeTown          2130.313
       401   04 Jun 2027 13:04:09.593   04 Jun 2027 13:05:12.560            62.967               CapeTown          1967.719
       402   04 Jun 2027 13:20:50.804   04 Jun 2027 13:22:10.672            79.868                 Moscow          2495.875
       403   04 Jun 2027 13:24:20.066   04 Jun 2027 13:26:24.329           124.263              Murmansk2          3883.219
       404   04 Jun 2027 13:26:24.329   04 Jun 2027 13:27:40.149            75.820              Murmansk1          2369.375
       405   04 Jun 2027 13:29:40.807   04 Jun 2027 13:30:13.511            32.704              Murmansk2          1022.000
       406   04 Jun 2027 13:32:38.696   04 Jun 2027 13:32:53.251            14.555              Murmansk2           454.844
       407   04 Jun 2027 13:33:38.326   04 Jun 2027 13:33:51.204            12.878              Murmansk2           402.438
       408   04 Jun 2027 13:35:18.073   04 Jun 2027 13:35:33.650            15.577              Murmansk2           486.781
       409   04 Jun 2027 13:35:48.594   04 Jun 2027 13:36:16.902            28.308              Murmansk2           884.625
       410   04 Jun 2027 13:39:44.621   04 Jun 2027 13:41:43.727           119.106                Anadyr2          3722.063
       411   04 Jun 2027 13:42:10.178   04 Jun 2027 13:43:35.866            85.688                Anadyr1          2677.750
       412   04 Jun 2027 13:46:03.675   04 Jun 2027 13:46:08.293             4.618                Anadyr2           144.313
       413   04 Jun 2027 15:02:35.634   04 Jun 2027 15:03:27.348            51.714              Murmansk1          1616.063
       414   04 Jun 2027 15:03:27.348   04 Jun 2027 15:03:50.392            23.044              Murmansk2           720.125
       415   04 Jun 2027 15:05:12.488   04 Jun 2027 15:05:36.656            24.168              Murmansk1           755.250
       416   04 Jun 2027 15:07:10.058   04 Jun 2027 15:08:03.250            53.192              Murmansk1          1662.250
       417   04 Jun 2027 15:14:41.635   04 Jun 2027 15:16:41.349           119.714                Anadyr1          3741.063
       418   04 Jun 2027 15:16:53.703   04 Jun 2027 15:18:10.488            76.785                Anadyr2          2399.531
       419   04 Jun 2027 15:25:12.984   04 Jun 2027 15:26:02.534            49.550                Anadyr1          1548.437
       420   04 Jun 2027 16:44:07.529   04 Jun 2027 16:46:31.915           144.386              Murmansk1          4512.063
       421   04 Jun 2027 16:50:31.168   04 Jun 2027 16:52:14.324           103.156                Anadyr1          3223.625
       422   04 Jun 2027 16:53:07.334   04 Jun 2027 16:53:12.211             4.877               Magadan2           152.406
       423   04 Jun 2027 16:53:49.440   04 Jun 2027 16:55:38.519           109.079               Magadan2          3408.719
       424   04 Jun 2027 16:58:39.320   04 Jun 2027 16:59:00.199            20.879               Magadan1           652.469
       425   04 Jun 2027 17:00:01.288   04 Jun 2027 17:00:10.531             9.243               Magadan1           288.844
       426   04 Jun 2027 17:03:20.634   04 Jun 2027 17:03:28.045             7.411               Magadan2           231.594
       427   04 Jun 2027 17:04:12.327   04 Jun 2027 17:04:17.659             5.332               Magadan1           166.625
       428   04 Jun 2027 18:26:26.014   04 Jun 2027 18:30:06.622           220.608                Anadyr1          6894.000
       429   04 Jun 2027 18:30:17.662   04 Jun 2027 18:32:02.190           104.528               Magadan2          3266.500
       430   04 Jun 2027 18:35:31.869   04 Jun 2027 18:35:36.044             4.175               Magadan1           130.469
       431   04 Jun 2027 18:37:16.498   04 Jun 2027 18:37:17.765             1.267               Magadan2            39.594
       432   04 Jun 2027 18:37:17.765   04 Jun 2027 18:37:30.834            13.069               Magadan1           408.406
       433   04 Jun 2027 18:38:27.523   04 Jun 2027 18:38:41.853            14.330               Magadan1           447.812
       434   04 Jun 2027 18:39:30.869   04 Jun 2027 18:39:48.138            17.269               Magadan1           539.656
       435   04 Jun 2027 18:40:36.495   04 Jun 2027 18:40:51.487            14.992               Magadan1           468.500
       436   04 Jun 2027 19:21:04.766   04 Jun 2027 19:23:11.224           126.458            RioGallegos          3951.813
       437   04 Jun 2027 19:23:31.984   04 Jun 2027 19:24:37.899            65.915            RioGallegos          2059.844
       438   04 Jun 2027 19:25:06.639   04 Jun 2027 19:26:02.756            56.117            RioGallegos          1753.656
       439   04 Jun 2027 20:03:07.888   04 Jun 2027 20:04:00.016            52.128                Anadyr1          1629.000
       440   04 Jun 2027 20:04:18.053   04 Jun 2027 20:06:14.212           116.159                Norilsk          3629.969
       441   04 Jun 2027 20:08:34.010   04 Jun 2027 20:10:46.649           132.639                Irkutsk          4144.969
       442   04 Jun 2027 20:11:06.823   04 Jun 2027 20:11:31.524            24.701                Irkutsk           771.906
       443   04 Jun 2027 20:11:33.159   04 Jun 2027 20:13:44.524           131.365                Novosib          4105.156
       444   04 Jun 2027 20:23:34.593   04 Jun 2027 20:24:43.123            68.530                Sumatra          2141.563
       445   04 Jun 2027 21:40:13.308   04 Jun 2027 21:41:20.992            67.684                Norilsk          2115.125
       446   04 Jun 2027 21:43:26.422   04 Jun 2027 21:43:53.416            26.994                Norilsk           843.563
       447   04 Jun 2027 21:44:04.595   04 Jun 2027 21:45:01.529            56.934                Irkutsk          1779.188
       448   04 Jun 2027 21:45:42.573   04 Jun 2027 21:46:36.702            54.129                Novosib          1691.531
       449   04 Jun 2027 21:51:33.379   04 Jun 2027 21:53:44.015           130.636                Novosib          4082.375
       450   04 Jun 2027 21:54:33.414   04 Jun 2027 21:55:38.777            65.363                  Delhi          2042.594
       451   04 Jun 2027 22:02:50.437   04 Jun 2027 22:03:16.314            25.877                  Delhi           808.656
       452   04 Jun 2027 23:11:47.324   04 Jun 2027 23:11:59.440            12.116                Anadyr2           378.625
       453   04 Jun 2027 23:12:44.234   04 Jun 2027 23:13:04.802            20.568                Anadyr1           642.750
       454   04 Jun 2027 23:13:16.341   04 Jun 2027 23:13:41.017            24.676                Anadyr1           771.125
       455   04 Jun 2027 23:16:26.747   04 Jun 2027 23:17:59.411            92.664               Magadan2          2895.750
       456   04 Jun 2027 23:18:39.064   04 Jun 2027 23:20:33.714           114.650              Murmansk2          3582.812
       457   04 Jun 2027 23:20:33.714   04 Jun 2027 23:21:23.152            49.438              Murmansk1          1544.938
       458   04 Jun 2027 23:22:32.816   04 Jun 2027 23:23:49.790            76.974              Murmansk1          2405.438
       459   04 Jun 2027 23:23:57.377   04 Jun 2027 23:24:47.435            50.058                 Moscow          1564.313
       460   04 Jun 2027 23:25:45.216   04 Jun 2027 23:26:43.204            57.988                 Moscow          1812.125
       461   05 Jun 2027 00:46:03.204   05 Jun 2027 00:46:10.198             6.994                Anadyr2           218.562
       462   05 Jun 2027 00:46:38.391   05 Jun 2027 00:46:47.100             8.709                Anadyr1           272.156
       463   05 Jun 2027 00:49:12.637   05 Jun 2027 00:50:23.838            71.201               Magadan2          2225.031
       464   05 Jun 2027 00:51:13.722   05 Jun 2027 00:51:43.587            29.865               Magadan2           933.281
       465   05 Jun 2027 00:52:01.826   05 Jun 2027 00:52:01.985             0.159                Norilsk             4.969
       466   05 Jun 2027 00:52:13.814   05 Jun 2027 00:52:32.038            18.224               Magadan1           569.500
       467   05 Jun 2027 00:52:58.810   05 Jun 2027 00:53:18.666            19.856               Magadan1           620.500
       468   05 Jun 2027 00:54:20.845   05 Jun 2027 00:58:26.124           245.279              Murmansk2          7664.969
       469   05 Jun 2027 01:22:17.386   05 Jun 2027 01:23:21.025            63.639               CapeTown          1988.719
       470   05 Jun 2027 01:24:16.381   05 Jun 2027 01:25:01.675            45.294               CapeTown          1415.437
       471   05 Jun 2027 02:18:19.685   05 Jun 2027 02:19:15.245            55.560                Anadyr2          1736.250
       472   05 Jun 2027 02:19:27.380   05 Jun 2027 02:20:05.407            38.027                Anadyr2          1188.344
       473   05 Jun 2027 02:20:59.361   05 Jun 2027 02:21:20.564            21.203               Magadan2           662.594
       474   05 Jun 2027 02:22:01.310   05 Jun 2027 02:22:26.443            25.133               Magadan1           785.406
       475   05 Jun 2027 02:23:32.369   05 Jun 2027 02:23:55.631            23.262               Magadan1           726.938
       476   05 Jun 2027 02:26:14.718   05 Jun 2027 02:26:34.648            19.930               Magadan1           622.812
       477   05 Jun 2027 02:29:24.360   05 Jun 2027 02:29:52.357            27.997               Magadan2           874.906
       478   05 Jun 2027 02:30:18.828   05 Jun 2027 02:31:15.479            56.651              Murmansk2          1770.344
       479   05 Jun 2027 02:31:28.621   05 Jun 2027 02:31:59.091            30.470              Murmansk2           952.187
       480   05 Jun 2027 02:33:32.206   05 Jun 2027 02:34:04.332            32.126                 Moscow          1003.938
       481   05 Jun 2027 02:34:52.048   05 Jun 2027 02:35:42.027            49.979                 Moscow          1561.844
       482   05 Jun 2027 02:43:58.702   05 Jun 2027 02:44:28.736            30.034                 Moscow           938.563
