uniorb/output/strategy_2/Drop/Drop_KinoSat_111009.txt

KinoSat_111009
-------------------------
    Access    *     Start Time (UTCG)     *     Stop Time (UTCG)  *   Duration (s)        *       Station  *  Data (Mbytes)
         1   01 Jun 2027 03:01:48.909   01 Jun 2027 03:02:19.613            30.704              Murmansk1           959.500
         2   01 Jun 2027 03:02:25.482   01 Jun 2027 03:02:31.407             5.925                Norilsk           185.156
         3   01 Jun 2027 03:02:34.357   01 Jun 2027 03:03:02.562            28.205              Murmansk1           881.406
         4   01 Jun 2027 03:03:09.986   01 Jun 2027 03:03:50.189            40.203              Murmansk1          1256.344
         5   01 Jun 2027 03:04:40.184   01 Jun 2027 03:04:54.494            14.310              Murmansk2           447.188
         6   01 Jun 2027 04:25:30.304   01 Jun 2027 04:26:00.798            30.494                Anadyr1           952.938
         7   01 Jun 2027 04:26:28.654   01 Jun 2027 04:27:48.975            80.321                Anadyr1          2510.031
         8   01 Jun 2027 06:03:33.097   01 Jun 2027 06:04:03.283            30.186                Anadyr2           943.313
         9   01 Jun 2027 06:04:36.669   01 Jun 2027 06:05:18.531            41.862                Norilsk          1308.188
        10   01 Jun 2027 06:05:22.666   01 Jun 2027 06:05:29.791             7.125               Magadan2           222.656
        11   01 Jun 2027 06:05:40.088   01 Jun 2027 06:06:04.117            24.029                Anadyr2           750.906
        12   01 Jun 2027 06:43:27.791   01 Jun 2027 06:44:27.298            59.507            RioGallegos          1859.594
        13   01 Jun 2027 07:38:08.875   01 Jun 2027 07:38:29.263            20.388               Magadan1           637.125
        14   01 Jun 2027 07:38:57.762   01 Jun 2027 07:41:59.187           181.425               Magadan1          5669.531
        15   01 Jun 2027 07:42:21.908   01 Jun 2027 07:42:33.051            11.143               Magadan1           348.219
        16   01 Jun 2027 07:42:55.664   01 Jun 2027 07:43:13.192            17.528                Norilsk           547.750
        17   01 Jun 2027 07:43:43.535   01 Jun 2027 07:44:01.656            18.121              Murmansk2           566.281
        18   01 Jun 2027 07:44:01.656   01 Jun 2027 07:44:55.604            53.948              Murmansk1          1685.875
        19   01 Jun 2027 07:47:19.580   01 Jun 2027 07:47:41.175            21.595              Murmansk2           674.844
        20   01 Jun 2027 08:17:43.292   01 Jun 2027 08:20:01.971           138.679            RioGallegos          4333.719
        21   01 Jun 2027 08:53:01.922   01 Jun 2027 08:53:45.728            43.806                Sumatra          1368.937
        22   01 Jun 2027 08:55:26.967   01 Jun 2027 08:56:31.779            64.812                Sumatra          2025.375
        23   01 Jun 2027 09:14:25.011   01 Jun 2027 09:14:40.390            15.379                Norilsk           480.594
        24   01 Jun 2027 09:14:41.363   01 Jun 2027 09:14:47.442             6.079                Irkutsk           189.969
        25   01 Jun 2027 09:14:59.604   01 Jun 2027 09:15:48.382            48.778                Novosib          1524.312
        26   01 Jun 2027 09:15:48.770   01 Jun 2027 09:18:36.818           168.048                Irkutsk          5251.500
        27   01 Jun 2027 09:55:46.599   01 Jun 2027 09:55:55.020             8.421            RioGallegos           263.156
        28   01 Jun 2027 10:29:59.904   01 Jun 2027 10:30:26.219            26.315                Sumatra           822.344
        29   01 Jun 2027 10:34:31.150   01 Jun 2027 10:34:47.608            16.458                Sumatra           514.312
        30   01 Jun 2027 10:36:53.431   01 Jun 2027 10:37:59.738            66.307                  Delhi          2072.094
        31   01 Jun 2027 10:40:01.170   01 Jun 2027 10:40:55.444            54.274                  Delhi          1696.063
        32   01 Jun 2027 10:52:36.375   01 Jun 2027 10:53:35.064            58.689                Norilsk          1834.031
        33   01 Jun 2027 10:53:45.089   01 Jun 2027 10:54:09.981            24.892                Novosib           777.875
        34   01 Jun 2027 10:54:13.925   01 Jun 2027 10:57:48.569           214.644                Norilsk          6707.625
        35   01 Jun 2027 12:15:27.237   01 Jun 2027 12:16:44.048            76.811                  Delhi          2400.344
        36   01 Jun 2027 12:21:30.183   01 Jun 2027 12:22:36.535            66.352                 Moscow          2073.500
        37   01 Jun 2027 12:23:00.590   01 Jun 2027 12:24:20.966            80.376                 Moscow          2511.750
        38   01 Jun 2027 12:24:41.763   01 Jun 2027 12:26:54.309           132.546              Murmansk2          4142.063
        39   01 Jun 2027 12:27:00.643   01 Jun 2027 12:27:06.316             5.673                Norilsk           177.281
        40   01 Jun 2027 12:27:19.403   01 Jun 2027 12:27:49.076            29.673              Murmansk1           927.281
        41   01 Jun 2027 12:28:39.677   01 Jun 2027 12:29:09.485            29.808              Murmansk2           931.500
        42   01 Jun 2027 13:37:50.574   01 Jun 2027 13:39:52.006           121.432               CapeTown          3794.750
        43   01 Jun 2027 13:57:41.261   01 Jun 2027 13:59:00.147            78.886                 Moscow          2465.187
        44   01 Jun 2027 14:01:08.250   01 Jun 2027 14:03:59.156           170.906              Murmansk2          5340.812
        45   01 Jun 2027 14:16:13.699   01 Jun 2027 14:19:52.279           218.580                Anadyr2          6830.625
        46   01 Jun 2027 15:11:45.252   01 Jun 2027 15:13:15.344            90.092               CapeTown          2815.375
        47   01 Jun 2027 15:39:35.898   01 Jun 2027 15:40:55.267            79.369              Murmansk2          2480.281
        48   01 Jun 2027 15:51:21.375   01 Jun 2027 15:54:12.454           171.079                Anadyr2          5346.219
        49   01 Jun 2027 15:56:38.122   01 Jun 2027 15:59:02.759           144.637               Magadan1          4519.906
        50   01 Jun 2027 17:21:54.478   01 Jun 2027 17:23:33.977            99.499              Murmansk1          3109.344
        51   01 Jun 2027 17:27:12.429   01 Jun 2027 17:27:47.442            35.013                Anadyr2          1094.156
        52   01 Jun 2027 17:28:28.713   01 Jun 2027 17:29:58.303            89.590                Anadyr2          2799.688
        53   01 Jun 2027 17:30:05.062   01 Jun 2027 17:30:47.483            42.421               Magadan2          1325.656
        54   01 Jun 2027 17:31:00.712   01 Jun 2027 17:31:17.989            17.277               Magadan2           539.906
        55   01 Jun 2027 17:31:41.544   01 Jun 2027 17:34:01.740           140.196               Magadan1          4381.125
        56   01 Jun 2027 19:03:06.862   01 Jun 2027 19:05:21.501           134.639                Anadyr1          4207.469
        57   01 Jun 2027 19:05:24.158   01 Jun 2027 19:06:10.672            46.514               Magadan2          1453.562
        58   01 Jun 2027 19:06:10.672   01 Jun 2027 19:06:46.369            35.697               Magadan1          1115.531
        59   01 Jun 2027 19:06:48.561   01 Jun 2027 19:07:42.992            54.431                Norilsk          1700.969
        60   01 Jun 2027 19:09:39.260   01 Jun 2027 19:09:57.413            18.153                Norilsk           567.281
        61   01 Jun 2027 19:57:35.793   01 Jun 2027 20:01:09.495           213.702            RioGallegos          6678.188
        62   01 Jun 2027 20:41:26.775   01 Jun 2027 20:42:58.835            92.060               Magadan2          2876.875
        63   01 Jun 2027 20:42:58.835   01 Jun 2027 20:43:15.075            16.240               Magadan1           507.500
        64   01 Jun 2027 20:44:11.475   01 Jun 2027 20:44:15.431             3.956               Magadan1           123.625
        65   01 Jun 2027 20:45:09.446   01 Jun 2027 20:45:40.722            31.276                Irkutsk           977.375
        66   01 Jun 2027 20:46:21.391   01 Jun 2027 20:46:55.468            34.077                Irkutsk          1064.906
        67   01 Jun 2027 20:47:11.245   01 Jun 2027 20:49:53.652           162.407                Novosib          5075.219
        68   01 Jun 2027 21:01:34.925   01 Jun 2027 21:02:38.173            63.248                Sumatra          1976.500
        69   01 Jun 2027 22:16:54.901   01 Jun 2027 22:17:05.503            10.602                Norilsk           331.313
        70   01 Jun 2027 22:17:32.315   01 Jun 2027 22:18:38.408            66.093               Magadan1          2065.406
        71   01 Jun 2027 22:19:19.031   01 Jun 2027 22:19:31.569            12.538               Magadan2           391.812
        72   01 Jun 2027 22:19:47.269   01 Jun 2027 22:20:09.517            22.248               Magadan1           695.250
        73   01 Jun 2027 22:20:46.684   01 Jun 2027 22:21:22.627            35.943                Irkutsk          1123.219
        74   01 Jun 2027 22:22:31.013   01 Jun 2027 22:22:45.619            14.606                Novosib           456.438
        75   01 Jun 2027 22:22:58.998   01 Jun 2027 22:23:11.623            12.625                Novosib           394.531
        76   01 Jun 2027 22:23:17.815   01 Jun 2027 22:24:24.420            66.605                Novosib          2081.406
        77   01 Jun 2027 22:28:43.738   01 Jun 2027 22:30:19.108            95.370                  Delhi          2980.313
        78   01 Jun 2027 22:33:28.469   01 Jun 2027 22:33:35.398             6.929                  Delhi           216.531
        79   01 Jun 2027 23:47:38.974   01 Jun 2027 23:49:06.092            87.118                Anadyr2          2722.437
        80   01 Jun 2027 23:52:54.066   01 Jun 2027 23:53:18.212            24.146                Norilsk           754.563
        81   01 Jun 2027 23:53:23.356   01 Jun 2027 23:53:35.832            12.476               Magadan2           389.875
        82   01 Jun 2027 23:53:42.737   01 Jun 2027 23:54:18.444            35.707               Magadan2          1115.844
        83   01 Jun 2027 23:54:18.444   01 Jun 2027 23:54:52.945            34.501               Magadan1          1078.156
        84   01 Jun 2027 23:55:16.931   01 Jun 2027 23:57:43.118           146.187              Murmansk2          4568.344
        85   01 Jun 2027 23:57:46.125   01 Jun 2027 23:59:25.270            99.145              Murmansk1          3098.281
        86   02 Jun 2027 00:00:09.818   02 Jun 2027 00:01:09.264            59.446                 Moscow          1857.687
        87   02 Jun 2027 01:20:25.447   02 Jun 2027 01:20:35.323             9.876                Anadyr1           308.625
        88   02 Jun 2027 01:21:42.861   02 Jun 2027 01:22:22.066            39.205                Anadyr1          1225.156
        89   02 Jun 2027 01:23:06.879   02 Jun 2027 01:23:32.577            25.698                Anadyr1           803.063
        90   02 Jun 2027 01:23:46.303   02 Jun 2027 01:23:57.994            11.691                Anadyr2           365.344
        91   02 Jun 2027 01:25:31.111   02 Jun 2027 01:27:34.078           122.967               Magadan1          3842.719
        92   02 Jun 2027 01:28:48.316   02 Jun 2027 01:29:20.108            31.792               Magadan1           993.500
        93   02 Jun 2027 01:31:02.006   02 Jun 2027 01:31:40.767            38.761              Murmansk1          1211.281
        94   02 Jun 2027 01:32:13.447   02 Jun 2027 01:32:39.985            26.538              Murmansk1           829.313
        95   02 Jun 2027 01:32:44.243   02 Jun 2027 01:33:17.922            33.679              Murmansk1          1052.469
        96   02 Jun 2027 01:33:40.094   02 Jun 2027 01:33:40.872             0.778              Murmansk1            24.313
        97   02 Jun 2027 01:34:23.966   02 Jun 2027 01:35:11.193            47.227                 Moscow          1475.844
        98   02 Jun 2027 01:42:11.494   02 Jun 2027 01:42:52.761            41.267                 Moscow          1289.594
        99   02 Jun 2027 02:02:56.378   02 Jun 2027 02:03:36.489            40.111               CapeTown          1253.469
       100   02 Jun 2027 02:54:57.625   02 Jun 2027 02:57:15.013           137.388                Anadyr1          4293.375
       101   02 Jun 2027 02:57:22.602   02 Jun 2027 02:58:21.372            58.770               Magadan1          1836.563
       102   02 Jun 2027 02:59:28.429   02 Jun 2027 02:59:41.526            13.097               Magadan1           409.281
       103   02 Jun 2027 03:02:10.894   02 Jun 2027 03:03:29.190            78.296                Anadyr1          2446.750
       104   02 Jun 2027 03:05:05.332   02 Jun 2027 03:05:53.667            48.335                Anadyr2          1510.469
       105   02 Jun 2027 03:15:53.446   02 Jun 2027 03:16:00.152             6.706                 Moscow           209.562
       106   02 Jun 2027 03:16:41.406   02 Jun 2027 03:16:45.346             3.940              Murmansk2           123.125
       107   02 Jun 2027 03:17:21.885   02 Jun 2027 03:17:30.304             8.419              Murmansk2           263.094
       108   02 Jun 2027 04:30:53.624   02 Jun 2027 04:31:05.558            11.934               Magadan2           372.937
       109   02 Jun 2027 04:31:05.686   02 Jun 2027 04:32:19.721            74.035               Magadan2          2313.594
       110   02 Jun 2027 04:36:24.088   02 Jun 2027 04:38:27.312           123.224                Anadyr2          3850.750
       111   02 Jun 2027 04:38:37.170   02 Jun 2027 04:38:49.268            12.098               Magadan2           378.063
       112   02 Jun 2027 04:39:11.655   02 Jun 2027 04:40:07.261            55.606               Magadan1          1737.687
       113   02 Jun 2027 04:40:07.261   02 Jun 2027 04:40:21.884            14.623               Magadan2           456.969
       114   02 Jun 2027 04:40:38.654   02 Jun 2027 04:43:04.181           145.527               Magadan2          4547.719
       115   02 Jun 2027 05:24:27.751   02 Jun 2027 05:25:17.278            49.527            RioGallegos          1547.719
       116   02 Jun 2027 06:14:11.905   02 Jun 2027 06:15:27.436            75.531               Magadan2          2360.344
       117   02 Jun 2027 06:15:27.460   02 Jun 2027 06:16:43.862            76.402                Anadyr2          2387.563
       118   02 Jun 2027 06:17:14.245   02 Jun 2027 06:19:07.565           113.320                Anadyr2          3541.250
       119   02 Jun 2027 06:19:31.489   02 Jun 2027 06:19:59.813            28.324              Murmansk1           885.125
       120   02 Jun 2027 06:20:59.705   02 Jun 2027 06:21:57.069            57.364              Murmansk1          1792.625
       121   02 Jun 2027 06:22:20.047   02 Jun 2027 06:22:25.198             5.151                Norilsk           160.969
       122   02 Jun 2027 06:55:05.235   02 Jun 2027 06:56:29.574            84.339            RioGallegos          2635.594
       123   02 Jun 2027 07:49:33.982   02 Jun 2027 07:50:23.151            49.169               Magadan2          1536.531
       124   02 Jun 2027 07:50:45.107   02 Jun 2027 07:51:42.278            57.171               Magadan2          1786.594
       125   02 Jun 2027 07:52:10.271   02 Jun 2027 07:52:15.148             4.877                Irkutsk           152.406
       126   02 Jun 2027 07:52:19.939   02 Jun 2027 07:52:33.346            13.407                Norilsk           418.969
       127   02 Jun 2027 07:52:36.460   02 Jun 2027 07:53:02.244            25.784                Novosib           805.750
       128   02 Jun 2027 07:53:11.282   02 Jun 2027 07:54:11.666            60.384              Murmansk2          1887.000
       129   02 Jun 2027 07:54:11.666   02 Jun 2027 07:59:35.587           323.921              Murmansk1         10122.531
       130   02 Jun 2027 08:29:46.656   02 Jun 2027 08:34:08.968           262.312            RioGallegos          8197.250
       131   02 Jun 2027 09:04:49.442   02 Jun 2027 09:07:32.642           163.200                Sumatra          5100.000
       132   02 Jun 2027 09:25:59.104   02 Jun 2027 09:26:20.954            21.850                Novosib           682.813
       133   02 Jun 2027 09:26:26.689   02 Jun 2027 09:26:42.495            15.806                Norilsk           493.938
       134   02 Jun 2027 09:26:49.304   02 Jun 2027 09:27:01.440            12.136                Novosib           379.250
       135   02 Jun 2027 09:27:21.451   02 Jun 2027 09:28:21.113            59.662              Murmansk2          1864.438
       136   02 Jun 2027 09:28:36.961   02 Jun 2027 09:29:15.133            38.172                Novosib          1192.875
       137   02 Jun 2027 09:29:27.112   02 Jun 2027 09:29:34.137             7.025                Novosib           219.531
       138   02 Jun 2027 09:29:35.341   02 Jun 2027 09:29:43.308             7.967              Murmansk2           248.969
       139   02 Jun 2027 09:29:52.808   02 Jun 2027 09:30:39.071            46.263                 Moscow          1445.719
       140   02 Jun 2027 09:30:48.752   02 Jun 2027 09:30:49.326             0.574              Murmansk1            17.937
       141   02 Jun 2027 09:30:53.547   02 Jun 2027 09:31:17.070            23.523                Norilsk           735.094
       142   02 Jun 2027 09:32:03.402   02 Jun 2027 09:32:21.514            18.112                 Moscow           566.000
       143   02 Jun 2027 09:33:26.984   02 Jun 2027 09:33:28.565             1.581                Norilsk            49.406
       144   02 Jun 2027 09:36:16.112   02 Jun 2027 09:36:41.255            25.143              Murmansk1           785.719
       145   02 Jun 2027 10:08:28.498   02 Jun 2027 10:09:06.342            37.844            RioGallegos          1182.625
       146   02 Jun 2027 10:10:35.762   02 Jun 2027 10:10:59.630            23.868            RioGallegos           745.875
       147   02 Jun 2027 10:42:52.081   02 Jun 2027 10:44:41.163           109.082                Sumatra          3408.812
       148   02 Jun 2027 11:02:49.042   02 Jun 2027 11:03:25.706            36.664              Murmansk2          1145.750
       149   02 Jun 2027 11:03:48.276   02 Jun 2027 11:04:14.050            25.774              Murmansk1           805.438
       150   02 Jun 2027 11:04:22.799   02 Jun 2027 11:04:40.384            17.585                 Moscow           549.531
       151   02 Jun 2027 11:04:43.305   02 Jun 2027 11:05:58.360            75.055                Novosib          2345.469
       152   02 Jun 2027 11:06:05.718   02 Jun 2027 11:06:24.327            18.609                Novosib           581.531
       153   02 Jun 2027 11:06:26.556   02 Jun 2027 11:06:39.077            12.521                Norilsk           391.281
       154   02 Jun 2027 11:06:39.644   02 Jun 2027 11:06:51.763            12.119                 Moscow           378.719
       155   02 Jun 2027 11:07:29.910   02 Jun 2027 11:08:21.341            51.431                Novosib          1607.219
       156   02 Jun 2027 12:28:50.932   02 Jun 2027 12:31:36.264           165.332                  Delhi          5166.625
       157   02 Jun 2027 12:35:56.513   02 Jun 2027 12:36:07.409            10.896                 Moscow           340.500
       158   02 Jun 2027 12:36:41.492   02 Jun 2027 12:40:01.455           199.963              Murmansk1          6248.844
       159   02 Jun 2027 13:48:52.727   02 Jun 2027 13:51:30.711           157.984               CapeTown          4937.000
       160   02 Jun 2027 13:53:53.122   02 Jun 2027 13:54:59.181            66.059               CapeTown          2064.344
       161   02 Jun 2027 13:56:35.049   02 Jun 2027 13:56:56.756            21.707               CapeTown           678.344
       162   02 Jun 2027 14:13:21.278   02 Jun 2027 14:16:00.843           159.565              Murmansk1          4986.406
       163   02 Jun 2027 14:28:02.249   02 Jun 2027 14:30:05.698           123.449                Anadyr1          3857.781
       164   02 Jun 2027 14:30:05.701   02 Jun 2027 14:31:40.748            95.047                Anadyr2          2970.219
       165   02 Jun 2027 15:52:07.189   02 Jun 2027 15:53:07.130            59.941              Murmansk2          1873.156
       166   02 Jun 2027 15:53:47.616   02 Jun 2027 15:54:08.343            20.727              Murmansk2           647.719
       167   02 Jun 2027 15:55:40.489   02 Jun 2027 15:55:50.263             9.774              Murmansk1           305.438
       168   02 Jun 2027 15:56:04.448   02 Jun 2027 15:56:34.485            30.037              Murmansk1           938.656
       169   02 Jun 2027 16:03:21.172   02 Jun 2027 16:05:22.328           121.156                Anadyr2          3786.125
       170   02 Jun 2027 16:05:39.571   02 Jun 2027 16:07:18.100            98.529                Anadyr1          3079.031
       171   02 Jun 2027 16:07:34.775   02 Jun 2027 16:10:21.573           166.798               Magadan2          5212.438
       172   02 Jun 2027 17:39:13.866   02 Jun 2027 17:41:45.332           151.466                Anadyr1          4733.312
       173   02 Jun 2027 17:42:00.390   02 Jun 2027 17:43:44.246           103.856               Magadan2          3245.500
       174   02 Jun 2027 17:43:44.246   02 Jun 2027 17:44:01.467            17.221               Magadan1           538.156
       175   02 Jun 2027 19:15:07.315   02 Jun 2027 19:17:00.410           113.095                Anadyr1          3534.219
       176   02 Jun 2027 19:17:13.814   02 Jun 2027 19:19:02.303           108.489                Anadyr2          3390.281
       177   02 Jun 2027 19:19:26.465   02 Jun 2027 19:21:26.967           120.502               Magadan1          3765.687
       178   02 Jun 2027 19:21:43.971   02 Jun 2027 19:21:59.389            15.418               Magadan1           481.813
       179   02 Jun 2027 19:23:59.433   02 Jun 2027 19:24:03.531             4.098               Magadan2           128.063
       180   02 Jun 2027 19:24:11.311   02 Jun 2027 19:27:17.912           186.601                Irkutsk          5831.281
       181   02 Jun 2027 20:09:25.514   02 Jun 2027 20:10:34.460            68.946            RioGallegos          2154.563
       182   02 Jun 2027 20:52:51.954   02 Jun 2027 20:53:14.772            22.818                Anadyr1           713.062
       183   02 Jun 2027 20:53:15.241   02 Jun 2027 20:54:50.026            94.785                Norilsk          2962.031
       184   02 Jun 2027 20:56:17.139   02 Jun 2027 20:56:47.086            29.947               Magadan2           935.844
       185   02 Jun 2027 20:57:04.230   02 Jun 2027 20:58:37.687            93.457                Irkutsk          2920.531
       186   02 Jun 2027 20:59:04.596   02 Jun 2027 21:01:24.006           139.410                Novosib          4356.562
       187   02 Jun 2027 21:10:45.473   02 Jun 2027 21:13:13.827           148.354                Sumatra          4636.063
       188   02 Jun 2027 22:28:56.899   02 Jun 2027 22:29:04.967             8.068                Norilsk           252.125
       189   02 Jun 2027 22:29:34.025   02 Jun 2027 22:30:59.768            85.743               Magadan1          2679.469
       190   02 Jun 2027 22:32:44.843   02 Jun 2027 22:32:47.289             2.446                Norilsk            76.437
       191   02 Jun 2027 22:32:49.887   02 Jun 2027 22:33:28.910            39.023                Irkutsk          1219.469
       192   02 Jun 2027 22:34:28.847   02 Jun 2027 22:34:38.249             9.402                Irkutsk           293.813
       193   02 Jun 2027 22:34:51.065   02 Jun 2027 22:35:49.338            58.273                Novosib          1821.031
       194   02 Jun 2027 22:38:28.954   02 Jun 2027 22:38:56.235            27.281                Novosib           852.531
       195   02 Jun 2027 22:40:29.008   02 Jun 2027 22:42:45.066           136.058                  Delhi          4251.813
       196   02 Jun 2027 22:44:06.479   02 Jun 2027 22:44:22.288            15.809                  Delhi           494.031
       197   02 Jun 2027 22:45:09.162   02 Jun 2027 22:46:42.531            93.369                  Delhi          2917.781
       198   03 Jun 2027 00:01:46.002   03 Jun 2027 00:01:47.118             1.116                Anadyr1            34.875
       199   03 Jun 2027 00:04:49.049   03 Jun 2027 00:05:30.038            40.989               Magadan2          1280.906
       200   03 Jun 2027 00:05:42.571   03 Jun 2027 00:06:02.565            19.994               Magadan1           624.812
       201   03 Jun 2027 00:06:19.481   03 Jun 2027 00:07:02.545            43.064                Norilsk          1345.750
       202   03 Jun 2027 00:07:14.848   03 Jun 2027 00:09:30.655           135.807              Murmansk1          4243.969
       203   03 Jun 2027 00:09:32.475   03 Jun 2027 00:10:45.227            72.752              Murmansk2          2273.500
       204   03 Jun 2027 00:11:42.881   03 Jun 2027 00:11:57.702            14.821                 Moscow           463.156
       205   03 Jun 2027 00:12:32.354   03 Jun 2027 00:13:06.975            34.621                 Moscow          1081.906
       206   03 Jun 2027 00:15:56.889   03 Jun 2027 00:16:40.601            43.712                 Moscow          1366.000
       207   03 Jun 2027 01:32:11.485   03 Jun 2027 01:34:14.956           123.471                Anadyr2          3858.469
       208   03 Jun 2027 01:34:30.713   03 Jun 2027 01:34:51.157            20.444                Anadyr1           638.875
       209   03 Jun 2027 01:35:14.629   03 Jun 2027 01:35:29.909            15.280                Anadyr1           477.500
       210   03 Jun 2027 01:36:59.020   03 Jun 2027 01:38:26.047            87.027               Magadan1          2719.594
       211   03 Jun 2027 01:39:00.755   03 Jun 2027 01:39:30.548            29.793               Magadan2           931.031
       212   03 Jun 2027 01:40:40.436   03 Jun 2027 01:40:57.900            17.464                Norilsk           545.750
       213   03 Jun 2027 01:40:59.243   03 Jun 2027 01:40:59.862             0.619                Norilsk            19.344
       214   03 Jun 2027 01:43:03.521   03 Jun 2027 01:45:34.260           150.739              Murmansk1          4710.594
       215   03 Jun 2027 01:46:22.097   03 Jun 2027 01:48:03.066           100.969                 Moscow          3155.281
       216   03 Jun 2027 02:14:09.742   03 Jun 2027 02:14:11.267             1.525               CapeTown            47.656
       217   03 Jun 2027 02:15:21.997   03 Jun 2027 02:16:43.043            81.046               CapeTown          2532.687
       218   03 Jun 2027 03:14:10.975   03 Jun 2027 03:15:10.629            59.654                Anadyr1          1864.188
       219   03 Jun 2027 03:15:55.593   03 Jun 2027 03:16:28.647            33.054               Magadan1          1032.937
       220   03 Jun 2027 03:16:28.647   03 Jun 2027 03:16:54.006            25.359               Magadan2           792.469
       221   03 Jun 2027 03:16:54.006   03 Jun 2027 03:16:58.010             4.004               Magadan1           125.125
       222   03 Jun 2027 03:17:04.317   03 Jun 2027 03:17:54.440            50.123                Anadyr2          1566.344
       223   03 Jun 2027 03:18:08.284   03 Jun 2027 03:18:16.351             8.067               Magadan1           252.094
       224   03 Jun 2027 03:18:32.517   03 Jun 2027 03:19:01.845            29.328               Magadan1           916.500
       225   03 Jun 2027 03:19:01.845   03 Jun 2027 03:19:05.605             3.760               Magadan2           117.500
       226   03 Jun 2027 04:50:02.609   03 Jun 2027 04:51:48.399           105.790                Anadyr2          3305.937
       227   03 Jun 2027 04:51:58.790   03 Jun 2027 04:52:16.087            17.297               Magadan1           540.531
       228   03 Jun 2027 04:52:35.864   03 Jun 2027 04:53:22.353            46.489               Magadan2          1452.781
       229   03 Jun 2027 04:53:24.734   03 Jun 2027 04:54:14.051            49.317                Anadyr2          1541.156
       230   03 Jun 2027 04:54:32.838   03 Jun 2027 04:54:52.496            19.658               Magadan1           614.313
       231   03 Jun 2027 06:23:22.173   03 Jun 2027 06:23:47.283            25.110                Anadyr2           784.688
       232   03 Jun 2027 06:23:51.558   03 Jun 2027 06:24:19.919            28.361               Magadan1           886.281
       233   03 Jun 2027 06:24:20.573   03 Jun 2027 06:24:49.879            29.306                Anadyr2           915.812
       234   03 Jun 2027 06:24:49.879   03 Jun 2027 06:24:52.015             2.136                Anadyr1            66.750
       235   03 Jun 2027 06:25:04.644   03 Jun 2027 06:25:32.610            27.966               Magadan2           873.938
       236   03 Jun 2027 06:25:34.368   03 Jun 2027 06:25:39.820             5.452               Magadan2           170.375
       237   03 Jun 2027 06:25:39.820   03 Jun 2027 06:25:40.902             1.082               Magadan1            33.813
       238   03 Jun 2027 06:25:44.651   03 Jun 2027 06:26:12.356            27.705                Norilsk           865.781
       239   03 Jun 2027 06:26:16.075   03 Jun 2027 06:27:26.426            70.351                Anadyr1          2198.469
       240   03 Jun 2027 06:27:27.933   03 Jun 2027 06:27:41.248            13.315               Magadan1           416.094
       241   03 Jun 2027 06:27:47.826   03 Jun 2027 06:28:06.542            18.716                Anadyr1           584.875
       242   03 Jun 2027 06:28:42.834   03 Jun 2027 06:28:43.949             1.115               Magadan2            34.844
       243   03 Jun 2027 06:28:54.608   03 Jun 2027 06:29:39.835            45.227                Anadyr2          1413.344
       244   03 Jun 2027 06:29:56.429   03 Jun 2027 06:31:17.459            81.030               Magadan1          2532.187
       245   03 Jun 2027 07:06:46.053   03 Jun 2027 07:06:48.105             2.052            RioGallegos            64.125
       246   03 Jun 2027 07:13:03.633   03 Jun 2027 07:13:30.552            26.919            RioGallegos           841.219
       247   03 Jun 2027 07:59:57.409   03 Jun 2027 08:00:24.405            26.996               Magadan1           843.625
       248   03 Jun 2027 08:02:25.991   03 Jun 2027 08:02:44.732            18.741                Irkutsk           585.656
       249   03 Jun 2027 08:02:47.917   03 Jun 2027 08:02:59.220            11.303               Magadan2           353.219
       250   03 Jun 2027 08:03:04.197   03 Jun 2027 08:03:43.961            39.764               Magadan2          1242.625
       251   03 Jun 2027 08:04:02.856   03 Jun 2027 08:04:05.836             2.980                Irkutsk            93.125
       252   03 Jun 2027 08:04:18.937   03 Jun 2027 08:05:12.568            53.631               Magadan1          1675.969
       253   03 Jun 2027 08:05:18.281   03 Jun 2027 08:05:32.517            14.236              Murmansk2           444.875
       254   03 Jun 2027 08:05:37.371   03 Jun 2027 08:05:49.259            11.888                Irkutsk           371.500
       255   03 Jun 2027 08:06:01.026   03 Jun 2027 08:06:14.577            13.551              Murmansk1           423.469
       256   03 Jun 2027 08:06:31.395   03 Jun 2027 08:06:32.142             0.747                Norilsk            23.344
       257   03 Jun 2027 08:06:48.395   03 Jun 2027 08:07:14.392            25.997                Norilsk           812.406
       258   03 Jun 2027 08:07:32.511   03 Jun 2027 08:07:44.834            12.323              Murmansk2           385.094
       259   03 Jun 2027 08:10:19.720   03 Jun 2027 08:10:22.632             2.912              Murmansk2            91.000
       260   03 Jun 2027 08:12:33.620   03 Jun 2027 08:13:11.892            38.272              Murmansk2          1196.000
       261   03 Jun 2027 08:41:53.481   03 Jun 2027 08:42:58.714            65.233            RioGallegos          2038.531
       262   03 Jun 2027 09:16:42.946   03 Jun 2027 09:17:30.643            47.697                Sumatra          1490.531
       263   03 Jun 2027 09:19:49.215   03 Jun 2027 09:19:53.133             3.918                Sumatra           122.437
       264   03 Jun 2027 09:27:26.653   03 Jun 2027 09:28:34.069            67.416                  Delhi          2106.750
       265   03 Jun 2027 09:30:48.170   03 Jun 2027 09:31:37.775            49.605                  Delhi          1550.156
       266   03 Jun 2027 09:37:02.007   03 Jun 2027 09:37:18.218            16.211                Irkutsk           506.594
       267   03 Jun 2027 09:37:19.202   03 Jun 2027 09:38:28.481            69.279                Norilsk          2164.969
       268   03 Jun 2027 09:38:33.895   03 Jun 2027 09:39:06.305            32.410                Irkutsk          1012.813
       269   03 Jun 2027 09:39:08.593   03 Jun 2027 09:39:23.874            15.281              Murmansk2           477.531
       270   03 Jun 2027 09:39:23.874   03 Jun 2027 09:39:44.679            20.805              Murmansk1           650.156
       271   03 Jun 2027 09:39:52.163   03 Jun 2027 09:40:12.186            20.023              Murmansk1           625.719
       272   03 Jun 2027 09:40:12.186   03 Jun 2027 09:40:46.550            34.364              Murmansk2          1073.875
       273   03 Jun 2027 09:40:53.295   03 Jun 2027 09:41:23.065            29.770                Novosib           930.312
       274   03 Jun 2027 09:41:26.227   03 Jun 2027 09:42:25.671            59.444                Novosib          1857.625
       275   03 Jun 2027 09:42:35.681   03 Jun 2027 09:43:01.590            25.909                 Moscow           809.656
       276   03 Jun 2027 09:43:03.613   03 Jun 2027 09:43:55.619            52.006                Novosib          1625.187
       277   03 Jun 2027 10:21:20.611   03 Jun 2027 10:21:40.995            20.384            RioGallegos           637.000
       278   03 Jun 2027 10:22:30.317   03 Jun 2027 10:23:05.558            35.241            RioGallegos          1101.281
       279   03 Jun 2027 10:56:21.475   03 Jun 2027 10:56:33.440            11.965                Sumatra           373.906
       280   03 Jun 2027 10:57:10.016   03 Jun 2027 10:58:10.442            60.426                Sumatra          1888.312
       281   03 Jun 2027 11:00:54.448   03 Jun 2027 11:00:57.855             3.407                  Delhi           106.469
       282   03 Jun 2027 11:03:14.554   03 Jun 2027 11:03:19.355             4.801                  Delhi           150.031
       283   03 Jun 2027 11:04:03.446   03 Jun 2027 11:05:27.393            83.947                  Delhi          2623.344
       284   03 Jun 2027 11:14:58.854   03 Jun 2027 11:16:10.758            71.904              Murmansk2          2247.000
       285   03 Jun 2027 11:16:17.248   03 Jun 2027 11:16:37.982            20.734                Norilsk           647.937
       286   03 Jun 2027 11:17:02.940   03 Jun 2027 11:17:07.853             4.913              Murmansk1           153.531
       287   03 Jun 2027 11:17:07.853   03 Jun 2027 11:17:12.274             4.421              Murmansk2           138.156
       288   03 Jun 2027 11:17:25.764   03 Jun 2027 11:17:47.419            21.655                Novosib           676.719
       289   03 Jun 2027 11:17:48.746   03 Jun 2027 11:18:34.176            45.430                 Moscow          1419.688
       290   03 Jun 2027 12:45:19.337   03 Jun 2027 12:46:59.867           100.530                 Moscow          3141.563
       291   03 Jun 2027 12:47:51.950   03 Jun 2027 12:49:18.021            86.071                 Moscow          2689.719
       292   03 Jun 2027 12:49:28.045   03 Jun 2027 12:51:08.234           100.189              Murmansk2          3130.906
       293   03 Jun 2027 12:52:04.174   03 Jun 2027 12:52:15.753            11.579              Murmansk1           361.844
       294   03 Jun 2027 12:52:23.446   03 Jun 2027 12:53:14.616            51.170              Murmansk2          1599.063
       295   03 Jun 2027 12:53:31.224   03 Jun 2027 12:53:50.197            18.973              Murmansk2           592.906
       296   03 Jun 2027 12:54:29.491   03 Jun 2027 12:55:04.566            35.075                Norilsk          1096.094
       297   03 Jun 2027 14:00:15.323   03 Jun 2027 14:01:58.920           103.597               CapeTown          3237.406
       298   03 Jun 2027 14:02:45.949   03 Jun 2027 14:03:15.223            29.274               CapeTown           914.813
       299   03 Jun 2027 14:06:03.698   03 Jun 2027 14:06:54.567            50.869               CapeTown          1589.656
       300   03 Jun 2027 14:22:34.463   03 Jun 2027 14:23:10.717            36.254                 Moscow          1132.937
       301   03 Jun 2027 14:25:36.247   03 Jun 2027 14:28:02.444           146.197              Murmansk2          4568.656
       302   03 Jun 2027 14:30:16.372   03 Jun 2027 14:30:22.349             5.977              Murmansk2           186.781
       303   03 Jun 2027 14:34:47.736   03 Jun 2027 14:35:34.051            46.315              Murmansk2          1447.344
       304   03 Jun 2027 14:39:54.045   03 Jun 2027 14:42:05.689           131.644                Anadyr1          4113.875
       305   03 Jun 2027 15:36:49.502   03 Jun 2027 15:37:53.320            63.818               CapeTown          1994.313
       306   03 Jun 2027 16:04:41.483   03 Jun 2027 16:07:35.393           173.910              Murmansk1          5434.687
       307   03 Jun 2027 16:15:21.381   03 Jun 2027 16:16:36.271            74.890                Anadyr2          2340.313
       308   03 Jun 2027 16:17:04.579   03 Jun 2027 16:17:39.280            34.701                Anadyr2          1084.406
       309   03 Jun 2027 16:19:03.550   03 Jun 2027 16:22:40.875           217.325               Magadan1          6791.406
       310   03 Jun 2027 17:51:15.306   03 Jun 2027 17:53:47.347           152.041                Anadyr2          4751.281
       311   03 Jun 2027 17:53:47.350   03 Jun 2027 17:53:51.444             4.094                Anadyr1           127.937
       312   03 Jun 2027 17:53:53.475   03 Jun 2027 17:56:03.932           130.457               Magadan1          4076.781
       313   03 Jun 2027 17:56:10.465   03 Jun 2027 17:56:11.065             0.600               Magadan1            18.750
       314   03 Jun 2027 17:57:36.010   03 Jun 2027 17:57:44.981             8.971               Magadan2           280.344
       315   03 Jun 2027 19:27:07.455   03 Jun 2027 19:29:01.651           114.196                Anadyr1          3568.625
       316   03 Jun 2027 19:29:10.551   03 Jun 2027 19:31:04.625           114.074                Anadyr2          3564.813
       317   03 Jun 2027 19:31:15.011   03 Jun 2027 19:33:40.792           145.781               Magadan2          4555.656
       318   03 Jun 2027 19:35:08.760   03 Jun 2027 19:37:54.305           165.545                Irkutsk          5173.281
       319   03 Jun 2027 19:39:00.462   03 Jun 2027 19:39:22.317            21.855                Irkutsk           682.969
       320   03 Jun 2027 19:39:54.649   03 Jun 2027 19:40:44.356            49.707                Irkutsk          1553.344
       321   03 Jun 2027 19:52:08.719   03 Jun 2027 19:52:27.897            19.178                Sumatra           599.313
       322   03 Jun 2027 19:52:34.297   03 Jun 2027 19:55:04.531           150.234                Sumatra          4694.813
       323   03 Jun 2027 21:05:52.707   03 Jun 2027 21:06:03.557            10.850                Norilsk           339.063
       324   03 Jun 2027 21:06:22.188   03 Jun 2027 21:06:51.470            29.282                Norilsk           915.063
       325   03 Jun 2027 21:08:56.446   03 Jun 2027 21:09:05.664             9.218               Magadan1           288.062
       326   03 Jun 2027 21:09:53.062   03 Jun 2027 21:11:11.643            78.581                Irkutsk          2455.656
       327   03 Jun 2027 21:11:16.835   03 Jun 2027 21:11:35.860            19.025                Novosib           594.531
       328   03 Jun 2027 21:12:00.040   03 Jun 2027 21:13:51.173           111.133                Novosib          3472.906
       329   03 Jun 2027 21:22:41.831   03 Jun 2027 21:23:41.684            59.853                Sumatra          1870.406
       330   03 Jun 2027 21:31:16.669   03 Jun 2027 21:32:12.641            55.972                Sumatra          1749.125
       331   03 Jun 2027 22:40:58.891   03 Jun 2027 22:42:27.500            88.609                Norilsk          2769.031
       332   03 Jun 2027 22:44:51.093   03 Jun 2027 22:46:57.105           126.012                Novosib          3937.875
       333   03 Jun 2027 22:51:51.233   03 Jun 2027 22:51:57.433             6.200                Novosib           193.750
       334   03 Jun 2027 22:52:04.370   03 Jun 2027 22:52:24.863            20.493                Novosib           640.406
       335   03 Jun 2027 22:53:18.023   03 Jun 2027 22:53:47.956            29.933                Novosib           935.406
       336   03 Jun 2027 22:54:37.969   03 Jun 2027 22:54:43.276             5.307                  Delhi           165.844
       337   03 Jun 2027 22:55:37.789   03 Jun 2027 22:56:06.277            28.488                  Delhi           890.250
       338   03 Jun 2027 22:57:50.756   03 Jun 2027 22:58:23.441            32.685                  Delhi          1021.406
       339   03 Jun 2027 22:59:18.845   03 Jun 2027 23:00:09.347            50.502                  Delhi          1578.187
       340   04 Jun 2027 00:10:22.887   04 Jun 2027 00:10:26.819             3.932                Anadyr1           122.875
       341   04 Jun 2027 00:10:46.621   04 Jun 2027 00:10:48.026             1.405                Anadyr2            43.906
       342   04 Jun 2027 00:11:36.899   04 Jun 2027 00:12:10.952            34.053                Anadyr2          1064.156
       343   04 Jun 2027 00:12:10.952   04 Jun 2027 00:12:52.302            41.350                Anadyr1          1292.188
       344   04 Jun 2027 00:16:10.934   04 Jun 2027 00:16:24.350            13.416                Anadyr2           419.250
       345   04 Jun 2027 00:16:32.443   04 Jun 2027 00:17:32.952            60.509               Magadan2          1890.906
       346   04 Jun 2027 00:17:44.856   04 Jun 2027 00:18:59.635            74.779               Magadan1          2336.844
       347   04 Jun 2027 00:19:13.691   04 Jun 2027 00:22:34.381           200.690              Murmansk1          6271.562
       348   04 Jun 2027 00:22:43.788   04 Jun 2027 00:23:09.350            25.562              Murmansk1           798.813
       349   04 Jun 2027 00:23:24.056   04 Jun 2027 00:24:03.202            39.146                 Moscow          1223.313
       350   04 Jun 2027 00:27:58.327   04 Jun 2027 00:28:49.859            51.532                 Moscow          1610.375
       351   04 Jun 2027 00:51:09.225   04 Jun 2027 00:52:26.834            77.609               CapeTown          2425.281
       352   04 Jun 2027 00:53:16.139   04 Jun 2027 00:54:13.751            57.612               CapeTown          1800.375
       353   04 Jun 2027 01:46:36.574   04 Jun 2027 01:46:42.493             5.919                Anadyr1           184.969
       354   04 Jun 2027 01:47:07.937   04 Jun 2027 01:47:21.075            13.138                Anadyr2           410.563
       355   04 Jun 2027 01:48:27.228   04 Jun 2027 01:50:45.969           138.741               Magadan1          4335.656
       356   04 Jun 2027 01:55:05.157   04 Jun 2027 01:55:25.134            19.977              Murmansk2           624.281
       357   04 Jun 2027 01:55:27.707   04 Jun 2027 01:56:39.899            72.192              Murmansk1          2256.000
       358   04 Jun 2027 01:56:50.361   04 Jun 2027 01:57:48.592            58.231              Murmansk1          1819.719
       359   04 Jun 2027 02:07:17.033   04 Jun 2027 02:09:29.820           132.787                 Moscow          4149.594
       360   04 Jun 2027 03:26:11.407   04 Jun 2027 03:27:04.085            52.678                Anadyr2          1646.188
       361   04 Jun 2027 03:27:08.143   04 Jun 2027 03:27:27.551            19.408                Anadyr1           606.500
       362   04 Jun 2027 03:27:36.222   04 Jun 2027 03:29:02.624            86.402                Anadyr2          2700.063
       363   04 Jun 2027 03:29:13.140   04 Jun 2027 03:29:19.298             6.158               Magadan2           192.438
       364   04 Jun 2027 03:29:39.267   04 Jun 2027 03:29:56.186            16.919               Magadan1           528.719
       365   04 Jun 2027 03:30:42.653   04 Jun 2027 03:30:54.871            12.218               Magadan1           381.812
       366   04 Jun 2027 05:02:30.494   04 Jun 2027 05:03:30.035            59.541               Magadan1          1860.656
       367   04 Jun 2027 05:03:36.661   04 Jun 2027 05:04:12.573            35.912               Magadan1          1122.250
       368   04 Jun 2027 05:04:12.573   04 Jun 2027 05:04:19.831             7.258               Magadan2           226.813
       369   04 Jun 2027 05:04:31.963   04 Jun 2027 05:05:25.314            53.351               Magadan1          1667.219
       370   04 Jun 2027 05:05:44.131   04 Jun 2027 05:07:13.035            88.904                Anadyr1          2778.250
       371   04 Jun 2027 06:34:31.509   04 Jun 2027 06:35:03.365            31.856               Magadan2           995.500
       372   04 Jun 2027 06:35:14.952   04 Jun 2027 06:35:40.138            25.186               Magadan1           787.062
       373   04 Jun 2027 06:35:54.798   04 Jun 2027 06:36:05.296            10.498               Magadan1           328.063
       374   04 Jun 2027 06:36:20.007   04 Jun 2027 06:36:59.857            39.850                Anadyr1          1245.313
       375   04 Jun 2027 06:37:03.004   04 Jun 2027 06:37:11.351             8.347                Norilsk           260.844
       376   04 Jun 2027 06:37:18.488   04 Jun 2027 06:37:30.685            12.197               Magadan2           381.156
       377   04 Jun 2027 06:37:42.180   04 Jun 2027 06:37:44.089             1.909               Magadan1            59.656
       378   04 Jun 2027 06:37:44.089   04 Jun 2027 06:38:08.862            24.773               Magadan2           774.156
       379   04 Jun 2027 06:38:11.913   04 Jun 2027 06:38:26.900            14.987                Irkutsk           468.344
       380   04 Jun 2027 06:38:46.566   04 Jun 2027 06:38:58.892            12.326                Novosib           385.188
       381   04 Jun 2027 06:39:27.937   04 Jun 2027 06:39:44.283            16.346               Magadan2           510.812
       382   04 Jun 2027 06:40:07.991   04 Jun 2027 06:40:11.064             3.073                Anadyr1            96.031
       383   04 Jun 2027 06:40:17.695   04 Jun 2027 06:41:07.690            49.995                Anadyr2          1562.344
       384   04 Jun 2027 06:41:12.667   04 Jun 2027 06:41:28.624            15.957               Magadan1           498.656
       385   04 Jun 2027 06:41:38.900   04 Jun 2027 06:42:40.817            61.917                Anadyr2          1934.906
       386   04 Jun 2027 06:42:53.918   04 Jun 2027 06:43:39.865            45.947              Murmansk1          1435.844
       387   04 Jun 2027 06:43:39.865   04 Jun 2027 06:43:42.233             2.368              Murmansk2            74.000
       388   04 Jun 2027 06:45:57.428   04 Jun 2027 06:46:17.731            20.303              Murmansk2           634.469
       389   04 Jun 2027 07:18:30.142   04 Jun 2027 07:19:35.219            65.077            RioGallegos          2033.656
       390   04 Jun 2027 07:56:55.078   04 Jun 2027 07:58:08.870            73.792                Sumatra          2306.000
       391   04 Jun 2027 07:58:34.351   04 Jun 2027 08:00:08.359            94.008                Sumatra          2937.750
       392   04 Jun 2027 08:11:59.544   04 Jun 2027 08:13:33.091            93.547               Magadan2          2923.344
       393   04 Jun 2027 08:13:52.211   04 Jun 2027 08:14:34.781            42.570               Magadan1          1330.313
       394   04 Jun 2027 08:15:10.125   04 Jun 2027 08:15:17.391             7.266                Irkutsk           227.063
       395   04 Jun 2027 08:15:24.480   04 Jun 2027 08:15:54.459            29.979                Norilsk           936.844
       396   04 Jun 2027 08:16:13.375   04 Jun 2027 08:16:15.482             2.107                Novosib            65.844
       397   04 Jun 2027 08:16:19.603   04 Jun 2027 08:17:02.050            42.447                Novosib          1326.469
       398   04 Jun 2027 08:17:07.135   04 Jun 2027 08:17:39.357            32.222              Murmansk1          1006.938
       399   04 Jun 2027 08:17:41.469   04 Jun 2027 08:18:05.328            23.859                Novosib           745.594
       400   04 Jun 2027 08:18:09.549   04 Jun 2027 08:18:25.140            15.591                Irkutsk           487.219
       401   04 Jun 2027 08:18:32.491   04 Jun 2027 08:18:43.220            10.729                Norilsk           335.281
       402   04 Jun 2027 08:18:43.990   04 Jun 2027 08:19:09.584            25.594                Irkutsk           799.813
       403   04 Jun 2027 08:19:09.909   04 Jun 2027 08:19:48.592            38.683                Novosib          1208.844
       404   04 Jun 2027 08:54:03.945   04 Jun 2027 08:54:13.990            10.045            RioGallegos           313.906
       405   04 Jun 2027 08:54:52.938   04 Jun 2027 08:55:26.467            33.529            RioGallegos          1047.781
       406   04 Jun 2027 08:58:15.011   04 Jun 2027 08:58:23.475             8.464            RioGallegos           264.500
       407   04 Jun 2027 09:28:42.103   04 Jun 2027 09:29:10.781            28.678                Sumatra           896.187
       408   04 Jun 2027 09:30:06.665   04 Jun 2027 09:31:23.605            76.940                Sumatra          2404.375
       409   04 Jun 2027 09:38:44.833   04 Jun 2027 09:39:44.022            59.189                  Delhi          1849.656
       410   04 Jun 2027 09:48:51.054   04 Jun 2027 09:48:59.029             7.975                  Delhi           249.219
       411   04 Jun 2027 09:49:01.502   04 Jun 2027 09:49:16.240            14.738                Norilsk           460.563
       412   04 Jun 2027 09:49:22.393   04 Jun 2027 09:49:26.952             4.559                Irkutsk           142.469
       413   04 Jun 2027 09:49:39.809   04 Jun 2027 09:49:41.606             1.797                Novosib            56.156
       414   04 Jun 2027 09:49:53.433   04 Jun 2027 09:51:07.149            73.716                Irkutsk          2303.625
       415   04 Jun 2027 09:51:11.491   04 Jun 2027 09:51:35.711            24.220              Murmansk2           756.875
       416   04 Jun 2027 09:51:39.731   04 Jun 2027 09:52:15.683            35.952                Norilsk          1123.500
       417   04 Jun 2027 09:52:18.184   04 Jun 2027 09:52:43.843            25.659                Novosib           801.844
       418   04 Jun 2027 09:52:48.316   04 Jun 2027 09:53:06.803            18.487                 Moscow           577.719
       419   04 Jun 2027 09:53:10.986   04 Jun 2027 09:53:45.433            34.447                Irkutsk          1076.469
       420   04 Jun 2027 09:53:48.530   04 Jun 2027 09:54:23.762            35.232                Norilsk          1101.000
       421   04 Jun 2027 09:54:30.921   04 Jun 2027 09:55:02.876            31.955                 Moscow           998.594
       422   04 Jun 2027 09:55:08.524   04 Jun 2027 09:56:10.736            62.212                Norilsk          1944.125
       423   04 Jun 2027 09:56:19.631   04 Jun 2027 09:56:28.605             8.974                 Moscow           280.438
       424   04 Jun 2027 09:56:45.898   04 Jun 2027 09:56:55.617             9.719                 Moscow           303.719
       425   04 Jun 2027 10:35:10.575   04 Jun 2027 10:35:24.463            13.888            RioGallegos           434.000
       426   04 Jun 2027 11:13:03.178   04 Jun 2027 11:13:47.706            44.528                  Delhi          1391.500
       427   04 Jun 2027 11:15:00.233   04 Jun 2027 11:15:59.516            59.283                  Delhi          1852.594
       428   04 Jun 2027 11:26:51.215   04 Jun 2027 11:27:20.424            29.209                 Moscow           912.781
       429   04 Jun 2027 11:27:37.936   04 Jun 2027 11:27:53.360            15.424              Murmansk2           482.000
       430   04 Jun 2027 11:27:53.360   04 Jun 2027 11:28:13.308            19.948              Murmansk1           623.375
       431   04 Jun 2027 11:28:17.337   04 Jun 2027 11:28:58.286            40.949              Murmansk1          1279.656
       432   04 Jun 2027 11:29:02.039   04 Jun 2027 11:29:05.440             3.401              Murmansk1           106.281
       433   04 Jun 2027 11:29:05.440   04 Jun 2027 11:29:31.182            25.742              Murmansk2           804.438
       434   04 Jun 2027 11:29:35.064   04 Jun 2027 11:29:37.939             2.875                 Moscow            89.844
       435   04 Jun 2027 11:29:42.661   04 Jun 2027 11:30:39.258            56.597                Novosib          1768.656
       436   04 Jun 2027 11:30:49.390   04 Jun 2027 11:31:00.922            11.532              Murmansk1           360.375
       437   04 Jun 2027 11:31:00.922   04 Jun 2027 11:31:15.746            14.824              Murmansk2           463.250
       438   04 Jun 2027 11:31:22.504   04 Jun 2027 11:31:35.988            13.484                 Moscow           421.375
       439   04 Jun 2027 12:57:18.064   04 Jun 2027 13:00:14.073           176.009                 Moscow          5500.281
       440   04 Jun 2027 13:00:22.603   04 Jun 2027 13:00:36.742            14.139                 Moscow           441.844
       441   04 Jun 2027 13:00:45.389   04 Jun 2027 13:04:05.740           200.351              Murmansk1          6260.969
       442   04 Jun 2027 13:05:43.902   04 Jun 2027 13:05:49.832             5.930              Murmansk1           185.313
       443   04 Jun 2027 13:08:24.994   04 Jun 2027 13:08:49.784            24.790                Norilsk           774.688
       444   04 Jun 2027 14:11:48.848   04 Jun 2027 14:15:04.254           195.406               CapeTown          6106.438
       445   04 Jun 2027 14:17:35.407   04 Jun 2027 14:18:26.345            50.938               CapeTown          1591.813
       446   04 Jun 2027 14:37:53.248   04 Jun 2027 14:40:03.916           130.668              Murmansk1          4083.375
       447   04 Jun 2027 14:51:48.083   04 Jun 2027 14:54:06.044           137.961                Anadyr1          4311.281
       448   04 Jun 2027 15:46:49.238   04 Jun 2027 15:47:35.544            46.306               CapeTown          1447.063
       449   04 Jun 2027 15:55:22.815   04 Jun 2027 15:55:38.830            16.015               CapeTown           500.469
       450   04 Jun 2027 16:17:19.109   04 Jun 2027 16:19:27.800           128.691              Murmansk1          4021.594
       451   04 Jun 2027 16:21:59.238   04 Jun 2027 16:22:27.683            28.445              Murmansk1           888.906
       452   04 Jun 2027 16:27:21.928   04 Jun 2027 16:29:21.544           119.616                Anadyr2          3738.000
       453   04 Jun 2027 16:30:14.301   04 Jun 2027 16:30:56.149            41.848                Anadyr2          1307.750
       454   04 Jun 2027 16:31:02.000   04 Jun 2027 16:32:22.419            80.419               Magadan1          2513.094
       455   04 Jun 2027 16:33:27.418   04 Jun 2027 16:34:08.038            40.620               Magadan2          1269.375
       456   04 Jun 2027 16:34:22.783   04 Jun 2027 16:34:42.600            19.817               Magadan1           619.281
       457   04 Jun 2027 16:34:59.601   04 Jun 2027 16:35:52.430            52.829               Magadan1          1650.906
       458   04 Jun 2027 18:03:16.720   04 Jun 2027 18:06:20.125           183.405                Anadyr1          5731.406
       459   04 Jun 2027 18:06:23.669   04 Jun 2027 18:06:30.126             6.457                Anadyr1           201.781
       460   04 Jun 2027 18:07:03.095   04 Jun 2027 18:07:46.606            43.511               Magadan2          1359.719
       461   04 Jun 2027 18:08:05.874   04 Jun 2027 18:08:06.463             0.589               Magadan1            18.406
       462   04 Jun 2027 18:08:20.322   04 Jun 2027 18:08:43.301            22.979               Magadan2           718.094
       463   04 Jun 2027 18:09:13.847   04 Jun 2027 18:11:23.077           129.230               Magadan2          4038.437
       464   04 Jun 2027 19:00:41.522   04 Jun 2027 19:02:25.472           103.950            RioGallegos          3248.438
       465   04 Jun 2027 19:39:07.227   04 Jun 2027 19:41:02.731           115.504                Anadyr1          3609.500
       466   04 Jun 2027 19:41:21.167   04 Jun 2027 19:43:45.274           144.107                Norilsk          4503.344
       467   04 Jun 2027 19:46:34.150   04 Jun 2027 19:49:40.405           186.255                Irkutsk          5820.469
       468   04 Jun 2027 19:51:55.172   04 Jun 2027 19:52:09.885            14.713                Irkutsk           459.781
       469   04 Jun 2027 20:02:08.376   04 Jun 2027 20:03:52.673           104.297                Sumatra          3259.281
       470   04 Jun 2027 20:04:52.848   04 Jun 2027 20:07:00.926           128.078                Sumatra          4002.437
       471   04 Jun 2027 21:18:21.881   04 Jun 2027 21:18:52.749            30.868                Norilsk           964.625
       472   04 Jun 2027 21:20:58.303   04 Jun 2027 21:22:35.779            97.476                Irkutsk          3046.125
       473   04 Jun 2027 21:22:40.592   04 Jun 2027 21:23:32.227            51.635                Novosib          1613.594
       474   04 Jun 2027 21:27:41.616   04 Jun 2027 21:28:36.974            55.358                Novosib          1729.938
       475   04 Jun 2027 22:48:44.718   04 Jun 2027 22:49:30.111            45.393                Anadyr1          1418.531
       476   04 Jun 2027 22:50:04.742   04 Jun 2027 22:50:51.295            46.553                Anadyr1          1454.781
       477   04 Jun 2027 22:53:00.848   04 Jun 2027 22:53:05.827             4.979                Norilsk           155.594
       478   04 Jun 2027 22:53:35.789   04 Jun 2027 22:54:32.632            56.843               Magadan1          1776.344
       479   04 Jun 2027 22:56:17.492   04 Jun 2027 22:57:57.880           100.388              Murmansk1          3137.125
       480   04 Jun 2027 22:58:13.646   04 Jun 2027 22:59:46.841            93.195              Murmansk2          2912.344
       481   04 Jun 2027 23:04:12.938   04 Jun 2027 23:07:06.909           173.971                  Delhi          5436.594
       482   05 Jun 2027 00:22:04.216   05 Jun 2027 00:22:20.928            16.712                Anadyr2           522.250
