uniorb/output/strategy_2/Drop/Drop_KinoSat_111904.txt

KinoSat_111904
-------------------------
    Access    *     Start Time (UTCG)     *     Stop Time (UTCG)  *   Duration (s)        *       Station  *  Data (Mbytes)
         1   01 Jun 2027 03:11:07.687   01 Jun 2027 03:11:50.304            42.617               Magadan2          1331.781
         2   01 Jun 2027 03:13:55.010   01 Jun 2027 03:14:10.127            15.117              Murmansk1           472.406
         3   01 Jun 2027 03:14:15.472   01 Jun 2027 03:14:21.643             6.171              Murmansk1           192.844
         4   01 Jun 2027 03:14:39.544   01 Jun 2027 03:14:59.598            20.054                Irkutsk           626.687
         5   01 Jun 2027 03:15:07.808   01 Jun 2027 03:15:51.278            43.470              Murmansk2          1358.438
         6   01 Jun 2027 03:16:02.362   01 Jun 2027 03:17:24.954            82.592                Norilsk          2581.000
         7   01 Jun 2027 03:17:27.124   01 Jun 2027 03:18:35.848            68.724                Novosib          2147.625
         8   01 Jun 2027 03:18:52.429   01 Jun 2027 03:19:18.146            25.717                Norilsk           803.656
         9   01 Jun 2027 03:20:03.806   01 Jun 2027 03:24:11.223           247.417                  Delhi          7731.781
        10   01 Jun 2027 04:00:01.085   01 Jun 2027 04:05:04.861           303.776            RioGallegos          9493.000
        11   01 Jun 2027 04:48:41.811   01 Jun 2027 04:49:51.921            70.110                Irkutsk          2190.937
        12   01 Jun 2027 04:53:06.578   01 Jun 2027 04:53:11.514             4.936                Novosib           154.250
        13   01 Jun 2027 04:53:18.369   01 Jun 2027 04:53:59.723            41.354                Novosib          1292.313
        14   01 Jun 2027 04:54:11.507   01 Jun 2027 04:54:20.563             9.056              Murmansk2           283.000
        15   01 Jun 2027 04:54:20.563   01 Jun 2027 04:55:02.198            41.635              Murmansk1          1301.094
        16   01 Jun 2027 04:55:02.198   01 Jun 2027 04:55:44.599            42.401              Murmansk2          1325.031
        17   01 Jun 2027 04:56:50.487   01 Jun 2027 05:00:48.626           238.139                  Delhi          7441.844
        18   01 Jun 2027 06:29:42.744   01 Jun 2027 06:31:21.097            98.353              Murmansk2          3073.531
        19   01 Jun 2027 06:31:21.097   01 Jun 2027 06:32:00.749            39.652              Murmansk1          1239.125
        20   01 Jun 2027 06:32:40.537   01 Jun 2027 06:33:12.659            32.122              Murmansk2          1003.813
        21   01 Jun 2027 06:33:42.514   01 Jun 2027 06:34:03.329            20.815                 Moscow           650.469
        22   01 Jun 2027 06:47:45.232   01 Jun 2027 06:50:50.455           185.223               CapeTown          5788.219
        23   01 Jun 2027 07:51:35.482   01 Jun 2027 07:52:55.273            79.791                Anadyr2          2493.469
        24   01 Jun 2027 07:55:05.014   01 Jun 2027 07:55:32.070            27.056               Magadan2           845.500
        25   01 Jun 2027 07:56:35.775   01 Jun 2027 07:57:20.410            44.635                Anadyr1          1394.844
        26   01 Jun 2027 09:27:09.830   01 Jun 2027 09:33:03.087           353.257                Anadyr2         11039.281
        27   01 Jun 2027 11:02:29.235   01 Jun 2027 11:02:44.022            14.787               Magadan2           462.094
        28   01 Jun 2027 11:04:47.770   01 Jun 2027 11:05:25.908            38.138               Magadan2          1191.812
        29   01 Jun 2027 11:05:38.326   01 Jun 2027 11:08:29.033           170.707               Magadan1          5334.594
        30   01 Jun 2027 13:20:27.582   01 Jun 2027 13:21:14.259            46.677            RioGallegos          1458.656
        31   01 Jun 2027 13:54:43.058   01 Jun 2027 13:56:51.180           128.122                Sumatra          4003.812
        32   01 Jun 2027 13:59:27.447   01 Jun 2027 13:59:57.078            29.631                Sumatra           925.969
        33   01 Jun 2027 14:09:55.964   01 Jun 2027 14:13:20.375           204.411                Irkutsk          6387.844
        34   01 Jun 2027 15:39:38.701   01 Jun 2027 15:44:31.823           293.122                  Delhi          9160.062
        35   01 Jun 2027 15:48:02.659   01 Jun 2027 15:52:39.478           276.819                Novosib          8650.594
        36   01 Jun 2027 17:33:08.956   01 Jun 2027 17:36:20.790           191.834                Norilsk          5994.813
        37   01 Jun 2027 19:02:10.153   01 Jun 2027 19:06:36.917           266.764                 Moscow          8336.375
        38   01 Jun 2027 20:12:52.431   01 Jun 2027 20:13:35.692            43.261               CapeTown          1351.906
        39   01 Jun 2027 20:15:46.371   01 Jun 2027 20:16:29.617            43.246               CapeTown          1351.437
        40   01 Jun 2027 20:17:13.935   01 Jun 2027 20:17:47.068            33.133               CapeTown          1035.406
        41   01 Jun 2027 20:45:07.188   01 Jun 2027 20:50:22.052           314.864              Murmansk1          9839.500
        42   01 Jun 2027 22:28:45.497   01 Jun 2027 22:31:36.165           170.668                Anadyr2          5333.375
        43   01 Jun 2027 22:31:50.976   01 Jun 2027 22:34:17.056           146.080               Magadan2          4565.000
        44   01 Jun 2027 23:23:40.406   01 Jun 2027 23:26:16.425           156.019            RioGallegos          4875.594
        45   02 Jun 2027 00:04:29.379   02 Jun 2027 00:05:38.853            69.474                Anadyr1          2171.063
        46   02 Jun 2027 00:05:39.501   02 Jun 2027 00:05:53.032            13.531                Anadyr2           422.844
        47   02 Jun 2027 00:06:34.962   02 Jun 2027 00:08:23.194           108.232                Norilsk          3382.250
        48   02 Jun 2027 00:08:28.470   02 Jun 2027 00:10:07.500            99.030               Magadan1          3094.687
        49   02 Jun 2027 00:10:07.500   02 Jun 2027 00:11:19.438            71.938               Magadan2          2248.062
        50   02 Jun 2027 00:11:26.043   02 Jun 2027 00:12:17.053            51.010                Irkutsk          1594.063
        51   02 Jun 2027 00:25:07.265   02 Jun 2027 00:28:14.869           187.604                Sumatra          5862.625
        52   02 Jun 2027 00:31:48.862   02 Jun 2027 00:31:51.254             2.392                Sumatra            74.750
        53   02 Jun 2027 00:58:28.292   02 Jun 2027 00:58:43.823            15.531            RioGallegos           485.344
        54   02 Jun 2027 00:59:26.844   02 Jun 2027 01:00:26.659            59.815            RioGallegos          1869.219
        55   02 Jun 2027 01:02:46.606   02 Jun 2027 01:02:54.461             7.855            RioGallegos           245.469
        56   02 Jun 2027 01:39:29.909   02 Jun 2027 01:39:38.931             9.022                Anadyr1           281.937
        57   02 Jun 2027 01:39:57.557   02 Jun 2027 01:40:16.050            18.493                Anadyr1           577.906
        58   02 Jun 2027 01:40:48.746   02 Jun 2027 01:41:26.001            37.255                Anadyr2          1164.219
        59   02 Jun 2027 01:41:40.058   02 Jun 2027 01:41:51.001            10.943                Anadyr1           341.969
        60   02 Jun 2027 01:41:51.001   02 Jun 2027 01:42:13.357            22.356                Anadyr2           698.625
        61   02 Jun 2027 01:42:29.618   02 Jun 2027 01:44:22.288           112.670                Norilsk          3520.937
        62   02 Jun 2027 01:45:09.142   02 Jun 2027 01:45:59.830            50.688               Magadan2          1584.000
        63   02 Jun 2027 01:46:22.240   02 Jun 2027 01:49:40.437           198.197                Irkutsk          6193.656
        64   02 Jun 2027 01:55:04.041   02 Jun 2027 01:55:30.969            26.928                  Delhi           841.500
        65   02 Jun 2027 02:00:55.672   02 Jun 2027 02:04:50.050           234.378                Sumatra          7324.312
        66   02 Jun 2027 02:36:35.858   02 Jun 2027 02:37:42.713            66.855            RioGallegos          2089.219
        67   02 Jun 2027 03:23:16.193   02 Jun 2027 03:23:19.058             2.865               Magadan1            89.531
        68   02 Jun 2027 03:25:42.505   02 Jun 2027 03:25:49.363             6.858                Norilsk           214.312
        69   02 Jun 2027 03:26:11.589   02 Jun 2027 03:28:35.753           144.164              Murmansk2          4505.125
        70   02 Jun 2027 03:28:39.118   02 Jun 2027 03:29:33.136            54.018                 Moscow          1688.062
        71   02 Jun 2027 03:29:34.888   02 Jun 2027 03:30:52.197            77.309                Irkutsk          2415.906
        72   02 Jun 2027 03:31:14.565   02 Jun 2027 03:32:13.646            59.081                Novosib          1846.281
        73   02 Jun 2027 03:32:15.416   02 Jun 2027 03:32:35.806            20.390                Irkutsk           637.187
        74   02 Jun 2027 04:14:53.016   02 Jun 2027 04:16:13.791            80.775            RioGallegos          2524.219
        75   02 Jun 2027 05:02:28.704   02 Jun 2027 05:03:02.109            33.405                Novosib          1043.906
        76   02 Jun 2027 05:03:49.208   02 Jun 2027 05:04:48.946            59.738                 Moscow          1866.813
        77   02 Jun 2027 05:04:54.187   02 Jun 2027 05:05:49.305            55.118                Novosib          1722.437
        78   02 Jun 2027 05:05:52.459   02 Jun 2027 05:07:06.591            74.132              Murmansk1          2316.625
        79   02 Jun 2027 05:07:06.591   02 Jun 2027 05:07:14.671             8.080              Murmansk2           252.500
        80   02 Jun 2027 05:07:28.497   02 Jun 2027 05:09:17.886           109.389                 Moscow          3418.406
        81   02 Jun 2027 05:25:05.207   02 Jun 2027 05:26:16.222            71.015               CapeTown          2219.219
        82   02 Jun 2027 05:26:48.736   02 Jun 2027 05:28:00.732            71.996               CapeTown          2249.875
        83   02 Jun 2027 06:37:48.691   02 Jun 2027 06:37:57.348             8.657                Novosib           270.531
        84   02 Jun 2027 06:41:08.808   02 Jun 2027 06:43:15.213           126.405              Murmansk1          3950.156
        85   02 Jun 2027 06:43:15.213   02 Jun 2027 06:44:32.304            77.091              Murmansk2          2409.094
        86   02 Jun 2027 06:44:32.304   02 Jun 2027 06:45:31.411            59.107              Murmansk1          1847.094
        87   02 Jun 2027 06:45:48.429   02 Jun 2027 06:47:24.958            96.529                 Moscow          3016.531
        88   02 Jun 2027 06:59:57.107   02 Jun 2027 07:04:41.088           283.981               CapeTown          8874.406
        89   02 Jun 2027 08:03:42.213   02 Jun 2027 08:03:49.761             7.548               Magadan2           235.875
        90   02 Jun 2027 08:04:43.045   02 Jun 2027 08:08:28.214           225.169                Anadyr2          7036.531
        91   02 Jun 2027 08:19:51.598   02 Jun 2027 08:21:44.799           113.201                 Moscow          3537.531
        92   02 Jun 2027 09:35:51.775   02 Jun 2027 09:39:04.079           192.304                Anadyr2          6009.500
        93   02 Jun 2027 09:39:04.079   02 Jun 2027 09:39:51.976            47.897                Anadyr1          1496.781
        94   02 Jun 2027 09:40:24.061   02 Jun 2027 09:41:04.130            40.069               Magadan1          1252.156
        95   02 Jun 2027 09:41:10.115   02 Jun 2027 09:42:25.205            75.090                Anadyr2          2346.563
        96   02 Jun 2027 09:44:42.641   02 Jun 2027 09:45:00.011            17.370                Anadyr1           542.812
        97   02 Jun 2027 10:24:31.608   02 Jun 2027 10:25:00.356            28.748            RioGallegos           898.375
        98   02 Jun 2027 11:10:17.014   02 Jun 2027 11:10:46.625            29.611               Magadan1           925.344
        99   02 Jun 2027 11:14:12.046   02 Jun 2027 11:14:34.555            22.509                Norilsk           703.406
       100   02 Jun 2027 11:15:07.864   02 Jun 2027 11:20:22.375           314.511               Magadan1          9828.469
       101   02 Jun 2027 12:30:55.703   02 Jun 2027 12:32:28.899            93.196                Sumatra          2912.375
       102   02 Jun 2027 12:43:51.417   02 Jun 2027 12:47:05.572           194.155                Irkutsk          6067.344
       103   02 Jun 2027 12:48:41.558   02 Jun 2027 12:49:41.423            59.865                Norilsk          1870.781
       104   02 Jun 2027 13:32:57.255   02 Jun 2027 13:34:29.555            92.300            RioGallegos          2884.375
       105   02 Jun 2027 13:37:15.111   02 Jun 2027 13:37:51.553            36.442            RioGallegos          1138.813
       106   02 Jun 2027 14:07:10.690   02 Jun 2027 14:10:19.669           188.979                Sumatra          5905.594
       107   02 Jun 2027 14:22:38.848   02 Jun 2027 14:26:42.019           243.171                Irkutsk          7599.094
       108   02 Jun 2027 15:52:21.336   02 Jun 2027 15:54:06.273           104.937                  Delhi          3279.281
       109   02 Jun 2027 15:58:42.094   02 Jun 2027 16:00:22.966           100.872                  Delhi          3152.250
       110   02 Jun 2027 16:00:50.663   02 Jun 2027 16:02:01.410            70.747                Novosib          2210.844
       111   02 Jun 2027 16:04:11.763   02 Jun 2027 16:04:45.863            34.100                Norilsk          1065.625
       112   02 Jun 2027 16:07:42.218   02 Jun 2027 16:09:01.809            79.591                Norilsk          2487.219
       113   02 Jun 2027 17:16:54.324   02 Jun 2027 17:17:00.025             5.701               CapeTown           178.156
       114   02 Jun 2027 17:35:08.919   02 Jun 2027 17:35:44.634            35.715                 Moscow          1116.094
       115   02 Jun 2027 17:38:02.374   02 Jun 2027 17:39:40.476            98.102                 Moscow          3065.687
       116   02 Jun 2027 17:39:43.155   02 Jun 2027 17:41:15.894            92.739              Murmansk1          2898.094
       117   02 Jun 2027 17:46:58.453   02 Jun 2027 17:47:29.957            31.504                Norilsk           984.500
       118   02 Jun 2027 17:54:00.891   02 Jun 2027 17:54:30.822            29.931                Anadyr1           935.344
       119   02 Jun 2027 17:55:37.753   02 Jun 2027 17:55:52.825            15.072                Anadyr1           471.000
       120   02 Jun 2027 18:48:23.056   02 Jun 2027 18:50:23.402           120.346               CapeTown          3760.813
       121   02 Jun 2027 18:54:49.640   02 Jun 2027 18:55:13.144            23.504               CapeTown           734.500
       122   02 Jun 2027 19:15:06.853   02 Jun 2027 19:19:16.920           250.067                 Moscow          7814.594
       123   02 Jun 2027 19:21:20.589   02 Jun 2027 19:21:21.999             1.410              Murmansk2            44.062
       124   02 Jun 2027 19:22:00.876   02 Jun 2027 19:22:37.708            36.832              Murmansk2          1151.000
       125   02 Jun 2027 19:39:39.057   02 Jun 2027 19:40:16.451            37.394                Anadyr1          1168.563
       126   02 Jun 2027 20:25:14.160   02 Jun 2027 20:27:17.386           123.226               CapeTown          3850.813
       127   02 Jun 2027 20:27:33.438   02 Jun 2027 20:30:22.518           169.080               CapeTown          5283.750
       128   02 Jun 2027 20:58:10.373   02 Jun 2027 21:02:02.622           232.249              Murmansk1          7257.781
       129   02 Jun 2027 22:40:46.848   02 Jun 2027 22:46:01.384           314.536                Anadyr2          9829.250
       130   02 Jun 2027 22:46:07.549   02 Jun 2027 22:48:18.975           131.426               Magadan1          4107.063
       131   02 Jun 2027 22:53:40.793   02 Jun 2027 22:54:05.033            24.240               Magadan1           757.500
       132   02 Jun 2027 22:55:26.005   02 Jun 2027 22:55:49.556            23.551               Magadan2           735.969
       133   02 Jun 2027 23:35:23.751   02 Jun 2027 23:37:29.521           125.770            RioGallegos          3930.313
       134   02 Jun 2027 23:40:09.290   02 Jun 2027 23:40:32.940            23.650            RioGallegos           739.062
       135   03 Jun 2027 00:16:27.339   03 Jun 2027 00:18:44.741           137.402                Anadyr2          4293.813
       136   03 Jun 2027 00:18:44.741   03 Jun 2027 00:18:54.806            10.065                Anadyr1           314.531
       137   03 Jun 2027 00:19:05.426   03 Jun 2027 00:21:36.079           150.653               Magadan2          4707.906
       138   03 Jun 2027 00:21:45.571   03 Jun 2027 00:22:10.846            25.275               Magadan2           789.844
       139   03 Jun 2027 00:22:53.074   03 Jun 2027 00:23:38.597            45.523                Irkutsk          1422.594
       140   03 Jun 2027 00:24:24.250   03 Jun 2027 00:24:41.539            17.289                Irkutsk           540.281
       141   03 Jun 2027 00:25:09.775   03 Jun 2027 00:25:57.968            48.193                Irkutsk          1506.031
       142   03 Jun 2027 00:26:45.264   03 Jun 2027 00:27:07.230            21.966                Novosib           686.437
       143   03 Jun 2027 00:36:46.090   03 Jun 2027 00:39:00.715           134.625                Sumatra          4207.031
       144   03 Jun 2027 00:43:11.920   03 Jun 2027 00:43:12.603             0.683                Sumatra            21.344
       145   03 Jun 2027 00:48:34.504   03 Jun 2027 00:48:48.826            14.322                Sumatra           447.562
       146   03 Jun 2027 01:12:05.699   03 Jun 2027 01:12:32.913            27.214            RioGallegos           850.438
       147   03 Jun 2027 01:16:11.750   03 Jun 2027 01:16:32.297            20.547            RioGallegos           642.094
       148   03 Jun 2027 01:22:00.176   03 Jun 2027 01:22:12.902            12.726            RioGallegos           397.687
       149   03 Jun 2027 01:51:19.433   03 Jun 2027 01:52:28.122            68.689                Anadyr1          2146.531
       150   03 Jun 2027 01:52:28.122   03 Jun 2027 01:52:48.566            20.444                Anadyr2           638.875
       151   03 Jun 2027 01:53:37.136   03 Jun 2027 01:54:09.639            32.503                Anadyr1          1015.719
       152   03 Jun 2027 01:54:32.025   03 Jun 2027 01:55:46.367            74.342                Norilsk          2323.188
       153   03 Jun 2027 01:56:11.512   03 Jun 2027 01:56:26.099            14.587                Norilsk           455.844
       154   03 Jun 2027 01:57:42.928   03 Jun 2027 01:57:44.691             1.763               Magadan2            55.094
       155   03 Jun 2027 01:58:24.564   03 Jun 2027 02:00:36.856           132.292                Irkutsk          4134.125
       156   03 Jun 2027 02:01:55.548   03 Jun 2027 02:02:00.138             4.590                Irkutsk           143.438
       157   03 Jun 2027 02:02:26.895   03 Jun 2027 02:03:31.110            64.215                Irkutsk          2006.719
       158   03 Jun 2027 02:11:42.779   03 Jun 2027 02:12:26.252            43.473                  Delhi          1358.531
       159   03 Jun 2027 02:13:28.566   03 Jun 2027 02:15:41.514           132.948                Sumatra          4154.625
       160   03 Jun 2027 02:46:48.487   03 Jun 2027 02:47:10.286            21.799            RioGallegos           681.219
       161   03 Jun 2027 02:48:13.126   03 Jun 2027 02:49:48.175            95.049            RioGallegos          2970.281
       162   03 Jun 2027 02:54:32.856   03 Jun 2027 02:54:50.045            17.189            RioGallegos           537.156
       163   03 Jun 2027 03:37:39.260   03 Jun 2027 03:38:05.266            26.006              Murmansk1           812.688
       164   03 Jun 2027 03:38:46.581   03 Jun 2027 03:39:17.018            30.437              Murmansk1           951.156
       165   03 Jun 2027 03:39:27.647   03 Jun 2027 03:40:54.109            86.462                 Moscow          2701.938
       166   03 Jun 2027 03:41:02.685   03 Jun 2027 03:42:10.084            67.399                Novosib          2106.219
       167   03 Jun 2027 03:42:29.294   03 Jun 2027 03:43:12.889            43.595                Norilsk          1362.344
       168   03 Jun 2027 03:43:26.460   03 Jun 2027 03:43:29.495             3.035                Norilsk            94.844
       169   03 Jun 2027 03:43:39.569   03 Jun 2027 03:43:45.337             5.768                Irkutsk           180.250
       170   03 Jun 2027 03:43:56.173   03 Jun 2027 03:44:32.440            36.267                Novosib          1133.344
       171   03 Jun 2027 03:45:20.373   03 Jun 2027 03:45:21.033             0.660                Novosib            20.625
       172   03 Jun 2027 03:49:32.765   03 Jun 2027 03:53:52.765           260.000                  Delhi          8125.000
       173   03 Jun 2027 05:15:12.611   03 Jun 2027 05:15:20.503             7.892              Murmansk2           246.625
       174   03 Jun 2027 05:15:36.979   03 Jun 2027 05:16:13.228            36.249                 Moscow          1132.781
       175   03 Jun 2027 05:16:15.630   03 Jun 2027 05:17:21.924            66.294                Novosib          2071.688
       176   03 Jun 2027 05:17:26.609   03 Jun 2027 05:18:22.458            55.849                Norilsk          1745.281
       177   03 Jun 2027 05:18:23.863   03 Jun 2027 05:19:31.265            67.402                 Moscow          2106.313
       178   03 Jun 2027 05:19:44.528   03 Jun 2027 05:19:58.280            13.752              Murmansk1           429.750
       179   03 Jun 2027 05:20:07.742   03 Jun 2027 05:20:25.067            17.325              Murmansk1           541.406
       180   03 Jun 2027 05:20:31.327   03 Jun 2027 05:21:22.109            50.782                 Moscow          1586.937
       181   03 Jun 2027 05:21:37.250   03 Jun 2027 05:22:36.380            59.130                 Moscow          1847.812
       182   03 Jun 2027 05:36:39.885   03 Jun 2027 05:37:46.898            67.013               CapeTown          2094.156
       183   03 Jun 2027 05:40:44.984   03 Jun 2027 05:42:11.689            86.705               CapeTown          2709.531
       184   03 Jun 2027 06:50:21.579   03 Jun 2027 06:50:29.244             7.665                Novosib           239.531
       185   03 Jun 2027 06:50:59.548   03 Jun 2027 06:51:02.454             2.906                 Moscow            90.812
       186   03 Jun 2027 06:51:18.326   03 Jun 2027 06:51:51.643            33.317                Norilsk          1041.156
       187   03 Jun 2027 06:53:01.944   03 Jun 2027 06:53:49.687            47.743              Murmansk1          1491.969
       188   03 Jun 2027 06:53:59.193   03 Jun 2027 06:54:24.244            25.051                 Moscow           782.844
       189   03 Jun 2027 06:55:13.371   03 Jun 2027 06:56:06.764            53.393              Murmansk1          1668.531
       190   03 Jun 2027 06:56:10.379   03 Jun 2027 06:56:48.482            38.103                 Moscow          1190.719
       191   03 Jun 2027 07:12:14.977   03 Jun 2027 07:12:58.312            43.335               CapeTown          1354.219
       192   03 Jun 2027 07:14:38.322   03 Jun 2027 07:17:18.611           160.289               CapeTown          5009.031
       193   03 Jun 2027 08:15:19.560   03 Jun 2027 08:15:49.492            29.932               Magadan1           935.375
       194   03 Jun 2027 08:16:57.093   03 Jun 2027 08:17:42.214            45.121                Anadyr1          1410.031
       195   03 Jun 2027 08:17:48.957   03 Jun 2027 08:18:08.247            19.290               Magadan1           602.812
       196   03 Jun 2027 08:19:20.335   03 Jun 2027 08:20:17.621            57.286                Anadyr2          1790.188
       197   03 Jun 2027 09:47:33.577   03 Jun 2027 09:52:19.416           285.839                Anadyr2          8932.469
       198   03 Jun 2027 09:53:04.938   03 Jun 2027 09:54:51.119           106.181               Magadan1          3318.156
       199   03 Jun 2027 09:54:55.333   03 Jun 2027 09:56:34.572            99.239                Anadyr1          3101.219
       200   03 Jun 2027 11:22:53.203   03 Jun 2027 11:26:02.451           189.248               Magadan2          5914.000
       201   03 Jun 2027 11:26:02.451   03 Jun 2027 11:27:35.688            93.237               Magadan1          2913.656
       202   03 Jun 2027 11:28:12.988   03 Jun 2027 11:28:41.617            28.629                Norilsk           894.656
       203   03 Jun 2027 11:28:43.257   03 Jun 2027 11:31:54.879           191.622               Magadan2          5988.187
       204   03 Jun 2027 11:31:54.879   03 Jun 2027 11:32:13.322            18.443               Magadan1           576.344
       205   03 Jun 2027 11:32:29.527   03 Jun 2027 11:32:56.009            26.482                Norilsk           827.562
       206   03 Jun 2027 11:34:39.087   03 Jun 2027 11:34:39.661             0.574              Murmansk2            17.937
       207   03 Jun 2027 11:34:55.949   03 Jun 2027 11:35:20.099            24.150              Murmansk1           754.687
       208   03 Jun 2027 12:07:23.507   03 Jun 2027 12:08:11.907            48.400            RioGallegos          1512.500
       209   03 Jun 2027 12:14:28.829   03 Jun 2027 12:15:16.213            47.384            RioGallegos          1480.750
       210   03 Jun 2027 12:42:38.256   03 Jun 2027 12:43:24.111            45.855                Sumatra          1432.969
       211   03 Jun 2027 12:49:19.087   03 Jun 2027 12:50:10.864            51.777                Sumatra          1618.031
       212   03 Jun 2027 12:55:59.587   03 Jun 2027 12:56:48.604            49.017                Irkutsk          1531.781
       213   03 Jun 2027 12:57:44.878   03 Jun 2027 12:58:08.387            23.509                Novosib           734.656
       214   03 Jun 2027 12:59:05.503   03 Jun 2027 13:00:13.051            67.548                Irkutsk          2110.875
       215   03 Jun 2027 13:00:44.094   03 Jun 2027 13:01:44.630            60.536                Norilsk          1891.750
       216   03 Jun 2027 13:08:37.878   03 Jun 2027 13:09:18.153            40.275                Norilsk          1258.594
       217   03 Jun 2027 13:45:33.313   03 Jun 2027 13:48:50.996           197.683            RioGallegos          6177.594
       218   03 Jun 2027 14:19:49.945   03 Jun 2027 14:24:31.826           281.881                Sumatra          8808.781
       219   03 Jun 2027 14:35:50.275   03 Jun 2027 14:36:30.620            40.345                Irkutsk          1260.781
       220   03 Jun 2027 14:38:15.154   03 Jun 2027 14:39:48.164            93.010                Irkutsk          2906.563
       221   03 Jun 2027 16:05:20.750   03 Jun 2027 16:12:41.423           440.673                  Delhi         13771.031
       222   03 Jun 2027 16:13:50.307   03 Jun 2027 16:17:55.925           245.618                Novosib          7675.563
       223   03 Jun 2027 18:09:38.688   03 Jun 2027 18:09:52.113            13.425                Anadyr2           419.531
       224   03 Jun 2027 18:10:25.339   03 Jun 2027 18:10:37.824            12.485                Anadyr2           390.156
       225   03 Jun 2027 19:00:21.097   03 Jun 2027 19:02:58.319           157.222               CapeTown          4913.188
       226   03 Jun 2027 19:28:21.754   03 Jun 2027 19:32:05.094           223.340                 Moscow          6979.375
       227   03 Jun 2027 19:33:04.775   03 Jun 2027 19:34:32.659            87.884              Murmansk2          2746.375
       228   03 Jun 2027 20:37:43.074   03 Jun 2027 20:41:05.283           202.209               CapeTown          6319.031
       229   03 Jun 2027 20:42:40.261   03 Jun 2027 20:44:38.072           117.811               CapeTown          3681.594
       230   03 Jun 2027 21:11:42.578   03 Jun 2027 21:13:16.225            93.647              Murmansk1          2926.469
       231   03 Jun 2027 21:19:22.218   03 Jun 2027 21:19:56.562            34.344               Magadan2          1073.250
       232   03 Jun 2027 21:25:44.007   03 Jun 2027 21:25:55.976            11.969               Magadan1           374.031
       233   03 Jun 2027 21:27:28.068   03 Jun 2027 21:28:01.278            33.210               Magadan1          1037.812
       234   03 Jun 2027 22:52:47.976   03 Jun 2027 22:56:36.395           228.419                Anadyr1          7138.094
       235   03 Jun 2027 22:56:37.298   03 Jun 2027 22:57:57.727            80.429                Anadyr2          2513.406
       236   03 Jun 2027 22:58:08.590   03 Jun 2027 23:00:13.430           124.840               Magadan1          3901.250
       237   03 Jun 2027 23:04:28.378   03 Jun 2027 23:04:41.741            13.363               Magadan2           417.594
       238   03 Jun 2027 23:05:32.296   03 Jun 2027 23:05:51.637            19.341               Magadan1           604.406
       239   03 Jun 2027 23:06:31.337   03 Jun 2027 23:06:36.568             5.231               Magadan2           163.469
       240   03 Jun 2027 23:47:11.463   03 Jun 2027 23:50:13.713           182.250            RioGallegos          5695.313
       241   03 Jun 2027 23:51:39.988   03 Jun 2027 23:52:09.347            29.359            RioGallegos           917.469
       242   03 Jun 2027 23:53:15.486   03 Jun 2027 23:53:19.113             3.627            RioGallegos           113.344
       243   03 Jun 2027 23:57:59.861   03 Jun 2027 23:58:01.122             1.261            RioGallegos            39.406
       244   04 Jun 2027 00:28:24.548   04 Jun 2027 00:29:51.882            87.334                Anadyr2          2729.187
       245   04 Jun 2027 00:29:51.882   04 Jun 2027 00:30:12.307            20.425                Anadyr1           638.281
       246   04 Jun 2027 00:30:36.110   04 Jun 2027 00:32:27.531           111.421                Norilsk          3481.906
       247   04 Jun 2027 00:33:02.146   04 Jun 2027 00:34:42.105            99.959               Magadan2          3123.719
       248   04 Jun 2027 00:34:46.905   04 Jun 2027 00:35:47.480            60.575                Irkutsk          1892.969
       249   04 Jun 2027 00:36:35.627   04 Jun 2027 00:37:18.897            43.270                Novosib          1352.187
       250   04 Jun 2027 00:38:52.054   04 Jun 2027 00:38:59.794             7.740                Novosib           241.875
       251   04 Jun 2027 00:48:32.075   04 Jun 2027 00:51:06.651           154.576                Sumatra          4830.500
       252   04 Jun 2027 01:26:23.037   04 Jun 2027 01:27:07.412            44.375            RioGallegos          1386.719
       253   04 Jun 2027 01:32:06.559   04 Jun 2027 01:32:24.737            18.178            RioGallegos           568.062
       254   04 Jun 2027 01:33:23.239   04 Jun 2027 01:34:21.061            57.822            RioGallegos          1806.937
       255   04 Jun 2027 02:03:45.794   04 Jun 2027 02:04:00.171            14.377                Anadyr1           449.281
       256   04 Jun 2027 02:04:42.574   04 Jun 2027 02:05:24.558            41.984                Anadyr2          1312.000
       257   04 Jun 2027 02:06:34.476   04 Jun 2027 02:07:39.492            65.016                Norilsk          2031.750
       258   04 Jun 2027 02:07:58.036   04 Jun 2027 02:08:00.368             2.332                Norilsk            72.875
       259   04 Jun 2027 02:08:06.394   04 Jun 2027 02:08:57.170            50.776               Magadan2          1586.750
       260   04 Jun 2027 02:10:27.685   04 Jun 2027 02:13:35.980           188.295                Irkutsk          5884.219
       261   04 Jun 2027 02:26:15.904   04 Jun 2027 02:30:45.533           269.629                Sumatra          8425.906
       262   04 Jun 2027 03:02:22.744   04 Jun 2027 03:03:03.595            40.851            RioGallegos          1276.594
       263   04 Jun 2027 03:51:09.723   04 Jun 2027 03:51:24.880            15.157              Murmansk2           473.656
       264   04 Jun 2027 03:51:28.984   04 Jun 2027 03:53:37.772           128.788                 Moscow          4024.625
       265   04 Jun 2027 03:53:48.190   04 Jun 2027 03:53:52.666             4.476              Murmansk2           139.875
       266   04 Jun 2027 03:54:17.803   04 Jun 2027 03:55:09.405            51.602                Norilsk          1612.563
       267   04 Jun 2027 03:55:18.028   04 Jun 2027 03:55:29.413            11.385                Norilsk           355.781
       268   04 Jun 2027 03:55:49.098   04 Jun 2027 03:55:56.201             7.103                Novosib           221.969
       269   04 Jun 2027 03:56:34.651   04 Jun 2027 03:56:42.453             7.802                 Moscow           243.813
       270   04 Jun 2027 03:57:33.195   04 Jun 2027 03:57:54.140            20.945                Novosib           654.531
       271   04 Jun 2027 04:02:22.755   04 Jun 2027 04:05:31.542           188.787                  Delhi          5899.594
       272   04 Jun 2027 05:27:09.749   04 Jun 2027 05:27:24.282            14.533              Murmansk1           454.156
       273   04 Jun 2027 05:27:46.189   04 Jun 2027 05:27:55.867             9.678                Norilsk           302.438
       274   04 Jun 2027 05:27:57.832   04 Jun 2027 05:28:12.653            14.821              Murmansk2           463.156
       275   04 Jun 2027 05:28:18.397   04 Jun 2027 05:31:13.409           175.012                Novosib          5469.125
       276   04 Jun 2027 05:31:34.063   04 Jun 2027 05:32:09.719            35.656              Murmansk1          1114.250
       277   04 Jun 2027 05:32:14.647   04 Jun 2027 05:32:49.714            35.067              Murmansk1          1095.844
       278   04 Jun 2027 05:33:26.817   04 Jun 2027 05:35:18.568           111.751                 Moscow          3492.219
       279   04 Jun 2027 05:35:30.784   04 Jun 2027 05:35:49.060            18.276                 Moscow           571.125
       280   04 Jun 2027 05:48:20.668   04 Jun 2027 05:49:06.245            45.577               CapeTown          1424.281
       281   04 Jun 2027 06:51:42.937   04 Jun 2027 06:51:48.884             5.947               Magadan2           185.844
       282   04 Jun 2027 06:51:48.884   04 Jun 2027 06:52:48.130            59.246               Magadan1          1851.438
       283   04 Jun 2027 06:53:26.166   04 Jun 2027 06:53:33.538             7.372                Anadyr1           230.375
       284   04 Jun 2027 06:59:54.598   04 Jun 2027 07:00:01.848             7.250              Murmansk2           226.563
       285   04 Jun 2027 07:00:08.558   04 Jun 2027 07:00:29.631            21.073                 Moscow           658.531
       286   04 Jun 2027 07:02:52.445   04 Jun 2027 07:03:53.597            61.152                 Moscow          1911.000
       287   04 Jun 2027 07:04:19.424   04 Jun 2027 07:04:54.046            34.622              Murmansk2          1081.938
       288   04 Jun 2027 07:05:14.963   04 Jun 2027 07:05:56.707            41.744                 Moscow          1304.500
       289   04 Jun 2027 07:06:58.788   04 Jun 2027 07:07:31.855            33.067                 Moscow          1033.344
       290   04 Jun 2027 07:24:39.675   04 Jun 2027 07:26:36.012           116.337               CapeTown          3635.531
       291   04 Jun 2027 07:29:20.095   04 Jun 2027 07:29:43.886            23.791               CapeTown           743.469
       292   04 Jun 2027 08:26:13.861   04 Jun 2027 08:26:33.292            19.431               Magadan1           607.219
       293   04 Jun 2027 08:27:22.232   04 Jun 2027 08:29:01.625            99.393               Magadan1          3106.031
       294   04 Jun 2027 08:29:06.628   04 Jun 2027 08:30:00.843            54.215               Magadan1          1694.219
       295   04 Jun 2027 08:30:17.219   04 Jun 2027 08:31:18.947            61.728                Anadyr1          1929.000
       296   04 Jun 2027 08:38:53.857   04 Jun 2027 08:39:46.434            52.577                 Moscow          1643.031
       297   04 Jun 2027 10:00:11.634   04 Jun 2027 10:00:42.964            31.330                Anadyr2           979.063
       298   04 Jun 2027 10:01:11.703   04 Jun 2027 10:04:50.309           218.606                Anadyr2          6831.438
       299   04 Jun 2027 10:05:07.158   04 Jun 2027 10:05:53.174            46.016               Magadan1          1438.000
       300   04 Jun 2027 10:06:09.913   04 Jun 2027 10:06:41.267            31.354                Norilsk           979.813
       301   04 Jun 2027 10:06:46.186   04 Jun 2027 10:08:59.222           133.036               Magadan2          4157.375
       302   04 Jun 2027 11:35:05.810   04 Jun 2027 11:35:53.715            47.905                Irkutsk          1497.031
       303   04 Jun 2027 11:37:29.694   04 Jun 2027 11:38:00.876            31.182                Irkutsk           974.437
       304   04 Jun 2027 11:38:31.118   04 Jun 2027 11:38:58.931            27.813                Novosib           869.156
       305   04 Jun 2027 11:39:08.949   04 Jun 2027 11:40:14.274            65.325                Novosib          2041.406
       306   04 Jun 2027 11:40:35.549   04 Jun 2027 11:44:00.949           205.400               Magadan1          6418.750
       307   04 Jun 2027 11:44:16.832   04 Jun 2027 11:44:33.732            16.900              Murmansk2           528.125
       308   04 Jun 2027 11:44:43.843   04 Jun 2027 11:45:18.192            34.349              Murmansk2          1073.406
       309   04 Jun 2027 11:46:42.120   04 Jun 2027 11:46:44.348             2.228              Murmansk1            69.625
       310   04 Jun 2027 11:46:45.941   04 Jun 2027 11:47:10.824            24.883              Murmansk1           777.594
       311   04 Jun 2027 12:19:27.860   04 Jun 2027 12:20:15.075            47.215            RioGallegos          1475.469
       312   04 Jun 2027 12:26:56.680   04 Jun 2027 12:28:14.981            78.301            RioGallegos          2446.906
       313   04 Jun 2027 12:54:27.452   04 Jun 2027 12:55:13.403            45.951                Sumatra          1435.969
       314   04 Jun 2027 13:01:17.822   04 Jun 2027 13:02:30.411            72.589                Sumatra          2268.406
       315   04 Jun 2027 13:08:11.380   04 Jun 2027 13:08:40.563            29.183                Irkutsk           911.969
       316   04 Jun 2027 13:09:36.664   04 Jun 2027 13:10:33.635            56.971                Novosib          1780.344
       317   04 Jun 2027 13:12:48.108   04 Jun 2027 13:13:50.017            61.909                Norilsk          1934.656
       318   04 Jun 2027 13:14:13.756   04 Jun 2027 13:14:16.209             2.453                Norilsk            76.656
       319   04 Jun 2027 13:15:05.750   04 Jun 2027 13:15:09.246             3.496                Norilsk           109.250
       320   04 Jun 2027 13:18:01.105   04 Jun 2027 13:18:25.255            24.150                Norilsk           754.687
       321   04 Jun 2027 13:23:49.912   04 Jun 2027 13:24:13.829            23.917                Norilsk           747.406
       322   04 Jun 2027 13:58:17.342   04 Jun 2027 14:00:14.928           117.586            RioGallegos          3674.563
       323   04 Jun 2027 14:32:48.328   04 Jun 2027 14:37:01.830           253.502                Sumatra          7921.938
       324   04 Jun 2027 14:45:57.302   04 Jun 2027 14:48:29.848           152.546                Novosib          4767.062
       325   04 Jun 2027 14:48:41.090   04 Jun 2027 14:52:33.106           232.016                Irkutsk          7250.500
       326   04 Jun 2027 16:18:55.794   04 Jun 2027 16:23:20.957           265.163                  Delhi          8286.344
       327   04 Jun 2027 16:27:11.515   04 Jun 2027 16:31:30.769           259.254                Novosib          8101.688
       328   04 Jun 2027 18:17:37.033   04 Jun 2027 18:18:16.860            39.827                Anadyr2          1244.594
       329   04 Jun 2027 18:25:14.135   04 Jun 2027 18:25:30.977            16.842                Anadyr2           526.313
       330   04 Jun 2027 19:12:22.016   04 Jun 2027 19:15:21.445           179.429               CapeTown          5607.156
       331   04 Jun 2027 19:41:52.539   04 Jun 2027 19:42:37.210            44.671              Murmansk2          1395.969
       332   04 Jun 2027 19:42:38.908   04 Jun 2027 19:44:45.204           126.296              Murmansk1          3946.750
       333   04 Jun 2027 19:45:02.274   04 Jun 2027 19:47:13.007           130.733              Murmansk1          4085.406
       334   04 Jun 2027 19:48:45.381   04 Jun 2027 19:48:48.752             3.371              Murmansk2           105.344
       335   04 Jun 2027 20:50:23.863   04 Jun 2027 20:56:58.126           394.263               CapeTown         12320.719
       336   04 Jun 2027 21:31:19.762   04 Jun 2027 21:31:30.075            10.313               Magadan2           322.281
       337   04 Jun 2027 21:33:11.798   04 Jun 2027 21:33:57.637            45.839               Magadan2          1432.469
       338   04 Jun 2027 21:35:17.026   04 Jun 2027 21:35:20.097             3.071               Magadan1            95.969
       339   04 Jun 2027 21:35:46.875   04 Jun 2027 21:36:19.592            32.717               Magadan1          1022.406
       340   04 Jun 2027 21:41:25.642   04 Jun 2027 21:42:05.379            39.737               Magadan2          1241.781
       341   04 Jun 2027 23:04:48.822   04 Jun 2027 23:08:36.279           227.457                Anadyr1          7108.031
       342   04 Jun 2027 23:08:37.553   04 Jun 2027 23:10:40.579           123.026                Norilsk          3844.563
       343   04 Jun 2027 23:11:06.932   04 Jun 2027 23:11:25.800            18.868               Magadan1           589.625
       344   04 Jun 2027 23:12:10.117   04 Jun 2027 23:12:59.784            49.667               Magadan1          1552.094
       345   04 Jun 2027 23:13:24.499   04 Jun 2027 23:13:30.811             6.312               Magadan1           197.250
       346   04 Jun 2027 23:14:04.090   04 Jun 2027 23:14:59.211            55.121                Irkutsk          1722.531
       347   04 Jun 2027 23:15:22.036   04 Jun 2027 23:16:17.520            55.484                Irkutsk          1733.875
       348   04 Jun 2027 23:59:02.375   05 Jun 2027 00:00:37.649            95.274            RioGallegos          2977.312
       349   05 Jun 2027 00:00:51.599   05 Jun 2027 00:00:53.757             2.158            RioGallegos            67.438
       350   05 Jun 2027 00:01:15.033   05 Jun 2027 00:02:19.993            64.960            RioGallegos          2030.000
       351   05 Jun 2027 00:09:28.670   05 Jun 2027 00:09:44.622            15.952            RioGallegos           498.500
       352   05 Jun 2027 00:40:20.910   05 Jun 2027 00:41:01.493            40.583                Anadyr2          1268.219
       353   05 Jun 2027 00:41:27.718   05 Jun 2027 00:41:49.631            21.913                Anadyr2           684.781
       354   05 Jun 2027 00:42:37.390   05 Jun 2027 00:44:29.811           112.421                Norilsk          3513.156
       355   05 Jun 2027 00:44:38.054   05 Jun 2027 00:46:18.625           100.571               Magadan2          3142.844
       356   05 Jun 2027 00:46:42.581   05 Jun 2027 00:47:32.695            50.114                Irkutsk          1566.063
       357   05 Jun 2027 00:47:52.885   05 Jun 2027 00:48:22.179            29.294                Irkutsk           915.437
       358   05 Jun 2027 00:49:27.404   05 Jun 2027 00:50:30.306            62.902                Novosib          1965.687
       359   05 Jun 2027 01:00:24.319   05 Jun 2027 01:03:27.762           183.443                Sumatra          5732.594
       360   05 Jun 2027 01:43:30.105   05 Jun 2027 01:43:33.869             3.764            RioGallegos           117.625
       361   05 Jun 2027 01:43:49.797   05 Jun 2027 01:44:09.754            19.957            RioGallegos           623.656
       362   05 Jun 2027 01:46:56.508   05 Jun 2027 01:47:14.833            18.325            RioGallegos           572.656
       363   05 Jun 2027 02:14:54.482   05 Jun 2027 02:15:44.493            50.011                Anadyr1          1562.844
       364   05 Jun 2027 02:18:36.944   05 Jun 2027 02:19:56.969            80.025                Norilsk          2500.781
       365   05 Jun 2027 02:21:00.515   05 Jun 2027 02:21:14.784            14.269               Magadan1           445.906
       366   05 Jun 2027 02:21:32.603   05 Jun 2027 02:21:41.054             8.451                Norilsk           264.094
       367   05 Jun 2027 02:22:04.546   05 Jun 2027 02:22:25.012            20.466                Norilsk           639.562
       368   05 Jun 2027 02:22:31.595   05 Jun 2027 02:24:55.238           143.643                Irkutsk          4488.844
       369   05 Jun 2027 02:31:04.943   05 Jun 2027 02:32:30.194            85.251                  Delhi          2664.094
       370   05 Jun 2027 02:39:31.385   05 Jun 2027 02:43:21.258           229.873                Sumatra          7183.531
       371   05 Jun 2027 03:14:42.065   05 Jun 2027 03:15:16.903            34.838            RioGallegos          1088.688
       372   05 Jun 2027 03:15:29.678   05 Jun 2027 03:15:31.666             1.988            RioGallegos            62.125
       373   05 Jun 2027 04:01:28.248   05 Jun 2027 04:01:35.768             7.520                Norilsk           235.000
       374   05 Jun 2027 04:01:42.156   05 Jun 2027 04:01:51.896             9.740              Murmansk2           304.375
       375   05 Jun 2027 04:02:37.992   05 Jun 2027 04:02:58.538            20.546              Murmansk2           642.062
       376   05 Jun 2027 04:03:41.009   05 Jun 2027 04:05:24.625           103.616                Irkutsk          3238.000
       377   05 Jun 2027 04:05:28.276   05 Jun 2027 04:06:26.149            57.873              Murmansk1          1808.531
       378   05 Jun 2027 04:06:43.507   05 Jun 2027 04:07:27.425            43.918                Irkutsk          1372.438
       379   05 Jun 2027 04:07:48.462   05 Jun 2027 04:10:09.159           140.697                  Delhi          4396.781
       380   05 Jun 2027 05:39:48.459   05 Jun 2027 05:40:12.491            24.032                 Moscow           751.000
       381   05 Jun 2027 05:40:25.376   05 Jun 2027 05:41:51.410            86.034                Novosib          2688.563
       382   05 Jun 2027 05:42:01.573   05 Jun 2027 05:42:20.994            19.421                Norilsk           606.906
       383   05 Jun 2027 05:42:48.125   05 Jun 2027 05:42:57.377             9.252              Murmansk2           289.125
       384   05 Jun 2027 05:43:34.049   05 Jun 2027 05:44:11.602            37.553              Murmansk1          1173.531
       385   05 Jun 2027 05:44:16.540   05 Jun 2027 05:45:32.045            75.505                 Moscow          2359.531
       386   05 Jun 2027 05:46:52.756   05 Jun 2027 05:47:27.270            34.514                 Moscow          1078.563
       387   05 Jun 2027 05:47:59.783   05 Jun 2027 05:48:42.924            43.141                 Moscow          1348.156
       388   05 Jun 2027 06:02:57.230   05 Jun 2027 06:03:05.085             7.855               CapeTown           245.469
       389   05 Jun 2027 06:03:42.369   05 Jun 2027 06:04:29.028            46.659               CapeTown          1458.094
       390   05 Jun 2027 07:03:37.532   05 Jun 2027 07:03:47.138             9.606                Anadyr1           300.187
       391   05 Jun 2027 07:03:47.138   05 Jun 2027 07:04:28.623            41.485                Anadyr2          1296.406
       392   05 Jun 2027 07:04:38.119   05 Jun 2027 07:04:39.780             1.661               Magadan2            51.906
       393   05 Jun 2027 07:04:44.595   05 Jun 2027 07:05:01.445            16.850               Magadan2           526.563
       394   05 Jun 2027 07:05:10.583   05 Jun 2027 07:06:49.981            99.398               Magadan2          3106.187
       395   05 Jun 2027 07:14:56.110   05 Jun 2027 07:15:53.776            57.666                 Moscow          1802.062
       396   05 Jun 2027 07:16:40.823   05 Jun 2027 07:17:11.443            30.620                 Moscow           956.875
       397   05 Jun 2027 07:17:45.029   05 Jun 2027 07:17:53.897             8.868                 Moscow           277.125
       398   05 Jun 2027 07:37:12.629   05 Jun 2027 07:40:41.542           208.913               CapeTown          6528.531
       399   05 Jun 2027 08:37:48.626   05 Jun 2027 08:38:37.298            48.672                Anadyr2          1521.000
       400   05 Jun 2027 08:39:24.361   05 Jun 2027 08:39:56.456            32.095               Magadan1          1002.969
       401   05 Jun 2027 08:40:40.992   05 Jun 2027 08:43:08.460           147.468                Anadyr2          4608.375
       402   05 Jun 2027 10:11:24.911   05 Jun 2027 10:12:37.479            72.568               Magadan2          2267.750
       403   05 Jun 2027 10:12:54.751   05 Jun 2027 10:20:40.214           465.463                Anadyr2         14545.719
       404   05 Jun 2027 11:48:25.335   05 Jun 2027 11:48:44.496            19.161               Magadan2           598.781
       405   05 Jun 2027 11:49:03.501   05 Jun 2027 11:55:43.628           400.127               Magadan1         12503.969
       406   05 Jun 2027 11:56:45.499   05 Jun 2027 11:57:37.773            52.274              Murmansk1          1633.562
       407   05 Jun 2027 12:00:39.172   05 Jun 2027 12:01:01.301            22.129              Murmansk2           691.531
       408   05 Jun 2027 12:01:26.306   05 Jun 2027 12:01:39.132            12.826              Murmansk2           400.812
       409   05 Jun 2027 12:02:05.002   05 Jun 2027 12:02:29.219            24.217              Murmansk2           756.781
       410   05 Jun 2027 12:03:33.151   05 Jun 2027 12:04:06.628            33.477              Murmansk2          1046.156
       411   05 Jun 2027 12:04:26.579   05 Jun 2027 12:04:40.085            13.506              Murmansk1           422.063
       412   05 Jun 2027 12:34:42.233   05 Jun 2027 12:35:40.604            58.371            RioGallegos          1824.094
       413   05 Jun 2027 12:41:18.870   05 Jun 2027 12:41:47.416            28.546            RioGallegos           892.063
       414   05 Jun 2027 13:06:22.634   05 Jun 2027 13:06:43.490            20.856                Sumatra           651.750
       415   05 Jun 2027 13:06:56.097   05 Jun 2027 13:09:23.010           146.913                Sumatra          4591.031
       416   05 Jun 2027 13:18:14.865   05 Jun 2027 13:19:06.450            51.585                Sumatra          1612.031
       417   05 Jun 2027 13:23:01.942   05 Jun 2027 13:23:28.032            26.090                Irkutsk           815.313
       418   05 Jun 2027 13:24:58.286   05 Jun 2027 13:25:45.229            46.943                Irkutsk          1466.969
       419   05 Jun 2027 13:29:52.807   05 Jun 2027 13:30:25.167            32.360                Irkutsk          1011.250
       420   05 Jun 2027 13:35:22.948   05 Jun 2027 13:35:52.257            29.309                Norilsk           915.906
       421   05 Jun 2027 13:37:32.585   05 Jun 2027 13:37:45.811            13.226                Norilsk           413.313
       422   05 Jun 2027 13:39:12.708   05 Jun 2027 13:39:19.290             6.582              Murmansk1           205.687
       423   05 Jun 2027 14:11:12.345   05 Jun 2027 14:14:27.654           195.309            RioGallegos          6103.406
       424   05 Jun 2027 14:15:32.278   05 Jun 2027 14:18:28.505           176.227            RioGallegos          5507.094
       425   05 Jun 2027 14:46:39.578   05 Jun 2027 14:49:44.621           185.043                Sumatra          5782.594
       426   05 Jun 2027 15:02:33.280   05 Jun 2027 15:05:03.115           149.835                Irkutsk          4682.344
       427   05 Jun 2027 16:42:01.512   05 Jun 2027 16:43:37.109            95.597                Norilsk          2987.406
       428   05 Jun 2027 16:45:03.775   05 Jun 2027 16:45:44.285            40.510                Norilsk          1265.938
       429   05 Jun 2027 16:46:40.192   05 Jun 2027 16:47:44.972            64.780                Norilsk          2024.375
       430   05 Jun 2027 17:49:47.150   05 Jun 2027 17:50:17.424            30.274               CapeTown           946.063
       431   05 Jun 2027 17:50:49.760   05 Jun 2027 17:52:46.620           116.860               CapeTown          3651.875
       432   05 Jun 2027 18:12:06.104   05 Jun 2027 18:12:32.839            26.735                 Moscow           835.469
       433   05 Jun 2027 18:13:48.697   05 Jun 2027 18:17:10.934           202.237                 Moscow          6319.906
       434   05 Jun 2027 18:33:48.147   05 Jun 2027 18:34:28.962            40.815                Anadyr1          1275.469
       435   05 Jun 2027 19:24:25.717   05 Jun 2027 19:26:37.864           132.147               CapeTown          4129.594
       436   05 Jun 2027 19:35:28.844   05 Jun 2027 19:36:09.071            40.227               CapeTown          1257.094
       437   05 Jun 2027 19:54:27.771   05 Jun 2027 19:55:31.644            63.873              Murmansk1          1996.031
       438   05 Jun 2027 19:56:46.165   05 Jun 2027 20:03:05.824           379.659              Murmansk2         11864.344
       439   05 Jun 2027 21:03:32.667   05 Jun 2027 21:07:25.063           232.396               CapeTown          7262.375
       440   05 Jun 2027 21:43:08.582   05 Jun 2027 21:43:10.583             2.001                Anadyr2            62.531
       441   05 Jun 2027 21:43:12.924   05 Jun 2027 21:43:52.543            39.619                Anadyr2          1238.094
       442   05 Jun 2027 21:44:32.332   05 Jun 2027 21:44:53.552            21.220               Magadan2           663.125
       443   05 Jun 2027 21:45:41.388   05 Jun 2027 21:45:49.142             7.754               Magadan1           242.313
       444   05 Jun 2027 21:45:50.478   05 Jun 2027 21:46:45.879            55.401               Magadan1          1731.281
       445   05 Jun 2027 23:16:49.338   05 Jun 2027 23:20:35.685           226.347                Anadyr2          7073.344
       446   05 Jun 2027 23:20:53.732   05 Jun 2027 23:22:31.574            97.842                Anadyr1          3057.563
       447   05 Jun 2027 23:22:50.273   05 Jun 2027 23:23:53.188            62.915               Magadan1          1966.094
       448   05 Jun 2027 23:23:53.188   05 Jun 2027 23:24:29.415            36.227               Magadan2          1132.094
       449   05 Jun 2027 23:24:35.570   05 Jun 2027 23:25:35.312            59.742                Irkutsk          1866.937
       450   05 Jun 2027 23:26:46.597   05 Jun 2027 23:26:57.056            10.459                Irkutsk           326.844
       451   05 Jun 2027 23:26:59.873   05 Jun 2027 23:27:24.308            24.435                Irkutsk           763.594
       452   05 Jun 2027 23:29:35.727   05 Jun 2027 23:30:15.917            40.190               Magadan2          1255.938
       453   05 Jun 2027 23:41:09.163   05 Jun 2027 23:41:58.950            49.787                Sumatra          1555.844
       454   05 Jun 2027 23:43:46.347   05 Jun 2027 23:44:35.840            49.493                Sumatra          1546.656
       455   06 Jun 2027 00:11:55.870   06 Jun 2027 00:12:02.701             6.831            RioGallegos           213.469
       456   06 Jun 2027 00:12:27.669   06 Jun 2027 00:12:59.188            31.519            RioGallegos           984.969
       457   06 Jun 2027 00:13:40.412   06 Jun 2027 00:13:59.234            18.822            RioGallegos           588.188
       458   06 Jun 2027 00:16:03.822   06 Jun 2027 00:16:16.155            12.333            RioGallegos           385.406
       459   06 Jun 2027 00:17:52.475   06 Jun 2027 00:18:03.053            10.578            RioGallegos           330.563
       460   06 Jun 2027 00:19:13.550   06 Jun 2027 00:20:09.082            55.532            RioGallegos          1735.375
       461   06 Jun 2027 00:52:16.323   06 Jun 2027 00:52:56.590            40.267                Anadyr1          1258.344
       462   06 Jun 2027 00:53:48.007   06 Jun 2027 00:54:33.049            45.042                Anadyr2          1407.563
       463   06 Jun 2027 00:55:00.118   06 Jun 2027 00:56:32.114            91.996                Norilsk          2874.875
       464   06 Jun 2027 00:56:41.195   06 Jun 2027 00:57:46.759            65.564               Magadan2          2048.875
       465   06 Jun 2027 00:58:39.783   06 Jun 2027 00:59:54.958            75.175                Irkutsk          2349.219
       466   06 Jun 2027 01:00:22.077   06 Jun 2027 01:01:21.999            59.922                Irkutsk          1872.563
       467   06 Jun 2027 01:12:22.372   06 Jun 2027 01:14:57.746           155.374                Sumatra          4855.438
       468   06 Jun 2027 01:52:00.842   06 Jun 2027 01:52:14.215            13.373            RioGallegos           417.906
       469   06 Jun 2027 01:55:31.511   06 Jun 2027 01:55:45.264            13.753            RioGallegos           429.781
       470   06 Jun 2027 01:56:13.826   06 Jun 2027 01:57:38.801            84.975            RioGallegos          2655.469
       471   06 Jun 2027 02:30:39.389   06 Jun 2027 02:31:37.404            58.015                Norilsk          1812.969
       472   06 Jun 2027 02:31:50.357   06 Jun 2027 02:32:19.054            28.697               Magadan1           896.781
       473   06 Jun 2027 02:34:11.730   06 Jun 2027 02:35:06.741            55.011              Murmansk1          1719.094
       474   06 Jun 2027 02:35:49.053   06 Jun 2027 02:36:48.079            59.026                Novosib          1844.562
       475   06 Jun 2027 02:37:09.640   06 Jun 2027 02:37:42.800            33.160                Irkutsk          1036.250
       476   06 Jun 2027 02:38:49.131   06 Jun 2027 02:39:16.570            27.439                Irkutsk           857.469
       477   06 Jun 2027 02:44:30.420   06 Jun 2027 02:45:43.686            73.266                Irkutsk          2289.563
       478   06 Jun 2027 03:23:21.333   06 Jun 2027 03:24:53.395            92.062            RioGallegos          2876.938
       479   06 Jun 2027 03:25:00.103   06 Jun 2027 03:26:19.908            79.805            RioGallegos          2493.906
       480   06 Jun 2027 03:31:20.730   06 Jun 2027 03:31:57.719            36.989            RioGallegos          1155.906
       481   06 Jun 2027 04:14:47.956   06 Jun 2027 04:15:11.563            23.607              Murmansk2           737.719
       482   06 Jun 2027 04:15:12.329   06 Jun 2027 04:15:21.798             9.469                Irkutsk           295.906
