uniorb/output/strategy_2/Drop/Drop_KinoSat_110210.txt

KinoSat_110210
-------------------------
    Access    *     Start Time (UTCG)     *     Stop Time (UTCG)  *   Duration (s)        *       Station  *  Data (Mbytes)
         1   01 Jun 2027 03:13:05.032   01 Jun 2027 03:13:34.003            28.971               Magadan2          3260.000
         2   01 Jun 2027 03:13:36.351   01 Jun 2027 03:13:49.494            13.143               Magadan2          1174.000
         3   01 Jun 2027 03:13:57.707   01 Jun 2027 03:14:56.778            59.071                Norilsk          4106.500
         4   01 Jun 2027 03:14:59.598   01 Jun 2027 03:15:30.045            30.447                Irkutsk          1410.000
         5   01 Jun 2027 03:15:33.160   01 Jun 2027 03:15:39.806             6.646                Norilsk           830.750
         6   01 Jun 2027 03:15:41.686   01 Jun 2027 03:16:14.608            32.922               Magadan1          1666.750
         7   01 Jun 2027 03:16:26.047   01 Jun 2027 03:17:18.269            52.222               Magadan1          5719.500
         8   01 Jun 2027 03:17:18.499   01 Jun 2027 03:18:16.012            57.513               Magadan1           115.000
         9   01 Jun 2027 03:18:17.268   01 Jun 2027 03:18:52.429            35.161                Norilsk           628.000
        10   01 Jun 2027 03:19:01.956   01 Jun 2027 03:19:15.677            13.721                Irkutsk          1715.125
        11   01 Jun 2027 03:19:18.146   01 Jun 2027 03:19:56.289            38.143                Norilsk          4282.875
        12   01 Jun 2027 03:20:01.510   01 Jun 2027 03:20:22.396            20.886              Murmansk1          2610.500
        13   01 Jun 2027 03:20:42.606   01 Jun 2027 03:21:43.014            60.408                Novosib          5434.500
        14   01 Jun 2027 04:50:20.620   01 Jun 2027 04:51:19.735            59.115                Irkutsk          7389.375
        15   01 Jun 2027 04:51:27.671   01 Jun 2027 04:52:10.323            42.652                Irkutsk          5138.125
        16   01 Jun 2027 04:52:17.521   01 Jun 2027 04:52:39.951            22.430                Norilsk          2803.750
        17   01 Jun 2027 04:52:50.778   01 Jun 2027 04:53:55.423            64.645              Murmansk1          6208.749
        18   01 Jun 2027 04:53:58.935   01 Jun 2027 04:54:20.563            21.628              Murmansk1          1756.000
        19   01 Jun 2027 04:54:22.449   01 Jun 2027 04:54:30.903             8.454                Norilsk           943.000
        20   01 Jun 2027 04:54:34.886   01 Jun 2027 04:54:56.023            21.137                Novosib          1991.500
        21   01 Jun 2027 04:55:02.198   01 Jun 2027 04:55:32.250            30.052              Murmansk1          3087.500
        22   01 Jun 2027 04:55:32.611   01 Jun 2027 04:55:42.640            10.029                 Moscow           180.500
        23   01 Jun 2027 04:55:44.599   01 Jun 2027 04:55:53.432             8.833              Murmansk2           979.500
        24   01 Jun 2027 04:56:03.629   01 Jun 2027 04:57:20.278            76.649              Murmansk1          5098.500
        25   01 Jun 2027 06:28:02.916   01 Jun 2027 06:28:37.322            34.406                Novosib           233.500
        26   01 Jun 2027 06:28:38.708   01 Jun 2027 06:29:27.384            48.676                 Moscow           693.000
        27   01 Jun 2027 06:29:42.744   01 Jun 2027 06:31:18.823            96.079              Murmansk1          7680.000
        28   01 Jun 2027 06:31:21.097   01 Jun 2027 06:31:35.871            14.774              Murmansk2          1137.000
        29   01 Jun 2027 06:31:43.772   01 Jun 2027 06:32:18.373            34.601                 Moscow          3950.500
        30   01 Jun 2027 08:01:20.359   01 Jun 2027 08:01:50.563            30.204                 Moscow          3775.500
        31   01 Jun 2027 08:02:09.963   01 Jun 2027 08:03:46.284            96.321              Murmansk2         10510.500
        32   01 Jun 2027 08:04:00.126   01 Jun 2027 08:05:28.973            88.847              Murmansk2          6921.000
        33   01 Jun 2027 08:05:31.129   01 Jun 2027 08:05:47.904            16.775              Murmansk1          1078.000
        34   01 Jun 2027 08:06:26.552   01 Jun 2027 08:10:04.459           217.907                 Moscow         19324.000
        35   02 Jun 2027 03:25:20.242   02 Jun 2027 03:25:42.505            22.263                Norilsk          1808.000
        36   02 Jun 2027 03:25:45.148   02 Jun 2027 03:26:11.324            26.176                Novosib          1321.500
        37   02 Jun 2027 03:26:12.533   02 Jun 2027 03:26:35.595            23.062                Novosib           604.500
        38   02 Jun 2027 03:26:49.801   02 Jun 2027 03:27:22.111            32.310                Norilsk          4038.750
        39   02 Jun 2027 03:27:36.199   02 Jun 2027 03:29:04.588            88.389               Magadan1         10108.250
        40   02 Jun 2027 03:29:11.660   02 Jun 2027 03:30:05.194            53.534                Novosib          3536.000
        41   02 Jun 2027 03:30:05.712   02 Jun 2027 03:30:51.234            45.522                Novosib           259.000
        42   02 Jun 2027 03:30:52.197   02 Jun 2027 03:31:20.469            28.272                Irkutsk           481.500
        43   02 Jun 2027 03:31:28.208   02 Jun 2027 03:31:57.833            29.625                Norilsk          3703.125
        44   02 Jun 2027 03:32:07.890   02 Jun 2027 03:32:56.950            49.060              Murmansk1          5194.875
        45   02 Jun 2027 05:02:08.039   02 Jun 2027 05:02:28.704            20.665                Novosib          1541.000
        46   02 Jun 2027 05:02:34.690   02 Jun 2027 05:03:09.885            35.195                Irkutsk          2993.000
        47   02 Jun 2027 05:03:11.154   02 Jun 2027 05:03:56.758            45.604                Norilsk           634.500
        48   02 Jun 2027 05:04:06.325   02 Jun 2027 05:04:54.187            47.862                Novosib          4783.500
        49   02 Jun 2027 05:04:58.090   02 Jun 2027 05:05:24.728            26.638                Norilsk          1951.500
        50   02 Jun 2027 05:05:24.894   02 Jun 2027 05:06:00.194            35.300                Norilsk            83.000
        51   02 Jun 2027 05:06:00.632   02 Jun 2027 05:06:02.960             2.328                 Moscow           219.000
        52   02 Jun 2027 05:06:13.160   02 Jun 2027 05:07:06.591            53.431              Murmansk2          5100.000
        53   02 Jun 2027 05:07:14.671   02 Jun 2027 05:08:05.699            51.028              Murmansk2          4040.000
        54   02 Jun 2027 05:08:09.655   02 Jun 2027 05:09:16.188            66.533              Murmansk2          1978.000
        55   02 Jun 2027 06:40:05.199   02 Jun 2027 06:40:43.284            38.085                Norilsk          1553.500
        56   02 Jun 2027 06:40:44.858   02 Jun 2027 06:41:10.672            25.814                Norilsk           787.000
        57   02 Jun 2027 06:41:11.413   02 Jun 2027 06:41:15.342             3.929                Novosib           370.500
        58   02 Jun 2027 06:41:17.180   02 Jun 2027 06:41:39.471            22.291                Norilsk           919.000
        59   02 Jun 2027 06:41:40.733   02 Jun 2027 06:42:16.611            35.878                Novosib           631.000
        60   02 Jun 2027 06:42:18.513   02 Jun 2027 06:42:49.646            31.133                Norilsk           951.000
        61   02 Jun 2027 06:42:51.535   02 Jun 2027 06:43:09.762            18.227                 Moscow           944.500
        62   02 Jun 2027 06:43:15.213   02 Jun 2027 06:44:17.113            61.900              Murmansk1          2725.500
        63   02 Jun 2027 08:13:59.861   02 Jun 2027 08:15:35.242            95.381                 Moscow         10659.500
        64   02 Jun 2027 08:15:44.617   02 Jun 2027 08:16:02.177            17.560                 Moscow          2195.000
        65   02 Jun 2027 08:16:15.837   02 Jun 2027 08:17:41.303            85.466                 Moscow          9322.500
        66   02 Jun 2027 08:17:45.957   02 Jun 2027 08:17:53.725             7.768                Norilsk           971.000
        67   02 Jun 2027 08:17:54.673   02 Jun 2027 08:18:36.585            41.912                 Moscow          1830.000
        68   02 Jun 2027 08:18:41.722   02 Jun 2027 08:19:06.001            24.279              Murmansk1          2568.500
        69   02 Jun 2027 08:19:06.480   02 Jun 2027 08:19:16.125             9.645              Murmansk1           239.500
        70   02 Jun 2027 08:19:19.475   02 Jun 2027 08:19:51.598            32.123                 Moscow          1675.000
        71   02 Jun 2027 08:19:53.462   02 Jun 2027 08:19:55.409             1.947                Norilsk           243.375
        72   02 Jun 2027 08:20:02.541   02 Jun 2027 08:20:40.994            38.453                Norilsk          4254.625
        73   02 Jun 2027 08:20:49.463   02 Jun 2027 08:21:28.152            38.689                Norilsk          4234.500
        74   03 Jun 2027 03:37:28.496   03 Jun 2027 03:39:10.527           102.031                Irkutsk          8532.000
        75   03 Jun 2027 03:39:10.790   03 Jun 2027 03:39:32.284            21.494                Norilsk           131.500
        76   03 Jun 2027 03:39:33.279   03 Jun 2027 03:40:08.112            34.833               Magadan1           497.500
        77   03 Jun 2027 03:40:19.691   03 Jun 2027 03:41:22.903            63.212               Magadan2          5789.500
        78   03 Jun 2027 03:41:25.697   03 Jun 2027 03:41:58.715            33.018               Magadan2          1397.000
        79   03 Jun 2027 03:42:10.084   03 Jun 2027 03:43:07.751            57.667                Novosib          5684.500
        80   03 Jun 2027 03:43:12.321   03 Jun 2027 03:43:56.173            43.852                Novosib          2285.000
        81   03 Jun 2027 03:43:59.157   03 Jun 2027 03:44:24.315            25.158                Norilsk          1492.000
        82   03 Jun 2027 03:44:24.473   03 Jun 2027 03:44:36.820            12.347                Irkutsk            79.000
        83   03 Jun 2027 03:44:51.938   03 Jun 2027 03:44:57.175             5.237              Murmansk1           112.000
        84   03 Jun 2027 05:13:57.905   03 Jun 2027 05:14:15.714            17.809                Novosib          1039.500
        85   03 Jun 2027 05:14:23.755   03 Jun 2027 05:14:29.984             6.229                Novosib           778.625
        86   03 Jun 2027 05:14:33.893   03 Jun 2027 05:15:05.856            31.963                Norilsk          3995.375
        87   03 Jun 2027 05:15:48.261   03 Jun 2027 05:18:42.677           174.416                Irkutsk         21802.000
        88   03 Jun 2027 05:18:50.219   03 Jun 2027 05:20:10.287            80.068                Novosib          4372.500
        89   03 Jun 2027 05:20:20.378   03 Jun 2027 05:21:19.810            59.432                Novosib          5045.500
        90   03 Jun 2027 06:52:10.917   03 Jun 2027 06:53:27.521            76.604                 Moscow          3537.000
        91   03 Jun 2027 06:53:30.793   03 Jun 2027 06:53:46.049            15.256                 Moscow          1636.000
        92   03 Jun 2027 06:53:49.687   03 Jun 2027 06:54:12.210            22.523              Murmansk1          1819.000
        93   03 Jun 2027 06:54:12.583   03 Jun 2027 06:54:23.232            10.649                Norilsk           186.500
        94   03 Jun 2027 06:54:24.244   03 Jun 2027 06:54:38.719            14.475                 Moscow           506.000
        95   03 Jun 2027 06:54:46.503   03 Jun 2027 06:55:28.423            41.920                Norilsk          3892.000
        96   03 Jun 2027 06:55:29.447   03 Jun 2027 06:56:02.557            33.110              Murmansk2           512.000
        97   03 Jun 2027 06:56:06.764   03 Jun 2027 06:56:23.144            16.380              Murmansk1          2047.500
        98   03 Jun 2027 06:56:23.144   03 Jun 2027 06:56:47.461            24.317              Murmansk2            56.000
        99   03 Jun 2027 08:26:04.874   03 Jun 2027 08:27:02.041            57.167                 Moscow          5092.500
       100   03 Jun 2027 08:27:15.528   03 Jun 2027 08:27:35.728            20.200              Murmansk1          2525.000
       101   03 Jun 2027 08:27:35.728   03 Jun 2027 08:28:21.736            46.008              Murmansk2          4218.500
       102   03 Jun 2027 08:28:25.569   03 Jun 2027 08:29:12.999            47.430                 Moscow          1916.500
       103   03 Jun 2027 08:29:22.878   03 Jun 2027 08:30:07.100            44.222              Murmansk1          4939.500
       104   03 Jun 2027 08:30:10.405   03 Jun 2027 08:30:52.075            41.670                 Moscow          1652.500
       105   03 Jun 2027 08:30:52.619   03 Jun 2027 08:30:57.881             5.262                 Moscow           272.000
       106   03 Jun 2027 08:30:58.406   03 Jun 2027 08:31:06.940             8.534                 Moscow           262.500
       107   03 Jun 2027 08:31:12.805   03 Jun 2027 08:31:41.305            28.500                Norilsk          2932.500
       108   03 Jun 2027 08:31:50.208   03 Jun 2027 08:32:40.651            50.443                Norilsk          4451.500
       109   04 Jun 2027 03:49:18.935   04 Jun 2027 03:49:27.740             8.805                Novosib           542.000
       110   04 Jun 2027 03:49:30.528   04 Jun 2027 03:50:19.342            48.814                Novosib          1394.000
       111   04 Jun 2027 03:50:33.289   04 Jun 2027 03:51:34.873            61.584                Norilsk          6973.500
       112   04 Jun 2027 03:51:39.043   04 Jun 2027 03:51:42.163             3.120                Norilsk           390.000
       113   04 Jun 2027 03:51:48.351   04 Jun 2027 03:52:30.613            42.262                Irkutsk          4789.000
       114   04 Jun 2027 03:52:49.325   04 Jun 2027 03:54:20.246            90.921               Magadan2          9356.000
       115   04 Jun 2027 03:54:26.566   04 Jun 2027 03:55:09.029            42.463              Murmansk1          3160.000
       116   04 Jun 2027 03:55:09.405   04 Jun 2027 03:55:18.028             8.623                Norilsk           188.000
       117   04 Jun 2027 03:55:24.417   04 Jun 2027 03:55:55.521            31.104              Murmansk1          3194.500
       118   04 Jun 2027 03:56:00.235   04 Jun 2027 03:56:39.462            39.227                Norilsk          2357.000
       119   04 Jun 2027 05:26:26.601   04 Jun 2027 05:26:57.271            30.670                Novosib          2981.000
       120   04 Jun 2027 05:26:59.536   04 Jun 2027 05:27:46.189            46.653                Norilsk          1132.500
       121   04 Jun 2027 05:27:46.780   04 Jun 2027 05:27:48.230             1.450                Irkutsk           181.250
       122   04 Jun 2027 05:27:55.867   04 Jun 2027 05:28:10.702            14.835                Norilsk          1854.375
       123   04 Jun 2027 05:28:12.653   04 Jun 2027 05:29:16.790            64.137              Murmansk2          3053.875
       124   04 Jun 2027 05:29:20.992   04 Jun 2027 05:29:50.528            29.536                 Moscow          2101.000
       125   04 Jun 2027 05:30:03.533   04 Jun 2027 05:31:04.988            61.455              Murmansk2          6502.500
       126   04 Jun 2027 05:31:13.409   04 Jun 2027 05:31:53.809            40.400                Novosib          2582.500
       127   04 Jun 2027 05:31:54.507   04 Jun 2027 05:32:21.957            27.450                 Moscow           349.000
       128   04 Jun 2027 05:32:28.554   04 Jun 2027 05:34:10.006           101.452                Novosib          2870.500
       129   04 Jun 2027 07:03:32.729   04 Jun 2027 07:04:46.556            73.827              Murmansk1          7280.500
       130   04 Jun 2027 07:04:54.046   04 Jun 2027 07:05:37.452            43.406              Murmansk1          3745.000
       131   04 Jun 2027 07:05:39.443   04 Jun 2027 07:06:19.751            40.308                Novosib           995.500
       132   04 Jun 2027 07:06:27.274   04 Jun 2027 07:07:04.386            37.112                Novosib          3761.500
       133   04 Jun 2027 07:07:11.465   04 Jun 2027 07:07:57.195            45.730              Murmansk2          3539.500
       134   04 Jun 2027 07:07:59.389   04 Jun 2027 07:08:11.916            12.527                Novosib          1097.000
       135   04 Jun 2027 08:38:25.571   04 Jun 2027 08:38:53.857            28.286                 Moscow          2045.500
       136   04 Jun 2027 08:40:08.399   04 Jun 2027 08:40:36.897            28.498                 Moscow          3445.000
       137   04 Jun 2027 08:41:17.934   04 Jun 2027 08:44:06.887           168.953              Murmansk2         20518.500
       138   05 Jun 2027 04:01:53.545   05 Jun 2027 04:03:19.771            86.226                Novosib          4780.500
       139   05 Jun 2027 04:03:27.535   05 Jun 2027 04:04:04.399            36.864                Norilsk          3882.000
       140   05 Jun 2027 04:04:11.475   05 Jun 2027 04:05:07.076            55.601                Norilsk          3538.000
       141   05 Jun 2027 04:05:24.625   05 Jun 2027 04:06:43.507            78.882                Irkutsk          8774.500
       142   05 Jun 2027 04:06:58.269   05 Jun 2027 04:07:56.837            58.568              Murmansk2          7321.000
       143   05 Jun 2027 04:07:56.837   05 Jun 2027 04:08:12.621            15.784              Murmansk1            60.000
       144   05 Jun 2027 04:08:25.439   05 Jun 2027 04:08:42.882            17.443                Irkutsk          2180.375
       145   05 Jun 2027 04:08:55.922   05 Jun 2027 04:09:29.838            33.916                Norilsk          4228.625
       146   05 Jun 2027 05:38:52.277   05 Jun 2027 05:39:54.617            62.340                Norilsk          5673.000
       147   05 Jun 2027 05:39:55.238   05 Jun 2027 05:40:02.353             7.115                Norilsk           310.500
       148   05 Jun 2027 05:40:10.470   05 Jun 2027 05:41:04.067            53.597              Murmansk2          4058.500
       149   05 Jun 2027 05:41:17.606   05 Jun 2027 05:42:20.515            62.909                 Moscow          6769.500
       150   05 Jun 2027 05:42:20.994   05 Jun 2027 05:42:27.842             6.848                Norilsk           239.500
       151   05 Jun 2027 05:42:39.542   05 Jun 2027 05:43:37.973            58.431                 Moscow          5850.000
       152   05 Jun 2027 05:43:39.963   05 Jun 2027 05:43:56.686            16.723                Novosib           995.000
       153   05 Jun 2027 05:44:04.997   05 Jun 2027 05:44:40.120            35.123              Murmansk2          4155.500
       154   05 Jun 2027 07:15:32.728   05 Jun 2027 07:16:13.620            40.892                Novosib           667.000
       155   05 Jun 2027 07:16:20.343   05 Jun 2027 07:17:06.473            46.130              Murmansk2          3361.500
       156   05 Jun 2027 07:17:08.874   05 Jun 2027 07:17:47.575            38.701                Novosib          1200.500
       157   05 Jun 2027 07:17:53.897   05 Jun 2027 07:18:15.299            21.402                 Moscow          2675.250
       158   05 Jun 2027 07:18:17.729   05 Jun 2027 07:18:40.405            22.676                 Moscow          1700.750
       159   05 Jun 2027 07:18:43.926   05 Jun 2027 07:18:58.863            14.937                Norilsk          1760.500
       160   05 Jun 2027 07:19:13.018   05 Jun 2027 07:20:30.393            77.375                Novosib          7077.500
       161   05 Jun 2027 08:53:11.813   05 Jun 2027 08:53:37.242            25.429              Murmansk2            67.000
       162   05 Jun 2027 08:53:49.016   05 Jun 2027 08:54:36.403            47.387              Murmansk2          5887.000
       163   05 Jun 2027 08:55:09.168   05 Jun 2027 08:55:30.466            21.298                 Moscow          2662.250
       164   05 Jun 2027 08:55:31.359   05 Jun 2027 08:56:02.713            31.354              Murmansk2          3050.750
       165   06 Jun 2027 04:14:11.226   06 Jun 2027 04:15:38.679            87.453                Norilsk          9905.500
       166   06 Jun 2027 04:15:48.183   06 Jun 2027 04:16:06.744            18.561                Novosib          2320.125
       167   06 Jun 2027 04:16:09.325   06 Jun 2027 04:16:19.496            10.171                Novosib          1271.375
       168   06 Jun 2027 04:16:23.119   06 Jun 2027 04:17:27.532            64.413                Irkutsk          4262.500
       169   06 Jun 2027 04:17:29.935   06 Jun 2027 04:17:40.740            10.805                Norilsk          1201.500
       170   06 Jun 2027 04:17:43.724   06 Jun 2027 04:18:09.710            25.986              Murmansk1          1492.000
       171   06 Jun 2027 04:18:11.689   06 Jun 2027 04:18:26.188            14.499              Murmansk1           989.500
       172   06 Jun 2027 04:18:28.050   06 Jun 2027 04:18:41.475            13.425                Novosib           931.000
       173   06 Jun 2027 04:18:45.653   06 Jun 2027 04:19:50.484            64.831                Irkutsk          2089.000
       174   06 Jun 2027 04:19:57.980   06 Jun 2027 04:20:41.348            43.368              Murmansk1          3748.000
       175   06 Jun 2027 05:51:40.046   06 Jun 2027 05:52:20.065            40.019                Irkutsk          2349.500
       176   06 Jun 2027 05:52:21.249   06 Jun 2027 05:52:44.280            23.031                 Moscow           592.000
       177   06 Jun 2027 05:52:49.780   06 Jun 2027 05:53:40.114            50.334              Murmansk2          2750.000
       178   06 Jun 2027 05:53:40.858   06 Jun 2027 05:54:02.053            21.195              Murmansk1           372.000
       179   06 Jun 2027 05:54:05.666   06 Jun 2027 05:54:21.323            15.657              Murmansk1          1806.500
       180   06 Jun 2027 05:54:32.375   06 Jun 2027 05:55:46.597            74.222                Irkutsk          5526.000
       181   06 Jun 2027 05:55:55.132   06 Jun 2027 05:56:33.175            38.043                 Moscow          4267.500
       182   06 Jun 2027 07:27:44.644   06 Jun 2027 07:27:58.944            14.300                Norilsk          1607.000
       183   06 Jun 2027 07:27:59.626   06 Jun 2027 07:28:12.720            13.094                Novosib           341.000
       184   06 Jun 2027 07:28:20.978   06 Jun 2027 07:29:28.169            67.191              Murmansk1          4129.000
       185   06 Jun 2027 07:29:34.674   06 Jun 2027 07:30:01.785            27.111                 Moscow          3252.500
       186   06 Jun 2027 07:30:05.277   06 Jun 2027 07:30:19.843            14.566              Murmansk1          1746.000
       187   06 Jun 2027 07:30:24.908   06 Jun 2027 07:30:46.201            21.293                 Moscow          2532.500
       188   06 Jun 2027 07:30:53.940   06 Jun 2027 07:31:40.794            46.854              Murmansk1          3869.500
       189   06 Jun 2027 07:31:46.732   06 Jun 2027 07:32:20.234            33.502                Norilsk          2969.000
       190   07 Jun 2027 04:26:35.169   07 Jun 2027 04:27:47.088            71.919                Novosib          4869.000
       191   07 Jun 2027 04:27:57.485   07 Jun 2027 04:29:05.172            67.687                Irkutsk          5198.500
       192   07 Jun 2027 04:29:16.556   07 Jun 2027 04:30:35.353            78.797                Novosib          5692.000
       193   07 Jun 2027 04:30:47.372   07 Jun 2027 04:31:58.914            71.542              Murmansk2          6009.500
       194   07 Jun 2027 04:32:08.305   07 Jun 2027 04:32:54.396            46.091              Murmansk2          4695.500
       195   07 Jun 2027 06:03:46.889   07 Jun 2027 06:04:39.506            52.617              Murmansk1          2731.500
       196   07 Jun 2027 06:04:55.715   07 Jun 2027 06:05:49.098            53.383                Norilsk          6672.875
       197   07 Jun 2027 06:05:49.332   07 Jun 2027 06:06:12.431            23.099                Irkutsk          1548.625
       198   07 Jun 2027 06:06:18.526   07 Jun 2027 06:06:52.073            33.547                 Moscow          3047.500
       199   07 Jun 2027 06:06:55.965   07 Jun 2027 06:07:20.316            24.351                Norilsk          1946.000
       200   07 Jun 2027 06:07:29.373   07 Jun 2027 06:08:50.776            81.403                Norilsk          4528.500
       201   07 Jun 2027 07:40:09.776   07 Jun 2027 07:40:34.304            24.528                Norilsk          3066.000
       202   07 Jun 2027 07:40:34.996   07 Jun 2027 07:41:49.308            74.312                Novosib          4346.500
       203   07 Jun 2027 07:41:55.335   07 Jun 2027 07:42:25.921            30.586                Norilsk          3013.500
       204   07 Jun 2027 07:42:37.494   07 Jun 2027 07:43:40.296            62.802                Novosib          5786.500
       205   07 Jun 2027 07:43:42.664   07 Jun 2027 07:44:15.983            33.319                Norilsk          1184.000
       206   07 Jun 2027 07:44:23.215   07 Jun 2027 07:44:50.259            27.044                 Moscow          3380.500
       207   07 Jun 2027 07:44:53.032   07 Jun 2027 07:45:15.308            22.276              Murmansk2           235.500
       208   08 Jun 2027 03:01:41.842   08 Jun 2027 03:01:58.086            16.244                Norilsk          1046.500
       209   08 Jun 2027 03:02:11.253   08 Jun 2027 03:03:08.075            56.822               Magadan2          6583.500
       210   08 Jun 2027 03:03:08.211   08 Jun 2027 03:03:19.041            10.830                Norilsk            68.000
       211   08 Jun 2027 03:03:30.960   08 Jun 2027 03:04:17.414            46.454                Norilsk          5806.750
       212   08 Jun 2027 03:04:20.185   08 Jun 2027 03:04:40.118            19.933                Novosib          1538.250
       213   08 Jun 2027 03:04:50.072   08 Jun 2027 03:05:43.590            53.518                Norilsk          4977.000
       214   08 Jun 2027 03:05:48.916   08 Jun 2027 03:06:44.302            55.386                Norilsk          2663.000
       215   08 Jun 2027 03:06:45.313   08 Jun 2027 03:07:18.098            32.785               Magadan2           505.500
       216   08 Jun 2027 03:07:18.718   08 Jun 2027 03:07:58.425            39.707              Murmansk1           310.000
       217   08 Jun 2027 03:08:04.502   08 Jun 2027 03:09:02.692            58.190              Murmansk2          3038.500
       218   08 Jun 2027 04:38:09.768   08 Jun 2027 04:38:54.745            44.977                Norilsk          5335.000
       219   08 Jun 2027 04:39:07.776   08 Jun 2027 04:39:36.094            28.318                Norilsk          3539.750
       220   08 Jun 2027 04:39:37.174   08 Jun 2027 04:40:14.732            37.558                Novosib          3515.750
       221   08 Jun 2027 04:40:43.390   08 Jun 2027 04:42:44.629           121.239                Norilsk         14329.000
       222   08 Jun 2027 04:42:50.124   08 Jun 2027 04:43:17.716            27.592                Novosib          2747.500
       223   08 Jun 2027 04:43:28.496   08 Jun 2027 04:44:18.580            50.084              Murmansk2          5390.000
       224   08 Jun 2027 04:44:45.201   08 Jun 2027 04:45:33.437            48.236              Murmansk2          2555.000
       225   08 Jun 2027 06:16:16.333   08 Jun 2027 06:16:56.207            39.874                Norilsk          1051.000
       226   08 Jun 2027 06:17:05.866   08 Jun 2027 06:17:48.366            42.500                Novosib          4829.500
       227   08 Jun 2027 06:17:49.854   08 Jun 2027 06:17:58.148             8.294                Norilsk           744.000
       228   08 Jun 2027 06:17:58.595   08 Jun 2027 06:18:06.769             8.174              Murmansk2           223.500
       229   08 Jun 2027 06:18:09.456   08 Jun 2027 06:18:36.703            27.247                Irkutsk          1343.500
       230   08 Jun 2027 06:18:38.990   08 Jun 2027 06:18:55.692            16.702              Murmansk2          1143.500
       231   08 Jun 2027 06:19:06.498   08 Jun 2027 06:20:19.915            73.417                 Moscow          5403.000
       232   08 Jun 2027 07:51:37.576   08 Jun 2027 07:52:06.307            28.731              Murmansk2          1439.000
       233   08 Jun 2027 07:52:13.868   08 Jun 2027 07:52:28.009            14.141              Murmansk1          1767.625
       234   08 Jun 2027 07:52:28.009   08 Jun 2027 07:53:07.911            39.902              Murmansk2          2012.875
       235   08 Jun 2027 07:53:38.383   08 Jun 2027 07:55:51.530           133.147                 Moscow         15236.000
       236   08 Jun 2027 07:56:10.033   08 Jun 2027 07:56:21.249            11.216                 Moscow          1402.000
       237   08 Jun 2027 07:56:36.903   08 Jun 2027 07:56:42.124             5.221                Norilsk           652.625
       238   08 Jun 2027 07:56:42.738   08 Jun 2027 07:57:53.821            71.083                 Moscow          7662.375
       239   09 Jun 2027 03:13:19.922   09 Jun 2027 03:13:28.921             8.999               Magadan2          1124.875
       240   09 Jun 2027 03:13:32.497   09 Jun 2027 03:13:51.873            19.376                Novosib          2422.000
       241   09 Jun 2027 03:13:58.904   09 Jun 2027 03:14:54.484            55.580                Irkutsk          5158.625
       242   09 Jun 2027 03:15:01.143   09 Jun 2027 03:15:56.335            55.192               Magadan2          3329.500
       243   09 Jun 2027 03:16:00.992   09 Jun 2027 03:16:25.968            24.976                Novosib          2328.500
       244   09 Jun 2027 03:16:28.394   09 Jun 2027 03:16:46.842            18.448                Norilsk          1213.000
       245   09 Jun 2027 03:16:48.775   09 Jun 2027 03:17:33.071            44.296               Magadan1           966.500
       246   09 Jun 2027 03:17:33.912   09 Jun 2027 03:18:32.385            58.473               Magadan2           420.500
       247   09 Jun 2027 03:18:33.003   09 Jun 2027 03:18:37.971             4.968               Magadan2           309.000
       248   09 Jun 2027 03:18:45.448   09 Jun 2027 03:19:17.915            32.467               Magadan2          3738.500
       249   09 Jun 2027 03:19:20.300   09 Jun 2027 03:19:28.851             8.551                Irkutsk          1068.875
       250   09 Jun 2027 03:19:34.017   09 Jun 2027 03:19:59.813            25.796                Norilsk          2706.625
       251   09 Jun 2027 03:20:06.259   09 Jun 2027 03:20:39.544            33.285              Murmansk2          3223.000
       252   09 Jun 2027 03:20:39.880   09 Jun 2027 03:20:46.805             6.925                Irkutsk           168.000
       253   09 Jun 2027 03:21:32.548   09 Jun 2027 03:21:37.455             4.907              Murmansk1           482.500
       254   09 Jun 2027 04:50:34.163   09 Jun 2027 04:51:41.499            67.336                Irkutsk          7721.000
       255   09 Jun 2027 04:51:42.006   09 Jun 2027 04:52:02.919            20.913                Irkutsk           253.500
       256   09 Jun 2027 04:52:09.892   09 Jun 2027 04:52:23.172            13.280                Norilsk          1660.000
       257   09 Jun 2027 04:52:25.258   09 Jun 2027 04:53:35.438            70.180                Irkutsk          2869.500
       258   09 Jun 2027 04:53:38.942   09 Jun 2027 04:54:04.237            25.295                Norilsk          1752.000
       259   09 Jun 2027 04:54:09.967   09 Jun 2027 04:54:35.286            25.319              Murmansk1          2865.000
       260   09 Jun 2027 04:54:36.364   09 Jun 2027 04:54:52.733            16.369                Novosib           539.000
       261   09 Jun 2027 04:55:10.611   09 Jun 2027 04:55:51.726            41.115                Norilsk          5139.375
       262   09 Jun 2027 04:55:56.822   09 Jun 2027 04:56:58.301            61.479                 Moscow          6347.625
       263   09 Jun 2027 06:28:18.056   09 Jun 2027 06:28:56.960            38.904                Norilsk           461.500
       264   09 Jun 2027 06:28:57.898   09 Jun 2027 06:29:45.402            47.504                 Moscow           469.000
       265   09 Jun 2027 06:29:57.551   09 Jun 2027 06:31:35.977            98.426              Murmansk1          6074.500
       266   09 Jun 2027 06:31:45.131   09 Jun 2027 06:32:56.112            70.981                Novosib          4577.000
       267   09 Jun 2027 08:01:36.142   09 Jun 2027 08:01:43.591             7.449                 Moscow           931.125
       268   09 Jun 2027 08:02:05.394   09 Jun 2027 08:04:20.526           135.132                 Moscow         15119.875
       269   09 Jun 2027 08:04:20.833   09 Jun 2027 08:04:58.826            37.993              Murmansk2           153.500
       270   09 Jun 2027 08:05:17.713   09 Jun 2027 08:06:48.219            90.506                Norilsk          9443.500
       271   09 Jun 2027 08:06:53.025   09 Jun 2027 08:07:19.376            26.351                Norilsk          2403.000
       272   09 Jun 2027 08:07:23.961   09 Jun 2027 08:08:38.277            74.316              Murmansk2          2292.500
       273   09 Jun 2027 08:08:42.901   09 Jun 2027 08:09:28.538            45.637              Murmansk2          2312.000
       274   10 Jun 2027 03:25:37.581   10 Jun 2027 03:26:15.911            38.330               Magadan2          2840.000
       275   10 Jun 2027 03:26:26.917   10 Jun 2027 03:27:05.937            39.020                Norilsk          4877.500
       276   10 Jun 2027 03:27:09.634   10 Jun 2027 03:27:50.826            41.192               Magadan2          2474.000
       277   10 Jun 2027 03:27:51.845   10 Jun 2027 03:28:09.605            17.760                Irkutsk           509.500
       278   10 Jun 2027 03:28:15.146   10 Jun 2027 03:28:47.659            32.513                Novosib          2770.500
       279   10 Jun 2027 03:28:48.433   10 Jun 2027 03:29:05.306            16.873               Magadan1           387.000
       280   10 Jun 2027 03:29:11.538   10 Jun 2027 03:29:39.094            27.556                Norilsk          3116.000
       281   10 Jun 2027 03:29:44.938   10 Jun 2027 03:30:25.152            40.214                Irkutsk          2922.000
       282   10 Jun 2027 03:30:27.168   10 Jun 2027 03:30:55.953            28.785                Norilsk          1008.000
       283   10 Jun 2027 03:30:57.010   10 Jun 2027 03:31:47.824            50.814               Magadan2           528.500
       284   10 Jun 2027 03:31:50.202   10 Jun 2027 03:32:15.385            25.183                Norilsk          1189.000
       285   10 Jun 2027 03:32:24.876   10 Jun 2027 03:33:19.572            54.696              Murmansk2          4745.500
       286   10 Jun 2027 05:02:23.153   10 Jun 2027 05:02:43.769            20.616                Novosib          1559.000
       287   10 Jun 2027 05:02:50.267   10 Jun 2027 05:03:24.646            34.379                Irkutsk          3249.000
       288   10 Jun 2027 05:03:28.620   10 Jun 2027 05:04:11.614            42.994                Norilsk          1987.000
       289   10 Jun 2027 05:04:14.687   10 Jun 2027 05:04:23.648             8.961                Norilsk          1120.125
       290   10 Jun 2027 05:04:24.726   10 Jun 2027 05:05:08.639            43.913                Novosib           955.375
       291   10 Jun 2027 05:05:12.719   10 Jun 2027 05:05:39.454            26.735                Norilsk          2040.000
       292   10 Jun 2027 05:05:41.509   10 Jun 2027 05:06:15.420            33.911                Norilsk          1027.500
       293   10 Jun 2027 05:06:16.981   10 Jun 2027 05:06:30.315            13.334              Murmansk2           780.500
       294   10 Jun 2027 05:06:31.025   10 Jun 2027 05:07:22.125            51.100              Murmansk1           355.000
       295   10 Jun 2027 05:07:22.591   10 Jun 2027 05:07:44.405            21.814                 Moscow           233.000
       296   10 Jun 2027 05:07:50.175   10 Jun 2027 05:08:42.490            52.315                 Moscow          2885.000
       297   10 Jun 2027 05:08:54.240   10 Jun 2027 05:09:34.361            40.121                 Moscow          2844.500
       298   10 Jun 2027 06:40:19.862   10 Jun 2027 06:40:57.942            38.080                Norilsk          1357.500
       299   10 Jun 2027 06:41:00.302   10 Jun 2027 06:41:27.380            27.078                Norilsk          1180.000
       300   10 Jun 2027 06:41:30.043   10 Jun 2027 06:41:55.385            25.342                Novosib          1331.500
       301   10 Jun 2027 06:41:55.696   10 Jun 2027 06:42:02.616             6.920                Norilsk           155.500
       302   10 Jun 2027 06:42:06.575   10 Jun 2027 06:42:30.130            23.555              Murmansk1          1979.500
       303   10 Jun 2027 06:42:30.136   10 Jun 2027 06:42:30.229             0.093              Murmansk1             3.000
       304   10 Jun 2027 06:42:31.426   10 Jun 2027 06:43:10.971            39.545                Novosib           598.500
       305   10 Jun 2027 06:43:14.193   10 Jun 2027 06:43:53.499            39.306                Norilsk          1611.000
       306   10 Jun 2027 06:43:57.099   10 Jun 2027 06:44:54.403            57.304                 Moscow          1800.000
       307   10 Jun 2027 08:14:14.568   10 Jun 2027 08:15:15.507            60.939                 Moscow          7617.375
       308   10 Jun 2027 08:15:23.485   10 Jun 2027 08:16:50.478            86.993              Murmansk2          7168.625
       309   10 Jun 2027 08:17:30.698   10 Jun 2027 08:19:57.694           146.996              Murmansk2         18374.500
       310   10 Jun 2027 08:19:57.694   10 Jun 2027 08:20:32.020            34.326              Murmansk1          1735.500
       311   10 Jun 2027 08:20:33.121   10 Jun 2027 08:21:22.804            49.683              Murmansk2           550.500
       312   11 Jun 2027 03:37:42.974   11 Jun 2027 03:39:24.312           101.338                Irkutsk          8362.000
       313   11 Jun 2027 03:39:26.065   11 Jun 2027 03:39:50.590            24.525                Norilsk           876.500
       314   11 Jun 2027 03:39:53.167   11 Jun 2027 03:40:07.000            13.833                Norilsk          1288.500
       315   11 Jun 2027 03:40:10.261   11 Jun 2027 03:40:31.762            21.501                Irkutsk          1630.500
       316   11 Jun 2027 03:40:35.528   11 Jun 2027 03:41:11.956            36.428               Magadan2          1883.000
       317   11 Jun 2027 03:41:19.278   11 Jun 2027 03:42:27.617            68.339                Novosib          3661.000
       318   11 Jun 2027 03:42:33.961   11 Jun 2027 03:43:33.634            59.673              Murmansk1          3172.000
       319   11 Jun 2027 03:43:35.122   11 Jun 2027 03:44:09.535            34.413              Murmansk2           744.000
       320   11 Jun 2027 03:44:14.141   11 Jun 2027 03:44:39.550            25.409                Novosib          2303.000
       321   11 Jun 2027 03:44:46.905   11 Jun 2027 03:45:34.469            47.564                Novosib          3677.500
       322   11 Jun 2027 05:14:12.730   11 Jun 2027 05:14:30.889            18.159                Novosib          1040.500
       323   11 Jun 2027 05:14:37.924   11 Jun 2027 05:16:29.809           111.885                Novosib          3517.500
       324   11 Jun 2027 05:16:30.519   11 Jun 2027 05:17:14.465            43.946                Novosib           355.000
       325   11 Jun 2027 05:17:22.919   11 Jun 2027 05:18:12.519            49.600                 Moscow          4227.000
       326   11 Jun 2027 05:18:23.171   11 Jun 2027 05:19:05.043            41.872                Novosib          5234.000
       327   11 Jun 2027 05:19:05.822   11 Jun 2027 05:19:29.389            23.567                Norilsk           481.500
       328   11 Jun 2027 05:19:34.817   11 Jun 2027 05:20:35.507            60.690                 Moscow          2714.000
       329   11 Jun 2027 05:20:38.952   11 Jun 2027 05:21:02.615            23.663                Norilsk          1722.500
       330   11 Jun 2027 06:52:25.669   11 Jun 2027 06:53:42.642            76.973                 Moscow          3260.000
       331   11 Jun 2027 06:53:46.625   11 Jun 2027 06:54:05.904            19.279              Murmansk1          1991.500
       332   11 Jun 2027 06:54:09.410   11 Jun 2027 06:54:28.332            18.922                Norilsk          1753.000
       333   11 Jun 2027 06:54:32.207   11 Jun 2027 06:55:28.303            56.096              Murmansk1          1937.500
       334   11 Jun 2027 06:55:44.006   11 Jun 2027 06:57:02.505            78.499              Murmansk2          7851.500
       335   11 Jun 2027 08:26:19.572   11 Jun 2027 08:27:16.669            57.097                 Moscow          4929.000
       336   11 Jun 2027 08:27:37.519   11 Jun 2027 08:29:40.383           122.864              Murmansk2         10425.000
       337   11 Jun 2027 08:29:48.851   11 Jun 2027 08:30:24.803            35.952              Murmansk1          4234.000
       338   11 Jun 2027 08:30:35.006   11 Jun 2027 08:31:19.408            44.402              Murmansk1          5101.500
       339   11 Jun 2027 08:31:27.656   11 Jun 2027 08:32:06.627            38.971                Norilsk          4124.000
       340   11 Jun 2027 08:32:11.150   11 Jun 2027 08:32:55.359            44.209                Norilsk          2261.500
       341   12 Jun 2027 03:49:44.868   12 Jun 2027 03:50:37.134            52.266                Novosib          6052.000
       342   12 Jun 2027 03:50:49.330   12 Jun 2027 03:51:51.005            61.675                Norilsk          6098.000
       343   12 Jun 2027 03:51:53.534   12 Jun 2027 03:52:18.334            24.800                Norilsk          1264.500
       344   12 Jun 2027 03:52:18.927   12 Jun 2027 03:52:19.431             0.504                Novosib            63.000
       345   12 Jun 2027 03:52:23.914   12 Jun 2027 03:52:47.342            23.428                Novosib          2475.000
       346   12 Jun 2027 03:52:49.351   12 Jun 2027 03:53:39.730            50.379                Irkutsk          1004.500
       347   12 Jun 2027 03:53:40.441   12 Jun 2027 03:54:33.059            52.618                Novosib           355.500
       348   12 Jun 2027 03:54:36.688   12 Jun 2027 03:54:44.082             7.394               Magadan1           924.250
       349   12 Jun 2027 03:54:44.216   12 Jun 2027 03:55:23.600            39.384              Murmansk1           957.250
       350   12 Jun 2027 03:55:25.195   12 Jun 2027 03:55:32.737             7.542                Norilsk           797.500
       351   12 Jun 2027 03:55:35.534   12 Jun 2027 03:56:06.853            31.319                Novosib          1398.500
       352   12 Jun 2027 03:56:11.000   12 Jun 2027 03:56:27.853            16.853              Murmansk1          2073.500
       353   12 Jun 2027 03:56:46.412   12 Jun 2027 03:56:56.164             9.752                Irkutsk          1219.000
       354   12 Jun 2027 03:56:58.937   12 Jun 2027 03:58:08.344            69.407              Murmansk2          8060.500
       355   12 Jun 2027 05:26:41.845   12 Jun 2027 05:27:15.543            33.698                Novosib          3019.000
       356   12 Jun 2027 05:27:46.898   12 Jun 2027 05:29:54.015           127.117                Novosib         15677.500
       357   12 Jun 2027 05:29:57.385   12 Jun 2027 05:30:22.369            24.984              Murmansk1          1685.000
       358   12 Jun 2027 05:30:33.921   12 Jun 2027 05:31:17.942            44.021                Norilsk          5502.625
       359   12 Jun 2027 05:31:19.410   12 Jun 2027 05:31:53.011            33.601                 Moscow          1007.375
       360   12 Jun 2027 05:31:57.532   12 Jun 2027 05:32:16.018            18.486                 Moscow          2260.500
       361   12 Jun 2027 05:32:21.009   12 Jun 2027 05:32:46.967            25.958                Novosib          2495.500
       362   12 Jun 2027 07:03:45.746   12 Jun 2027 07:04:36.660            50.914              Murmansk2          5991.500
       363   12 Jun 2027 07:04:37.258   12 Jun 2027 07:05:00.478            23.220                Norilsk           299.000
       364   12 Jun 2027 07:05:02.849   12 Jun 2027 07:05:29.607            26.758                 Moscow          1185.500
       365   12 Jun 2027 07:05:34.313   12 Jun 2027 07:05:55.892            21.579              Murmansk1          2353.000
       366   12 Jun 2027 07:05:56.701   12 Jun 2027 07:06:04.790             8.089              Murmansk2           404.500
       367   12 Jun 2027 07:06:05.626   12 Jun 2027 07:06:17.621            11.995              Murmansk2           418.000
       368   12 Jun 2027 07:06:23.094   12 Jun 2027 07:06:55.022            31.928                Norilsk          2736.500
       369   12 Jun 2027 07:06:59.275   12 Jun 2027 07:07:49.861            50.586                Norilsk          2126.500
       370   12 Jun 2027 07:08:08.317   12 Jun 2027 07:09:26.108            77.791                 Moscow          9228.000
       371   12 Jun 2027 08:38:39.926   12 Jun 2027 08:39:08.096            28.170                 Moscow          1649.500
       372   12 Jun 2027 08:40:16.810   12 Jun 2027 08:40:25.503             8.693              Murmansk1           125.000
       373   12 Jun 2027 08:40:33.576   12 Jun 2027 08:41:38.281            64.705                 Moscow          4036.500
       374   12 Jun 2027 08:41:50.442   12 Jun 2027 08:42:52.329            61.887              Murmansk2          6080.500
       375   12 Jun 2027 08:43:00.334   12 Jun 2027 08:43:51.204            50.870              Murmansk1          4002.500
       376   13 Jun 2027 04:02:28.505   13 Jun 2027 04:03:47.478            78.973                Norilsk          9871.625
       377   13 Jun 2027 04:03:52.026   13 Jun 2027 04:04:52.741            60.715                Novosib          7131.875
       378   13 Jun 2027 04:04:56.280   13 Jun 2027 04:05:19.379            23.099                Novosib          1769.500
       379   13 Jun 2027 04:05:23.753   13 Jun 2027 04:05:40.743            16.990                Norilsk          2123.750
       380   13 Jun 2027 04:05:43.717   13 Jun 2027 04:06:06.794            23.077                Novosib          1550.250
       381   13 Jun 2027 04:06:10.658   13 Jun 2027 04:06:26.774            16.116              Murmansk2          1932.000
       382   13 Jun 2027 04:06:29.722   13 Jun 2027 04:06:43.754            14.032              Murmansk1          1474.000
       383   13 Jun 2027 04:06:46.606   13 Jun 2027 04:07:12.832            26.226              Murmansk2          1426.000
       384   13 Jun 2027 04:07:17.111   13 Jun 2027 04:07:43.485            26.374              Murmansk2          2139.500
       385   13 Jun 2027 04:07:50.854   13 Jun 2027 04:07:57.739             6.885                Novosib           860.625
       386   13 Jun 2027 04:08:09.180   13 Jun 2027 04:09:58.112           108.932                Novosib          8544.375
       387   13 Jun 2027 05:39:09.468   13 Jun 2027 05:40:10.978            61.510                Norilsk          6819.000
       388   13 Jun 2027 05:40:15.164   13 Jun 2027 05:40:42.287            27.123              Murmansk2          2093.000
       389   13 Jun 2027 05:40:43.942   13 Jun 2027 05:41:14.138            30.196                Novosib           827.500
       390   13 Jun 2027 05:41:18.612   13 Jun 2027 05:41:58.090            39.478              Murmansk2          2237.000
       391   13 Jun 2027 05:41:59.006   13 Jun 2027 05:42:19.318            20.312              Murmansk2           458.000
       392   13 Jun 2027 05:42:21.041   13 Jun 2027 05:42:37.027            15.986              Murmansk1           861.500
       393   13 Jun 2027 05:42:37.847   13 Jun 2027 05:42:59.829            21.982                Norilsk           410.000
       394   13 Jun 2027 05:43:03.530   13 Jun 2027 05:43:48.793            45.263              Murmansk1          1850.500
       395   13 Jun 2027 05:43:48.941   13 Jun 2027 05:43:53.366             4.425                Novosib            74.000
       396   13 Jun 2027 05:43:55.323   13 Jun 2027 05:44:05.257             9.934                 Moscow           978.500
       397   13 Jun 2027 05:44:10.835   13 Jun 2027 05:44:56.298            45.463                Novosib          2789.000
       398   13 Jun 2027 07:15:49.459   13 Jun 2027 07:16:28.110            38.651                Novosib          1578.000
       399   13 Jun 2027 07:16:37.556   13 Jun 2027 07:17:21.699            44.143              Murmansk2          4723.000
       400   13 Jun 2027 07:17:23.531   13 Jun 2027 07:18:02.209            38.678                Novosib           916.000
       401   13 Jun 2027 07:18:03.208   13 Jun 2027 07:18:21.680            18.472              Murmansk1           499.500
       402   13 Jun 2027 07:18:30.123   13 Jun 2027 07:18:55.197            25.074                 Moscow          3134.250
       403   13 Jun 2027 07:18:58.642   13 Jun 2027 07:19:48.727            50.085                Norilsk          2809.750
       404   13 Jun 2027 07:20:03.106   13 Jun 2027 07:21:25.455            82.349              Murmansk2          7189.500
       405   13 Jun 2027 08:53:29.099   13 Jun 2027 08:53:48.690            19.591              Murmansk1           982.000
       406   13 Jun 2027 08:53:52.099   13 Jun 2027 08:54:03.665            11.566              Murmansk2          1445.750
       407   13 Jun 2027 08:54:03.665   13 Jun 2027 08:54:12.067             8.402              Murmansk1           258.750
       408   13 Jun 2027 08:54:20.535   13 Jun 2027 08:55:02.500            41.965                 Moscow          4234.000
       409   13 Jun 2027 08:55:47.926   13 Jun 2027 08:56:03.938            16.012              Murmansk2           106.500
