uniorb/output/strategy_2/Drop/Drop_KinoSat_111301.txt

KinoSat_111301
-------------------------
    Access    *     Start Time (UTCG)     *     Stop Time (UTCG)  *   Duration (s)        *       Station  *  Data (Mbytes)
         1   01 Jun 2027 04:10:27.471   01 Jun 2027 04:11:08.430            40.959              Murmansk2          1279.969
         2   01 Jun 2027 04:11:08.430   01 Jun 2027 04:12:17.293            68.863              Murmansk1          2151.969
         3   01 Jun 2027 05:30:45.352   01 Jun 2027 05:32:56.463           131.111               Magadan1          4097.219
         4   01 Jun 2027 05:33:27.234   01 Jun 2027 05:33:54.432            27.198                Anadyr1           849.937
         5   01 Jun 2027 05:34:14.751   01 Jun 2027 05:34:26.917            12.166               Magadan1           380.188
         6   01 Jun 2027 05:35:15.880   01 Jun 2027 05:35:16.175             0.295               Magadan2             9.219
         7   01 Jun 2027 05:35:16.175   01 Jun 2027 05:36:33.405            77.230               Magadan1          2413.438
         8   01 Jun 2027 07:09:20.270   01 Jun 2027 07:10:47.050            86.780               Magadan2          2711.875
         9   01 Jun 2027 07:11:10.920   01 Jun 2027 07:12:33.588            82.668                Anadyr1          2583.375
        10   01 Jun 2027 08:43:15.997   01 Jun 2027 08:43:41.774            25.777                Novosib           805.531
        11   01 Jun 2027 08:44:37.209   01 Jun 2027 08:45:31.711            54.502                Irkutsk          1703.187
        12   01 Jun 2027 08:46:09.581   01 Jun 2027 08:46:12.759             3.178                Novosib            99.313
        13   01 Jun 2027 08:46:17.370   01 Jun 2027 08:48:06.243           108.873                Irkutsk          3402.281
        14   01 Jun 2027 08:48:14.549   01 Jun 2027 08:49:11.204            56.655                Novosib          1770.469
        15   01 Jun 2027 08:53:13.793   01 Jun 2027 08:53:21.870             8.077                Norilsk           252.406
        16   01 Jun 2027 08:55:55.323   01 Jun 2027 08:56:33.877            38.554              Murmansk1          1204.813
        17   01 Jun 2027 10:02:32.277   01 Jun 2027 10:02:54.174            21.897                Sumatra           684.281
        18   01 Jun 2027 10:04:42.253   01 Jun 2027 10:05:13.995            31.742                Sumatra           991.937
        19   01 Jun 2027 10:07:54.531   01 Jun 2027 10:09:23.513            88.982                Sumatra          2780.688
        20   01 Jun 2027 10:19:11.919   01 Jun 2027 10:20:30.158            78.239                Irkutsk          2444.969
        21   01 Jun 2027 10:21:03.701   01 Jun 2027 10:22:29.395            85.694                Irkutsk          2677.938
        22   01 Jun 2027 10:23:06.153   01 Jun 2027 10:24:13.785            67.632                Irkutsk          2113.500
        23   01 Jun 2027 11:00:23.216   01 Jun 2027 11:01:13.101            49.885            RioGallegos          1558.906
        24   01 Jun 2027 11:34:35.772   01 Jun 2027 11:35:06.906            31.134                Sumatra           972.937
        25   01 Jun 2027 11:38:12.052   01 Jun 2027 11:38:37.927            25.875                Sumatra           808.594
        26   01 Jun 2027 11:39:00.767   01 Jun 2027 11:39:53.408            52.641                Sumatra          1645.031
        27   01 Jun 2027 11:57:07.876   01 Jun 2027 11:57:10.552             2.676                 Moscow            83.625
        28   01 Jun 2027 11:57:15.617   01 Jun 2027 11:59:01.305           105.688                Irkutsk          3302.750
        29   01 Jun 2027 11:59:15.618   01 Jun 2027 12:04:18.583           302.965              Murmansk2          9467.656
        30   01 Jun 2027 12:04:55.526   01 Jun 2027 12:05:33.556            38.030              Murmansk2          1188.437
        31   01 Jun 2027 12:05:33.556   01 Jun 2027 12:05:36.110             2.554              Murmansk1            79.813
        32   01 Jun 2027 12:05:50.268   01 Jun 2027 12:06:48.902            58.634              Murmansk2          1832.313
        33   01 Jun 2027 13:19:42.506   01 Jun 2027 13:21:00.391            77.885                  Delhi          2433.906
        34   01 Jun 2027 13:22:02.415   01 Jun 2027 13:26:25.934           263.519                  Delhi          8234.969
        35   01 Jun 2027 13:28:11.954   01 Jun 2027 13:30:11.171           119.217                Novosib          3725.531
        36   01 Jun 2027 13:30:54.357   01 Jun 2027 13:32:12.368            78.011                Novosib          2437.844
        37   01 Jun 2027 13:32:53.449   01 Jun 2027 13:33:40.041            46.592                Norilsk          1456.000
        38   01 Jun 2027 13:34:10.470   01 Jun 2027 13:36:22.399           131.929                Novosib          4122.781
        39   01 Jun 2027 13:38:53.351   01 Jun 2027 13:41:07.284           133.933                Norilsk          4185.406
        40   01 Jun 2027 13:41:56.491   01 Jun 2027 13:42:49.118            52.627              Murmansk2          1644.594
        41   01 Jun 2027 15:02:39.685   01 Jun 2027 15:03:18.120            38.435                 Moscow          1201.094
        42   01 Jun 2027 15:03:59.160   01 Jun 2027 15:06:43.418           164.258                 Moscow          5133.062
        43   01 Jun 2027 15:07:18.232   01 Jun 2027 15:07:21.477             3.245                 Moscow           101.406
        44   01 Jun 2027 15:07:54.641   01 Jun 2027 15:09:11.100            76.459              Murmansk1          2389.344
        45   01 Jun 2027 15:10:06.407   01 Jun 2027 15:10:23.547            17.140                 Moscow           535.625
        46   01 Jun 2027 15:11:08.122   01 Jun 2027 15:11:48.489            40.367              Murmansk2          1261.469
        47   01 Jun 2027 15:11:56.519   01 Jun 2027 15:15:09.506           192.987                 Moscow          6030.844
        48   01 Jun 2027 15:15:20.981   01 Jun 2027 15:15:21.179             0.198                Norilsk             6.187
        49   01 Jun 2027 15:15:58.009   01 Jun 2027 15:16:35.093            37.084              Murmansk2          1158.875
        50   01 Jun 2027 15:17:05.661   01 Jun 2027 15:18:47.012           101.351              Murmansk2          3167.219
        51   01 Jun 2027 15:24:16.400   01 Jun 2027 15:24:56.385            39.985                Anadyr2          1249.531
        52   01 Jun 2027 15:24:56.385   01 Jun 2027 15:25:09.862            13.477                Anadyr1           421.156
        53   01 Jun 2027 15:26:03.344   01 Jun 2027 15:27:30.468            87.124                Anadyr2          2722.625
        54   01 Jun 2027 16:24:23.746   01 Jun 2027 16:24:57.719            33.973               CapeTown          1061.656
        55   01 Jun 2027 16:25:30.245   01 Jun 2027 16:26:22.192            51.947               CapeTown          1623.344
        56   01 Jun 2027 16:26:56.338   01 Jun 2027 16:28:06.673            70.335               CapeTown          2197.969
        57   01 Jun 2027 16:49:18.929   01 Jun 2027 16:49:33.803            14.874                 Moscow           464.813
        58   01 Jun 2027 16:50:57.949   01 Jun 2027 16:51:52.717            54.768              Murmansk2          1711.500
        59   01 Jun 2027 16:51:52.717   01 Jun 2027 16:54:41.028           168.311              Murmansk1          5259.719
        60   01 Jun 2027 17:02:25.027   01 Jun 2027 17:02:48.314            23.287                Anadyr1           727.719
        61   01 Jun 2027 17:03:26.217   01 Jun 2027 17:04:58.157            91.940                Anadyr1          2873.125
        62   01 Jun 2027 17:05:21.168   01 Jun 2027 17:05:45.852            24.684                Anadyr1           771.375
        63   01 Jun 2027 17:06:09.207   01 Jun 2027 17:06:30.017            20.810                Anadyr1           650.313
        64   01 Jun 2027 17:06:46.339   01 Jun 2027 17:08:09.052            82.713                Anadyr1          2584.781
        65   01 Jun 2027 18:25:30.540   01 Jun 2027 18:29:37.704           247.164              Murmansk2          7723.875
        66   01 Jun 2027 18:37:47.906   01 Jun 2027 18:37:50.413             2.507               Magadan1            78.344
        67   01 Jun 2027 18:38:05.396   01 Jun 2027 18:38:45.744            40.348                Anadyr2          1260.875
        68   01 Jun 2027 18:38:51.714   01 Jun 2027 18:39:27.525            35.811                Anadyr1          1119.094
        69   01 Jun 2027 18:40:22.830   01 Jun 2027 18:40:55.528            32.698                Anadyr1          1021.813
        70   01 Jun 2027 18:41:04.717   01 Jun 2027 18:41:44.091            39.374               Magadan1          1230.437
        71   01 Jun 2027 18:41:44.091   01 Jun 2027 18:42:04.200            20.109               Magadan2           628.406
        72   01 Jun 2027 18:42:20.168   01 Jun 2027 18:42:32.006            11.838                Anadyr1           369.937
        73   01 Jun 2027 18:42:34.084   01 Jun 2027 18:42:54.126            20.042               Magadan2           626.313
        74   01 Jun 2027 18:43:01.567   01 Jun 2027 18:43:37.878            36.311                Anadyr2          1134.719
        75   01 Jun 2027 18:43:56.652   01 Jun 2027 18:44:40.731            44.079                Anadyr2          1377.469
        76   01 Jun 2027 18:44:45.475   01 Jun 2027 18:44:58.005            12.530                Anadyr2           391.562
        77   01 Jun 2027 18:45:16.247   01 Jun 2027 18:46:02.266            46.019               Magadan1          1438.094
        78   01 Jun 2027 20:08:19.986   01 Jun 2027 20:09:45.733            85.747                Anadyr2          2679.594
        79   01 Jun 2027 20:10:01.794   01 Jun 2027 20:10:26.251            24.457                Anadyr1           764.281
        80   01 Jun 2027 20:10:34.200   01 Jun 2027 20:10:50.578            16.378                Anadyr2           511.812
        81   01 Jun 2027 20:11:05.451   01 Jun 2027 20:11:11.702             6.251               Magadan1           195.344
        82   01 Jun 2027 20:11:15.465   01 Jun 2027 20:11:23.048             7.583                Anadyr2           236.969
        83   01 Jun 2027 20:11:35.206   01 Jun 2027 20:13:29.047           113.841                Norilsk          3557.531
        84   01 Jun 2027 20:15:10.095   01 Jun 2027 20:15:16.350             6.255               Magadan2           195.469
        85   01 Jun 2027 20:15:16.350   01 Jun 2027 20:15:20.937             4.587               Magadan1           143.344
        86   01 Jun 2027 20:15:26.542   01 Jun 2027 20:15:30.027             3.485               Magadan1           108.906
        87   01 Jun 2027 20:15:35.941   01 Jun 2027 20:15:50.629            14.688                Anadyr1           459.000
        88   01 Jun 2027 20:16:07.910   01 Jun 2027 20:16:39.657            31.747               Magadan1           992.094
        89   01 Jun 2027 20:16:39.657   01 Jun 2027 20:17:12.977            33.320               Magadan2          1041.250
        90   01 Jun 2027 20:17:30.209   01 Jun 2027 20:17:40.931            10.722                Anadyr1           335.062
        91   01 Jun 2027 20:17:41.372   01 Jun 2027 20:18:07.628            26.256               Magadan1           820.500
        92   01 Jun 2027 20:18:34.016   01 Jun 2027 20:18:54.260            20.244               Magadan2           632.625
        93   01 Jun 2027 20:19:07.266   01 Jun 2027 20:19:36.013            28.747                Anadyr2           898.344
        94   01 Jun 2027 20:20:11.452   01 Jun 2027 20:20:27.397            15.945                Anadyr2           498.281
        95   01 Jun 2027 20:20:45.778   01 Jun 2027 20:21:05.246            19.468               Magadan1           608.375
        96   01 Jun 2027 20:21:15.161   01 Jun 2027 20:22:13.505            58.344               Magadan1          1823.250
        97   01 Jun 2027 20:23:25.219   01 Jun 2027 20:23:31.664             6.445               Magadan1           201.406
        98   01 Jun 2027 21:06:54.725   01 Jun 2027 21:07:11.561            16.836            RioGallegos           526.125
        99   01 Jun 2027 21:07:12.645   01 Jun 2027 21:07:35.224            22.579            RioGallegos           705.594
       100   01 Jun 2027 21:07:52.940   01 Jun 2027 21:09:14.180            81.240            RioGallegos          2538.750
       101   01 Jun 2027 21:10:42.806   01 Jun 2027 21:11:20.443            37.637            RioGallegos          1176.156
       102   01 Jun 2027 21:12:21.856   01 Jun 2027 21:12:33.813            11.957            RioGallegos           373.656
       103   01 Jun 2027 21:12:39.026   01 Jun 2027 21:12:50.687            11.661            RioGallegos           364.406
       104   01 Jun 2027 21:47:40.783   01 Jun 2027 21:47:44.457             3.674                Anadyr2           114.813
       105   01 Jun 2027 21:47:45.697   01 Jun 2027 21:47:47.890             2.193                Anadyr2            68.531
       106   01 Jun 2027 21:48:04.906   01 Jun 2027 21:48:26.606            21.700                Anadyr2           678.125
       107   01 Jun 2027 21:48:49.926   01 Jun 2027 21:48:54.957             5.031                Norilsk           157.219
       108   01 Jun 2027 21:49:06.794   01 Jun 2027 21:49:10.033             3.239                Anadyr1           101.219
       109   01 Jun 2027 21:49:12.068   01 Jun 2027 21:49:48.035            35.967               Magadan2          1123.969
       110   01 Jun 2027 21:50:44.477   01 Jun 2027 21:51:26.774            42.297                Norilsk          1321.781
       111   01 Jun 2027 21:52:00.856   01 Jun 2027 21:52:01.949             1.093               Magadan2            34.156
       112   01 Jun 2027 21:52:04.061   01 Jun 2027 21:52:06.908             2.847               Magadan2            88.969
       113   01 Jun 2027 21:52:25.596   01 Jun 2027 21:52:36.687            11.091                Anadyr2           346.594
       114   01 Jun 2027 21:52:39.917   01 Jun 2027 21:53:16.576            36.659                Irkutsk          1145.594
       115   01 Jun 2027 21:53:47.200   01 Jun 2027 21:53:51.915             4.715                Norilsk           147.344
       116   01 Jun 2027 21:54:10.151   01 Jun 2027 21:54:21.434            11.283                Norilsk           352.594
       117   01 Jun 2027 21:54:43.473   01 Jun 2027 21:54:55.645            12.172               Magadan2           380.375
       118   01 Jun 2027 21:55:08.139   01 Jun 2027 21:55:26.762            18.623               Magadan2           581.969
       119   01 Jun 2027 21:55:45.591   01 Jun 2027 21:55:49.468             3.877                Norilsk           121.156
       120   01 Jun 2027 21:56:14.527   01 Jun 2027 21:56:47.674            33.147               Magadan2          1035.844
       121   01 Jun 2027 21:57:31.767   01 Jun 2027 21:57:41.374             9.607               Magadan2           300.219
       122   01 Jun 2027 21:57:41.374   01 Jun 2027 21:58:15.420            34.046               Magadan1          1063.937
       123   01 Jun 2027 21:59:07.946   01 Jun 2027 21:59:26.083            18.137                Irkutsk           566.781
       124   01 Jun 2027 21:59:58.920   01 Jun 2027 22:00:50.241            51.321                Irkutsk          1603.781
       125   01 Jun 2027 22:11:35.185   01 Jun 2027 22:11:51.513            16.328                Sumatra           510.250
       126   01 Jun 2027 22:13:46.634   01 Jun 2027 22:16:07.141           140.507                Sumatra          4390.844
       127   01 Jun 2027 23:19:09.031   01 Jun 2027 23:19:22.952            13.921                Anadyr1           435.031
       128   01 Jun 2027 23:20:25.495   01 Jun 2027 23:20:27.017             1.522                Anadyr1            47.563
       129   01 Jun 2027 23:20:27.275   01 Jun 2027 23:20:46.447            19.172                Anadyr2           599.125
       130   01 Jun 2027 23:21:14.334   01 Jun 2027 23:21:26.777            12.443                Anadyr2           388.844
       131   01 Jun 2027 23:22:06.115   01 Jun 2027 23:23:21.435            75.320                Norilsk          2353.750
       132   01 Jun 2027 23:24:33.523   01 Jun 2027 23:24:39.110             5.587               Magadan2           174.594
       133   01 Jun 2027 23:24:45.604   01 Jun 2027 23:24:55.222             9.618               Magadan1           300.563
       134   01 Jun 2027 23:25:37.573   01 Jun 2027 23:25:49.697            12.124               Magadan2           378.875
       135   01 Jun 2027 23:25:51.441   01 Jun 2027 23:25:55.237             3.796                Norilsk           118.625
       136   01 Jun 2027 23:26:13.061   01 Jun 2027 23:27:09.293            56.232                Novosib          1757.250
       137   01 Jun 2027 23:27:58.609   01 Jun 2027 23:28:03.612             5.003               Magadan2           156.344
       138   01 Jun 2027 23:28:36.129   01 Jun 2027 23:28:59.411            23.282               Magadan1           727.562
       139   01 Jun 2027 23:30:08.790   01 Jun 2027 23:30:20.988            12.198               Magadan1           381.188
       140   01 Jun 2027 23:30:53.460   01 Jun 2027 23:31:27.600            34.140                Norilsk          1066.875
       141   01 Jun 2027 23:32:26.965   01 Jun 2027 23:33:19.071            52.106                Novosib          1628.313
       142   01 Jun 2027 23:35:17.973   01 Jun 2027 23:36:49.422            91.449                  Delhi          2857.781
       143   01 Jun 2027 23:41:45.423   01 Jun 2027 23:43:36.575           111.152                  Delhi          3473.500
       144   02 Jun 2027 00:24:00.164   02 Jun 2027 00:25:08.240            68.076            RioGallegos          2127.375
       145   02 Jun 2027 00:55:03.385   02 Jun 2027 00:55:14.351            10.966                Anadyr1           342.687
       146   02 Jun 2027 00:55:17.463   02 Jun 2027 00:55:38.768            21.305                Anadyr2           665.781
       147   02 Jun 2027 00:57:10.852   02 Jun 2027 00:57:34.286            23.434                Anadyr1           732.313
       148   02 Jun 2027 00:58:06.154   02 Jun 2027 00:58:22.307            16.153                Norilsk           504.781
       149   02 Jun 2027 00:58:26.363   02 Jun 2027 00:59:08.131            41.768               Magadan1          1305.250
       150   02 Jun 2027 00:59:13.045   02 Jun 2027 00:59:49.494            36.449                Norilsk          1139.031
       151   02 Jun 2027 01:00:44.499   02 Jun 2027 01:00:53.403             8.904              Murmansk1           278.250
       152   02 Jun 2027 01:01:27.861   02 Jun 2027 01:02:12.057            44.196                Norilsk          1381.125
       153   02 Jun 2027 01:03:31.287   02 Jun 2027 01:03:44.959            13.672              Murmansk2           427.250
       154   02 Jun 2027 01:04:04.131   02 Jun 2027 01:04:52.689            48.558              Murmansk1          1517.438
       155   02 Jun 2027 01:07:29.334   02 Jun 2027 01:07:30.360             1.026                 Moscow            32.062
       156   02 Jun 2027 01:08:05.736   02 Jun 2027 01:08:19.546            13.810                Novosib           431.563
       157   02 Jun 2027 01:08:33.163   02 Jun 2027 01:09:35.546            62.383                 Moscow          1949.469
       158   02 Jun 2027 01:12:43.171   02 Jun 2027 01:12:59.927            16.756                Novosib           523.625
       159   02 Jun 2027 01:13:15.168   02 Jun 2027 01:13:27.027            11.859                Novosib           370.594
       160   02 Jun 2027 01:17:21.613   02 Jun 2027 01:18:12.798            51.185                  Delhi          1599.531
       161   02 Jun 2027 01:19:03.672   02 Jun 2027 01:19:34.768            31.096                  Delhi           971.750
       162   02 Jun 2027 01:52:58.791   02 Jun 2027 01:53:52.872            54.081            RioGallegos          1690.031
       163   02 Jun 2027 02:25:55.731   02 Jun 2027 02:26:47.259            51.528                Anadyr1          1610.250
       164   02 Jun 2027 02:26:47.259   02 Jun 2027 02:27:35.741            48.482                Anadyr2          1515.062
       165   02 Jun 2027 02:30:00.861   02 Jun 2027 02:30:10.482             9.621                Anadyr1           300.656
       166   02 Jun 2027 02:31:07.415   02 Jun 2027 02:31:19.707            12.292                Anadyr2           384.125
       167   02 Jun 2027 02:31:20.824   02 Jun 2027 02:31:42.975            22.151               Magadan1           692.219
       168   02 Jun 2027 02:31:42.975   02 Jun 2027 02:32:11.693            28.718               Magadan2           897.438
       169   02 Jun 2027 02:33:36.737   02 Jun 2027 02:33:47.116            10.379               Magadan1           324.344
       170   02 Jun 2027 02:34:58.660   02 Jun 2027 02:35:12.741            14.081                Norilsk           440.031
       171   02 Jun 2027 02:35:25.298   02 Jun 2027 02:36:03.046            37.748               Magadan1          1179.625
       172   02 Jun 2027 02:37:58.321   02 Jun 2027 02:38:12.016            13.695              Murmansk2           427.969
       173   02 Jun 2027 02:38:49.609   02 Jun 2027 02:38:57.335             7.726              Murmansk2           241.438
       174   02 Jun 2027 02:39:40.521   02 Jun 2027 02:39:41.951             1.430                 Moscow            44.688
       175   02 Jun 2027 02:39:45.668   02 Jun 2027 02:40:07.560            21.892                Novosib           684.125
       176   02 Jun 2027 02:40:36.970   02 Jun 2027 02:41:02.663            25.693                Novosib           802.906
       177   02 Jun 2027 02:42:27.613   02 Jun 2027 02:43:19.386            51.773                 Moscow          1617.906
       178   02 Jun 2027 02:46:23.656   02 Jun 2027 02:47:01.621            37.965                Novosib          1186.406
       179   02 Jun 2027 02:49:39.535   02 Jun 2027 02:50:24.163            44.628                 Moscow          1394.625
       180   02 Jun 2027 03:11:25.420   02 Jun 2027 03:11:56.333            30.913               CapeTown           966.031
       181   02 Jun 2027 03:14:49.012   02 Jun 2027 03:15:50.059            61.047               CapeTown          1907.719
       182   02 Jun 2027 04:21:13.735   02 Jun 2027 04:22:14.785            61.050              Murmansk2          1907.812
       183   02 Jun 2027 04:23:51.791   02 Jun 2027 04:24:00.495             8.704              Murmansk2           272.000
       184   02 Jun 2027 04:26:24.901   02 Jun 2027 04:27:05.208            40.307                 Moscow          1259.594
       185   02 Jun 2027 05:44:37.656   02 Jun 2027 05:45:42.986            65.330               Magadan1          2041.562
       186   02 Jun 2027 05:45:49.333   02 Jun 2027 05:47:44.093           114.760                Anadyr2          3586.250
       187   02 Jun 2027 05:48:18.540   02 Jun 2027 05:48:56.116            37.576                Anadyr1          1174.250
       188   02 Jun 2027 05:54:30.831   02 Jun 2027 05:54:55.391            24.560                Norilsk           767.500
       189   02 Jun 2027 07:20:49.147   02 Jun 2027 07:22:23.565            94.418               Magadan2          2950.563
       190   02 Jun 2027 07:23:11.457   02 Jun 2027 07:24:29.104            77.647                Anadyr2          2426.469
       191   02 Jun 2027 08:55:35.688   02 Jun 2027 08:57:15.164            99.476                Novosib          3108.625
       192   02 Jun 2027 08:57:34.582   02 Jun 2027 08:58:46.422            71.840               Magadan2          2245.000
       193   02 Jun 2027 08:58:57.716   02 Jun 2027 09:00:02.230            64.514              Murmansk1          2016.063
       194   02 Jun 2027 09:00:02.304   02 Jun 2027 09:00:22.323            20.019                Norilsk           625.594
       195   02 Jun 2027 09:00:45.313   02 Jun 2027 09:00:48.343             3.030              Murmansk1            94.688
       196   02 Jun 2027 09:01:02.159   02 Jun 2027 09:01:19.755            17.596                Novosib           549.875
       197   02 Jun 2027 09:05:35.502   02 Jun 2027 09:05:42.594             7.092              Murmansk2           221.625
       198   02 Jun 2027 09:05:55.098   02 Jun 2027 09:06:19.548            24.450              Murmansk1           764.063
       199   02 Jun 2027 09:34:56.871   02 Jun 2027 09:35:59.990            63.119            RioGallegos          1972.469
       200   02 Jun 2027 10:10:58.533   02 Jun 2027 10:12:08.971            70.438                Sumatra          2201.187
       201   02 Jun 2027 10:23:00.265   02 Jun 2027 10:23:08.271             8.006                  Delhi           250.188
       202   02 Jun 2027 10:23:40.404   02 Jun 2027 10:24:03.799            23.395                  Delhi           731.094
       203   02 Jun 2027 10:30:02.413   02 Jun 2027 10:30:07.837             5.424                Novosib           169.500
       204   02 Jun 2027 10:30:28.608   02 Jun 2027 10:31:38.630            70.022                Norilsk          2188.187
       205   02 Jun 2027 10:31:45.016   02 Jun 2027 10:31:57.909            12.893                Novosib           402.906
       206   02 Jun 2027 10:31:58.752   02 Jun 2027 10:33:50.613           111.861                Irkutsk          3495.656
       207   02 Jun 2027 10:33:55.492   02 Jun 2027 10:34:00.562             5.070                Novosib           158.437
       208   02 Jun 2027 10:34:07.217   02 Jun 2027 10:34:13.722             6.505                Norilsk           203.281
       209   02 Jun 2027 10:34:23.501   02 Jun 2027 10:34:33.931            10.430                Irkutsk           325.938
       210   02 Jun 2027 10:34:43.399   02 Jun 2027 10:35:05.902            22.503                Irkutsk           703.219
       211   02 Jun 2027 10:35:27.018   02 Jun 2027 10:35:53.145            26.127                Norilsk           816.469
       212   02 Jun 2027 10:37:42.644   02 Jun 2027 10:38:40.955            58.311              Murmansk2          1822.219
       213   02 Jun 2027 11:12:57.142   02 Jun 2027 11:13:27.633            30.491            RioGallegos           952.844
       214   02 Jun 2027 11:14:30.991   02 Jun 2027 11:15:03.297            32.306            RioGallegos          1009.562
       215   02 Jun 2027 11:47:10.744   02 Jun 2027 11:47:32.851            22.107                Sumatra           690.844
       216   02 Jun 2027 11:52:03.363   02 Jun 2027 11:52:13.517            10.154                Sumatra           317.312
       217   02 Jun 2027 11:55:11.283   02 Jun 2027 11:57:14.466           123.183                  Delhi          3849.469
       218   02 Jun 2027 12:12:53.852   02 Jun 2027 12:13:04.600            10.748              Murmansk1           335.875
       219   02 Jun 2027 12:13:41.217   02 Jun 2027 12:14:10.836            29.619                Norilsk           925.594
       220   02 Jun 2027 12:16:05.868   02 Jun 2027 12:16:25.059            19.191              Murmansk1           599.719
       221   02 Jun 2027 13:32:35.975   02 Jun 2027 13:35:01.619           145.644                  Delhi          4551.375
       222   02 Jun 2027 13:38:58.307   02 Jun 2027 13:39:42.101            43.794                 Moscow          1368.562
       223   02 Jun 2027 13:40:16.265   02 Jun 2027 13:40:29.108            12.843                  Delhi           401.344
       224   02 Jun 2027 13:41:07.847   02 Jun 2027 13:42:14.811            66.964                Novosib          2092.625
       225   02 Jun 2027 13:43:14.250   02 Jun 2027 13:43:37.780            23.530              Murmansk1           735.313
       226   02 Jun 2027 13:43:41.076   02 Jun 2027 13:44:20.905            39.829              Murmansk2          1244.656
       227   02 Jun 2027 13:44:29.648   02 Jun 2027 13:44:55.219            25.571                Norilsk           799.094
       228   02 Jun 2027 13:45:03.648   02 Jun 2027 13:45:37.914            34.266                Novosib          1070.813
       229   02 Jun 2027 13:47:45.898   02 Jun 2027 13:49:13.725            87.827                Norilsk          2744.594
       230   02 Jun 2027 14:55:08.867   02 Jun 2027 14:57:03.098           114.231               CapeTown          3569.719
       231   02 Jun 2027 15:14:53.667   02 Jun 2027 15:15:10.391            16.724                 Moscow           522.625
       232   02 Jun 2027 15:15:31.555   02 Jun 2027 15:16:02.034            30.479                 Moscow           952.469
       233   02 Jun 2027 15:18:20.912   02 Jun 2027 15:18:49.194            28.282              Murmansk1           883.813
       234   02 Jun 2027 15:19:15.800   02 Jun 2027 15:19:31.712            15.912              Murmansk2           497.250
       235   02 Jun 2027 15:21:24.780   02 Jun 2027 15:21:33.806             9.026              Murmansk2           282.062
       236   02 Jun 2027 15:23:08.677   02 Jun 2027 15:23:10.695             2.018              Murmansk2            63.063
       237   02 Jun 2027 15:23:17.048   02 Jun 2027 15:23:27.421            10.373              Murmansk1           324.156
       238   02 Jun 2027 15:23:27.421   02 Jun 2027 15:23:56.822            29.401              Murmansk2           918.781
       239   02 Jun 2027 15:27:02.529   02 Jun 2027 15:27:19.280            16.751              Murmansk1           523.469
       240   02 Jun 2027 15:29:07.468   02 Jun 2027 15:29:41.649            34.181              Murmansk2          1068.156
       241   02 Jun 2027 15:33:27.109   02 Jun 2027 15:35:13.723           106.614                Anadyr2          3331.688
       242   02 Jun 2027 15:36:17.650   02 Jun 2027 15:36:49.152            31.502                Anadyr2           984.437
       243   02 Jun 2027 15:40:24.501   02 Jun 2027 15:40:28.216             3.715                Anadyr1           116.094
       244   02 Jun 2027 16:33:43.749   02 Jun 2027 16:33:54.045            10.296               CapeTown           321.750
       245   02 Jun 2027 16:34:49.462   02 Jun 2027 16:34:59.318             9.856               CapeTown           308.000
       246   02 Jun 2027 16:35:51.350   02 Jun 2027 16:35:55.715             4.365               CapeTown           136.406
       247   02 Jun 2027 16:36:41.656   02 Jun 2027 16:37:01.710            20.054               CapeTown           626.688
       248   02 Jun 2027 16:40:01.403   02 Jun 2027 16:40:28.699            27.296               CapeTown           853.000
       249   02 Jun 2027 16:55:34.529   02 Jun 2027 16:56:26.013            51.484                 Moscow          1608.875
       250   02 Jun 2027 16:56:46.865   02 Jun 2027 16:57:11.135            24.270              Murmansk2           758.438
       251   02 Jun 2027 16:57:21.456   02 Jun 2027 16:57:30.629             9.173              Murmansk1           286.656
       252   02 Jun 2027 16:59:15.488   02 Jun 2027 16:59:55.873            40.385              Murmansk1          1262.031
       253   02 Jun 2027 17:03:14.117   02 Jun 2027 17:04:01.417            47.300              Murmansk1          1478.125
       254   02 Jun 2027 17:08:34.727   02 Jun 2027 17:09:36.044            61.317                Anadyr1          1916.156
       255   02 Jun 2027 17:10:01.257   02 Jun 2027 17:10:35.506            34.249                Anadyr1          1070.281
       256   02 Jun 2027 17:13:56.260   02 Jun 2027 17:15:23.237            86.977               Magadan2          2718.031
       257   02 Jun 2027 18:38:53.522   02 Jun 2027 18:40:59.288           125.766              Murmansk1          3930.187
       258   02 Jun 2027 18:44:26.036   02 Jun 2027 18:46:09.301           103.265                Anadyr2          3227.031
       259   02 Jun 2027 18:46:58.077   02 Jun 2027 18:49:35.412           157.335               Magadan1          4916.719
       260   02 Jun 2027 18:56:46.587   02 Jun 2027 18:56:50.139             3.552               Magadan1           111.000
       261   02 Jun 2027 18:57:16.149   02 Jun 2027 18:58:26.666            70.517               Magadan2          2203.656
       262   02 Jun 2027 20:20:20.861   02 Jun 2027 20:22:27.850           126.989                Anadyr2          3968.406
       263   02 Jun 2027 20:22:33.569   02 Jun 2027 20:24:32.467           118.898                Anadyr1          3715.563
       264   02 Jun 2027 20:25:08.877   02 Jun 2027 20:26:29.092            80.215               Magadan2          2506.719
       265   02 Jun 2027 20:26:34.198   02 Jun 2027 20:26:54.497            20.299               Magadan2           634.344
       266   02 Jun 2027 20:27:43.492   02 Jun 2027 20:28:07.971            24.479               Magadan2           764.969
       267   02 Jun 2027 20:34:26.511   02 Jun 2027 20:34:57.039            30.528               Magadan2           954.000
       268   02 Jun 2027 21:14:49.810   02 Jun 2027 21:17:11.095           141.285            RioGallegos          4415.156
       269   02 Jun 2027 21:20:56.587   02 Jun 2027 21:21:05.355             8.768            RioGallegos           274.000
       270   02 Jun 2027 21:23:41.888   02 Jun 2027 21:24:15.767            33.879            RioGallegos          1058.719
       271   02 Jun 2027 21:55:57.827   02 Jun 2027 21:56:40.643            42.816                Anadyr2          1338.000
       272   02 Jun 2027 21:58:11.295   02 Jun 2027 21:58:20.921             9.626                Norilsk           300.813
       273   02 Jun 2027 21:58:40.717   02 Jun 2027 22:00:45.893           125.176               Magadan1          3911.750
       274   02 Jun 2027 22:01:57.408   02 Jun 2027 22:01:57.855             0.447                Norilsk            13.969
       275   02 Jun 2027 22:02:09.670   02 Jun 2027 22:02:38.477            28.807               Magadan2           900.219
       276   02 Jun 2027 22:02:48.481   02 Jun 2027 22:03:17.477            28.996                Irkutsk           906.125
       277   02 Jun 2027 22:03:53.955   02 Jun 2027 22:04:00.077             6.122                Irkutsk           191.312
       278   02 Jun 2027 22:04:06.211   02 Jun 2027 22:04:16.656            10.445                Irkutsk           326.406
       279   02 Jun 2027 22:04:26.868   02 Jun 2027 22:04:58.407            31.539                Novosib           985.594
       280   02 Jun 2027 22:05:03.061   02 Jun 2027 22:05:18.457            15.396                Irkutsk           481.125
       281   02 Jun 2027 22:05:22.927   02 Jun 2027 22:05:39.909            16.982                Novosib           530.688
       282   02 Jun 2027 22:05:55.285   02 Jun 2027 22:06:01.422             6.137                Novosib           191.781
       283   02 Jun 2027 22:08:06.105   02 Jun 2027 22:09:25.669            79.564                Novosib          2486.375
       284   02 Jun 2027 22:18:44.069   02 Jun 2027 22:19:39.731            55.662                Sumatra          1739.438
       285   02 Jun 2027 22:24:07.767   02 Jun 2027 22:25:08.987            61.220                Sumatra          1913.125
       286   02 Jun 2027 23:31:23.665   02 Jun 2027 23:32:24.172            60.507                Anadyr1          1890.844
       287   02 Jun 2027 23:33:08.092   02 Jun 2027 23:33:31.026            22.934                Anadyr1           716.688
       288   02 Jun 2027 23:34:08.231   02 Jun 2027 23:34:31.330            23.099                Norilsk           721.844
       289   02 Jun 2027 23:34:46.957   02 Jun 2027 23:35:19.748            32.791               Magadan1          1024.719
       290   02 Jun 2027 23:35:50.889   02 Jun 2027 23:36:24.885            33.996               Magadan1          1062.375
       291   02 Jun 2027 23:36:41.282   02 Jun 2027 23:36:48.682             7.400               Magadan2           231.250
       292   02 Jun 2027 23:36:52.975   02 Jun 2027 23:37:33.925            40.950                Norilsk          1279.687
       293   02 Jun 2027 23:38:00.331   02 Jun 2027 23:38:23.464            23.133                Irkutsk           722.906
       294   02 Jun 2027 23:38:57.725   02 Jun 2027 23:40:14.797            77.072                Novosib          2408.500
       295   02 Jun 2027 23:42:38.245   02 Jun 2027 23:42:53.446            15.201                Novosib           475.031
       296   02 Jun 2027 23:44:50.243   02 Jun 2027 23:45:36.400            46.157                Novosib          1442.406
       297   02 Jun 2027 23:45:58.428   02 Jun 2027 23:46:32.577            34.149                  Delhi          1067.156
       298   02 Jun 2027 23:47:30.680   02 Jun 2027 23:49:14.338           103.658                  Delhi          3239.312
       299   03 Jun 2027 01:04:16.609   03 Jun 2027 01:04:34.837            18.228                Anadyr1           569.625
       300   03 Jun 2027 01:05:05.691   03 Jun 2027 01:05:39.337            33.646                Anadyr1          1051.438
       301   03 Jun 2027 01:06:18.429   03 Jun 2027 01:06:47.350            28.921                Anadyr1           903.781
       302   03 Jun 2027 01:06:47.350   03 Jun 2027 01:07:18.724            31.374                Anadyr2           980.438
       303   03 Jun 2027 01:10:01.483   03 Jun 2027 01:10:13.259            11.776                Anadyr2           368.000
       304   03 Jun 2027 01:10:14.422   03 Jun 2027 01:10:24.542            10.120                Norilsk           316.250
       305   03 Jun 2027 01:10:42.444   03 Jun 2027 01:12:01.489            79.045               Magadan2          2470.156
       306   03 Jun 2027 01:12:11.840   03 Jun 2027 01:12:12.103             0.263                Norilsk             8.219
       307   03 Jun 2027 01:12:29.908   03 Jun 2027 01:15:02.381           152.473              Murmansk2          4764.781
       308   03 Jun 2027 01:15:47.578   03 Jun 2027 01:15:59.018            11.440                Novosib           357.500
       309   03 Jun 2027 01:17:03.438   03 Jun 2027 01:17:14.104            10.666                Novosib           333.313
       310   03 Jun 2027 01:18:01.761   03 Jun 2027 01:19:15.690            73.929                 Moscow          2310.281
       311   03 Jun 2027 01:28:23.008   03 Jun 2027 01:29:17.879            54.871                  Delhi          1714.719
       312   03 Jun 2027 02:37:40.595   03 Jun 2027 02:39:35.430           114.835                Anadyr1          3588.594
       313   03 Jun 2027 02:39:56.827   03 Jun 2027 02:40:46.366            49.539                Anadyr1          1548.094
       314   03 Jun 2027 02:42:48.700   03 Jun 2027 02:44:04.763            76.063               Magadan1          2376.969
       315   03 Jun 2027 02:45:55.711   03 Jun 2027 02:46:47.429            51.718                Norilsk          1616.187
       316   03 Jun 2027 02:48:15.287   03 Jun 2027 02:48:31.110            15.823              Murmansk2           494.469
       317   03 Jun 2027 02:48:31.110   03 Jun 2027 02:48:58.410            27.300              Murmansk1           853.125
       318   03 Jun 2027 02:50:15.364   03 Jun 2027 02:50:30.685            15.321              Murmansk2           478.781
       319   03 Jun 2027 02:50:37.579   03 Jun 2027 02:52:05.846            88.267                Novosib          2758.344
       320   03 Jun 2027 03:00:14.111   03 Jun 2027 03:01:05.833            51.722                 Moscow          1616.312
       321   03 Jun 2027 03:15:59.236   03 Jun 2027 03:19:00.431           181.195               CapeTown          5662.344
       322   03 Jun 2027 04:34:08.422   03 Jun 2027 04:34:57.738            49.316              Murmansk1          1541.125
       323   03 Jun 2027 04:36:06.565   03 Jun 2027 04:36:20.158            13.593              Murmansk2           424.781
       324   03 Jun 2027 04:36:20.158   03 Jun 2027 04:37:11.133            50.975              Murmansk1          1592.969
       325   03 Jun 2027 05:53:35.646   03 Jun 2027 05:54:44.548            68.902                Anadyr1          2153.188
       326   03 Jun 2027 05:54:51.657   03 Jun 2027 05:56:50.387           118.730               Magadan2          3710.312
       327   03 Jun 2027 05:56:55.639   03 Jun 2027 05:57:31.379            35.740               Magadan1          1116.875
       328   03 Jun 2027 07:30:16.407   03 Jun 2027 07:31:28.638            72.231                Anadyr2          2257.219
       329   03 Jun 2027 07:31:41.715   03 Jun 2027 07:31:50.450             8.735               Magadan2           272.969
       330   03 Jun 2027 07:32:14.106   03 Jun 2027 07:32:35.179            21.073                Norilsk           658.531
       331   03 Jun 2027 07:32:43.332   03 Jun 2027 07:33:03.012            19.680                Norilsk           615.000
       332   03 Jun 2027 07:33:05.194   03 Jun 2027 07:33:26.011            20.817                Anadyr2           650.531
       333   03 Jun 2027 07:33:39.710   03 Jun 2027 07:34:05.639            25.929                Irkutsk           810.281
       334   03 Jun 2027 07:34:13.655   03 Jun 2027 07:35:11.589            57.934                Anadyr2          1810.438
       335   03 Jun 2027 07:39:02.480   03 Jun 2027 07:39:21.813            19.333              Murmansk1           604.156
       336   03 Jun 2027 08:12:20.797   03 Jun 2027 08:12:59.451            38.654            RioGallegos          1207.938
       337   03 Jun 2027 09:04:48.232   03 Jun 2027 09:05:06.300            18.068               Magadan1           564.625
       338   03 Jun 2027 09:05:16.251   03 Jun 2027 09:05:43.667            27.416               Magadan1           856.750
       339   03 Jun 2027 09:05:43.667   03 Jun 2027 09:07:04.842            81.175               Magadan2          2536.719
       340   03 Jun 2027 09:07:47.364   03 Jun 2027 09:08:11.465            24.101                Norilsk           753.156
       341   03 Jun 2027 09:08:17.873   03 Jun 2027 09:08:54.009            36.136               Magadan2          1129.250
       342   03 Jun 2027 09:09:03.270   03 Jun 2027 09:10:45.262           101.992               Magadan2          3187.250
       343   03 Jun 2027 09:10:54.991   03 Jun 2027 09:11:09.485            14.494                Irkutsk           452.938
       344   03 Jun 2027 09:11:25.716   03 Jun 2027 09:11:51.404            25.688              Murmansk1           802.750
       345   03 Jun 2027 09:12:01.368   03 Jun 2027 09:12:20.613            19.245                Norilsk           601.406
       346   03 Jun 2027 09:13:13.698   03 Jun 2027 09:13:44.757            31.059              Murmansk1           970.594
       347   03 Jun 2027 09:15:36.283   03 Jun 2027 09:15:42.534             6.251              Murmansk2           195.344
       348   03 Jun 2027 09:47:00.065   03 Jun 2027 09:47:44.971            44.906            RioGallegos          1403.313
       349   03 Jun 2027 09:49:59.987   03 Jun 2027 09:50:15.773            15.786            RioGallegos           493.312
       350   03 Jun 2027 09:54:21.723   03 Jun 2027 09:54:43.118            21.395            RioGallegos           668.594
       351   03 Jun 2027 10:22:03.852   03 Jun 2027 10:22:49.407            45.555                Sumatra          1423.594
       352   03 Jun 2027 10:33:40.179   03 Jun 2027 10:35:14.885            94.706                  Delhi          2959.562
       353   03 Jun 2027 10:42:08.419   03 Jun 2027 10:43:20.051            71.632                Novosib          2238.500
       354   03 Jun 2027 10:43:29.577   03 Jun 2027 10:44:18.888            49.311                Irkutsk          1540.969
       355   03 Jun 2027 10:44:31.963   03 Jun 2027 10:45:04.643            32.680                Irkutsk          1021.250
       356   03 Jun 2027 10:45:19.697   03 Jun 2027 10:45:45.260            25.563                Novosib           798.844
       357   03 Jun 2027 10:45:52.264   03 Jun 2027 10:46:05.120            12.856              Murmansk2           401.750
       358   03 Jun 2027 10:46:08.418   03 Jun 2027 10:46:11.004             2.586                Norilsk            80.812
       359   03 Jun 2027 10:46:23.925   03 Jun 2027 10:46:37.693            13.768                Irkutsk           430.250
       360   03 Jun 2027 10:46:41.383   03 Jun 2027 10:47:52.373            70.990                Novosib          2218.437
       361   03 Jun 2027 10:48:11.945   03 Jun 2027 10:48:35.235            23.290              Murmansk2           727.813
       362   03 Jun 2027 10:49:38.739   03 Jun 2027 10:50:01.443            22.704              Murmansk1           709.500
       363   03 Jun 2027 11:25:38.498   03 Jun 2027 11:26:34.194            55.696            RioGallegos          1740.500
       364   03 Jun 2027 12:00:01.654   03 Jun 2027 12:02:08.243           126.589                Sumatra          3955.906
       365   03 Jun 2027 12:13:26.379   03 Jun 2027 12:13:37.771            11.392                Novosib           356.000
       366   03 Jun 2027 12:13:58.052   03 Jun 2027 12:14:59.247            61.195                Novosib          1912.344
       367   03 Jun 2027 12:17:29.917   03 Jun 2027 12:18:45.957            76.040                Norilsk          2376.250
       368   03 Jun 2027 12:23:31.187   03 Jun 2027 12:23:32.459             1.272              Murmansk2            39.750
       369   03 Jun 2027 12:23:39.924   03 Jun 2027 12:23:47.159             7.235                Norilsk           226.094
       370   03 Jun 2027 12:26:12.341   03 Jun 2027 12:27:18.391            66.050                Norilsk          2064.063
       371   03 Jun 2027 13:45:56.504   03 Jun 2027 13:48:54.262           177.758                  Delhi          5554.937
       372   03 Jun 2027 13:52:19.617   03 Jun 2027 13:52:51.856            32.239                 Moscow          1007.469
       373   03 Jun 2027 13:53:55.293   03 Jun 2027 13:55:33.156            97.863              Murmansk2          3058.219
       374   03 Jun 2027 13:55:41.056   03 Jun 2027 13:55:57.512            16.456              Murmansk2           514.250
       375   03 Jun 2027 13:56:46.564   03 Jun 2027 13:57:39.196            52.632                Norilsk          1644.750
       376   03 Jun 2027 14:01:41.708   03 Jun 2027 14:02:09.785            28.077                Norilsk           877.406
       377   03 Jun 2027 15:06:09.010   03 Jun 2027 15:08:39.409           150.399               CapeTown          4699.969
       378   03 Jun 2027 15:11:30.085   03 Jun 2027 15:13:03.970            93.885               CapeTown          2933.906
       379   03 Jun 2027 15:30:33.898   03 Jun 2027 15:31:16.908            43.010              Murmansk2          1344.062
       380   03 Jun 2027 15:35:27.478   03 Jun 2027 15:35:53.508            26.030              Murmansk2           813.438
       381   03 Jun 2027 15:39:20.142   03 Jun 2027 15:40:20.015            59.873              Murmansk1          1871.031
       382   03 Jun 2027 15:45:15.662   03 Jun 2027 15:46:38.153            82.491                Anadyr2          2577.844
       383   03 Jun 2027 15:47:47.741   03 Jun 2027 15:48:07.034            19.293                Anadyr2           602.906
       384   03 Jun 2027 15:48:34.284   03 Jun 2027 15:49:06.407            32.123                Anadyr2          1003.844
       385   03 Jun 2027 16:48:40.618   03 Jun 2027 16:48:53.603            12.985               CapeTown           405.781
       386   03 Jun 2027 17:09:18.034   03 Jun 2027 17:11:16.828           118.794              Murmansk1          3712.313
       387   03 Jun 2027 17:11:16.828   03 Jun 2027 17:12:45.121            88.293              Murmansk2          2759.156
       388   03 Jun 2027 17:20:34.647   03 Jun 2027 17:22:06.787            92.140                Anadyr2          2879.375
       389   03 Jun 2027 17:22:06.787   03 Jun 2027 17:22:49.225            42.438                Anadyr1          1326.188
       390   03 Jun 2027 17:24:49.573   03 Jun 2027 17:25:22.672            33.099               Magadan1          1034.344
       391   03 Jun 2027 17:25:22.672   03 Jun 2027 17:25:44.575            21.903               Magadan2           684.469
       392   03 Jun 2027 17:26:22.441   03 Jun 2027 17:26:33.435            10.994               Magadan2           343.562
       393   03 Jun 2027 17:27:06.875   03 Jun 2027 17:27:24.093            17.218               Magadan2           538.062
       394   03 Jun 2027 18:56:27.614   03 Jun 2027 19:00:56.607           268.993                Anadyr2          8406.031
       395   03 Jun 2027 19:00:56.788   03 Jun 2027 19:01:26.201            29.413               Magadan1           919.156
       396   03 Jun 2027 19:02:06.415   03 Jun 2027 19:02:15.777             9.362               Magadan1           292.562
       397   03 Jun 2027 19:03:59.852   03 Jun 2027 19:04:45.604            45.752               Magadan2          1429.750
       398   03 Jun 2027 19:07:47.297   03 Jun 2027 19:08:18.208            30.911               Magadan1           965.969
       399   03 Jun 2027 20:32:21.477   03 Jun 2027 20:34:29.350           127.873                Anadyr2          3996.031
       400   03 Jun 2027 20:34:35.613   03 Jun 2027 20:36:05.284            89.671                Anadyr1          2802.219
       401   03 Jun 2027 20:36:13.810   03 Jun 2027 20:36:22.389             8.579                Norilsk           268.094
       402   03 Jun 2027 20:36:33.733   03 Jun 2027 20:38:54.470           140.737                Norilsk          4398.031
       403   03 Jun 2027 20:41:29.487   03 Jun 2027 20:43:22.731           113.244                Irkutsk          3538.875
       404   03 Jun 2027 21:26:39.494   03 Jun 2027 21:28:26.622           107.128            RioGallegos          3347.750
       405   03 Jun 2027 21:29:37.702   03 Jun 2027 21:29:55.302            17.600            RioGallegos           550.000
       406   03 Jun 2027 21:36:21.204   03 Jun 2027 21:36:54.946            33.742            RioGallegos          1054.437
       407   03 Jun 2027 22:10:01.970   03 Jun 2027 22:10:16.034            14.064                Anadyr1           439.500
       408   03 Jun 2027 22:10:41.983   03 Jun 2027 22:10:49.933             7.950                Norilsk           248.438
       409   03 Jun 2027 22:10:55.903   03 Jun 2027 22:12:37.898           101.995                Norilsk          3187.344
       410   03 Jun 2027 22:13:57.613   03 Jun 2027 22:13:58.293             0.680                Norilsk            21.250
       411   03 Jun 2027 22:13:59.341   03 Jun 2027 22:14:51.334            51.993                Norilsk          1624.781
       412   03 Jun 2027 22:15:00.162   03 Jun 2027 22:16:02.199            62.037                Irkutsk          1938.656
       413   03 Jun 2027 22:16:16.079   03 Jun 2027 22:17:45.922            89.843                Novosib          2807.594
       414   03 Jun 2027 22:27:59.734   03 Jun 2027 22:28:42.533            42.799                Sumatra          1337.469
       415   03 Jun 2027 22:35:59.652   03 Jun 2027 22:36:30.643            30.991                Sumatra           968.469
       416   03 Jun 2027 22:38:02.546   03 Jun 2027 22:38:36.345            33.799                Sumatra          1056.219
       417   03 Jun 2027 23:42:30.118   03 Jun 2027 23:44:24.151           114.033                Anadyr1          3563.531
       418   03 Jun 2027 23:44:38.475   03 Jun 2027 23:45:13.246            34.771                Anadyr2          1086.594
       419   03 Jun 2027 23:46:10.376   03 Jun 2027 23:46:31.239            20.863                Norilsk           651.969
       420   03 Jun 2027 23:46:48.921   03 Jun 2027 23:47:19.013            30.092               Magadan1           940.375
       421   03 Jun 2027 23:47:22.257   03 Jun 2027 23:47:53.431            31.174               Magadan1           974.187
       422   03 Jun 2027 23:48:01.127   03 Jun 2027 23:48:50.152            49.025               Magadan2          1532.031
       423   03 Jun 2027 23:50:03.645   03 Jun 2027 23:50:28.892            25.247                Irkutsk           788.969
       424   03 Jun 2027 23:50:57.305   03 Jun 2027 23:52:31.463            94.158                Novosib          2942.437
       425   03 Jun 2027 23:54:51.537   03 Jun 2027 23:55:07.994            16.457                Novosib           514.281
       426   03 Jun 2027 23:57:43.467   03 Jun 2027 23:58:33.467            50.000                  Delhi          1562.500
       427   03 Jun 2027 23:59:15.821   03 Jun 2027 23:59:56.478            40.657                  Delhi          1270.531
       428   04 Jun 2027 00:38:37.426   04 Jun 2027 00:39:06.621            29.195            RioGallegos           912.344
       429   04 Jun 2027 00:45:38.799   04 Jun 2027 00:46:03.261            24.462            RioGallegos           764.438
       430   04 Jun 2027 01:15:57.633   04 Jun 2027 01:16:58.193            60.560                Anadyr1          1892.500
       431   04 Jun 2027 01:18:08.517   04 Jun 2027 01:18:30.292            21.775                Anadyr1           680.469
       432   04 Jun 2027 01:18:42.827   04 Jun 2027 01:19:07.311            24.484                Anadyr1           765.125
       433   04 Jun 2027 01:21:08.715   04 Jun 2027 01:21:34.700            25.985                Anadyr2           812.031
       434   04 Jun 2027 01:22:06.509   04 Jun 2027 01:23:31.495            84.986               Magadan1          2655.812
       435   04 Jun 2027 01:24:03.645   04 Jun 2027 01:24:48.992            45.347               Magadan1          1417.094
       436   04 Jun 2027 01:25:55.888   04 Jun 2027 01:26:18.014            22.126              Murmansk1           691.438
       437   04 Jun 2027 01:26:20.231   04 Jun 2027 01:27:22.677            62.446                Novosib          1951.438
       438   04 Jun 2027 01:28:05.903   04 Jun 2027 01:28:27.002            21.099              Murmansk2           659.344
       439   04 Jun 2027 01:28:57.243   04 Jun 2027 01:29:24.275            27.032                 Moscow           844.750
       440   04 Jun 2027 01:30:57.932   04 Jun 2027 01:31:19.313            21.381                 Moscow           668.156
       441   04 Jun 2027 01:33:33.189   04 Jun 2027 01:35:20.344           107.155                 Moscow          3348.594
       442   04 Jun 2027 02:49:26.576   04 Jun 2027 02:50:15.431            48.855                Anadyr2          1526.719
       443   04 Jun 2027 02:50:15.984   04 Jun 2027 02:51:58.084           102.100                Anadyr1          3190.625
       444   04 Jun 2027 02:53:45.231   04 Jun 2027 02:53:59.480            14.249                Anadyr1           445.281
       445   04 Jun 2027 02:54:16.441   04 Jun 2027 02:55:13.174            56.733               Magadan1          1772.906
       446   04 Jun 2027 02:55:47.972   04 Jun 2027 02:55:52.575             4.603               Magadan1           143.844
       447   04 Jun 2027 02:57:54.680   04 Jun 2027 02:58:27.588            32.908                Norilsk          1028.375
       448   04 Jun 2027 03:07:51.113   04 Jun 2027 03:08:14.626            23.513              Murmansk1           734.781
       449   04 Jun 2027 03:08:34.056   04 Jun 2027 03:09:31.429            57.373                 Moscow          1792.906
       450   04 Jun 2027 03:09:36.099   04 Jun 2027 03:11:38.780           122.681              Murmansk1          3833.781
       451   04 Jun 2027 03:11:58.068   04 Jun 2027 03:13:09.493            71.425                 Moscow          2232.031
       452   04 Jun 2027 03:14:25.719   04 Jun 2027 03:15:06.915            41.196                 Moscow          1287.375
       453   04 Jun 2027 03:27:43.929   04 Jun 2027 03:30:00.773           136.844               CapeTown          4276.375
       454   04 Jun 2027 04:25:30.922   04 Jun 2027 04:26:04.765            33.843                Anadyr2          1057.594
       455   04 Jun 2027 04:26:04.765   04 Jun 2027 04:26:21.592            16.827                Anadyr1           525.844
       456   04 Jun 2027 04:31:01.829   04 Jun 2027 04:32:45.077           103.248               Magadan1          3226.500
       457   04 Jun 2027 04:44:10.066   04 Jun 2027 04:44:37.798            27.732              Murmansk1           866.625
       458   04 Jun 2027 04:45:25.191   04 Jun 2027 04:45:49.007            23.816              Murmansk1           744.250
       459   04 Jun 2027 06:05:30.370   04 Jun 2027 06:06:19.887            49.517                Anadyr2          1547.406
       460   04 Jun 2027 06:06:53.544   04 Jun 2027 06:07:19.603            26.059               Magadan2           814.344
       461   04 Jun 2027 06:07:19.603   04 Jun 2027 06:09:12.494           112.891               Magadan1          3527.844
       462   04 Jun 2027 06:09:12.494   04 Jun 2027 06:10:05.999            53.505               Magadan2          1672.031
       463   04 Jun 2027 06:11:34.522   04 Jun 2027 06:11:39.664             5.142               Magadan1           160.688
       464   04 Jun 2027 07:40:16.979   04 Jun 2027 07:41:15.777            58.798                Anadyr1          1837.438
       465   04 Jun 2027 07:41:22.636   04 Jun 2027 07:41:39.158            16.522                Irkutsk           516.312
       466   04 Jun 2027 07:41:43.764   04 Jun 2027 07:43:11.231            87.467               Magadan2          2733.344
       467   04 Jun 2027 07:43:29.355   04 Jun 2027 07:44:49.210            79.855                Anadyr2          2495.469
       468   04 Jun 2027 07:45:02.124   04 Jun 2027 07:45:55.412            53.288               Magadan1          1665.250
       469   04 Jun 2027 07:46:01.867   04 Jun 2027 07:46:02.028             0.161                Novosib             5.031
       470   04 Jun 2027 07:46:05.499   04 Jun 2027 07:46:33.299            27.800                Norilsk           868.750
       471   04 Jun 2027 07:46:58.624   04 Jun 2027 07:47:06.629             8.005               Magadan1           250.156
       472   04 Jun 2027 07:47:06.629   04 Jun 2027 07:47:26.168            19.539               Magadan2           610.594
       473   04 Jun 2027 07:47:47.600   04 Jun 2027 07:48:14.208            26.608                Anadyr2           831.500
       474   04 Jun 2027 07:49:32.572   04 Jun 2027 07:49:56.830            24.258              Murmansk2           758.062
       475   04 Jun 2027 07:51:12.576   04 Jun 2027 07:51:29.094            16.518              Murmansk1           516.187
       476   04 Jun 2027 08:24:01.379   04 Jun 2027 08:24:22.123            20.744            RioGallegos           648.250
       477   04 Jun 2027 08:25:33.332   04 Jun 2027 08:26:07.177            33.845            RioGallegos          1057.656
       478   04 Jun 2027 09:17:08.848   04 Jun 2027 09:19:04.673           115.825               Magadan2          3619.531
       479   04 Jun 2027 09:19:04.673   04 Jun 2027 09:20:10.044            65.371               Magadan1          2042.844
       480   04 Jun 2027 09:20:27.013   04 Jun 2027 09:20:42.844            15.831               Magadan1           494.719
       481   04 Jun 2027 09:21:05.069   04 Jun 2027 09:21:48.727            43.658               Magadan1          1364.312
       482   04 Jun 2027 09:21:59.775   04 Jun 2027 09:22:06.433             6.658                Norilsk           208.062
