uniorb/output/strategy_2/Drop/Drop_KinoSat_111203.txt

KinoSat_111203
-------------------------
    Access    *     Start Time (UTCG)     *     Stop Time (UTCG)  *   Duration (s)        *       Station  *  Data (Mbytes)
         1   01 Jun 2027 03:54:22.736   01 Jun 2027 03:56:43.331           140.595              Murmansk1          4393.594
         2   01 Jun 2027 03:56:43.331   01 Jun 2027 03:57:25.103            41.772              Murmansk2          1305.375
         3   01 Jun 2027 05:16:30.320   01 Jun 2027 05:18:39.019           128.699                Anadyr1          4021.844
         4   01 Jun 2027 05:18:50.763   01 Jun 2027 05:18:56.787             6.024                Anadyr1           188.250
         5   01 Jun 2027 05:19:19.434   01 Jun 2027 05:19:21.967             2.533               Magadan1            79.156
         6   01 Jun 2027 05:19:48.049   01 Jun 2027 05:19:51.797             3.748               Magadan2           117.125
         7   01 Jun 2027 05:20:00.697   01 Jun 2027 05:21:31.025            90.328                Anadyr1          2822.750
         8   01 Jun 2027 06:53:32.272   01 Jun 2027 06:54:10.347            38.075                Irkutsk          1189.844
         9   01 Jun 2027 06:54:19.374   01 Jun 2027 06:54:38.629            19.255                Anadyr1           601.719
        10   01 Jun 2027 08:28:18.780   01 Jun 2027 08:28:47.015            28.235                Novosib           882.344
        11   01 Jun 2027 08:28:57.827   01 Jun 2027 08:30:09.460            71.633               Magadan2          2238.531
        12   01 Jun 2027 08:30:33.921   01 Jun 2027 08:31:05.452            31.531                Irkutsk           985.344
        13   01 Jun 2027 08:31:18.894   01 Jun 2027 08:32:25.075            66.181               Magadan2          2068.156
        14   01 Jun 2027 08:32:44.283   01 Jun 2027 08:32:58.838            14.555                Norilsk           454.844
        15   01 Jun 2027 08:33:59.727   01 Jun 2027 08:34:21.576            21.849                Norilsk           682.781
        16   01 Jun 2027 08:34:58.334   01 Jun 2027 08:35:27.606            29.272                Norilsk           914.750
        17   01 Jun 2027 09:07:31.790   01 Jun 2027 09:08:43.771            71.981            RioGallegos          2249.406
        18   01 Jun 2027 09:42:55.088   01 Jun 2027 09:43:40.615            45.527                Sumatra          1422.719
        19   01 Jun 2027 09:44:15.299   01 Jun 2027 09:45:10.753            55.454                Sumatra          1732.937
        20   01 Jun 2027 09:55:55.764   01 Jun 2027 09:56:14.398            18.634                  Delhi           582.312
        21   01 Jun 2027 10:04:27.355   01 Jun 2027 10:06:51.900           144.545                Novosib          4517.031
        22   01 Jun 2027 10:07:05.267   01 Jun 2027 10:08:48.173           102.906                Irkutsk          3215.812
        23   01 Jun 2027 10:09:02.245   01 Jun 2027 10:09:24.974            22.729              Murmansk2           710.281
        24   01 Jun 2027 10:09:30.587   01 Jun 2027 10:10:21.309            50.722                Novosib          1585.063
        25   01 Jun 2027 10:10:26.367   01 Jun 2027 10:11:05.526            39.159              Murmansk2          1223.719
        26   01 Jun 2027 10:45:25.401   01 Jun 2027 10:46:55.334            89.933            RioGallegos          2810.406
        27   01 Jun 2027 10:47:05.994   01 Jun 2027 10:47:36.386            30.392            RioGallegos           949.750
        28   01 Jun 2027 11:19:38.125   01 Jun 2027 11:20:26.821            48.696                Sumatra          1521.750
        29   01 Jun 2027 11:21:47.728   01 Jun 2027 11:22:57.000            69.272                Sumatra          2164.750
        30   01 Jun 2027 11:41:52.061   01 Jun 2027 11:42:28.776            36.715              Murmansk1          1147.344
        31   01 Jun 2027 11:42:30.331   01 Jun 2027 11:45:21.654           171.323                Norilsk          5353.844
        32   01 Jun 2027 11:45:42.899   01 Jun 2027 11:45:58.049            15.150              Murmansk1           473.438
        33   01 Jun 2027 11:46:19.799   01 Jun 2027 11:46:46.351            26.552                Norilsk           829.750
        34   01 Jun 2027 11:50:53.650   01 Jun 2027 11:50:58.056             4.406              Murmansk1           137.687
        35   01 Jun 2027 13:04:59.460   01 Jun 2027 13:09:36.259           276.799                  Delhi          8649.969
        36   01 Jun 2027 13:13:31.577   01 Jun 2027 13:14:19.580            48.003                Novosib          1500.094
        37   01 Jun 2027 13:14:30.937   01 Jun 2027 13:16:42.918           131.981              Murmansk1          4124.406
        38   01 Jun 2027 13:16:45.297   01 Jun 2027 13:17:39.708            54.411                Novosib          1700.344
        39   01 Jun 2027 13:20:18.747   01 Jun 2027 13:21:40.013            81.266                Norilsk          2539.562
        40   01 Jun 2027 14:28:00.832   01 Jun 2027 14:29:44.716           103.884               CapeTown          3246.375
        41   01 Jun 2027 14:47:25.907   01 Jun 2027 14:49:00.643            94.736                 Moscow          2960.500
        42   01 Jun 2027 14:50:53.843   01 Jun 2027 14:53:47.686           173.843              Murmansk1          5432.594
        43   01 Jun 2027 15:06:05.449   01 Jun 2027 15:08:24.880           139.431                Anadyr2          4357.219
        44   01 Jun 2027 15:09:01.197   01 Jun 2027 15:09:18.807            17.610                Anadyr2           550.313
        45   01 Jun 2027 15:10:16.184   01 Jun 2027 15:11:03.570            47.386                Anadyr1          1480.813
        46   01 Jun 2027 16:00:30.989   01 Jun 2027 16:00:34.720             3.731               CapeTown           116.594
        47   01 Jun 2027 16:01:27.200   01 Jun 2027 16:03:15.091           107.891               CapeTown          3371.594
        48   01 Jun 2027 16:28:30.362   01 Jun 2027 16:29:04.351            33.989                 Moscow          1062.156
        49   01 Jun 2027 16:29:16.550   01 Jun 2027 16:30:05.811            49.261              Murmansk2          1539.406
        50   01 Jun 2027 16:31:08.912   01 Jun 2027 16:31:47.187            38.275              Murmansk1          1196.094
        51   01 Jun 2027 16:33:25.848   01 Jun 2027 16:33:52.797            26.949              Murmansk1           842.156
        52   01 Jun 2027 16:41:10.085   01 Jun 2027 16:43:20.064           129.979                Anadyr1          4061.844
        53   01 Jun 2027 16:44:38.353   01 Jun 2027 16:44:57.322            18.969                Anadyr1           592.781
        54   01 Jun 2027 16:46:46.634   01 Jun 2027 16:47:01.837            15.203                Anadyr1           475.094
        55   01 Jun 2027 16:47:12.877   01 Jun 2027 16:47:54.747            41.870               Magadan1          1308.438
        56   01 Jun 2027 16:51:59.506   01 Jun 2027 16:52:26.833            27.327                Anadyr1           853.969
        57   01 Jun 2027 16:52:57.228   01 Jun 2027 16:52:59.977             2.749                Anadyr2            85.906
        58   01 Jun 2027 17:37:35.644   01 Jun 2027 17:38:36.998            61.354               CapeTown          1917.313
        59   01 Jun 2027 17:44:39.755   01 Jun 2027 17:46:33.349           113.594               CapeTown          3549.812
        60   01 Jun 2027 18:11:10.435   01 Jun 2027 18:13:43.868           153.433              Murmansk1          4794.781
        61   01 Jun 2027 18:17:00.882   01 Jun 2027 18:17:43.298            42.416                Anadyr1          1325.500
        62   01 Jun 2027 18:18:18.008   01 Jun 2027 18:18:39.659            21.651                Anadyr1           676.594
        63   01 Jun 2027 18:19:34.120   01 Jun 2027 18:22:12.347           158.227               Magadan2          4944.594
        64   01 Jun 2027 18:30:08.937   01 Jun 2027 18:30:57.325            48.388               Magadan1          1512.125
        65   01 Jun 2027 19:52:55.735   01 Jun 2027 19:54:59.635           123.900                Anadyr2          3871.875
        66   01 Jun 2027 19:55:12.647   01 Jun 2027 19:59:49.397           276.750               Magadan2          8648.438
        67   01 Jun 2027 19:59:50.963   01 Jun 2027 20:00:12.414            21.451               Magadan2           670.344
        68   01 Jun 2027 20:01:00.366   01 Jun 2027 20:01:08.140             7.774               Magadan1           242.937
        69   01 Jun 2027 20:01:35.006   01 Jun 2027 20:02:09.667            34.661               Magadan1          1083.156
        70   01 Jun 2027 20:04:16.359   01 Jun 2027 20:04:59.807            43.448               Magadan1          1357.750
        71   01 Jun 2027 20:07:02.993   01 Jun 2027 20:07:29.081            26.088               Magadan2           815.250
        72   01 Jun 2027 20:07:56.035   01 Jun 2027 20:08:07.661            11.626               Magadan1           363.312
        73   01 Jun 2027 20:47:27.507   01 Jun 2027 20:48:52.446            84.939            RioGallegos          2654.344
        74   01 Jun 2027 20:50:26.558   01 Jun 2027 20:50:52.312            25.754            RioGallegos           804.812
        75   01 Jun 2027 20:52:29.613   01 Jun 2027 20:52:37.920             8.307            RioGallegos           259.594
        76   01 Jun 2027 20:52:57.326   01 Jun 2027 20:53:43.573            46.247            RioGallegos          1445.219
        77   01 Jun 2027 20:54:33.142   01 Jun 2027 20:56:10.059            96.917            RioGallegos          3028.656
        78   01 Jun 2027 21:30:46.596   01 Jun 2027 21:34:05.684           199.088                Norilsk          6221.500
        79   01 Jun 2027 21:37:13.562   01 Jun 2027 21:37:30.432            16.870                Novosib           527.188
        80   01 Jun 2027 21:37:48.568   01 Jun 2027 21:38:40.555            51.987                Novosib          1624.594
        81   01 Jun 2027 21:41:09.396   01 Jun 2027 21:41:42.630            33.234                Novosib          1038.563
        82   01 Jun 2027 21:43:38.013   01 Jun 2027 21:44:29.555            51.542                Irkutsk          1610.688
        83   01 Jun 2027 21:45:11.273   01 Jun 2027 21:45:39.003            27.730                Irkutsk           866.563
        84   01 Jun 2027 21:46:39.029   01 Jun 2027 21:46:40.094             1.065                Irkutsk            33.281
        85   01 Jun 2027 21:52:17.718   01 Jun 2027 21:52:44.332            26.614                Sumatra           831.687
        86   01 Jun 2027 21:55:09.278   01 Jun 2027 21:56:28.661            79.383                Sumatra          2480.719
        87   01 Jun 2027 21:58:12.434   01 Jun 2027 21:59:02.222            49.788                Sumatra          1555.875
        88   01 Jun 2027 22:34:22.712   01 Jun 2027 22:34:47.155            24.443            RioGallegos           763.844
        89   01 Jun 2027 23:03:48.436   01 Jun 2027 23:04:30.099            41.663                Anadyr1          1301.969
        90   01 Jun 2027 23:05:28.254   01 Jun 2027 23:06:03.162            34.908                Anadyr1          1090.875
        91   01 Jun 2027 23:06:35.995   01 Jun 2027 23:06:54.511            18.516                Anadyr1           578.625
        92   01 Jun 2027 23:07:21.292   01 Jun 2027 23:08:46.149            84.857               Magadan1          2651.781
        93   01 Jun 2027 23:09:00.034   01 Jun 2027 23:09:12.167            12.133               Magadan2           379.156
        94   01 Jun 2027 23:10:11.110   01 Jun 2027 23:11:02.190            51.080               Magadan2          1596.250
        95   01 Jun 2027 23:12:16.950   01 Jun 2027 23:12:30.070            13.120                Norilsk           410.000
        96   01 Jun 2027 23:12:40.584   01 Jun 2027 23:13:21.437            40.853               Magadan1          1276.656
        97   01 Jun 2027 23:14:05.222   01 Jun 2027 23:15:57.890           112.668                Novosib          3520.875
        98   01 Jun 2027 23:19:59.669   01 Jun 2027 23:20:24.328            24.659                  Delhi           770.594
        99   01 Jun 2027 23:21:21.923   01 Jun 2027 23:22:02.308            40.385                Irkutsk          1262.031
       100   01 Jun 2027 23:24:42.271   01 Jun 2027 23:25:07.315            25.044                  Delhi           782.625
       101   01 Jun 2027 23:25:37.759   01 Jun 2027 23:26:08.328            30.569                  Delhi           955.281
       102   01 Jun 2027 23:27:58.407   01 Jun 2027 23:29:50.332           111.925                  Delhi          3497.656
       103   02 Jun 2027 00:36:55.117   02 Jun 2027 00:37:00.370             5.253                Anadyr1           164.156
       104   02 Jun 2027 00:37:23.027   02 Jun 2027 00:38:07.428            44.401                Anadyr1          1387.531
       105   02 Jun 2027 00:39:26.574   02 Jun 2027 00:39:41.204            14.630                Anadyr1           457.188
       106   02 Jun 2027 00:40:08.857   02 Jun 2027 00:40:15.440             6.583                Anadyr1           205.719
       107   02 Jun 2027 00:41:17.257   02 Jun 2027 00:42:21.078            63.821                Anadyr2          1994.406
       108   02 Jun 2027 00:42:42.571   02 Jun 2027 00:42:59.877            17.306                Norilsk           540.813
       109   02 Jun 2027 00:43:23.259   02 Jun 2027 00:43:49.262            26.003               Magadan2           812.594
       110   02 Jun 2027 00:43:57.123   02 Jun 2027 00:44:20.117            22.994                Norilsk           718.562
       111   02 Jun 2027 00:44:46.258   02 Jun 2027 00:45:14.035            27.777               Magadan1           868.031
       112   02 Jun 2027 00:45:44.908   02 Jun 2027 00:47:03.599            78.691              Murmansk2          2459.094
       113   02 Jun 2027 00:48:14.614   02 Jun 2027 00:48:44.997            30.383              Murmansk1           949.469
       114   02 Jun 2027 00:49:23.817   02 Jun 2027 00:50:03.685            39.868              Murmansk1          1245.875
       115   02 Jun 2027 00:52:56.459   02 Jun 2027 00:53:16.517            20.058                 Moscow           626.813
       116   02 Jun 2027 00:54:19.682   02 Jun 2027 00:54:52.834            33.152                Norilsk          1036.000
       117   02 Jun 2027 00:56:39.091   02 Jun 2027 00:56:47.098             8.007                Novosib           250.219
       118   02 Jun 2027 00:57:26.029   02 Jun 2027 00:57:50.885            24.856                Novosib           776.750
       119   02 Jun 2027 01:00:08.820   02 Jun 2027 01:01:06.690            57.870                  Delhi          1808.438
       120   02 Jun 2027 01:03:49.985   02 Jun 2027 01:04:15.231            25.246                  Delhi           788.938
       121   02 Jun 2027 01:04:41.548   02 Jun 2027 01:04:58.247            16.699                  Delhi           521.844
       122   02 Jun 2027 02:10:18.417   02 Jun 2027 02:11:58.947           100.530                Anadyr2          3141.563
       123   02 Jun 2027 02:12:10.732   02 Jun 2027 02:12:55.375            44.643                Anadyr2          1395.094
       124   02 Jun 2027 02:15:29.451   02 Jun 2027 02:16:15.362            45.911               Magadan1          1434.719
       125   02 Jun 2027 02:16:42.107   02 Jun 2027 02:16:51.372             9.265               Magadan1           289.531
       126   02 Jun 2027 02:16:51.916   02 Jun 2027 02:17:28.675            36.759               Magadan1          1148.719
       127   02 Jun 2027 02:19:33.093   02 Jun 2027 02:20:16.858            43.765               Magadan1          1367.656
       128   02 Jun 2027 02:20:50.249   02 Jun 2027 02:21:41.844            51.595              Murmansk2          1612.344
       129   02 Jun 2027 02:23:49.441   02 Jun 2027 02:24:16.216            26.775              Murmansk2           836.719
       130   02 Jun 2027 02:26:14.153   02 Jun 2027 02:26:43.127            28.974                 Moscow           905.437
       131   02 Jun 2027 02:28:31.506   02 Jun 2027 02:28:36.895             5.389              Murmansk2           168.406
       132   02 Jun 2027 02:28:51.262   02 Jun 2027 02:28:58.757             7.495              Murmansk2           234.219
       133   02 Jun 2027 02:29:26.527   02 Jun 2027 02:30:16.247            49.720              Murmansk2          1553.750
       134   02 Jun 2027 02:32:37.134   02 Jun 2027 02:32:50.375            13.241              Murmansk1           413.781
       135   02 Jun 2027 02:34:23.524   02 Jun 2027 02:34:44.198            20.674                 Moscow           646.063
       136   02 Jun 2027 02:35:08.305   02 Jun 2027 02:36:10.852            62.547                 Moscow          1954.594
       137   02 Jun 2027 02:58:54.098   02 Jun 2027 03:00:19.336            85.238               CapeTown          2663.688
       138   02 Jun 2027 03:53:31.549   02 Jun 2027 03:53:49.974            18.425                Anadyr1           575.781
       139   02 Jun 2027 03:55:46.998   02 Jun 2027 03:55:56.786             9.788                Anadyr2           305.875
       140   02 Jun 2027 04:06:43.911   02 Jun 2027 04:09:45.848           181.937              Murmansk2          5685.531
       141   02 Jun 2027 05:26:20.837   02 Jun 2027 05:26:53.033            32.196               Magadan1          1006.125
       142   02 Jun 2027 05:27:20.187   02 Jun 2027 05:30:08.917           168.730               Magadan1          5272.813
       143   02 Jun 2027 05:30:12.420   02 Jun 2027 05:31:32.355            79.935                Anadyr2          2497.969
       144   02 Jun 2027 05:31:47.507   02 Jun 2027 05:33:07.688            80.181               Magadan1          2505.656
       145   02 Jun 2027 07:04:30.717   02 Jun 2027 07:05:30.477            59.760                Irkutsk          1867.500
       146   02 Jun 2027 07:06:04.452   02 Jun 2027 07:06:47.402            42.950                Anadyr1          1342.188
       147   02 Jun 2027 07:06:47.538   02 Jun 2027 07:07:47.907            60.369                Irkutsk          1886.531
       148   02 Jun 2027 08:39:15.083   02 Jun 2027 08:39:48.796            33.713                Irkutsk          1053.531
       149   02 Jun 2027 08:40:15.259   02 Jun 2027 08:42:14.658           119.399               Magadan1          3731.219
       150   02 Jun 2027 08:42:29.777   02 Jun 2027 08:42:50.749            20.972                Irkutsk           655.375
       151   02 Jun 2027 08:43:03.098   02 Jun 2027 08:43:20.224            17.126              Murmansk1           535.187
       152   02 Jun 2027 08:43:24.241   02 Jun 2027 08:43:50.763            26.522                Norilsk           828.813
       153   02 Jun 2027 08:44:02.902   02 Jun 2027 08:44:23.041            20.139                Novosib           629.344
       154   02 Jun 2027 08:44:43.296   02 Jun 2027 08:44:50.447             7.151                Norilsk           223.469
       155   02 Jun 2027 08:44:50.545   02 Jun 2027 08:46:19.786            89.241              Murmansk1          2788.781
       156   02 Jun 2027 09:19:34.302   02 Jun 2027 09:20:09.401            35.099            RioGallegos          1096.844
       157   02 Jun 2027 09:20:45.376   02 Jun 2027 09:21:51.957            66.581            RioGallegos          2080.656
       158   02 Jun 2027 09:55:31.598   02 Jun 2027 09:57:26.924           115.326                Sumatra          3603.938
       159   02 Jun 2027 10:16:04.511   02 Jun 2027 10:16:14.642            10.131                Norilsk           316.594
       160   02 Jun 2027 10:16:35.702   02 Jun 2027 10:16:36.438             0.736                Novosib            23.000
       161   02 Jun 2027 10:16:47.940   02 Jun 2027 10:17:20.298            32.358                Novosib          1011.188
       162   02 Jun 2027 10:17:26.574   02 Jun 2027 10:18:17.564            50.990                Norilsk          1593.437
       163   02 Jun 2027 10:18:22.909   02 Jun 2027 10:19:02.896            39.987                Irkutsk          1249.594
       164   02 Jun 2027 10:19:09.172   02 Jun 2027 10:19:37.922            28.750                Irkutsk           898.437
       165   02 Jun 2027 10:19:47.225   02 Jun 2027 10:20:18.664            31.439              Murmansk1           982.469
       166   02 Jun 2027 10:20:23.270   02 Jun 2027 10:20:34.716            11.446                Novosib           357.688
       167   02 Jun 2027 10:20:43.442   02 Jun 2027 10:21:26.143            42.701                 Moscow          1334.406
       168   02 Jun 2027 10:58:05.165   02 Jun 2027 10:59:09.299            64.134            RioGallegos          2004.187
       169   02 Jun 2027 11:06:34.874   02 Jun 2027 11:07:12.262            37.388            RioGallegos          1168.375
       170   02 Jun 2027 11:32:25.152   02 Jun 2027 11:32:36.182            11.030                Sumatra           344.688
       171   02 Jun 2027 11:33:02.308   02 Jun 2027 11:34:43.948           101.640                Sumatra          3176.250
       172   02 Jun 2027 11:52:36.221   02 Jun 2027 11:52:40.879             4.658                Irkutsk           145.563
       173   02 Jun 2027 11:52:43.813   02 Jun 2027 11:53:22.512            38.699                 Moscow          1209.344
       174   02 Jun 2027 11:53:23.379   02 Jun 2027 11:53:53.518            30.139              Murmansk1           941.844
       175   02 Jun 2027 11:53:57.036   02 Jun 2027 11:54:00.377             3.341                 Moscow           104.406
       176   02 Jun 2027 11:54:02.976   02 Jun 2027 11:54:28.798            25.822              Murmansk1           806.938
       177   02 Jun 2027 11:54:31.046   02 Jun 2027 11:54:38.195             7.149                Norilsk           223.406
       178   02 Jun 2027 11:54:42.493   02 Jun 2027 11:55:45.795            63.302                Novosib          1978.188
       179   02 Jun 2027 11:55:51.106   02 Jun 2027 11:56:08.642            17.536                Novosib           548.000
       180   02 Jun 2027 11:56:11.496   02 Jun 2027 11:57:08.714            57.218              Murmansk1          1788.062
       181   02 Jun 2027 12:02:15.732   02 Jun 2027 12:02:57.023            41.291              Murmansk1          1290.344
       182   02 Jun 2027 13:18:12.783   02 Jun 2027 13:21:57.295           224.512                  Delhi          7016.000
       183   02 Jun 2027 13:25:39.856   02 Jun 2027 13:25:59.412            19.556                 Moscow           611.125
       184   02 Jun 2027 13:26:29.478   02 Jun 2027 13:26:54.125            24.647                 Moscow           770.219
       185   02 Jun 2027 13:27:00.451   02 Jun 2027 13:28:43.720           103.269                Novosib          3227.156
       186   02 Jun 2027 13:29:01.950   02 Jun 2027 13:29:07.936             5.986              Murmansk2           187.063
       187   02 Jun 2027 13:29:14.920   02 Jun 2027 13:30:15.002            60.082                Norilsk          1877.563
       188   02 Jun 2027 13:31:47.442   02 Jun 2027 13:32:20.944            33.502                Norilsk          1046.938
       189   02 Jun 2027 13:35:16.116   02 Jun 2027 13:35:34.997            18.881                Norilsk           590.031
       190   02 Jun 2027 13:37:43.174   02 Jun 2027 13:37:47.919             4.745              Murmansk2           148.281
       191   02 Jun 2027 13:38:31.859   02 Jun 2027 13:38:52.196            20.337              Murmansk2           635.531
       192   02 Jun 2027 14:38:53.691   02 Jun 2027 14:41:20.056           146.365               CapeTown          4573.906
       193   02 Jun 2027 14:43:32.685   02 Jun 2027 14:44:34.646            61.961               CapeTown          1936.281
       194   02 Jun 2027 15:03:06.426   02 Jun 2027 15:03:58.661            52.235              Murmansk1          1632.344
       195   02 Jun 2027 15:04:05.376   02 Jun 2027 15:04:19.751            14.375              Murmansk1           449.219
       196   02 Jun 2027 15:05:20.411   02 Jun 2027 15:05:49.484            29.073              Murmansk2           908.531
       197   02 Jun 2027 15:06:10.452   02 Jun 2027 15:06:16.109             5.657              Murmansk2           176.781
       198   02 Jun 2027 15:07:50.670   02 Jun 2027 15:07:55.259             4.589              Murmansk2           143.406
       199   02 Jun 2027 15:08:52.112   02 Jun 2027 15:09:08.681            16.569              Murmansk2           517.781
       200   02 Jun 2027 15:09:47.757   02 Jun 2027 15:11:37.087           109.330              Murmansk1          3416.563
       201   02 Jun 2027 15:17:53.079   02 Jun 2027 15:19:01.820            68.741                Anadyr2          2148.156
       202   02 Jun 2027 15:21:07.888   02 Jun 2027 15:21:22.770            14.882                Anadyr2           465.062
       203   02 Jun 2027 15:21:37.706   02 Jun 2027 15:22:20.029            42.323                Anadyr1          1322.594
       204   02 Jun 2027 16:22:05.849   02 Jun 2027 16:22:22.113            16.264               CapeTown           508.250
       205   02 Jun 2027 16:22:26.852   02 Jun 2027 16:24:25.896           119.044               CapeTown          3720.125
       206   02 Jun 2027 16:44:02.361   02 Jun 2027 16:45:23.216            80.855              Murmansk1          2526.719
       207   02 Jun 2027 16:53:09.858   02 Jun 2027 16:53:55.510            45.652                Anadyr2          1426.625
       208   02 Jun 2027 16:53:55.510   02 Jun 2027 16:54:26.661            31.151                Anadyr1           973.469
       209   02 Jun 2027 16:54:47.324   02 Jun 2027 16:54:57.734            10.410                Anadyr2           325.312
       210   02 Jun 2027 16:57:33.887   02 Jun 2027 16:58:16.021            42.134               Magadan1          1316.687
       211   02 Jun 2027 16:58:16.021   02 Jun 2027 16:59:16.346            60.325               Magadan2          1885.156
       212   02 Jun 2027 16:59:17.636   02 Jun 2027 16:59:50.352            32.716               Magadan2          1022.375
       213   02 Jun 2027 18:29:02.402   02 Jun 2027 18:31:09.785           127.383                Anadyr2          3980.719
       214   02 Jun 2027 18:31:30.705   02 Jun 2027 18:35:41.034           250.329               Magadan2          7822.781
       215   02 Jun 2027 18:37:59.426   02 Jun 2027 18:38:16.393            16.967               Magadan2           530.219
       216   02 Jun 2027 18:38:35.022   02 Jun 2027 18:40:11.208            96.186               Magadan1          3005.813
       217   02 Jun 2027 20:04:56.353   02 Jun 2027 20:07:01.115           124.762                Anadyr2          3898.812
       218   02 Jun 2027 20:07:14.178   02 Jun 2027 20:09:49.112           154.934               Magadan2          4841.687
       219   02 Jun 2027 20:10:16.829   02 Jun 2027 20:10:33.192            16.363               Magadan2           511.344
       220   02 Jun 2027 20:10:52.243   02 Jun 2027 20:11:16.174            23.931               Magadan2           747.844
       221   02 Jun 2027 20:14:00.262   02 Jun 2027 20:14:11.854            11.592               Magadan2           362.250
       222   02 Jun 2027 20:14:30.047   02 Jun 2027 20:16:04.098            94.051                Irkutsk          2939.094
       223   02 Jun 2027 20:59:16.534   02 Jun 2027 21:00:52.953            96.419            RioGallegos          3013.094
       224   02 Jun 2027 21:02:14.089   02 Jun 2027 21:02:36.331            22.242            RioGallegos           695.062
       225   02 Jun 2027 21:05:14.548   02 Jun 2027 21:05:26.054            11.506            RioGallegos           359.562
       226   02 Jun 2027 21:09:47.688   02 Jun 2027 21:09:48.684             0.996            RioGallegos            31.125
       227   02 Jun 2027 21:41:04.901   02 Jun 2027 21:41:17.314            12.413                Anadyr1           387.906
       228   02 Jun 2027 21:42:38.609   02 Jun 2027 21:43:13.038            34.429                Anadyr2          1075.906
       229   02 Jun 2027 21:43:17.456   02 Jun 2027 21:44:57.568           100.112                Norilsk          3128.500
       230   02 Jun 2027 21:45:02.839   02 Jun 2027 21:45:34.644            31.805               Magadan1           993.906
       231   02 Jun 2027 21:46:03.653   02 Jun 2027 21:46:13.107             9.454                Norilsk           295.438
       232   02 Jun 2027 21:46:37.361   02 Jun 2027 21:46:58.335            20.974                Norilsk           655.437
       233   02 Jun 2027 21:47:22.049   02 Jun 2027 21:48:05.526            43.477                Irkutsk          1358.656
       234   02 Jun 2027 21:48:28.981   02 Jun 2027 21:50:22.355           113.374                Novosib          3542.938
       235   02 Jun 2027 21:51:55.997   02 Jun 2027 21:52:49.571            53.574                Novosib          1674.188
       236   02 Jun 2027 22:08:48.075   02 Jun 2027 22:08:59.049            10.974                Sumatra           342.938
       237   02 Jun 2027 22:10:06.204   02 Jun 2027 22:10:44.928            38.724                Sumatra          1210.125
       238   02 Jun 2027 22:13:09.864   02 Jun 2027 22:13:12.765             2.901                Sumatra            90.656
       239   02 Jun 2027 23:15:07.480   02 Jun 2027 23:17:27.172           139.692                Anadyr1          4365.375
       240   02 Jun 2027 23:18:45.138   02 Jun 2027 23:19:07.097            21.959                Norilsk           686.219
       241   02 Jun 2027 23:19:23.255   02 Jun 2027 23:19:57.487            34.232               Magadan1          1069.750
       242   02 Jun 2027 23:19:57.487   02 Jun 2027 23:20:41.184            43.697               Magadan2          1365.531
       243   02 Jun 2027 23:21:02.407   02 Jun 2027 23:21:13.079            10.672               Magadan1           333.500
       244   02 Jun 2027 23:22:30.472   02 Jun 2027 23:23:17.845            47.373               Magadan1          1480.406
       245   02 Jun 2027 23:24:02.107   02 Jun 2027 23:24:13.850            11.743                Novosib           366.969
       246   02 Jun 2027 23:24:45.845   02 Jun 2027 23:25:19.837            33.992                Novosib          1062.250
       247   02 Jun 2027 23:27:54.190   02 Jun 2027 23:28:23.867            29.677                Novosib           927.406
       248   02 Jun 2027 23:30:21.143   02 Jun 2027 23:31:15.422            54.279                  Delhi          1696.219
       249   02 Jun 2027 23:33:16.744   02 Jun 2027 23:33:48.068            31.324                  Delhi           978.875
       250   02 Jun 2027 23:34:47.205   02 Jun 2027 23:36:53.525           126.320                  Delhi          3947.500
       251   03 Jun 2027 00:48:36.150   03 Jun 2027 00:48:42.055             5.905                Anadyr1           184.531
       252   03 Jun 2027 00:49:01.264   03 Jun 2027 00:49:30.318            29.054                Anadyr2           907.937
       253   03 Jun 2027 00:50:03.373   03 Jun 2027 00:50:25.439            22.066                Anadyr1           689.563
       254   03 Jun 2027 00:51:17.805   03 Jun 2027 00:51:56.756            38.951                Anadyr2          1217.219
       255   03 Jun 2027 00:54:43.260   03 Jun 2027 00:55:41.199            57.939               Magadan1          1810.594
       256   03 Jun 2027 00:55:41.199   03 Jun 2027 00:55:45.288             4.089               Magadan2           127.781
       257   03 Jun 2027 00:56:14.796   03 Jun 2027 00:56:57.220            42.424               Magadan2          1325.750
       258   03 Jun 2027 00:57:03.660   03 Jun 2027 00:57:46.590            42.930              Murmansk2          1341.562
       259   03 Jun 2027 00:57:51.200   03 Jun 2027 00:59:04.859            73.659              Murmansk2          2301.844
       260   03 Jun 2027 00:59:46.436   03 Jun 2027 01:00:14.831            28.395              Murmansk1           887.344
       261   03 Jun 2027 01:01:37.207   03 Jun 2027 01:02:07.025            29.818                 Moscow           931.812
       262   03 Jun 2027 01:06:18.860   03 Jun 2027 01:06:56.831            37.971                  Delhi          1186.594
       263   03 Jun 2027 01:10:41.190   03 Jun 2027 01:10:49.930             8.740                Novosib           273.125
       264   03 Jun 2027 01:11:40.429   03 Jun 2027 01:11:42.085             1.656                  Delhi            51.750
       265   03 Jun 2027 01:12:36.082   03 Jun 2027 01:13:46.997            70.915                  Delhi          2216.094
       266   03 Jun 2027 02:22:04.167   03 Jun 2027 02:23:58.709           114.542                Anadyr1          3579.438
       267   03 Jun 2027 02:24:10.701   03 Jun 2027 02:24:42.189            31.488                Anadyr1           984.000
       268   03 Jun 2027 02:24:56.576   03 Jun 2027 02:25:15.197            18.621                Anadyr2           581.906
       269   03 Jun 2027 02:26:57.243   03 Jun 2027 02:27:48.415            51.172               Magadan2          1599.125
       270   03 Jun 2027 02:28:13.280   03 Jun 2027 02:28:16.303             3.023               Magadan1            94.469
       271   03 Jun 2027 02:29:53.842   03 Jun 2027 02:30:02.787             8.945               Magadan2           279.531
       272   03 Jun 2027 02:30:29.895   03 Jun 2027 02:31:02.815            32.920                Norilsk          1028.750
       273   03 Jun 2027 02:32:51.827   03 Jun 2027 02:33:30.369            38.542              Murmansk2          1204.438
       274   03 Jun 2027 02:33:30.540   03 Jun 2027 02:34:12.600            42.060              Murmansk1          1314.375
       275   03 Jun 2027 02:34:58.679   03 Jun 2027 02:36:42.334           103.655                Novosib          3239.219
       276   03 Jun 2027 03:00:47.680   03 Jun 2027 03:01:19.110            31.430               CapeTown           982.188
       277   03 Jun 2027 03:04:00.871   03 Jun 2027 03:04:11.020            10.149               CapeTown           317.156
       278   03 Jun 2027 03:06:40.977   03 Jun 2027 03:06:50.611             9.634               CapeTown           301.063
       279   03 Jun 2027 03:08:00.110   03 Jun 2027 03:08:32.988            32.878               CapeTown          1027.437
       280   03 Jun 2027 04:03:27.246   03 Jun 2027 04:03:35.751             8.505               Magadan2           265.781
       281   03 Jun 2027 04:04:33.759   03 Jun 2027 04:05:17.906            44.147               Magadan1          1379.594
       282   03 Jun 2027 04:05:20.475   03 Jun 2027 04:05:23.898             3.423                Anadyr1           106.969
       283   03 Jun 2027 04:05:24.147   03 Jun 2027 04:05:53.120            28.973               Magadan1           905.406
       284   03 Jun 2027 04:05:58.356   03 Jun 2027 04:06:51.582            53.226               Magadan2          1663.313
       285   03 Jun 2027 04:06:59.314   03 Jun 2027 04:07:43.254            43.940               Magadan2          1373.125
       286   03 Jun 2027 05:40:03.021   03 Jun 2027 05:41:32.751            89.730               Magadan2          2804.063
       287   03 Jun 2027 05:41:45.804   03 Jun 2027 05:44:27.417           161.613               Magadan1          5050.406
       288   03 Jun 2027 05:44:27.417   03 Jun 2027 05:45:15.551            48.134               Magadan2          1504.188
       289   03 Jun 2027 05:45:18.034   03 Jun 2027 05:45:31.932            13.898                Anadyr2           434.312
       290   03 Jun 2027 07:13:02.567   03 Jun 2027 07:13:10.642             8.075               Magadan1           252.344
       291   03 Jun 2027 07:13:27.216   03 Jun 2027 07:14:20.448            53.232                Irkutsk          1663.500
       292   03 Jun 2027 07:14:51.552   03 Jun 2027 07:16:02.560            71.008                Anadyr2          2219.000
       293   03 Jun 2027 07:16:02.560   03 Jun 2027 07:16:36.713            34.153                Anadyr1          1067.281
       294   03 Jun 2027 07:17:23.120   03 Jun 2027 07:17:31.642             8.522                Anadyr2           266.312
       295   03 Jun 2027 07:17:40.506   03 Jun 2027 07:18:08.363            27.857               Magadan1           870.531
       296   03 Jun 2027 07:18:27.488   03 Jun 2027 07:18:50.087            22.599               Magadan1           706.219
       297   03 Jun 2027 07:18:55.464   03 Jun 2027 07:19:12.796            17.332                Novosib           541.625
       298   03 Jun 2027 07:19:22.163   03 Jun 2027 07:19:30.431             8.268               Magadan2           258.375
       299   03 Jun 2027 07:19:43.514   03 Jun 2027 07:20:30.065            46.551                Anadyr1          1454.719
       300   03 Jun 2027 07:24:05.831   03 Jun 2027 07:24:28.928            23.097              Murmansk2           721.781
       301   03 Jun 2027 07:56:39.863   03 Jun 2027 07:56:44.947             5.084            RioGallegos           158.875
       302   03 Jun 2027 07:57:04.886   03 Jun 2027 07:57:28.668            23.782            RioGallegos           743.187
       303   03 Jun 2027 08:00:46.154   03 Jun 2027 08:01:01.053            14.899            RioGallegos           465.594
       304   03 Jun 2027 08:49:51.352   03 Jun 2027 08:50:23.928            32.576               Magadan2          1018.000
       305   03 Jun 2027 08:50:42.470   03 Jun 2027 08:50:50.785             8.315                Irkutsk           259.844
       306   03 Jun 2027 08:50:54.884   03 Jun 2027 08:50:55.286             0.402                Norilsk            12.563
       307   03 Jun 2027 08:50:55.395   03 Jun 2027 08:51:01.884             6.489                Novosib           202.781
       308   03 Jun 2027 08:51:13.265   03 Jun 2027 08:51:17.243             3.978                Irkutsk           124.313
       309   03 Jun 2027 08:51:56.582   03 Jun 2027 08:52:59.888            63.306                Irkutsk          1978.313
       310   03 Jun 2027 08:53:09.463   03 Jun 2027 08:53:43.504            34.041               Magadan1          1063.781
       311   03 Jun 2027 08:53:54.771   03 Jun 2027 08:54:02.925             8.154                Novosib           254.812
       312   03 Jun 2027 08:54:22.534   03 Jun 2027 08:54:48.739            26.205               Magadan2           818.906
       313   03 Jun 2027 08:54:53.120   03 Jun 2027 08:54:58.778             5.658              Murmansk1           176.812
       314   03 Jun 2027 08:55:07.787   03 Jun 2027 08:55:53.079            45.292                Irkutsk          1415.375
       315   03 Jun 2027 08:56:06.416   03 Jun 2027 08:56:43.628            37.212                Norilsk          1162.875
       316   03 Jun 2027 08:56:50.755   03 Jun 2027 08:56:51.885             1.130                Norilsk            35.312
       317   03 Jun 2027 08:56:56.331   03 Jun 2027 08:57:51.878            55.547              Murmansk1          1735.844
       318   03 Jun 2027 09:31:40.256   03 Jun 2027 09:32:37.361            57.105            RioGallegos          1784.531
       319   03 Jun 2027 10:06:33.020   03 Jun 2027 10:08:15.349           102.329                Sumatra          3197.781
       320   03 Jun 2027 10:19:42.391   03 Jun 2027 10:19:54.278            11.887                  Delhi           371.469
       321   03 Jun 2027 10:20:39.961   03 Jun 2027 10:21:09.219            29.258                  Delhi           914.312
       322   03 Jun 2027 10:26:46.265   03 Jun 2027 10:27:22.739            36.474                Irkutsk          1139.813
       323   03 Jun 2027 10:27:47.759   03 Jun 2027 10:27:58.619            10.860                Irkutsk           339.375
       324   03 Jun 2027 10:28:00.548   03 Jun 2027 10:28:15.599            15.051                Norilsk           470.344
       325   03 Jun 2027 10:28:22.795   03 Jun 2027 10:28:41.506            18.711                Norilsk           584.719
       326   03 Jun 2027 10:29:04.595   03 Jun 2027 10:29:09.380             4.785                Norilsk           149.531
       327   03 Jun 2027 10:29:12.786   03 Jun 2027 10:29:27.887            15.101                Novosib           471.906
       328   03 Jun 2027 10:29:27.976   03 Jun 2027 10:29:30.291             2.315              Murmansk2            72.344
       329   03 Jun 2027 10:29:33.458   03 Jun 2027 10:29:39.998             6.540              Murmansk1           204.375
       330   03 Jun 2027 10:29:39.998   03 Jun 2027 10:29:46.746             6.748              Murmansk2           210.875
       331   03 Jun 2027 10:29:56.979   03 Jun 2027 10:30:36.422            39.443              Murmansk2          1232.594
       332   03 Jun 2027 10:30:42.602   03 Jun 2027 10:30:54.934            12.332                Novosib           385.375
       333   03 Jun 2027 10:31:12.301   03 Jun 2027 10:31:40.422            28.121                Irkutsk           878.781
       334   03 Jun 2027 10:31:45.705   03 Jun 2027 10:31:56.245            10.540                Norilsk           329.375
       335   03 Jun 2027 10:32:05.804   03 Jun 2027 10:32:29.258            23.454                Novosib           732.938
       336   03 Jun 2027 10:32:30.546   03 Jun 2027 10:32:45.246            14.700                 Moscow           459.375
       337   03 Jun 2027 10:32:52.779   03 Jun 2027 10:33:08.482            15.703              Murmansk2           490.719
       338   03 Jun 2027 10:33:35.834   03 Jun 2027 10:34:11.638            35.804                 Moscow          1118.875
       339   03 Jun 2027 11:11:50.660   03 Jun 2027 11:12:31.038            40.378            RioGallegos          1261.812
       340   03 Jun 2027 11:45:40.341   03 Jun 2027 11:46:37.025            56.684                Sumatra          1771.375
       341   03 Jun 2027 11:53:44.446   03 Jun 2027 11:54:57.863            73.417                  Delhi          2294.281
       342   03 Jun 2027 12:08:22.200   03 Jun 2027 12:09:03.577            41.377                Norilsk          1293.031
       343   03 Jun 2027 12:11:53.888   03 Jun 2027 12:12:10.696            16.808              Murmansk1           525.250
       344   03 Jun 2027 12:14:12.509   03 Jun 2027 12:14:55.137            42.628              Murmansk1          1332.125
       345   03 Jun 2027 13:35:09.126   03 Jun 2027 13:36:21.818            72.692                 Moscow          2271.625
       346   03 Jun 2027 13:37:52.320   03 Jun 2027 13:38:56.364            64.044                 Moscow          2001.375
       347   03 Jun 2027 13:39:31.259   03 Jun 2027 13:42:25.929           174.670              Murmansk1          5458.438
       348   03 Jun 2027 13:42:29.396   03 Jun 2027 13:43:31.671            62.275                Norilsk          1946.094
       349   03 Jun 2027 13:43:41.860   03 Jun 2027 13:44:23.026            41.166                Norilsk          1286.438
       350   03 Jun 2027 13:48:07.930   03 Jun 2027 13:49:00.322            52.392                Norilsk          1637.250
       351   03 Jun 2027 14:50:44.397   03 Jun 2027 14:51:39.296            54.899               CapeTown          1715.594
       352   03 Jun 2027 14:52:27.325   03 Jun 2027 14:53:02.117            34.792               CapeTown          1087.250
       353   03 Jun 2027 14:54:57.118   03 Jun 2027 14:55:27.171            30.053               CapeTown           939.156
       354   03 Jun 2027 14:56:27.788   03 Jun 2027 14:57:19.340            51.552               CapeTown          1611.000
       355   03 Jun 2027 15:15:20.941   03 Jun 2027 15:15:59.427            38.486              Murmansk2          1202.688
       356   03 Jun 2027 15:17:51.207   03 Jun 2027 15:18:08.427            17.220              Murmansk1           538.125
       357   03 Jun 2027 15:19:54.736   03 Jun 2027 15:20:10.456            15.720              Murmansk1           491.250
       358   03 Jun 2027 15:21:41.587   03 Jun 2027 15:21:57.768            16.181              Murmansk2           505.656
       359   03 Jun 2027 15:23:38.973   03 Jun 2027 15:23:49.498            10.525              Murmansk2           328.906
       360   03 Jun 2027 15:23:49.498   03 Jun 2027 15:23:59.791            10.293              Murmansk1           321.656
       361   03 Jun 2027 15:29:44.302   03 Jun 2027 15:31:24.453           100.151                Anadyr1          3129.719
       362   03 Jun 2027 15:32:19.809   03 Jun 2027 15:32:56.548            36.739                Anadyr1          1148.094
       363   03 Jun 2027 15:32:56.548   03 Jun 2027 15:33:15.746            19.198                Anadyr2           599.937
       364   03 Jun 2027 15:34:18.798   03 Jun 2027 15:35:50.030            91.232                Anadyr2          2851.000
       365   03 Jun 2027 16:54:20.669   03 Jun 2027 16:55:49.601            88.932              Murmansk2          2779.125
       366   03 Jun 2027 16:57:56.744   03 Jun 2027 16:58:22.514            25.770              Murmansk2           805.313
       367   03 Jun 2027 16:59:32.167   03 Jun 2027 16:59:51.363            19.196              Murmansk2           599.875
       368   03 Jun 2027 17:05:10.065   03 Jun 2027 17:06:28.233            78.168                Anadyr1          2442.750
       369   03 Jun 2027 17:06:33.446   03 Jun 2027 17:07:16.595            43.149                Anadyr2          1348.406
       370   03 Jun 2027 17:08:58.396   03 Jun 2027 17:10:26.259            87.863               Magadan2          2745.719
       371   03 Jun 2027 17:11:46.006   03 Jun 2027 17:11:52.902             6.896               Magadan1           215.500
       372   03 Jun 2027 18:41:03.935   03 Jun 2027 18:44:54.397           230.462                Anadyr1          7201.937
       373   03 Jun 2027 18:45:13.542   03 Jun 2027 18:47:44.016           150.474               Magadan2          4702.313
       374   03 Jun 2027 18:48:47.480   03 Jun 2027 18:48:57.126             9.646               Magadan1           301.438
       375   03 Jun 2027 18:51:03.909   03 Jun 2027 18:51:04.857             0.948               Magadan2            29.625
       376   03 Jun 2027 18:53:29.813   03 Jun 2027 18:54:22.765            52.952               Magadan1          1654.750
       377   03 Jun 2027 20:16:56.675   03 Jun 2027 20:19:02.456           125.781                Anadyr1          3930.656
       378   03 Jun 2027 20:19:03.264   03 Jun 2027 20:20:42.521            99.257                Anadyr2          3101.781
       379   03 Jun 2027 20:20:49.260   03 Jun 2027 20:21:02.039            12.779                Norilsk           399.344
       380   03 Jun 2027 20:21:20.557   03 Jun 2027 20:23:18.041           117.484               Magadan2          3671.375
       381   03 Jun 2027 20:24:32.141   03 Jun 2027 20:24:38.154             6.013               Magadan1           187.906
       382   03 Jun 2027 20:25:06.340   03 Jun 2027 20:25:22.705            16.365                Norilsk           511.406
       383   03 Jun 2027 20:26:42.242   03 Jun 2027 20:27:42.385            60.143                Irkutsk          1879.469
       384   03 Jun 2027 20:27:54.331   03 Jun 2027 20:28:32.392            38.061                Irkutsk          1189.406
       385   03 Jun 2027 20:29:26.223   03 Jun 2027 20:30:43.607            77.384                Irkutsk          2418.250
       386   03 Jun 2027 21:11:08.342   03 Jun 2027 21:11:43.418            35.076            RioGallegos          1096.125
       387   03 Jun 2027 21:20:25.662   03 Jun 2027 21:20:37.839            12.177            RioGallegos           380.531
       388   03 Jun 2027 21:52:25.333   03 Jun 2027 21:53:21.463            56.130                Anadyr2          1754.063
       389   03 Jun 2027 21:54:40.015   03 Jun 2027 21:54:46.965             6.950                Anadyr2           217.188
       390   03 Jun 2027 21:54:48.247   03 Jun 2027 21:56:54.747           126.500                Norilsk          3953.125
       391   03 Jun 2027 21:56:59.001   03 Jun 2027 21:57:36.425            37.424               Magadan1          1169.500
       392   03 Jun 2027 21:58:50.215   03 Jun 2027 21:59:58.659            68.444                Irkutsk          2138.875
       393   03 Jun 2027 22:00:27.051   03 Jun 2027 22:01:06.290            39.239                Novosib          1226.219
       394   03 Jun 2027 22:01:15.199   03 Jun 2027 22:02:47.370            92.171                Novosib          2880.344
       395   03 Jun 2027 22:16:29.906   03 Jun 2027 22:16:41.205            11.299                Sumatra           353.094
       396   03 Jun 2027 22:17:08.553   03 Jun 2027 22:18:32.588            84.035                Sumatra          2626.094
       397   03 Jun 2027 23:27:14.542   03 Jun 2027 23:28:32.501            77.959                Anadyr1          2436.219
       398   03 Jun 2027 23:29:18.108   03 Jun 2027 23:29:27.462             9.354                Anadyr2           292.312
       399   03 Jun 2027 23:30:47.224   03 Jun 2027 23:31:07.463            20.239                Norilsk           632.469
       400   03 Jun 2027 23:31:24.772   03 Jun 2027 23:32:50.216            85.444               Magadan1          2670.125
       401   03 Jun 2027 23:32:55.641   03 Jun 2027 23:33:03.558             7.917               Magadan2           247.406
       402   03 Jun 2027 23:34:40.286   03 Jun 2027 23:36:03.181            82.895                Novosib          2590.469
       403   03 Jun 2027 23:37:34.392   03 Jun 2027 23:37:45.130            10.738                Novosib           335.562
       404   03 Jun 2027 23:38:22.653   03 Jun 2027 23:39:47.754            85.101                Novosib          2659.406
       405   03 Jun 2027 23:42:10.055   03 Jun 2027 23:43:11.107            61.052                  Delhi          1907.875
       406   03 Jun 2027 23:50:02.428   03 Jun 2027 23:51:38.656            96.228                  Delhi          3007.125
       407   04 Jun 2027 01:00:17.190   04 Jun 2027 01:01:02.324            45.134                Anadyr2          1410.438
       408   04 Jun 2027 01:02:01.072   04 Jun 2027 01:02:25.269            24.197                Anadyr1           756.156
       409   04 Jun 2027 01:06:27.880   04 Jun 2027 01:08:56.549           148.669               Magadan1          4645.906
       410   04 Jun 2027 01:09:02.410   04 Jun 2027 01:09:38.534            36.124              Murmansk2          1128.875
       411   04 Jun 2027 01:09:38.534   04 Jun 2027 01:09:48.260             9.726              Murmansk1           303.938
       412   04 Jun 2027 01:10:36.121   04 Jun 2027 01:12:02.944            86.823                Novosib          2713.219
       413   04 Jun 2027 01:16:33.867   04 Jun 2027 01:17:03.876            30.009                 Moscow           937.781
       414   04 Jun 2027 01:21:51.001   04 Jun 2027 01:22:13.308            22.307                  Delhi           697.094
       415   04 Jun 2027 01:24:52.584   04 Jun 2027 01:24:55.691             3.107                  Delhi            97.094
       416   04 Jun 2027 01:25:45.560   04 Jun 2027 01:26:15.705            30.145                  Delhi           942.031
       417   04 Jun 2027 01:41:24.496   04 Jun 2027 01:42:18.167            53.671               CapeTown          1677.219
       418   04 Jun 2027 02:33:51.105   04 Jun 2027 02:34:59.238            68.133                Anadyr1          2129.156
       419   04 Jun 2027 02:35:34.119   04 Jun 2027 02:36:11.018            36.899                Anadyr2          1153.094
       420   04 Jun 2027 02:36:27.306   04 Jun 2027 02:36:57.646            30.340                Anadyr2           948.125
       421   04 Jun 2027 02:38:25.248   04 Jun 2027 02:39:24.454            59.206               Magadan2          1850.187
       422   04 Jun 2027 02:39:43.203   04 Jun 2027 02:40:06.666            23.463               Magadan2           733.219
       423   04 Jun 2027 02:42:35.146   04 Jun 2027 02:43:04.675            29.529                Norilsk           922.781
       424   04 Jun 2027 02:44:53.529   04 Jun 2027 02:45:43.306            49.777              Murmansk1          1555.531
       425   04 Jun 2027 02:47:06.957   04 Jun 2027 02:48:37.149            90.192                Novosib          2818.500
       426   04 Jun 2027 02:55:30.368   04 Jun 2027 02:55:53.329            22.961                 Moscow           717.531
       427   04 Jun 2027 02:58:47.701   04 Jun 2027 02:58:55.715             8.014                 Moscow           250.437
       428   04 Jun 2027 02:59:42.371   04 Jun 2027 03:00:55.650            73.279                 Moscow          2289.969
       429   04 Jun 2027 04:16:29.504   04 Jun 2027 04:16:37.435             7.931                Anadyr1           247.844
       430   04 Jun 2027 04:16:47.553   04 Jun 2027 04:17:07.120            19.567               Magadan1           611.469
       431   04 Jun 2027 04:17:10.842   04 Jun 2027 04:18:19.804            68.962                Anadyr1          2155.062
       432   04 Jun 2027 04:18:22.995   04 Jun 2027 04:19:49.102            86.107                Anadyr2          2690.844
       433   04 Jun 2027 05:51:32.976   04 Jun 2027 05:53:28.295           115.319               Magadan2          3603.719
       434   04 Jun 2027 05:53:43.335   04 Jun 2027 05:54:02.304            18.969               Magadan1           592.781
       435   04 Jun 2027 05:54:11.204   04 Jun 2027 05:57:08.435           177.231                Anadyr2          5538.469
       436   04 Jun 2027 07:25:30.118   04 Jun 2027 07:25:45.257            15.139                Anadyr1           473.094
       437   04 Jun 2027 07:25:45.257   04 Jun 2027 07:26:16.498            31.241                Anadyr2           976.281
       438   04 Jun 2027 07:26:17.846   04 Jun 2027 07:26:59.490            41.644                Anadyr1          1301.375
       439   04 Jun 2027 07:27:17.995   04 Jun 2027 07:27:41.450            23.455               Magadan2           732.969
       440   04 Jun 2027 07:27:46.585   04 Jun 2027 07:28:12.436            25.851               Magadan2           807.844
       441   04 Jun 2027 07:28:36.153   04 Jun 2027 07:29:17.984            41.831                Anadyr1          1307.219
       442   04 Jun 2027 07:29:23.890   04 Jun 2027 07:29:43.659            19.769               Magadan1           617.781
       443   04 Jun 2027 07:30:07.696   04 Jun 2027 07:31:11.801            64.105                Anadyr2          2003.281
       444   04 Jun 2027 07:31:21.979   04 Jun 2027 07:31:40.317            18.338                Norilsk           573.063
       445   04 Jun 2027 07:31:42.640   04 Jun 2027 07:32:34.497            51.857                Anadyr1          1620.531
       446   04 Jun 2027 07:33:03.989   04 Jun 2027 07:33:14.593            10.604              Murmansk1           331.375
       447   04 Jun 2027 07:33:14.593   04 Jun 2027 07:33:31.967            17.374              Murmansk2           542.937
       448   04 Jun 2027 08:08:23.110   04 Jun 2027 08:09:35.315            72.205            RioGallegos          2256.406
       449   04 Jun 2027 08:47:16.672   04 Jun 2027 08:48:07.042            50.370                Sumatra          1574.063
       450   04 Jun 2027 09:01:53.619   04 Jun 2027 09:02:28.131            34.512               Magadan2          1078.500
       451   04 Jun 2027 09:02:44.506   04 Jun 2027 09:03:15.369            30.863                Irkutsk           964.469
       452   04 Jun 2027 09:03:24.672   04 Jun 2027 09:03:42.727            18.055                Irkutsk           564.219
       453   04 Jun 2027 09:03:48.088   04 Jun 2027 09:03:52.296             4.208                Novosib           131.500
       454   04 Jun 2027 09:04:23.431   04 Jun 2027 09:04:35.125            11.694               Magadan2           365.438
       455   04 Jun 2027 09:04:35.960   04 Jun 2027 09:05:50.820            74.860                Novosib          2339.375
       456   04 Jun 2027 09:06:14.165   04 Jun 2027 09:06:14.325             0.160                Novosib             5.000
       457   04 Jun 2027 09:06:18.005   04 Jun 2027 09:07:11.057            53.052                Novosib          1657.875
       458   04 Jun 2027 09:07:13.221   04 Jun 2027 09:07:32.643            19.422               Magadan2           606.937
       459   04 Jun 2027 09:07:35.669   04 Jun 2027 09:07:36.866             1.197                Norilsk            37.406
       460   04 Jun 2027 09:07:38.353   04 Jun 2027 09:07:50.762            12.409                Norilsk           387.781
       461   04 Jun 2027 09:08:12.380   04 Jun 2027 09:08:45.343            32.963                Norilsk          1030.094
       462   04 Jun 2027 09:08:49.281   04 Jun 2027 09:08:50.528             1.247                Norilsk            38.969
       463   04 Jun 2027 09:08:57.346   04 Jun 2027 09:09:23.336            25.990                Novosib           812.187
       464   04 Jun 2027 09:09:44.276   04 Jun 2027 09:10:21.800            37.524              Murmansk2          1172.625
       465   04 Jun 2027 09:43:49.805   04 Jun 2027 09:44:31.106            41.301            RioGallegos          1290.656
       466   04 Jun 2027 10:18:30.795   04 Jun 2027 10:19:08.614            37.819                Sumatra          1181.844
       467   04 Jun 2027 10:20:54.214   04 Jun 2027 10:21:23.467            29.253                Sumatra           914.156
       468   04 Jun 2027 10:28:43.889   04 Jun 2027 10:28:56.062            12.173                  Delhi           380.406
       469   04 Jun 2027 10:31:18.787   04 Jun 2027 10:31:28.367             9.580                  Delhi           299.375
       470   04 Jun 2027 10:32:07.084   04 Jun 2027 10:33:26.543            79.459                  Delhi          2483.094
       471   04 Jun 2027 10:38:35.684   04 Jun 2027 10:38:41.642             5.958                  Delhi           186.187
       472   04 Jun 2027 10:39:26.957   04 Jun 2027 10:39:53.069            26.112                Irkutsk           816.000
       473   04 Jun 2027 10:39:56.889   04 Jun 2027 10:41:03.305            66.416                Irkutsk          2075.500
       474   04 Jun 2027 10:41:10.795   04 Jun 2027 10:41:14.752             3.957                Norilsk           123.656
       475   04 Jun 2027 10:41:16.820   04 Jun 2027 10:42:16.728            59.908                Norilsk          1872.125
       476   04 Jun 2027 10:42:20.417   04 Jun 2027 10:42:31.074            10.657                Norilsk           333.031
       477   04 Jun 2027 10:42:32.120   04 Jun 2027 10:42:51.820            19.700              Murmansk1           615.625
       478   04 Jun 2027 10:43:07.568   04 Jun 2027 10:43:39.726            32.158                 Moscow          1004.937
       479   04 Jun 2027 10:43:46.251   04 Jun 2027 10:44:08.796            22.545                Irkutsk           704.531
       480   04 Jun 2027 10:44:10.807   04 Jun 2027 10:44:27.982            17.175                Norilsk           536.719
       481   04 Jun 2027 10:44:33.681   04 Jun 2027 10:44:34.681             1.000                Novosib            31.250
       482   04 Jun 2027 10:44:35.509   04 Jun 2027 10:44:50.000            14.491                 Moscow           452.844
