uniorb/output/strategy_2/Drop/Drop_KinoSat_111809.txt

KinoSat_111809
-------------------------
    Access    *     Start Time (UTCG)     *     Stop Time (UTCG)  *   Duration (s)        *       Station  *  Data (Mbytes)
         1   01 Jun 2027 04:07:19.795   01 Jun 2027 04:07:49.102            29.307              Murmansk1           915.844
         2   01 Jun 2027 04:08:31.735   01 Jun 2027 04:08:46.990            15.255                Irkutsk           476.719
         3   01 Jun 2027 04:08:48.416   01 Jun 2027 04:08:48.886             0.470                Norilsk            14.688
         4   01 Jun 2027 04:08:54.936   01 Jun 2027 04:09:13.399            18.463                Irkutsk           576.969
         5   01 Jun 2027 04:09:21.441   01 Jun 2027 04:10:57.935            96.494                Norilsk          3015.437
         6   01 Jun 2027 04:11:08.430   01 Jun 2027 04:11:13.908             5.478              Murmansk2           171.188
         7   01 Jun 2027 04:11:24.598   01 Jun 2027 04:12:59.182            94.584                 Moscow          2955.750
         8   01 Jun 2027 04:14:02.675   01 Jun 2027 04:16:38.396           155.721                  Delhi          4866.281
         9   01 Jun 2027 05:41:43.957   01 Jun 2027 05:42:48.371            64.414                Novosib          2012.938
        10   01 Jun 2027 05:43:49.607   01 Jun 2027 05:44:28.535            38.928                Novosib          1216.500
        11   01 Jun 2027 05:45:10.669   01 Jun 2027 05:45:40.273            29.604              Murmansk2           925.125
        12   01 Jun 2027 05:46:02.863   01 Jun 2027 05:46:36.279            33.416              Murmansk2          1044.250
        13   01 Jun 2027 05:46:51.837   01 Jun 2027 05:47:24.560            32.723              Murmansk1          1022.594
        14   01 Jun 2027 05:47:47.997   01 Jun 2027 05:47:49.572             1.575              Murmansk2            49.219
        15   01 Jun 2027 05:47:49.572   01 Jun 2027 05:48:19.342            29.770              Murmansk1           930.312
        16   01 Jun 2027 05:48:33.662   01 Jun 2027 05:48:39.835             6.173                 Moscow           192.906
        17   01 Jun 2027 05:49:53.605   01 Jun 2027 05:50:12.439            18.834                 Moscow           588.563
        18   01 Jun 2027 07:07:45.395   01 Jun 2027 07:08:47.744            62.349               Magadan1          1948.406
        19   01 Jun 2027 07:09:56.324   01 Jun 2027 07:11:10.920            74.596                Anadyr2          2331.125
        20   01 Jun 2027 07:12:33.588   01 Jun 2027 07:13:13.970            40.382                Anadyr1          1261.937
        21   01 Jun 2027 08:44:49.833   01 Jun 2027 08:48:51.312           241.479               Magadan1          7546.219
        22   01 Jun 2027 08:56:54.380   01 Jun 2027 08:57:20.276            25.896                 Moscow           809.250
        23   01 Jun 2027 10:18:33.810   01 Jun 2027 10:21:54.994           201.184               Magadan1          6287.000
        24   01 Jun 2027 10:21:54.994   01 Jun 2027 10:24:31.562           156.568               Magadan2          4892.750
        25   01 Jun 2027 11:55:23.936   01 Jun 2027 11:57:32.669           128.733               Magadan1          4022.906
        26   01 Jun 2027 11:58:28.729   01 Jun 2027 11:59:40.418            71.689                Norilsk          2240.281
        27   01 Jun 2027 11:59:50.747   01 Jun 2027 12:01:54.144           123.397                Novosib          3856.156
        28   01 Jun 2027 12:02:23.185   01 Jun 2027 12:04:08.507           105.322                Norilsk          3291.312
        29   01 Jun 2027 12:04:55.526   01 Jun 2027 12:05:33.556            38.030              Murmansk1          1188.437
        30   01 Jun 2027 12:05:36.110   01 Jun 2027 12:05:50.268            14.158              Murmansk1           442.438
        31   01 Jun 2027 12:06:13.997   01 Jun 2027 12:08:16.181           122.184              Murmansk1          3818.250
        32   01 Jun 2027 12:38:14.979   01 Jun 2027 12:40:15.982           121.003            RioGallegos          3781.344
        33   01 Jun 2027 12:44:53.679   01 Jun 2027 12:46:36.243           102.564            RioGallegos          3205.125
        34   01 Jun 2027 12:47:24.324   01 Jun 2027 12:47:45.442            21.118            RioGallegos           659.937
        35   01 Jun 2027 13:12:10.083   01 Jun 2027 13:13:02.475            52.392                Sumatra          1637.250
        36   01 Jun 2027 13:14:47.262   01 Jun 2027 13:22:27.026           459.764                Sumatra         14367.625
        37   01 Jun 2027 13:32:24.600   01 Jun 2027 13:35:55.083           210.483                Irkutsk          6577.594
        38   01 Jun 2027 13:41:07.284   01 Jun 2027 13:41:26.347            19.063                Norilsk           595.719
        39   01 Jun 2027 13:43:17.088   01 Jun 2027 13:43:27.572            10.484              Murmansk1           327.625
        40   01 Jun 2027 14:59:56.850   01 Jun 2027 15:06:27.741           390.891                  Delhi         12215.344
        41   01 Jun 2027 15:09:45.333   01 Jun 2027 15:13:18.503           213.170                Novosib          6661.563
        42   01 Jun 2027 16:43:28.711   01 Jun 2027 16:44:18.433            49.722              Murmansk1          1553.812
        43   01 Jun 2027 16:45:28.468   01 Jun 2027 16:46:17.487            49.019              Murmansk2          1531.844
        44   01 Jun 2027 16:46:37.062   01 Jun 2027 16:46:59.320            22.258                 Moscow           695.563
        45   01 Jun 2027 16:47:10.591   01 Jun 2027 16:47:42.792            32.201                 Moscow          1006.281
        46   01 Jun 2027 16:48:21.252   01 Jun 2027 16:49:18.929            57.677                 Moscow          1802.406
        47   01 Jun 2027 16:49:22.316   01 Jun 2027 16:52:53.465           211.149                Norilsk          6598.406
        48   01 Jun 2027 16:54:36.805   01 Jun 2027 16:55:04.433            27.628              Murmansk2           863.375
        49   01 Jun 2027 17:57:44.109   01 Jun 2027 17:58:04.592            20.483               CapeTown           640.094
        50   01 Jun 2027 17:59:04.584   01 Jun 2027 17:59:28.161            23.577               CapeTown           736.781
        51   01 Jun 2027 18:00:00.865   01 Jun 2027 18:02:03.989           123.124               CapeTown          3847.625
        52   01 Jun 2027 18:02:57.211   01 Jun 2027 18:04:29.904            92.693               CapeTown          2896.656
        53   01 Jun 2027 18:17:00.630   01 Jun 2027 18:18:58.917           118.287                 Moscow          3696.469
        54   01 Jun 2027 18:22:28.495   01 Jun 2027 18:26:39.968           251.473                 Moscow          7858.531
        55   01 Jun 2027 18:29:37.704   01 Jun 2027 18:30:54.941            77.237              Murmansk2          2413.656
        56   01 Jun 2027 19:33:26.334   01 Jun 2027 19:33:55.719            29.385               CapeTown           918.281
        57   01 Jun 2027 19:35:22.440   01 Jun 2027 19:39:30.515           248.075               CapeTown          7752.344
        58   01 Jun 2027 19:59:46.956   01 Jun 2027 20:05:45.426           358.470              Murmansk1         11202.188
        59   01 Jun 2027 20:06:14.109   01 Jun 2027 20:06:32.931            18.822              Murmansk2           588.187
        60   01 Jun 2027 21:44:39.071   01 Jun 2027 21:47:36.123           177.052                Anadyr2          5532.875
        61   01 Jun 2027 21:48:04.906   01 Jun 2027 21:48:35.748            30.842                Anadyr1           963.812
        62   01 Jun 2027 21:49:17.892   01 Jun 2027 21:49:48.079            30.187                Anadyr1           943.344
        63   01 Jun 2027 21:50:23.232   01 Jun 2027 21:50:48.345            25.113                Anadyr1           784.781
        64   01 Jun 2027 21:51:07.944   01 Jun 2027 21:51:55.766            47.822                Anadyr1          1494.438
        65   01 Jun 2027 21:53:17.455   01 Jun 2027 21:53:32.883            15.428                Anadyr2           482.125
        66   01 Jun 2027 21:53:53.462   01 Jun 2027 21:54:14.586            21.124                Anadyr2           660.125
        67   01 Jun 2027 21:54:22.504   01 Jun 2027 21:54:43.473            20.969               Magadan2           655.281
        68   01 Jun 2027 21:55:11.343   01 Jun 2027 21:55:51.405            40.062                Anadyr1          1251.937
        69   01 Jun 2027 21:56:47.674   01 Jun 2027 21:57:05.511            17.837               Magadan2           557.406
        70   01 Jun 2027 21:57:41.374   01 Jun 2027 21:58:15.420            34.046               Magadan2          1063.937
        71   01 Jun 2027 21:59:02.777   01 Jun 2027 21:59:42.327            39.550               Magadan1          1235.937
        72   01 Jun 2027 22:43:55.747   01 Jun 2027 22:45:04.293            68.546            RioGallegos          2142.062
        73   01 Jun 2027 22:46:59.724   01 Jun 2027 22:47:24.582            24.858            RioGallegos           776.812
        74   01 Jun 2027 23:20:27.017   01 Jun 2027 23:23:53.243           206.226                Anadyr1          6444.562
        75   01 Jun 2027 23:24:01.133   01 Jun 2027 23:24:22.132            20.999               Magadan1           656.219
        76   01 Jun 2027 23:24:55.222   01 Jun 2027 23:25:09.137            13.915               Magadan2           434.844
        77   01 Jun 2027 23:25:43.695   01 Jun 2027 23:25:49.697             6.002               Magadan1           187.563
        78   01 Jun 2027 23:26:43.613   01 Jun 2027 23:27:27.079            43.466                Norilsk          1358.313
        79   01 Jun 2027 23:27:31.146   01 Jun 2027 23:27:58.609            27.463               Magadan1           858.219
        80   01 Jun 2027 23:29:20.956   01 Jun 2027 23:30:08.790            47.834               Magadan1          1494.812
        81   01 Jun 2027 23:31:43.198   01 Jun 2027 23:32:02.160            18.962               Magadan2           592.563
        82   01 Jun 2027 23:32:53.746   01 Jun 2027 23:33:31.743            37.997               Magadan1          1187.406
        83   01 Jun 2027 23:34:38.886   01 Jun 2027 23:34:53.911            15.025               Magadan2           469.531
        84   01 Jun 2027 23:35:34.150   01 Jun 2027 23:35:56.430            22.280                Irkutsk           696.250
        85   01 Jun 2027 23:36:37.653   01 Jun 2027 23:36:39.586             1.933                Irkutsk            60.406
        86   01 Jun 2027 23:46:02.495   01 Jun 2027 23:46:38.870            36.375                Sumatra          1136.719
        87   01 Jun 2027 23:46:59.020   01 Jun 2027 23:47:45.323            46.303                Sumatra          1446.969
        88   01 Jun 2027 23:50:51.352   01 Jun 2027 23:51:33.426            42.074                Sumatra          1314.812
        89   02 Jun 2027 00:21:55.559   02 Jun 2027 00:22:17.757            22.198            RioGallegos           693.687
        90   02 Jun 2027 00:23:32.287   02 Jun 2027 00:24:00.164            27.877            RioGallegos           871.156
        91   02 Jun 2027 00:25:08.240   02 Jun 2027 00:25:45.722            37.482            RioGallegos          1171.313
        92   02 Jun 2027 00:26:48.051   02 Jun 2027 00:27:04.577            16.526            RioGallegos           516.438
        93   02 Jun 2027 00:55:38.768   02 Jun 2027 00:56:10.935            32.167                Anadyr2          1005.219
        94   02 Jun 2027 00:56:44.780   02 Jun 2027 00:57:10.852            26.072                Anadyr2           814.750
        95   02 Jun 2027 00:57:34.286   02 Jun 2027 00:57:58.479            24.193                Anadyr2           756.031
        96   02 Jun 2027 00:58:22.307   02 Jun 2027 00:59:13.045            50.738                Norilsk          1585.563
        97   02 Jun 2027 00:59:18.708   02 Jun 2027 00:59:26.672             7.964               Magadan1           248.875
        98   02 Jun 2027 00:59:49.494   02 Jun 2027 01:00:09.946            20.452                Norilsk           639.125
        99   02 Jun 2027 01:00:56.287   02 Jun 2027 01:01:00.643             4.356               Magadan2           136.125
       100   02 Jun 2027 01:01:16.094   02 Jun 2027 01:01:43.576            27.482               Magadan2           858.812
       101   02 Jun 2027 01:02:36.899   02 Jun 2027 01:02:39.457             2.558               Magadan1            79.938
       102   02 Jun 2027 01:02:58.004   02 Jun 2027 01:03:26.846            28.842                Novosib           901.312
       103   02 Jun 2027 01:04:20.711   02 Jun 2027 01:05:13.452            52.741               Magadan2          1648.156
       104   02 Jun 2027 01:08:03.932   02 Jun 2027 01:08:37.567            33.635                Irkutsk          1051.094
       105   02 Jun 2027 01:09:40.377   02 Jun 2027 01:09:53.694            13.317                Novosib           416.156
       106   02 Jun 2027 01:11:05.974   02 Jun 2027 01:11:40.301            34.327                Irkutsk          1072.719
       107   02 Jun 2027 01:12:45.942   02 Jun 2027 01:13:30.670            44.728                Irkutsk          1397.750
       108   02 Jun 2027 01:18:12.798   02 Jun 2027 01:19:03.672            50.874                  Delhi          1589.812
       109   02 Jun 2027 01:21:48.869   02 Jun 2027 01:23:34.242           105.373                Sumatra          3292.906
       110   02 Jun 2027 01:57:29.906   02 Jun 2027 01:58:32.095            62.189            RioGallegos          1943.406
       111   02 Jun 2027 02:00:05.591   02 Jun 2027 02:00:54.524            48.933            RioGallegos          1529.156
       112   02 Jun 2027 02:32:20.768   02 Jun 2027 02:32:39.097            18.329                Anadyr2           572.781
       113   02 Jun 2027 02:34:23.410   02 Jun 2027 02:34:58.660            35.250                Norilsk          1101.562
       114   02 Jun 2027 02:36:32.975   02 Jun 2027 02:36:51.324            18.349               Magadan2           573.406
       115   02 Jun 2027 02:37:05.833   02 Jun 2027 02:37:58.321            52.488              Murmansk2          1640.250
       116   02 Jun 2027 02:40:02.721   02 Jun 2027 02:40:18.916            16.195                Irkutsk           506.094
       117   02 Jun 2027 02:41:28.521   02 Jun 2027 02:41:41.088            12.567                Novosib           392.719
       118   02 Jun 2027 02:42:19.768   02 Jun 2027 02:42:37.171            17.403              Murmansk1           543.844
       119   02 Jun 2027 02:43:24.863   02 Jun 2027 02:44:05.689            40.826                Irkutsk          1275.813
       120   02 Jun 2027 02:46:29.162   02 Jun 2027 02:46:34.803             5.641                Irkutsk           176.281
       121   02 Jun 2027 02:46:42.754   02 Jun 2027 02:47:39.395            56.641                Irkutsk          1770.031
       122   02 Jun 2027 02:52:12.247   02 Jun 2027 02:54:21.856           129.609                  Delhi          4050.281
       123   02 Jun 2027 03:27:43.460   02 Jun 2027 03:28:34.166            50.706            RioGallegos          1584.563
       124   02 Jun 2027 03:30:40.302   02 Jun 2027 03:32:57.903           137.601            RioGallegos          4300.031
       125   02 Jun 2027 04:16:12.790   02 Jun 2027 04:16:24.437            11.647                Irkutsk           363.969
       126   02 Jun 2027 04:19:16.666   02 Jun 2027 04:19:52.779            36.113                Norilsk          1128.531
       127   02 Jun 2027 04:20:55.244   02 Jun 2027 04:22:14.785            79.541              Murmansk1          2485.656
       128   02 Jun 2027 04:22:14.785   02 Jun 2027 04:23:33.614            78.829              Murmansk2          2463.406
       129   02 Jun 2027 04:23:33.614   02 Jun 2027 04:23:38.236             4.622              Murmansk1           144.438
       130   02 Jun 2027 04:25:18.682   02 Jun 2027 04:25:30.403            11.721                Novosib           366.281
       131   02 Jun 2027 04:25:45.276   02 Jun 2027 04:27:16.557            91.281                  Delhi          2852.531
       132   02 Jun 2027 04:28:00.862   02 Jun 2027 04:29:38.421            97.559                  Delhi          3048.719
       133   02 Jun 2027 05:56:04.878   02 Jun 2027 05:57:06.900            62.022              Murmansk1          1938.188
       134   02 Jun 2027 05:57:07.648   02 Jun 2027 05:57:55.012            47.364              Murmansk2          1480.125
       135   02 Jun 2027 05:58:05.045   02 Jun 2027 05:59:18.586            73.541              Murmansk1          2298.156
       136   02 Jun 2027 05:59:18.586   02 Jun 2027 05:59:49.339            30.753              Murmansk2           961.031
       137   02 Jun 2027 06:02:01.888   02 Jun 2027 06:03:03.288            61.400                 Moscow          1918.750
       138   02 Jun 2027 07:20:04.864   02 Jun 2027 07:20:49.147            44.283               Magadan2          1383.844
       139   02 Jun 2027 07:20:55.828   02 Jun 2027 07:23:11.457           135.629                Anadyr1          4238.406
       140   02 Jun 2027 08:55:04.867   02 Jun 2027 08:57:15.532           130.665                Anadyr2          4083.281
       141   02 Jun 2027 08:58:32.063   02 Jun 2027 09:00:08.808            96.745                Anadyr1          3023.281
       142   02 Jun 2027 10:30:26.785   02 Jun 2027 10:33:40.365           193.580               Magadan2          6049.375
       143   02 Jun 2027 10:33:54.870   02 Jun 2027 10:34:44.362            49.492                Anadyr1          1546.625
       144   02 Jun 2027 10:35:05.902   02 Jun 2027 10:36:12.824            66.922                Irkutsk          2091.312
       145   02 Jun 2027 10:36:18.704   02 Jun 2027 10:36:19.327             0.623                Norilsk            19.469
       146   02 Jun 2027 10:36:22.040   02 Jun 2027 10:36:27.103             5.063                Norilsk           158.219
       147   02 Jun 2027 10:36:38.771   02 Jun 2027 10:36:43.392             4.621              Murmansk1           144.406
       148   02 Jun 2027 10:37:06.990   02 Jun 2027 10:37:42.644            35.654              Murmansk2          1114.187
       149   02 Jun 2027 10:44:18.516   02 Jun 2027 10:44:44.749            26.233              Murmansk2           819.781
       150   02 Jun 2027 11:11:23.272   02 Jun 2027 11:12:30.006            66.734            RioGallegos          2085.437
       151   02 Jun 2027 11:47:32.851   02 Jun 2027 11:47:56.479            23.628                Sumatra           738.375
       152   02 Jun 2027 11:48:58.983   02 Jun 2027 11:50:19.733            80.750                Sumatra          2523.438
       153   02 Jun 2027 12:08:15.992   02 Jun 2027 12:08:31.375            15.383                Novosib           480.719
       154   02 Jun 2027 12:09:32.359   02 Jun 2027 12:09:34.945             2.586                Norilsk            80.812
       155   02 Jun 2027 12:09:44.893   02 Jun 2027 12:09:53.405             8.512              Murmansk2           266.000
       156   02 Jun 2027 12:10:46.099   02 Jun 2027 12:11:10.210            24.111              Murmansk1           753.469
       157   02 Jun 2027 12:12:30.124   02 Jun 2027 12:12:53.852            23.728              Murmansk2           741.500
       158   02 Jun 2027 12:14:10.836   02 Jun 2027 12:14:25.796            14.960                Norilsk           467.500
       159   02 Jun 2027 12:15:17.514   02 Jun 2027 12:15:32.090            14.576                Norilsk           455.500
       160   02 Jun 2027 12:16:25.059   02 Jun 2027 12:16:46.484            21.425              Murmansk1           669.531
       161   02 Jun 2027 12:19:20.694   02 Jun 2027 12:19:49.379            28.685              Murmansk1           896.406
       162   02 Jun 2027 12:52:16.782   02 Jun 2027 12:53:09.795            53.013            RioGallegos          1656.656
       163   02 Jun 2027 12:56:31.171   02 Jun 2027 12:58:06.221            95.050            RioGallegos          2970.312
       164   02 Jun 2027 13:24:49.535   02 Jun 2027 13:26:59.528           129.993                Sumatra          4062.281
       165   02 Jun 2027 13:38:18.746   02 Jun 2027 13:39:11.638            52.892                Irkutsk          1652.875
       166   02 Jun 2027 13:41:26.353   02 Jun 2027 13:42:30.124            63.771                Irkutsk          1992.844
       167   02 Jun 2027 13:47:35.154   02 Jun 2027 13:47:38.374             3.220                Irkutsk           100.625
       168   02 Jun 2027 13:53:06.722   02 Jun 2027 13:53:32.350            25.628                Norilsk           800.875
       169   02 Jun 2027 15:07:18.070   02 Jun 2027 15:10:19.633           181.563                  Delhi          5673.844
       170   02 Jun 2027 15:11:39.063   02 Jun 2027 15:12:54.140            75.077                  Delhi          2346.156
       171   02 Jun 2027 15:15:38.389   02 Jun 2027 15:18:47.017           188.628                Novosib          5894.625
       172   02 Jun 2027 15:20:36.590   02 Jun 2027 15:21:24.543            47.953                Novosib          1498.531
       173   02 Jun 2027 15:28:11.621   02 Jun 2027 15:28:28.933            17.312                Norilsk           541.000
       174   02 Jun 2027 16:50:48.679   02 Jun 2027 16:51:53.361            64.682                 Moscow          2021.312
       175   02 Jun 2027 16:52:36.223   02 Jun 2027 16:53:58.844            82.621                 Moscow          2581.906
       176   02 Jun 2027 17:00:32.417   02 Jun 2027 17:01:48.976            76.559                Norilsk          2392.469
       177   02 Jun 2027 17:04:06.034   02 Jun 2027 17:04:38.908            32.874                Norilsk          1027.313
       178   02 Jun 2027 17:10:35.506   02 Jun 2027 17:11:09.407            33.901                Anadyr1          1059.406
       179   02 Jun 2027 18:04:27.872   02 Jun 2027 18:05:06.304            38.432               CapeTown          1201.000
       180   02 Jun 2027 18:05:22.472   02 Jun 2027 18:06:07.386            44.914               CapeTown          1403.563
       181   02 Jun 2027 18:10:34.990   02 Jun 2027 18:10:55.562            20.572               CapeTown           642.875
       182   02 Jun 2027 18:14:33.013   02 Jun 2027 18:14:53.159            20.146               CapeTown           629.563
       183   02 Jun 2027 18:29:42.670   02 Jun 2027 18:34:23.048           280.378                 Moscow          8761.812
       184   02 Jun 2027 18:42:27.774   02 Jun 2027 18:42:47.138            19.364              Murmansk1           605.125
       185   02 Jun 2027 18:48:48.129   02 Jun 2027 18:49:07.529            19.400                Anadyr1           606.250
       186   02 Jun 2027 19:40:39.577   02 Jun 2027 19:41:56.848            77.271               CapeTown          2414.719
       187   02 Jun 2027 19:42:15.858   02 Jun 2027 19:42:22.122             6.264               CapeTown           195.750
       188   02 Jun 2027 19:44:48.362   02 Jun 2027 19:45:09.632            21.270               CapeTown           664.687
       189   02 Jun 2027 19:49:02.965   02 Jun 2027 19:50:28.421            85.456               CapeTown          2670.500
       190   02 Jun 2027 20:12:36.746   02 Jun 2027 20:18:23.687           346.941              Murmansk2         10841.906
       191   02 Jun 2027 21:56:40.643   02 Jun 2027 22:01:17.467           276.824                Anadyr2          8650.750
       192   02 Jun 2027 22:01:23.619   02 Jun 2027 22:03:03.024            99.405               Magadan1          3106.406
       193   02 Jun 2027 22:03:13.633   02 Jun 2027 22:03:32.581            18.948               Magadan2           592.125
       194   02 Jun 2027 22:04:02.798   02 Jun 2027 22:04:46.289            43.491               Magadan1          1359.094
       195   02 Jun 2027 22:09:42.264   02 Jun 2027 22:10:00.516            18.252               Magadan1           570.375
       196   02 Jun 2027 22:51:46.997   02 Jun 2027 22:53:21.796            94.799            RioGallegos          2962.469
       197   02 Jun 2027 22:53:53.568   02 Jun 2027 22:54:06.063            12.495            RioGallegos           390.469
       198   02 Jun 2027 22:56:38.793   02 Jun 2027 22:57:51.583            72.790            RioGallegos          2274.687
       199   02 Jun 2027 23:32:25.893   02 Jun 2027 23:34:20.107           114.214                Anadyr2          3569.188
       200   02 Jun 2027 23:34:31.330   02 Jun 2027 23:36:11.472           100.142                Norilsk          3129.437
       201   02 Jun 2027 23:36:24.885   02 Jun 2027 23:36:28.954             4.069               Magadan1           127.156
       202   02 Jun 2027 23:36:45.446   02 Jun 2027 23:36:52.975             7.529                Norilsk           235.281
       203   02 Jun 2027 23:37:03.404   02 Jun 2027 23:37:14.720            11.316               Magadan2           353.625
       204   02 Jun 2027 23:37:33.925   02 Jun 2027 23:37:57.308            23.383                Norilsk           730.719
       205   02 Jun 2027 23:38:33.930   02 Jun 2027 23:38:34.260             0.330               Magadan1            10.313
       206   02 Jun 2027 23:38:59.234   02 Jun 2027 23:39:56.414            57.180               Magadan2          1786.875
       207   02 Jun 2027 23:41:11.375   02 Jun 2027 23:42:27.676            76.301                Irkutsk          2384.406
       208   02 Jun 2027 23:53:16.697   02 Jun 2027 23:54:01.229            44.532                Sumatra          1391.625
       209   02 Jun 2027 23:54:16.416   02 Jun 2027 23:56:13.206           116.790                Sumatra          3649.688
       210   03 Jun 2027 00:38:01.907   03 Jun 2027 00:38:04.343             2.436            RioGallegos            76.125
       211   03 Jun 2027 01:07:30.218   03 Jun 2027 01:08:55.582            85.364                Anadyr2          2667.625
       212   03 Jun 2027 01:08:55.582   03 Jun 2027 01:09:09.624            14.042                Anadyr1           438.813
       213   03 Jun 2027 01:09:34.330   03 Jun 2027 01:09:52.525            18.195                Anadyr1           568.594
       214   03 Jun 2027 01:09:54.706   03 Jun 2027 01:10:01.483             6.777                Anadyr2           211.781
       215   03 Jun 2027 01:10:13.259   03 Jun 2027 01:10:16.715             3.456                Anadyr2           108.000
       216   03 Jun 2027 01:10:24.542   03 Jun 2027 01:12:11.840           107.298                Norilsk          3353.063
       217   03 Jun 2027 01:12:47.150   03 Jun 2027 01:12:53.092             5.942               Magadan1           185.688
       218   03 Jun 2027 01:14:09.964   03 Jun 2027 01:14:22.897            12.933               Magadan1           404.156
       219   03 Jun 2027 01:14:39.836   03 Jun 2027 01:16:16.225            96.389                Irkutsk          3012.156
       220   03 Jun 2027 01:17:00.124   03 Jun 2027 01:18:07.256            67.132                Irkutsk          2097.875
       221   03 Jun 2027 01:22:45.202   03 Jun 2027 01:23:13.584            28.382                Irkutsk           886.938
       222   03 Jun 2027 01:27:08.722   03 Jun 2027 01:27:42.650            33.928                  Delhi          1060.250
       223   03 Jun 2027 01:28:39.200   03 Jun 2027 01:29:57.874            78.674                Sumatra          2458.562
       224   03 Jun 2027 01:33:42.654   03 Jun 2027 01:33:50.194             7.540                Sumatra           235.625
       225   03 Jun 2027 01:36:51.194   03 Jun 2027 01:38:34.543           103.349                Sumatra          3229.656
       226   03 Jun 2027 02:45:27.482   03 Jun 2027 02:46:48.425            80.943                Anadyr2          2529.469
       227   03 Jun 2027 02:46:57.705   03 Jun 2027 02:47:00.143             2.438               Magadan2            76.187
       228   03 Jun 2027 02:47:01.287   03 Jun 2027 02:47:26.025            24.738                Norilsk           773.063
       229   03 Jun 2027 02:47:42.097   03 Jun 2027 02:48:07.560            25.463                Norilsk           795.719
       230   03 Jun 2027 02:48:58.410   03 Jun 2027 02:49:48.078            49.668              Murmansk1          1552.125
       231   03 Jun 2027 02:50:11.930   03 Jun 2027 02:50:37.579            25.649                Novosib           801.531
       232   03 Jun 2027 02:50:50.760   03 Jun 2027 02:51:55.200            64.440                Irkutsk          2013.750
       233   03 Jun 2027 02:56:29.264   03 Jun 2027 02:56:57.681            28.417                Irkutsk           888.031
       234   03 Jun 2027 02:57:34.009   03 Jun 2027 02:59:35.198           121.189                  Delhi          3787.156
       235   03 Jun 2027 03:40:13.149   03 Jun 2027 03:40:52.229            39.080            RioGallegos          1221.250
       236   03 Jun 2027 03:43:10.493   03 Jun 2027 03:44:47.267            96.774            RioGallegos          3024.187
       237   03 Jun 2027 04:31:51.183   03 Jun 2027 04:32:01.058             9.875              Murmansk1           308.594
       238   03 Jun 2027 04:32:08.006   03 Jun 2027 04:32:46.981            38.975              Murmansk2          1217.969
       239   03 Jun 2027 04:33:16.370   03 Jun 2027 04:33:46.339            29.969                 Moscow           936.531
       240   03 Jun 2027 04:34:01.269   03 Jun 2027 04:34:01.930             0.661              Murmansk2            20.656
       241   03 Jun 2027 04:34:05.981   03 Jun 2027 04:34:10.301             4.320                Novosib           135.000
       242   03 Jun 2027 04:34:13.582   03 Jun 2027 04:34:41.080            27.498                Norilsk           859.313
       243   03 Jun 2027 04:34:57.738   03 Jun 2027 04:35:57.856            60.118              Murmansk1          1878.688
       244   03 Jun 2027 04:38:34.428   03 Jun 2027 04:39:20.396            45.968                 Moscow          1436.500
       245   03 Jun 2027 04:53:15.980   03 Jun 2027 04:56:02.221           166.241               CapeTown          5195.031
       246   03 Jun 2027 06:09:01.897   03 Jun 2027 06:09:18.519            16.622              Murmansk1           519.438
       247   03 Jun 2027 06:09:28.069   03 Jun 2027 06:10:33.312            65.243                 Moscow          2038.844
       248   03 Jun 2027 06:10:35.342   03 Jun 2027 06:10:54.536            19.194              Murmansk1           599.812
       249   03 Jun 2027 06:12:27.658   03 Jun 2027 06:12:56.696            29.038              Murmansk2           907.438
       250   03 Jun 2027 06:27:46.539   03 Jun 2027 06:29:39.424           112.885               CapeTown          3527.656
       251   03 Jun 2027 07:30:40.256   03 Jun 2027 07:31:04.519            24.263               Magadan1           758.219
       252   03 Jun 2027 07:31:07.657   03 Jun 2027 07:31:08.570             0.913               Magadan2            28.531
       253   03 Jun 2027 07:31:28.638   03 Jun 2027 07:32:32.675            64.037                Anadyr1          2001.156
       254   03 Jun 2027 07:32:50.171   03 Jun 2027 07:32:58.842             8.671               Magadan1           270.969
       255   03 Jun 2027 07:33:03.012   03 Jun 2027 07:33:42.112            39.100                Norilsk          1221.875
       256   03 Jun 2027 07:35:11.589   03 Jun 2027 07:35:45.117            33.528                Anadyr1          1047.750
       257   03 Jun 2027 07:42:33.288   03 Jun 2027 07:42:34.797             1.509                 Moscow            47.156
       258   03 Jun 2027 07:42:44.047   03 Jun 2027 07:42:58.448            14.401                 Moscow           450.031
       259   03 Jun 2027 09:01:11.931   03 Jun 2027 09:01:58.711            46.780               Magadan2          1461.875
       260   03 Jun 2027 09:05:24.308   03 Jun 2027 09:05:47.004            22.696                Anadyr1           709.250
       261   03 Jun 2027 09:07:00.067   03 Jun 2027 09:09:15.039           134.972                Anadyr2          4217.875
       262   03 Jun 2027 09:09:29.851   03 Jun 2027 09:10:00.253            30.402                Irkutsk           950.063
       263   03 Jun 2027 09:10:21.242   03 Jun 2027 09:11:55.494            94.252                Anadyr1          2945.375
       264   03 Jun 2027 09:11:55.494   03 Jun 2027 09:12:39.910            44.416                Anadyr2          1388.000
       265   03 Jun 2027 10:37:57.231   03 Jun 2027 10:38:16.582            19.351               Magadan2           604.719
       266   03 Jun 2027 10:42:17.276   03 Jun 2027 10:44:46.025           148.749               Magadan2          4648.406
       267   03 Jun 2027 10:44:46.025   03 Jun 2027 10:45:19.500            33.475               Magadan1          1046.094
       268   03 Jun 2027 10:45:40.756   03 Jun 2027 10:45:45.653             4.897                Norilsk           153.031
       269   03 Jun 2027 10:45:56.981   03 Jun 2027 10:45:59.770             2.789                Novosib            87.156
       270   03 Jun 2027 10:46:11.004   03 Jun 2027 10:46:58.370            47.366                Norilsk          1480.187
       271   03 Jun 2027 10:47:06.045   03 Jun 2027 10:48:10.708            64.663                Irkutsk          2020.719
       272   03 Jun 2027 10:48:18.757   03 Jun 2027 10:48:23.434             4.677                Norilsk           146.156
       273   03 Jun 2027 10:48:30.515   03 Jun 2027 10:48:38.560             8.045                Norilsk           251.406
       274   03 Jun 2027 10:49:08.605   03 Jun 2027 10:49:30.384            21.779              Murmansk1           680.594
       275   03 Jun 2027 10:53:18.701   03 Jun 2027 10:53:27.943             9.242              Murmansk1           288.813
       276   03 Jun 2027 11:23:19.261   03 Jun 2027 11:24:29.205            69.944            RioGallegos          2185.750
       277   03 Jun 2027 11:59:03.002   03 Jun 2027 12:00:01.654            58.652                Sumatra          1832.875
       278   03 Jun 2027 12:11:44.637   03 Jun 2027 12:13:49.806           125.169                Irkutsk          3911.531
       279   03 Jun 2027 12:16:36.778   03 Jun 2027 12:17:29.917            53.139                Norilsk          1660.594
       280   03 Jun 2027 12:19:40.868   03 Jun 2027 12:19:58.327            17.459                Norilsk           545.594
       281   03 Jun 2027 12:21:46.510   03 Jun 2027 12:22:39.080            52.570              Murmansk1          1642.813
       282   03 Jun 2027 13:00:38.016   03 Jun 2027 13:01:30.899            52.883            RioGallegos          1652.594
       283   03 Jun 2027 13:04:16.507   03 Jun 2027 13:05:42.846            86.339            RioGallegos          2698.094
       284   03 Jun 2027 13:34:51.828   03 Jun 2027 13:38:46.341           234.513                Sumatra          7328.531
       285   03 Jun 2027 13:52:35.802   03 Jun 2027 13:54:58.475           142.673                Irkutsk          4458.531
       286   03 Jun 2027 15:19:54.782   03 Jun 2027 15:24:45.892           291.110                  Delhi          9097.188
       287   03 Jun 2027 15:28:22.103   03 Jun 2027 15:30:00.716            98.613                Novosib          3081.656
       288   03 Jun 2027 15:31:46.968   03 Jun 2027 15:34:42.948           175.980                Novosib          5499.375
       289   03 Jun 2027 17:05:58.639   03 Jun 2027 17:07:00.306            61.667                 Moscow          1927.094
       290   03 Jun 2027 17:13:48.057   03 Jun 2027 17:16:09.008           140.951                Norilsk          4404.719
       291   03 Jun 2027 18:16:21.115   03 Jun 2027 18:17:17.383            56.268               CapeTown          1758.375
       292   03 Jun 2027 18:27:57.483   03 Jun 2027 18:28:05.588             8.105               CapeTown           253.281
       293   03 Jun 2027 18:42:33.638   03 Jun 2027 18:43:27.764            54.126                 Moscow          1691.437
       294   03 Jun 2027 18:44:33.611   03 Jun 2027 18:45:29.281            55.670              Murmansk2          1739.688
       295   03 Jun 2027 18:46:25.203   03 Jun 2027 18:47:00.365            35.162                 Moscow          1098.812
       296   03 Jun 2027 18:47:19.295   03 Jun 2027 18:49:13.543           114.248              Murmansk2          3570.250
       297   03 Jun 2027 18:53:56.357   03 Jun 2027 18:54:39.091            42.734              Murmansk1          1335.437
       298   03 Jun 2027 19:00:56.607   03 Jun 2027 19:01:29.681            33.074                Anadyr2          1033.562
       299   03 Jun 2027 19:52:58.536   03 Jun 2027 19:54:01.121            62.585               CapeTown          1955.781
       300   03 Jun 2027 19:57:05.982   03 Jun 2027 19:57:58.317            52.335               CapeTown          1635.469
       301   03 Jun 2027 20:02:12.912   03 Jun 2027 20:02:51.931            39.019               CapeTown          1219.344
       302   03 Jun 2027 20:25:34.324   03 Jun 2027 20:29:49.105           254.781              Murmansk1          7961.906
       303   03 Jun 2027 20:35:24.260   03 Jun 2027 20:36:21.710            57.450               Magadan2          1795.313
       304   03 Jun 2027 20:42:22.970   03 Jun 2027 20:42:37.585            14.615               Magadan2           456.719
       305   03 Jun 2027 20:43:48.788   03 Jun 2027 20:44:52.483            63.695               Magadan2          1990.469
       306   03 Jun 2027 22:08:42.053   03 Jun 2027 22:12:28.435           226.382                Anadyr2          7074.437
       307   03 Jun 2027 22:12:28.952   03 Jun 2027 22:13:46.794            77.842                Anadyr1          2432.563
       308   03 Jun 2027 22:13:58.293   03 Jun 2027 22:13:59.341             1.048                Norilsk            32.750
       309   03 Jun 2027 22:14:07.354   03 Jun 2027 22:14:34.426            27.072               Magadan1           846.000
       310   03 Jun 2027 22:14:42.931   03 Jun 2027 22:15:07.103            24.172               Magadan1           755.375
       311   03 Jun 2027 22:15:07.103   03 Jun 2027 22:15:19.420            12.317               Magadan2           384.906
       312   03 Jun 2027 22:15:30.507   03 Jun 2027 22:16:04.204            33.697               Magadan2          1053.031
       313   03 Jun 2027 23:03:27.450   03 Jun 2027 23:05:57.463           150.013            RioGallegos          4687.906
       314   03 Jun 2027 23:08:50.748   03 Jun 2027 23:09:51.344            60.596            RioGallegos          1893.625
       315   03 Jun 2027 23:44:24.151   03 Jun 2027 23:45:24.977            60.826                Anadyr1          1900.813
       316   03 Jun 2027 23:45:29.376   03 Jun 2027 23:45:37.823             8.447                Anadyr2           263.969
       317   03 Jun 2027 23:45:59.224   03 Jun 2027 23:46:23.899            24.675                Anadyr2           771.094
       318   03 Jun 2027 23:46:31.239   03 Jun 2027 23:48:10.082            98.843                Norilsk          3088.844
       319   03 Jun 2027 23:48:50.152   03 Jun 2027 23:48:51.676             1.524               Magadan1            47.625
       320   03 Jun 2027 23:48:59.955   03 Jun 2027 23:50:15.944            75.989               Magadan2          2374.656
       321   03 Jun 2027 23:50:53.002   03 Jun 2027 23:52:05.419            72.417                Irkutsk          2263.031
       322   04 Jun 2027 00:04:51.468   04 Jun 2027 00:06:37.377           105.909                Sumatra          3309.656
       323   04 Jun 2027 00:06:45.684   04 Jun 2027 00:08:04.781            79.097                Sumatra          2471.781
       324   04 Jun 2027 00:42:12.515   04 Jun 2027 00:42:37.920            25.405            RioGallegos           793.906
       325   04 Jun 2027 00:47:59.397   04 Jun 2027 00:48:12.244            12.847            RioGallegos           401.469
       326   04 Jun 2027 00:49:57.429   04 Jun 2027 00:49:59.694             2.265            RioGallegos            70.781
       327   04 Jun 2027 00:50:32.511   04 Jun 2027 00:51:17.203            44.692            RioGallegos          1396.625
       328   04 Jun 2027 01:19:20.366   04 Jun 2027 01:19:41.188            20.822                Anadyr1           650.687
       329   04 Jun 2027 01:20:13.321   04 Jun 2027 01:20:44.510            31.189                Anadyr2           974.656
       330   04 Jun 2027 01:21:08.715   04 Jun 2027 01:21:34.700            25.985                Anadyr1           812.031
       331   04 Jun 2027 01:22:26.873   04 Jun 2027 01:24:14.169           107.296                Norilsk          3353.000
       332   04 Jun 2027 01:24:48.992   04 Jun 2027 01:24:50.556             1.564               Magadan1            48.875
       333   04 Jun 2027 01:24:52.242   04 Jun 2027 01:25:03.145            10.903               Magadan2           340.719
       334   04 Jun 2027 01:26:19.232   04 Jun 2027 01:28:13.729           114.497                Irkutsk          3578.031
       335   04 Jun 2027 01:28:56.445   04 Jun 2027 01:29:51.418            54.973                Novosib          1717.906
       336   04 Jun 2027 01:33:37.389   04 Jun 2027 01:33:50.602            13.213                Novosib           412.906
       337   04 Jun 2027 01:37:47.097   04 Jun 2027 01:37:57.058             9.961                  Delhi           311.281
       338   04 Jun 2027 01:38:57.200   04 Jun 2027 01:39:17.792            20.592                  Delhi           643.500
       339   04 Jun 2027 01:41:06.859   04 Jun 2027 01:41:57.021            50.162                Sumatra          1567.563
       340   04 Jun 2027 01:42:16.679   04 Jun 2027 01:44:16.772           120.093                Sumatra          3752.906
       341   04 Jun 2027 02:19:06.720   04 Jun 2027 02:19:15.723             9.003            RioGallegos           281.344
       342   04 Jun 2027 02:21:28.558   04 Jun 2027 02:22:07.488            38.930            RioGallegos          1216.563
       343   04 Jun 2027 02:53:59.480   04 Jun 2027 02:55:04.580            65.100                Anadyr1          2034.375
       344   04 Jun 2027 02:58:27.588   04 Jun 2027 02:58:49.687            22.099                Norilsk           690.594
       345   04 Jun 2027 02:59:21.290   04 Jun 2027 02:59:34.283            12.993                Norilsk           406.031
       346   04 Jun 2027 03:02:25.262   04 Jun 2027 03:02:27.979             2.717               Magadan1            84.906
       347   04 Jun 2027 03:02:48.618   04 Jun 2027 03:03:00.490            11.872               Magadan1           371.000
       348   04 Jun 2027 03:04:05.268   04 Jun 2027 03:04:52.777            47.509              Murmansk1          1484.656
       349   04 Jun 2027 03:05:12.984   04 Jun 2027 03:05:35.041            22.057                Norilsk           689.281
       350   04 Jun 2027 03:05:36.391   04 Jun 2027 03:06:15.673            39.282              Murmansk2          1227.563
       351   04 Jun 2027 03:06:15.673   04 Jun 2027 03:07:02.769            47.096              Murmansk1          1471.750
       352   04 Jun 2027 03:07:11.407   04 Jun 2027 03:08:02.615            51.208                Norilsk          1600.250
       353   04 Jun 2027 03:08:14.626   04 Jun 2027 03:08:52.359            37.733              Murmansk1          1179.156
       354   04 Jun 2027 03:09:00.937   04 Jun 2027 03:09:43.237            42.300                Novosib          1321.875
       355   04 Jun 2027 03:10:01.639   04 Jun 2027 03:10:32.730            31.091                Norilsk           971.594
       356   04 Jun 2027 04:43:25.762   04 Jun 2027 04:43:41.628            15.866                 Moscow           495.812
       357   04 Jun 2027 04:44:09.487   04 Jun 2027 04:44:30.844            21.357                Novosib           667.406
       358   04 Jun 2027 04:44:37.798   04 Jun 2027 04:45:49.007            71.209              Murmansk2          2225.281
       359   04 Jun 2027 04:45:49.007   04 Jun 2027 04:46:59.024            70.017              Murmansk1          2188.031
       360   04 Jun 2027 04:46:59.024   04 Jun 2027 04:47:49.212            50.188              Murmansk2          1568.375
       361   04 Jun 2027 04:48:00.470   04 Jun 2027 04:48:08.878             8.408              Murmansk1           262.750
       362   04 Jun 2027 04:48:12.379   04 Jun 2027 04:48:43.966            31.587                Novosib           987.094
       363   04 Jun 2027 04:49:34.325   04 Jun 2027 04:50:40.781            66.456                 Moscow          2076.750
       364   04 Jun 2027 05:04:47.368   04 Jun 2027 05:05:29.836            42.468               CapeTown          1327.125
       365   04 Jun 2027 05:06:21.827   04 Jun 2027 05:07:48.002            86.175               CapeTown          2692.969
       366   04 Jun 2027 06:04:57.274   04 Jun 2027 06:05:18.942            21.668                Anadyr2           677.125
       367   04 Jun 2027 06:18:10.444   04 Jun 2027 06:18:10.884             0.440                Novosib            13.750
       368   04 Jun 2027 06:18:59.386   04 Jun 2027 06:19:43.742            44.356              Murmansk2          1386.125
       369   04 Jun 2027 06:20:01.640   04 Jun 2027 06:20:55.729            54.089              Murmansk1          1690.281
       370   04 Jun 2027 06:21:32.307   04 Jun 2027 06:21:40.008             7.701              Murmansk1           240.656
       371   04 Jun 2027 06:22:09.265   04 Jun 2027 06:22:51.473            42.208              Murmansk2          1319.000
       372   04 Jun 2027 06:23:04.472   04 Jun 2027 06:23:19.811            15.339                 Moscow           479.344
       373   04 Jun 2027 06:40:01.347   04 Jun 2027 06:41:31.947            90.600               CapeTown          2831.250
       374   04 Jun 2027 06:44:39.473   04 Jun 2027 06:44:48.917             9.444               CapeTown           295.125
       375   04 Jun 2027 07:43:11.231   04 Jun 2027 07:43:30.188            18.957               Magadan1           592.406
       376   04 Jun 2027 07:43:30.188   04 Jun 2027 07:44:50.765            80.577               Magadan2          2518.031
       377   04 Jun 2027 07:45:02.124   04 Jun 2027 07:45:27.112            24.988               Magadan2           780.875
       378   04 Jun 2027 07:46:25.150   04 Jun 2027 07:47:11.218            46.068                Anadyr2          1439.625
       379   04 Jun 2027 07:52:08.640   04 Jun 2027 07:52:37.370            28.730                 Moscow           897.812
       380   04 Jun 2027 09:17:24.677   04 Jun 2027 09:17:39.256            14.579                Anadyr2           455.594
       381   04 Jun 2027 09:18:53.314   04 Jun 2027 09:20:30.694            97.380                Anadyr1          3043.125
       382   04 Jun 2027 09:20:42.844   04 Jun 2027 09:21:05.069            22.225               Magadan1           694.531
       383   04 Jun 2027 09:21:13.853   04 Jun 2027 09:23:14.037           120.184                Anadyr2          3755.750
       384   04 Jun 2027 09:23:14.037   04 Jun 2027 09:24:53.569            99.532                Anadyr1          3110.375
       385   04 Jun 2027 10:50:30.847   04 Jun 2027 10:50:33.624             2.777               Magadan2            86.781
       386   04 Jun 2027 10:54:04.291   04 Jun 2027 10:55:24.201            79.910               Magadan2          2497.188
       387   04 Jun 2027 10:55:28.811   04 Jun 2027 10:56:01.126            32.315                Novosib          1009.844
       388   04 Jun 2027 10:56:08.939   04 Jun 2027 10:56:11.157             2.218                Norilsk            69.312
       389   04 Jun 2027 10:56:14.775   04 Jun 2027 10:56:46.192            31.417                Novosib           981.781
       390   04 Jun 2027 10:56:46.899   04 Jun 2027 11:00:13.759           206.860               Magadan1          6464.375
       391   04 Jun 2027 11:00:34.118   04 Jun 2027 11:00:45.913            11.795              Murmansk2           368.594
       392   04 Jun 2027 11:00:45.913   04 Jun 2027 11:01:10.263            24.350              Murmansk1           760.937
       393   04 Jun 2027 11:35:18.537   04 Jun 2027 11:36:27.175            68.638            RioGallegos          2144.938
       394   04 Jun 2027 12:10:41.877   04 Jun 2027 12:12:25.310           103.433                Sumatra          3232.281
       395   04 Jun 2027 12:23:51.061   04 Jun 2027 12:25:42.562           111.501                Irkutsk          3484.406
       396   04 Jun 2027 12:28:38.581   04 Jun 2027 12:30:00.460            81.879                Norilsk          2558.719
       397   04 Jun 2027 12:34:23.478   04 Jun 2027 12:34:38.509            15.031                Norilsk           469.719
       398   04 Jun 2027 12:39:18.837   04 Jun 2027 12:39:36.579            17.742                Norilsk           554.437
       399   04 Jun 2027 13:13:10.759   04 Jun 2027 13:14:59.759           109.000            RioGallegos          3406.250
       400   04 Jun 2027 13:16:58.122   04 Jun 2027 13:18:06.306            68.184            RioGallegos          2130.750
       401   04 Jun 2027 13:47:24.754   04 Jun 2027 13:49:39.882           135.128                Sumatra          4222.750
       402   04 Jun 2027 14:03:00.454   04 Jun 2027 14:04:19.771            79.317                Irkutsk          2478.656
       403   04 Jun 2027 14:05:07.903   04 Jun 2027 14:06:38.303            90.400                Irkutsk          2825.000
       404   04 Jun 2027 15:32:44.848   04 Jun 2027 15:37:15.906           271.058                  Delhi          8470.562
       405   04 Jun 2027 15:41:15.411   04 Jun 2027 15:45:08.969           233.558                Novosib          7298.688
       406   04 Jun 2027 15:47:59.277   04 Jun 2027 15:48:27.399            28.122                Novosib           878.813
       407   04 Jun 2027 17:17:57.540   04 Jun 2027 17:18:46.865            49.325                 Moscow          1541.406
       408   04 Jun 2027 17:19:34.192   04 Jun 2027 17:20:02.139            27.947              Murmansk2           873.344
       409   04 Jun 2027 17:21:29.885   04 Jun 2027 17:21:52.183            22.298              Murmansk1           696.813
       410   04 Jun 2027 17:25:23.889   04 Jun 2027 17:26:59.268            95.379              Murmansk2          2980.594
       411   04 Jun 2027 17:33:49.380   04 Jun 2027 17:34:38.479            49.099                Anadyr1          1534.344
       412   04 Jun 2027 18:28:17.619   04 Jun 2027 18:29:07.226            49.607               CapeTown          1550.219
       413   04 Jun 2027 18:30:53.701   04 Jun 2027 18:31:25.938            32.237               CapeTown          1007.406
       414   04 Jun 2027 18:35:13.056   04 Jun 2027 18:35:34.206            21.150               CapeTown           660.938
       415   04 Jun 2027 18:36:52.765   04 Jun 2027 18:37:51.220            58.455               CapeTown          1826.719
       416   04 Jun 2027 18:55:38.088   04 Jun 2027 18:58:45.602           187.514                 Moscow          5859.813
       417   04 Jun 2027 18:59:28.124   04 Jun 2027 18:59:45.019            16.895                 Moscow           527.969
       418   04 Jun 2027 19:01:50.875   04 Jun 2027 19:02:46.956            56.081              Murmansk1          1752.531
       419   04 Jun 2027 19:17:40.033   04 Jun 2027 19:17:50.951            10.918                Anadyr1           341.187
       420   04 Jun 2027 20:05:23.463   04 Jun 2027 20:06:08.258            44.795               CapeTown          1399.844
       421   04 Jun 2027 20:06:56.212   04 Jun 2027 20:08:57.254           121.042               CapeTown          3782.563
       422   04 Jun 2027 20:38:47.204   04 Jun 2027 20:41:40.571           173.367              Murmansk2          5417.719
       423   04 Jun 2027 20:47:19.896   04 Jun 2027 20:48:09.135            49.239               Magadan2          1538.719
       424   04 Jun 2027 20:49:48.266   04 Jun 2027 20:50:29.238            40.972               Magadan2          1280.375
       425   04 Jun 2027 20:50:29.238   04 Jun 2027 20:51:08.611            39.373               Magadan1          1230.406
       426   04 Jun 2027 20:55:50.578   04 Jun 2027 20:56:17.471            26.893               Magadan2           840.406
       427   04 Jun 2027 22:20:43.250   04 Jun 2027 22:25:49.046           305.796                Anadyr1          9556.125
       428   04 Jun 2027 22:25:57.511   04 Jun 2027 22:26:01.026             3.515                Norilsk           109.844
       429   04 Jun 2027 22:26:19.239   04 Jun 2027 22:26:28.715             9.476               Magadan1           296.125
       430   04 Jun 2027 22:26:55.145   04 Jun 2027 22:27:22.187            27.042                Norilsk           845.063
       431   04 Jun 2027 22:27:42.197   04 Jun 2027 22:28:34.696            52.499               Magadan1          1640.594
       432   04 Jun 2027 22:28:39.941   04 Jun 2027 22:28:47.505             7.564               Magadan2           236.375
       433   04 Jun 2027 22:30:01.582   04 Jun 2027 22:30:14.178            12.596               Magadan2           393.625
       434   04 Jun 2027 22:32:13.674   04 Jun 2027 22:32:15.632             1.958               Magadan2            61.187
       435   04 Jun 2027 22:32:42.145   04 Jun 2027 22:32:55.153            13.008               Magadan2           406.500
       436   04 Jun 2027 22:33:23.045   04 Jun 2027 22:33:28.856             5.811               Magadan1           181.594
       437   04 Jun 2027 22:34:11.365   04 Jun 2027 22:34:26.099            14.734               Magadan2           460.437
       438   04 Jun 2027 23:15:13.140   04 Jun 2027 23:18:02.223           169.083            RioGallegos          5283.844
       439   04 Jun 2027 23:56:21.693   04 Jun 2027 23:59:35.970           194.277                Anadyr1          6071.156
       440   04 Jun 2027 23:59:37.722   05 Jun 2027 00:00:15.548            37.826                Norilsk          1182.062
       441   05 Jun 2027 00:00:23.987   05 Jun 2027 00:00:46.368            22.381               Magadan2           699.406
       442   05 Jun 2027 00:01:16.476   05 Jun 2027 00:01:20.798             4.322               Magadan1           135.062
       443   05 Jun 2027 00:01:56.974   05 Jun 2027 00:02:58.969            61.995               Magadan1          1937.344
       444   05 Jun 2027 00:03:32.920   05 Jun 2027 00:04:07.742            34.822                Irkutsk          1088.187
       445   05 Jun 2027 00:04:56.501   05 Jun 2027 00:05:35.851            39.350                Novosib          1229.687
       446   05 Jun 2027 00:07:08.822   05 Jun 2027 00:07:15.166             6.344                Novosib           198.250
       447   05 Jun 2027 00:16:34.059   05 Jun 2027 00:18:37.114           123.055                Sumatra          3845.469
       448   05 Jun 2027 00:19:06.084   05 Jun 2027 00:20:02.178            56.094                Sumatra          1752.938
       449   05 Jun 2027 00:54:17.265   05 Jun 2027 00:54:19.213             1.948            RioGallegos            60.875
       450   05 Jun 2027 00:54:25.052   05 Jun 2027 00:54:58.285            33.233            RioGallegos          1038.531
       451   05 Jun 2027 01:00:01.196   05 Jun 2027 01:00:26.201            25.005            RioGallegos           781.406
       452   05 Jun 2027 01:31:09.182   05 Jun 2027 01:32:14.638            65.456                Anadyr2          2045.500
       453   05 Jun 2027 01:32:14.638   05 Jun 2027 01:33:12.795            58.157                Anadyr1          1817.406
       454   05 Jun 2027 01:34:29.255   05 Jun 2027 01:36:15.525           106.270                Norilsk          3320.937
       455   05 Jun 2027 01:36:17.684   05 Jun 2027 01:36:53.819            36.135               Magadan2          1129.219
       456   05 Jun 2027 01:38:21.912   05 Jun 2027 01:38:59.859            37.947                Irkutsk          1185.844
       457   05 Jun 2027 01:39:27.701   05 Jun 2027 01:40:12.501            44.800                Irkutsk          1400.000
       458   05 Jun 2027 01:43:20.622   05 Jun 2027 01:43:41.397            20.775                Novosib           649.219
       459   05 Jun 2027 01:46:23.514   05 Jun 2027 01:47:05.561            42.047                  Delhi          1313.969
       460   05 Jun 2027 01:47:46.193   05 Jun 2027 01:49:05.955            79.762                  Delhi          2492.563
       461   05 Jun 2027 01:53:46.159   05 Jun 2027 01:54:01.888            15.729                Sumatra           491.531
       462   05 Jun 2027 01:54:50.545   05 Jun 2027 01:57:04.157           133.612                Sumatra          4175.375
       463   05 Jun 2027 02:34:14.948   05 Jun 2027 02:34:22.282             7.334            RioGallegos           229.187
       464   05 Jun 2027 02:37:07.822   05 Jun 2027 02:37:13.699             5.877            RioGallegos           183.656
       465   05 Jun 2027 03:17:46.387   05 Jun 2027 03:18:08.397            22.010              Murmansk2           687.812
       466   05 Jun 2027 03:18:41.050   05 Jun 2027 03:20:22.850           101.800                 Moscow          3181.250
       467   05 Jun 2027 03:20:30.971   05 Jun 2027 03:21:03.316            32.345              Murmansk2          1010.781
       468   05 Jun 2027 03:21:03.316   05 Jun 2027 03:21:23.264            19.948              Murmansk1           623.375
       469   05 Jun 2027 03:21:23.264   05 Jun 2027 03:21:30.703             7.439              Murmansk2           232.469
       470   05 Jun 2027 03:21:42.457   05 Jun 2027 03:21:52.691            10.234                Norilsk           319.813
       471   05 Jun 2027 03:23:58.416   05 Jun 2027 03:24:16.076            17.660                Novosib           551.875
       472   05 Jun 2027 03:25:40.101   05 Jun 2027 03:25:56.859            16.758                Novosib           523.687
       473   05 Jun 2027 04:55:11.277   05 Jun 2027 04:56:12.144            60.867              Murmansk1          1902.094
       474   05 Jun 2027 04:56:27.787   05 Jun 2027 04:57:36.139            68.352              Murmansk2          2136.000
       475   05 Jun 2027 04:57:39.848   05 Jun 2027 04:57:52.109            12.261                 Moscow           383.156
       476   05 Jun 2027 04:57:52.607   05 Jun 2027 04:58:53.406            60.799              Murmansk2          1899.969
       477   05 Jun 2027 04:58:58.306   05 Jun 2027 04:59:19.318            21.012              Murmansk1           656.625
       478   05 Jun 2027 05:00:03.053   05 Jun 2027 05:00:17.514            14.461                 Moscow           451.906
       479   05 Jun 2027 05:01:13.606   05 Jun 2027 05:01:32.408            18.802                 Moscow           587.563
       480   05 Jun 2027 05:03:11.123   05 Jun 2027 05:03:19.969             8.846                 Moscow           276.438
       481   05 Jun 2027 05:03:30.926   05 Jun 2027 05:03:53.642            22.716                 Moscow           709.875
       482   05 Jun 2027 05:16:25.244   05 Jun 2027 05:17:40.701            75.457               CapeTown          2358.031
