uniorb/output/strategy_2/Drop/Drop_KinoSat_110807.txt

KinoSat_110807
-------------------------
    Access    *     Start Time (UTCG)     *     Stop Time (UTCG)  *   Duration (s)        *       Station  *  Data (Mbytes)
         1   01 Jun 2027 03:16:20.625   01 Jun 2027 03:16:26.356             5.731                Anadyr1           179.094
         2   01 Jun 2027 03:16:35.883   01 Jun 2027 03:16:37.644             1.761               Magadan2            55.031
         3   01 Jun 2027 03:16:42.579   01 Jun 2027 03:17:25.819            43.240                Anadyr1          1351.250
         4   01 Jun 2027 03:17:29.651   01 Jun 2027 03:17:35.876             6.225                Anadyr1           194.531
         5   01 Jun 2027 03:18:16.012   01 Jun 2027 03:20:08.182           112.170               Magadan2          3505.312
         6   01 Jun 2027 03:20:14.012   01 Jun 2027 03:21:13.713            59.701                Anadyr1          1865.656
         7   01 Jun 2027 03:21:13.713   01 Jun 2027 03:22:38.003            84.290                Anadyr2          2634.062
         8   01 Jun 2027 04:55:38.655   01 Jun 2027 04:56:14.753            36.098               Magadan1          1128.062
         9   01 Jun 2027 04:56:14.753   01 Jun 2027 04:56:31.341            16.588               Magadan2           518.375
        10   01 Jun 2027 04:56:34.675   01 Jun 2027 04:58:15.451           100.776                Anadyr1          3149.250
        11   01 Jun 2027 05:35:29.399   01 Jun 2027 05:35:52.041            22.642            RioGallegos           707.562
        12   01 Jun 2027 05:36:12.173   01 Jun 2027 05:37:06.418            54.245            RioGallegos          1695.156
        13   01 Jun 2027 06:28:37.322   01 Jun 2027 06:28:44.145             6.823                Novosib           213.219
        14   01 Jun 2027 06:30:23.864   01 Jun 2027 06:30:24.757             0.893               Magadan1            27.906
        15   01 Jun 2027 06:30:34.197   01 Jun 2027 06:30:43.196             8.999               Magadan2           281.219
        16   01 Jun 2027 06:30:43.196   01 Jun 2027 06:30:51.988             8.792               Magadan1           274.750
        17   01 Jun 2027 06:31:29.979   01 Jun 2027 06:32:41.694            71.715                Novosib          2241.094
        18   01 Jun 2027 06:33:06.528   01 Jun 2027 06:33:07.861             1.333                Norilsk            41.656
        19   01 Jun 2027 06:33:12.659   01 Jun 2027 06:33:25.740            13.081              Murmansk1           408.781
        20   01 Jun 2027 06:33:25.740   01 Jun 2027 06:33:31.191             5.451              Murmansk2           170.344
        21   01 Jun 2027 06:33:32.907   01 Jun 2027 06:34:01.684            28.777               Magadan2           899.281
        22   01 Jun 2027 06:34:01.864   01 Jun 2027 06:35:24.553            82.689                Norilsk          2584.031
        23   01 Jun 2027 06:35:49.262   01 Jun 2027 06:36:01.788            12.526              Murmansk2           391.438
        24   01 Jun 2027 06:37:11.084   01 Jun 2027 06:37:23.940            12.856              Murmansk2           401.750
        25   01 Jun 2027 06:37:23.940   01 Jun 2027 06:38:02.701            38.761              Murmansk1          1211.281
        26   01 Jun 2027 06:38:17.602   01 Jun 2027 06:38:21.595             3.993                Norilsk           124.781
        27   01 Jun 2027 06:38:47.278   01 Jun 2027 06:39:15.868            28.590                Norilsk           893.438
        28   01 Jun 2027 06:39:21.785   01 Jun 2027 06:39:29.326             7.541                Norilsk           235.656
        29   01 Jun 2027 06:40:05.370   01 Jun 2027 06:40:51.916            46.546              Murmansk1          1454.563
        30   01 Jun 2027 06:43:04.596   01 Jun 2027 06:43:19.336            14.740              Murmansk1           460.625
        31   01 Jun 2027 07:09:03.892   01 Jun 2027 07:13:22.067           258.175            RioGallegos          8067.969
        32   01 Jun 2027 07:17:40.521   01 Jun 2027 07:18:38.460            57.939            RioGallegos          1810.594
        33   01 Jun 2027 07:44:39.225   01 Jun 2027 07:45:51.870            72.645                Sumatra          2270.156
        34   01 Jun 2027 07:46:29.436   01 Jun 2027 07:46:57.305            27.869                Sumatra           870.906
        35   01 Jun 2027 07:49:12.549   01 Jun 2027 07:50:50.322            97.773                Sumatra          3055.406
        36   01 Jun 2027 07:55:17.642   01 Jun 2027 07:56:20.901            63.259                Sumatra          1976.844
        37   01 Jun 2027 08:00:13.707   01 Jun 2027 08:00:23.733            10.026                  Delhi           313.312
        38   01 Jun 2027 08:06:53.604   01 Jun 2027 08:07:28.922            35.318                Novosib          1103.688
        39   01 Jun 2027 08:07:40.538   01 Jun 2027 08:09:24.004           103.466                Irkutsk          3233.312
        40   01 Jun 2027 08:09:38.466   01 Jun 2027 08:11:15.303            96.837                Norilsk          3026.156
        41   01 Jun 2027 08:12:14.243   01 Jun 2027 08:12:25.578            11.335              Murmansk1           354.219
        42   01 Jun 2027 08:12:25.578   01 Jun 2027 08:12:42.589            17.011              Murmansk2           531.594
        43   01 Jun 2027 08:12:42.816   01 Jun 2027 08:13:00.689            17.873                Norilsk           558.531
        44   01 Jun 2027 08:13:11.024   01 Jun 2027 08:15:01.402           110.378              Murmansk1          3449.313
        45   01 Jun 2027 08:15:07.274   01 Jun 2027 08:15:20.156            12.882                Norilsk           402.562
        46   01 Jun 2027 08:46:37.100   01 Jun 2027 08:47:43.009            65.909            RioGallegos          2059.656
        47   01 Jun 2027 08:48:24.258   01 Jun 2027 08:48:25.751             1.493            RioGallegos            46.656
        48   01 Jun 2027 08:49:27.807   01 Jun 2027 08:50:46.645            78.838            RioGallegos          2463.688
        49   01 Jun 2027 09:20:48.714   01 Jun 2027 09:21:25.390            36.676                Sumatra          1146.125
        50   01 Jun 2027 09:23:50.166   01 Jun 2027 09:24:23.798            33.632                Sumatra          1051.000
        51   01 Jun 2027 09:30:49.510   01 Jun 2027 09:31:52.424            62.914                  Delhi          1966.063
        52   01 Jun 2027 09:43:24.078   01 Jun 2027 09:43:37.166            13.088              Murmansk2           409.000
        53   01 Jun 2027 09:43:42.892   01 Jun 2027 09:44:44.157            61.265              Murmansk2          1914.531
        54   01 Jun 2027 09:44:44.157   01 Jun 2027 09:44:52.488             8.331              Murmansk1           260.344
        55   01 Jun 2027 09:44:59.739   01 Jun 2027 09:45:32.645            32.906                Norilsk          1028.312
        56   01 Jun 2027 09:45:59.316   01 Jun 2027 09:47:45.778           106.462                 Moscow          3326.938
        57   01 Jun 2027 09:47:48.894   01 Jun 2027 09:48:34.931            46.037              Murmansk2          1438.656
        58   01 Jun 2027 09:48:37.147   01 Jun 2027 09:48:58.682            21.535                 Moscow           672.969
        59   01 Jun 2027 11:05:59.153   01 Jun 2027 11:10:20.446           261.293                  Delhi          8165.406
        60   01 Jun 2027 11:19:05.372   01 Jun 2027 11:22:23.627           198.255                Novosib          6195.469
        61   01 Jun 2027 11:23:57.792   01 Jun 2027 11:24:19.731            21.939                 Moscow           685.594
        62   01 Jun 2027 12:31:04.464   01 Jun 2027 12:31:40.890            36.426               CapeTown          1138.312
        63   01 Jun 2027 12:48:49.523   01 Jun 2027 12:50:01.938            72.415                 Moscow          2262.969
        64   01 Jun 2027 12:52:19.256   01 Jun 2027 12:56:48.216           268.960              Murmansk1          8405.000
        65   01 Jun 2027 13:01:44.636   01 Jun 2027 13:02:19.614            34.978              Murmansk1          1093.063
        66   01 Jun 2027 13:07:49.392   01 Jun 2027 13:11:21.800           212.408                Anadyr2          6637.750
        67   01 Jun 2027 13:12:02.060   01 Jun 2027 13:13:58.943           116.883                Anadyr1          3652.594
        68   01 Jun 2027 14:30:31.771   01 Jun 2027 14:31:58.755            86.984              Murmansk2          2718.250
        69   01 Jun 2027 14:33:27.475   01 Jun 2027 14:34:34.695            67.220              Murmansk2          2100.625
        70   01 Jun 2027 14:42:42.974   01 Jun 2027 14:44:34.906           111.932                Anadyr2          3497.875
        71   01 Jun 2027 14:44:35.934   01 Jun 2027 14:45:19.966            44.032                Anadyr1          1376.000
        72   01 Jun 2027 16:11:55.414   01 Jun 2027 16:14:19.035           143.621              Murmansk2          4488.156
        73   01 Jun 2027 16:14:19.035   01 Jun 2027 16:14:37.463            18.428              Murmansk1           575.875
        74   01 Jun 2027 16:18:32.018   01 Jun 2027 16:20:04.994            92.976                Anadyr2          2905.500
        75   01 Jun 2027 16:20:29.678   01 Jun 2027 16:21:05.241            35.563                Anadyr1          1111.344
        76   01 Jun 2027 16:21:09.414   01 Jun 2027 16:23:38.065           148.651               Magadan2          4645.344
        77   01 Jun 2027 16:23:44.185   01 Jun 2027 16:25:06.940            82.755               Magadan1          2586.094
        78   01 Jun 2027 17:54:26.909   01 Jun 2027 17:55:59.304            92.395                Anadyr1          2887.344
        79   01 Jun 2027 17:56:12.119   01 Jun 2027 17:57:49.722            97.603                Anadyr2          3050.094
        80   01 Jun 2027 17:58:03.440   01 Jun 2027 17:58:14.509            11.069                Anadyr2           345.906
        81   01 Jun 2027 17:58:28.848   01 Jun 2027 17:58:34.996             6.148                Anadyr2           192.125
        82   01 Jun 2027 17:59:14.211   01 Jun 2027 18:00:12.095            57.884                Norilsk          1808.875
        83   01 Jun 2027 18:00:54.178   01 Jun 2027 18:01:07.102            12.924               Magadan1           403.875
        84   01 Jun 2027 18:03:30.001   01 Jun 2027 18:04:09.307            39.306               Magadan2          1228.312
        85   01 Jun 2027 18:49:08.686   01 Jun 2027 18:55:25.032           376.346            RioGallegos         11760.812
        86   01 Jun 2027 19:32:19.296   01 Jun 2027 19:35:36.483           197.187                Norilsk          6162.094
        87   01 Jun 2027 19:36:36.603   01 Jun 2027 19:39:36.746           180.143                Irkutsk          5629.469
        88   01 Jun 2027 19:39:44.222   01 Jun 2027 19:41:34.371           110.149                Novosib          3442.156
        89   01 Jun 2027 19:50:29.159   01 Jun 2027 19:52:40.642           131.483                Sumatra          4108.844
        90   01 Jun 2027 19:54:49.544   01 Jun 2027 19:55:50.999            61.455                Sumatra          1920.469
        91   01 Jun 2027 21:12:50.974   01 Jun 2027 21:14:14.396            83.422                Novosib          2606.938
        92   01 Jun 2027 21:20:22.397   01 Jun 2027 21:23:46.204           203.807                  Delhi          6368.969
        93   01 Jun 2027 22:44:28.782   01 Jun 2027 22:45:54.952            86.170               Magadan2          2692.813
        94   01 Jun 2027 22:46:41.040   01 Jun 2027 22:49:19.769           158.729              Murmansk1          4960.281
        95   01 Jun 2027 22:49:19.936   01 Jun 2027 22:50:41.844            81.908              Murmansk2          2559.625
        96   01 Jun 2027 22:52:08.071   01 Jun 2027 22:57:00.235           292.164                 Moscow          9130.125
        97   02 Jun 2027 00:22:21.772   02 Jun 2027 00:23:56.869            95.097              Murmansk2          2971.781
        98   02 Jun 2027 00:24:42.836   02 Jun 2027 00:25:06.078            23.242                Novosib           726.313
        99   02 Jun 2027 00:25:47.437   02 Jun 2027 00:26:22.855            35.418                 Moscow          1106.813
       100   02 Jun 2027 00:27:21.004   02 Jun 2027 00:28:07.613            46.609                 Moscow          1456.531
       101   02 Jun 2027 00:28:55.516   02 Jun 2027 00:29:47.971            52.455                 Moscow          1639.219
       102   02 Jun 2027 00:50:22.471   02 Jun 2027 00:53:46.513           204.042               CapeTown          6376.313
       103   02 Jun 2027 01:49:04.957   02 Jun 2027 01:50:29.837            84.880               Magadan1          2652.500
       104   02 Jun 2027 01:51:45.327   02 Jun 2027 01:51:45.698             0.371               Magadan2            11.594
       105   02 Jun 2027 01:51:48.947   02 Jun 2027 01:52:06.622            17.675               Magadan1           552.344
       106   02 Jun 2027 01:54:18.961   02 Jun 2027 01:54:29.790            10.829               Magadan2           338.406
       107   02 Jun 2027 01:57:04.092   02 Jun 2027 01:57:38.283            34.191               Magadan2          1068.469
       108   02 Jun 2027 01:58:19.623   02 Jun 2027 01:58:39.980            20.357              Murmansk1           636.156
       109   02 Jun 2027 01:58:39.980   02 Jun 2027 02:00:07.107            87.127              Murmansk2          2722.719
       110   02 Jun 2027 02:01:32.773   02 Jun 2027 02:02:11.663            38.890                 Moscow          1215.312
       111   02 Jun 2027 02:05:04.911   02 Jun 2027 02:05:19.585            14.674                 Moscow           458.563
       112   02 Jun 2027 02:07:52.853   02 Jun 2027 02:08:19.881            27.028                 Moscow           844.625
       113   02 Jun 2027 02:12:12.743   02 Jun 2027 02:12:34.352            21.609                 Moscow           675.281
       114   02 Jun 2027 02:25:54.444   02 Jun 2027 02:27:00.330            65.886               CapeTown          2058.938
       115   02 Jun 2027 02:31:35.806   02 Jun 2027 02:31:36.905             1.099               CapeTown            34.344
       116   02 Jun 2027 02:32:57.670   02 Jun 2027 02:33:01.239             3.569               CapeTown           111.531
       117   02 Jun 2027 02:34:05.461   02 Jun 2027 02:35:30.083            84.622               CapeTown          2644.438
       118   02 Jun 2027 03:28:56.210   02 Jun 2027 03:29:23.227            27.017                Anadyr1           844.281
       119   02 Jun 2027 03:29:57.860   02 Jun 2027 03:30:20.537            22.677               Magadan2           708.656
       120   02 Jun 2027 03:30:20.537   02 Jun 2027 03:30:42.111            21.574               Magadan1           674.187
       121   02 Jun 2027 03:30:54.771   02 Jun 2027 03:30:59.483             4.712                Anadyr2           147.250
       122   02 Jun 2027 03:30:59.483   02 Jun 2027 03:31:47.956            48.473                Anadyr1          1514.781
       123   02 Jun 2027 03:31:49.511   02 Jun 2027 03:31:51.283             1.772               Magadan1            55.375
       124   02 Jun 2027 03:31:55.235   02 Jun 2027 03:32:13.291            18.056                Anadyr2           564.250
       125   02 Jun 2027 03:32:29.836   02 Jun 2027 03:34:03.316            93.480               Magadan1          2921.250
       126   02 Jun 2027 03:34:19.802   02 Jun 2027 03:34:21.454             1.652               Magadan1            51.625
       127   02 Jun 2027 04:17:06.939   02 Jun 2027 04:17:24.806            17.867            RioGallegos           558.344
       128   02 Jun 2027 05:05:32.425   02 Jun 2027 05:05:50.704            18.279                Irkutsk           571.219
       129   02 Jun 2027 05:07:37.378   02 Jun 2027 05:08:32.356            54.978                Anadyr2          1718.063
       130   02 Jun 2027 05:09:13.662   02 Jun 2027 05:10:09.644            55.982               Magadan2          1749.437
       131   02 Jun 2027 06:42:12.384   02 Jun 2027 06:42:26.145            13.761               Magadan1           430.031
       132   02 Jun 2027 06:42:26.145   02 Jun 2027 06:42:27.990             1.845               Magadan2            57.656
       133   02 Jun 2027 06:42:37.290   02 Jun 2027 06:42:47.385            10.095                Irkutsk           315.469
       134   02 Jun 2027 06:42:49.646   02 Jun 2027 06:43:38.345            48.699                Norilsk          1521.844
       135   02 Jun 2027 06:43:46.513   02 Jun 2027 06:44:19.133            32.620                Irkutsk          1019.375
       136   02 Jun 2027 06:44:28.341   02 Jun 2027 06:45:52.108            83.767               Magadan2          2617.719
       137   02 Jun 2027 06:46:02.278   02 Jun 2027 06:46:36.809            34.531                Norilsk          1079.094
       138   02 Jun 2027 06:46:39.670   02 Jun 2027 06:48:22.759           103.089              Murmansk1          3221.531
       139   02 Jun 2027 06:48:53.583   02 Jun 2027 06:49:26.746            33.163                Norilsk          1036.344
       140   02 Jun 2027 06:51:03.412   02 Jun 2027 06:51:08.268             4.856              Murmansk2           151.750
       141   02 Jun 2027 06:51:25.899   02 Jun 2027 06:51:29.089             3.190                Norilsk            99.687
       142   02 Jun 2027 06:51:39.930   02 Jun 2027 06:51:47.388             7.458              Murmansk2           233.062
       143   02 Jun 2027 07:21:04.287   02 Jun 2027 07:23:08.220           123.933            RioGallegos          3872.906
       144   02 Jun 2027 07:24:03.608   02 Jun 2027 07:25:32.787            89.179            RioGallegos          2786.844
       145   02 Jun 2027 07:56:20.862   02 Jun 2027 07:57:40.271            79.409                Sumatra          2481.531
       146   02 Jun 2027 07:58:49.898   02 Jun 2027 08:00:10.023            80.125                Sumatra          2503.906
       147   02 Jun 2027 08:08:47.455   02 Jun 2027 08:10:09.465            82.010                  Delhi          2562.813
       148   02 Jun 2027 08:12:29.224   02 Jun 2027 08:13:06.777            37.553                  Delhi          1173.531
       149   02 Jun 2027 08:17:50.389   02 Jun 2027 08:19:23.037            92.648                Irkutsk          2895.250
       150   02 Jun 2027 08:19:37.352   02 Jun 2027 08:19:43.172             5.820                Novosib           181.875
       151   02 Jun 2027 08:19:55.299   02 Jun 2027 08:20:15.756            20.457                Irkutsk           639.281
       152   02 Jun 2027 08:20:17.271   02 Jun 2027 08:21:05.657            48.386              Murmansk2          1512.062
       153   02 Jun 2027 08:21:32.955   02 Jun 2027 08:22:19.246            46.291                Irkutsk          1446.594
       154   02 Jun 2027 08:22:30.749   02 Jun 2027 08:22:56.422            25.673              Murmansk2           802.281
       155   02 Jun 2027 08:24:55.208   02 Jun 2027 08:25:00.784             5.576                Norilsk           174.250
       156   02 Jun 2027 08:59:12.236   02 Jun 2027 09:00:01.037            48.801            RioGallegos          1525.031
       157   02 Jun 2027 09:02:04.193   02 Jun 2027 09:02:23.065            18.872            RioGallegos           589.750
       158   02 Jun 2027 09:33:25.872   02 Jun 2027 09:35:21.803           115.931                Sumatra          3622.844
       159   02 Jun 2027 09:43:14.535   02 Jun 2027 09:43:58.312            43.777                  Delhi          1368.031
       160   02 Jun 2027 09:54:20.674   02 Jun 2027 09:55:20.999            60.325                Novosib          1885.156
       161   02 Jun 2027 09:55:46.894   02 Jun 2027 09:57:02.435            75.541                Novosib          2360.656
       162   02 Jun 2027 09:57:07.306   02 Jun 2027 09:58:20.223            72.917              Murmansk2          2278.656
       163   02 Jun 2027 11:18:56.310   02 Jun 2027 11:20:40.420           104.110                  Delhi          3253.438
       164   02 Jun 2027 11:21:25.431   02 Jun 2027 11:22:35.978            70.547                  Delhi          2204.594
       165   02 Jun 2027 11:29:38.378   02 Jun 2027 11:29:58.570            20.192              Murmansk2           631.000
       166   02 Jun 2027 11:30:07.440   02 Jun 2027 11:31:16.815            69.375              Murmansk2          2167.969
       167   02 Jun 2027 11:31:22.347   02 Jun 2027 11:31:59.240            36.893              Murmansk1          1152.906
       168   02 Jun 2027 11:32:04.604   02 Jun 2027 11:33:14.876            70.272                 Moscow          2196.000
       169   02 Jun 2027 11:33:29.706   02 Jun 2027 11:33:40.291            10.585              Murmansk2           330.781
       170   02 Jun 2027 11:33:40.291   02 Jun 2027 11:33:43.034             2.743              Murmansk1            85.719
       171   02 Jun 2027 11:33:58.005   02 Jun 2027 11:34:41.890            43.885                 Moscow          1371.406
       172   02 Jun 2027 11:34:55.200   02 Jun 2027 11:35:03.701             8.501                Norilsk           265.656
       173   02 Jun 2027 11:36:10.200   02 Jun 2027 11:36:19.347             9.147                 Moscow           285.844
       174   02 Jun 2027 11:36:19.358   02 Jun 2027 11:36:46.126            26.768              Murmansk1           836.500
       175   02 Jun 2027 12:41:02.912   02 Jun 2027 12:43:15.030           132.118               CapeTown          4128.688
       176   02 Jun 2027 12:46:07.380   02 Jun 2027 12:47:14.137            66.757               CapeTown          2086.156
       177   02 Jun 2027 13:01:04.063   02 Jun 2027 13:02:01.780            57.717                 Moscow          1803.656
       178   02 Jun 2027 13:04:30.582   02 Jun 2027 13:06:05.433            94.851              Murmansk2          2964.094
       179   02 Jun 2027 13:06:54.158   02 Jun 2027 13:07:20.003            25.845              Murmansk2           807.656
       180   02 Jun 2027 13:08:49.821   02 Jun 2027 13:08:55.412             5.591              Murmansk1           174.719
       181   02 Jun 2027 13:09:05.226   02 Jun 2027 13:09:22.647            17.421              Murmansk1           544.406
       182   02 Jun 2027 13:19:33.414   02 Jun 2027 13:23:15.874           222.460                Anadyr1          6951.875
       183   02 Jun 2027 13:24:21.321   02 Jun 2027 13:26:19.219           117.898                Anadyr2          3684.313
       184   02 Jun 2027 14:43:12.538   02 Jun 2027 14:43:38.423            25.885              Murmansk1           808.906
       185   02 Jun 2027 14:44:47.889   02 Jun 2027 14:45:13.229            25.340              Murmansk2           791.875
       186   02 Jun 2027 14:52:25.239   02 Jun 2027 14:52:46.441            21.202              Murmansk1           662.563
       187   02 Jun 2027 14:54:42.257   02 Jun 2027 14:56:29.654           107.397                Anadyr1          3356.156
       188   02 Jun 2027 14:56:43.905   02 Jun 2027 14:57:18.323            34.418                Anadyr2          1075.563
       189   02 Jun 2027 14:58:24.454   02 Jun 2027 14:58:49.850            25.396                Anadyr2           793.625
       190   02 Jun 2027 14:59:48.145   02 Jun 2027 15:02:26.671           158.526               Magadan2          4953.938
       191   02 Jun 2027 15:02:26.671   02 Jun 2027 15:02:39.268            12.597               Magadan1           393.656
       192   02 Jun 2027 16:26:17.976   02 Jun 2027 16:26:35.856            17.880              Murmansk1           558.750
       193   02 Jun 2027 16:30:33.356   02 Jun 2027 16:33:08.961           155.605                Anadyr2          4862.656
       194   02 Jun 2027 16:33:32.659   02 Jun 2027 16:35:35.177           122.518               Magadan2          3828.687
       195   02 Jun 2027 16:35:46.735   02 Jun 2027 16:35:56.874            10.139               Magadan2           316.844
       196   02 Jun 2027 16:39:49.171   02 Jun 2027 16:40:37.049            47.878               Magadan2          1496.187
       197   02 Jun 2027 18:06:27.533   02 Jun 2027 18:09:51.140           203.607                Anadyr2          6362.719
       198   02 Jun 2027 18:10:23.779   02 Jun 2027 18:12:30.302           126.523               Magadan1          3953.844
       199   02 Jun 2027 18:20:09.908   02 Jun 2027 18:21:15.713            65.805               Magadan1          2056.406
       200   02 Jun 2027 19:00:55.382   02 Jun 2027 19:03:28.046           152.664            RioGallegos          4770.750
       201   02 Jun 2027 19:03:33.129   02 Jun 2027 19:04:39.752            66.623            RioGallegos          2081.969
       202   02 Jun 2027 19:44:47.667   02 Jun 2027 19:46:26.681            99.014               Magadan2          3094.188
       203   02 Jun 2027 19:48:14.650   02 Jun 2027 19:48:32.388            17.738               Magadan2           554.312
       204   02 Jun 2027 19:48:58.261   02 Jun 2027 19:49:22.869            24.608                Irkutsk           769.000
       205   02 Jun 2027 19:50:21.362   02 Jun 2027 19:51:07.411            46.049                Irkutsk          1439.031
       206   02 Jun 2027 19:51:19.806   02 Jun 2027 19:55:47.022           267.216                Novosib          8350.500
       207   02 Jun 2027 20:02:14.201   02 Jun 2027 20:03:32.066            77.865                Sumatra          2433.281
       208   02 Jun 2027 20:03:32.954   02 Jun 2027 20:04:57.389            84.435                Sumatra          2638.594
       209   02 Jun 2027 20:06:03.125   02 Jun 2027 20:06:11.892             8.767                Sumatra           273.969
       210   02 Jun 2027 21:23:36.822   02 Jun 2027 21:23:37.601             0.779                Norilsk            24.344
       211   02 Jun 2027 21:24:07.723   02 Jun 2027 21:24:37.996            30.273                Irkutsk           946.031
       212   02 Jun 2027 21:24:49.063   02 Jun 2027 21:26:40.772           111.709                Novosib          3490.906
       213   02 Jun 2027 21:28:12.213   02 Jun 2027 21:30:09.897           117.684                Novosib          3677.625
       214   02 Jun 2027 21:32:02.538   02 Jun 2027 21:33:28.507            85.969                  Delhi          2686.531
       215   02 Jun 2027 22:56:19.685   02 Jun 2027 22:56:53.142            33.457               Magadan1          1045.531
       216   02 Jun 2027 22:57:33.932   02 Jun 2027 22:57:48.878            14.946               Magadan2           467.062
       217   02 Jun 2027 22:57:48.878   02 Jun 2027 22:58:19.223            30.345               Magadan1           948.281
       218   02 Jun 2027 22:58:37.797   02 Jun 2027 23:00:52.410           134.613              Murmansk1          4206.656
       219   02 Jun 2027 23:01:21.217   02 Jun 2027 23:02:41.329            80.112              Murmansk2          2503.500
       220   02 Jun 2027 23:03:27.261   02 Jun 2027 23:09:27.530           360.269                 Moscow         11258.406
       221   03 Jun 2027 00:34:23.081   03 Jun 2027 00:35:57.018            93.937              Murmansk2          2935.531
       222   03 Jun 2027 00:36:36.099   03 Jun 2027 00:36:57.746            21.647                Novosib           676.469
       223   03 Jun 2027 00:37:43.217   03 Jun 2027 00:37:58.963            15.746              Murmansk2           492.063
       224   03 Jun 2027 00:38:07.245   03 Jun 2027 00:39:48.007           100.762                 Moscow          3148.812
       225   03 Jun 2027 01:02:02.684   03 Jun 2027 01:03:31.821            89.137               CapeTown          2785.531
       226   03 Jun 2027 01:04:27.820   03 Jun 2027 01:05:42.095            74.275               CapeTown          2321.094
       227   03 Jun 2027 02:00:40.158   03 Jun 2027 02:00:51.528            11.370               Magadan1           355.312
       228   03 Jun 2027 02:00:54.393   03 Jun 2027 02:02:30.784            96.391               Magadan2          3012.219
       229   03 Jun 2027 02:05:45.777   03 Jun 2027 02:06:27.731            41.954               Magadan1          1311.062
       230   03 Jun 2027 02:09:04.172   03 Jun 2027 02:09:05.885             1.713                Norilsk            53.531
       231   03 Jun 2027 02:10:21.182   03 Jun 2027 02:11:50.997            89.815              Murmansk2          2806.719
       232   03 Jun 2027 02:13:33.660   03 Jun 2027 02:14:32.185            58.525              Murmansk2          1828.906
       233   03 Jun 2027 02:19:11.773   03 Jun 2027 02:19:27.369            15.596                 Moscow           487.375
       234   03 Jun 2027 02:23:50.927   03 Jun 2027 02:24:27.048            36.121                 Moscow          1128.781
       235   03 Jun 2027 02:38:58.804   03 Jun 2027 02:39:11.154            12.350               CapeTown           385.938
       236   03 Jun 2027 02:43:10.641   03 Jun 2027 02:43:33.980            23.339               CapeTown           729.344
       237   03 Jun 2027 02:46:19.560   03 Jun 2027 02:47:47.212            87.652               CapeTown          2739.125
       238   03 Jun 2027 03:39:28.892   03 Jun 2027 03:39:29.067             0.175               Magadan2             5.469
       239   03 Jun 2027 03:40:15.005   03 Jun 2027 03:40:18.005             3.000                Anadyr2            93.750
       240   03 Jun 2027 03:40:33.591   03 Jun 2027 03:40:52.182            18.591                Anadyr2           580.969
       241   03 Jun 2027 03:41:22.449   03 Jun 2027 03:42:55.607            93.158                Anadyr2          2911.188
       242   03 Jun 2027 03:43:00.544   03 Jun 2027 03:43:21.517            20.973                Anadyr2           655.406
       243   03 Jun 2027 03:43:50.753   03 Jun 2027 03:44:30.692            39.939                Anadyr1          1248.094
       244   03 Jun 2027 03:44:45.793   03 Jun 2027 03:46:46.168           120.375               Magadan2          3761.719
       245   03 Jun 2027 05:17:44.955   03 Jun 2027 05:19:09.463            84.508                Anadyr2          2640.875
       246   03 Jun 2027 05:19:09.463   03 Jun 2027 05:19:25.795            16.332                Anadyr1           510.375
       247   03 Jun 2027 05:19:31.065   03 Jun 2027 05:19:50.490            19.425               Magadan2           607.031
       248   03 Jun 2027 05:19:50.490   03 Jun 2027 05:20:23.629            33.139               Magadan1          1035.594
       249   03 Jun 2027 05:20:25.404   03 Jun 2027 05:22:26.871           121.467                Anadyr2          3795.844
       250   03 Jun 2027 06:03:43.528   03 Jun 2027 06:04:33.266            49.738            RioGallegos          1554.312
       251   03 Jun 2027 06:52:03.921   03 Jun 2027 06:52:15.138            11.217                Irkutsk           350.531
       252   03 Jun 2027 06:53:14.959   03 Jun 2027 06:53:24.850             9.891                Novosib           309.094
       253   03 Jun 2027 06:53:32.463   03 Jun 2027 06:53:45.401            12.938               Magadan2           404.313
       254   03 Jun 2027 06:53:53.927   03 Jun 2027 06:54:55.687            61.760               Magadan2          1930.000
       255   03 Jun 2027 06:54:58.862   03 Jun 2027 06:55:43.440            44.578                Novosib          1393.062
       256   03 Jun 2027 06:56:10.323   03 Jun 2027 06:56:50.022            39.699               Magadan2          1240.594
       257   03 Jun 2027 06:57:08.754   03 Jun 2027 06:57:39.231            30.477               Magadan2           952.406
       258   03 Jun 2027 06:57:45.071   03 Jun 2027 06:58:02.961            17.890                Norilsk           559.062
       259   03 Jun 2027 06:58:06.054   03 Jun 2027 06:58:29.722            23.668              Murmansk1           739.625
       260   03 Jun 2027 06:58:29.722   03 Jun 2027 06:59:05.247            35.525              Murmansk2          1110.156
       261   03 Jun 2027 06:59:44.010   03 Jun 2027 07:00:15.843            31.833              Murmansk1           994.781
       262   03 Jun 2027 07:33:08.033   03 Jun 2027 07:33:17.316             9.283            RioGallegos           290.094
       263   03 Jun 2027 07:33:45.379   03 Jun 2027 07:34:50.110            64.731            RioGallegos          2022.844
       264   03 Jun 2027 08:08:09.088   03 Jun 2027 08:09:22.109            73.021                Sumatra          2281.906
       265   03 Jun 2027 08:11:32.682   03 Jun 2027 08:11:53.249            20.567                Sumatra           642.719
       266   03 Jun 2027 08:19:34.352   03 Jun 2027 08:21:37.625           123.273                  Delhi          3852.281
       267   03 Jun 2027 08:24:51.627   03 Jun 2027 08:24:55.038             3.411                  Delhi           106.594
       268   03 Jun 2027 08:28:43.471   03 Jun 2027 08:29:21.115            37.644                Norilsk          1176.375
       269   03 Jun 2027 08:29:31.223   03 Jun 2027 08:29:47.587            16.364                Norilsk           511.375
       270   03 Jun 2027 08:30:17.588   03 Jun 2027 08:30:47.392            29.804                Norilsk           931.375
       271   03 Jun 2027 08:30:52.057   03 Jun 2027 08:31:37.155            45.098                Irkutsk          1409.312
       272   03 Jun 2027 08:31:38.405   03 Jun 2027 08:32:09.692            31.287              Murmansk2           977.719
       273   03 Jun 2027 08:32:11.728   03 Jun 2027 08:32:36.009            24.281              Murmansk1           758.781
       274   03 Jun 2027 08:32:39.488   03 Jun 2027 08:33:55.127            75.639                Irkutsk          2363.719
       275   03 Jun 2027 08:34:00.037   03 Jun 2027 08:34:17.056            17.019                Norilsk           531.844
       276   03 Jun 2027 08:34:21.752   03 Jun 2027 08:34:26.654             4.902              Murmansk2           153.188
       277   03 Jun 2027 08:34:48.389   03 Jun 2027 08:35:18.747            30.358                Novosib           948.687
       278   03 Jun 2027 08:35:40.570   03 Jun 2027 08:35:43.047             2.477                 Moscow            77.406
       279   03 Jun 2027 08:37:47.634   03 Jun 2027 08:37:56.986             9.352              Murmansk1           292.250
       280   03 Jun 2027 08:39:09.778   03 Jun 2027 08:39:22.751            12.973              Murmansk2           405.406
       281   03 Jun 2027 09:11:55.171   03 Jun 2027 09:12:23.546            28.375            RioGallegos           886.719
       282   03 Jun 2027 09:13:39.154   03 Jun 2027 09:13:49.030             9.876            RioGallegos           308.625
       283   03 Jun 2027 09:15:17.981   03 Jun 2027 09:15:29.275            11.294            RioGallegos           352.937
       284   03 Jun 2027 09:15:50.535   03 Jun 2027 09:16:09.800            19.265            RioGallegos           602.031
       285   03 Jun 2027 09:46:20.714   03 Jun 2027 09:47:39.684            78.970                Sumatra          2467.813
       286   03 Jun 2027 09:52:12.079   03 Jun 2027 09:52:27.961            15.882                  Delhi           496.312
       287   03 Jun 2027 10:00:50.099   03 Jun 2027 10:01:19.602            29.503                  Delhi           921.969
       288   03 Jun 2027 10:05:35.066   03 Jun 2027 10:06:04.784            29.718                 Moscow           928.687
       289   03 Jun 2027 10:06:21.583   03 Jun 2027 10:07:18.422            56.839              Murmansk2          1776.219
       290   03 Jun 2027 10:07:30.857   03 Jun 2027 10:07:34.798             3.941              Murmansk2           123.156
       291   03 Jun 2027 10:07:37.937   03 Jun 2027 10:08:07.713            29.776              Murmansk2           930.500
       292   03 Jun 2027 10:08:38.369   03 Jun 2027 10:09:21.002            42.633              Murmansk2          1332.281
       293   03 Jun 2027 10:09:32.857   03 Jun 2027 10:10:21.603            48.746              Murmansk1          1523.313
       294   03 Jun 2027 11:32:26.139   03 Jun 2027 11:34:41.070           134.931                  Delhi          4216.594
       295   03 Jun 2027 11:39:15.091   03 Jun 2027 11:39:33.536            18.445                 Moscow           576.406
       296   03 Jun 2027 11:40:02.262   03 Jun 2027 11:40:20.622            18.360              Murmansk2           573.750
       297   03 Jun 2027 11:40:26.098   03 Jun 2027 11:40:47.598            21.500                 Moscow           671.875
       298   03 Jun 2027 11:41:04.058   03 Jun 2027 11:41:24.123            20.065              Murmansk2           627.031
       299   03 Jun 2027 11:41:31.243   03 Jun 2027 11:41:49.312            18.069                Novosib           564.656
       300   03 Jun 2027 11:41:52.418   03 Jun 2027 11:42:09.287            16.869              Murmansk2           527.156
       301   03 Jun 2027 11:42:18.043   03 Jun 2027 11:43:14.385            56.342              Murmansk2          1760.688
       302   03 Jun 2027 11:43:23.604   03 Jun 2027 11:44:13.544            49.940              Murmansk1          1560.625
       303   03 Jun 2027 11:44:16.771   03 Jun 2027 11:45:05.436            48.665                Norilsk          1520.781
       304   03 Jun 2027 11:45:20.974   03 Jun 2027 11:46:14.727            53.753                 Moscow          1679.781
       305   03 Jun 2027 11:46:43.586   03 Jun 2027 11:47:15.009            31.423              Murmansk2           981.969
       306   03 Jun 2027 11:48:11.709   03 Jun 2027 11:48:54.628            42.919              Murmansk1          1341.219
       307   03 Jun 2027 12:52:08.444   03 Jun 2027 12:54:56.187           167.743               CapeTown          5241.969
       308   03 Jun 2027 12:58:19.088   03 Jun 2027 13:00:23.388           124.300               CapeTown          3884.375
       309   03 Jun 2027 13:16:43.793   03 Jun 2027 13:18:13.411            89.618              Murmansk1          2800.562
       310   03 Jun 2027 13:18:18.992   03 Jun 2027 13:18:54.920            35.928              Murmansk1          1122.750
       311   03 Jun 2027 13:28:16.263   03 Jun 2027 13:28:30.105            13.842              Murmansk2           432.563
       312   03 Jun 2027 13:31:22.304   03 Jun 2027 13:35:11.555           229.251                Anadyr2          7164.094
       313   03 Jun 2027 13:35:28.639   03 Jun 2027 13:36:37.961            69.322                Anadyr1          2166.313
       314   03 Jun 2027 13:36:56.103   03 Jun 2027 13:38:20.520            84.417                Anadyr1          2638.031
       315   03 Jun 2027 15:04:27.154   03 Jun 2027 15:04:44.987            17.833              Murmansk2           557.281
       316   03 Jun 2027 15:06:42.040   03 Jun 2027 15:08:25.865           103.825                Anadyr1          3244.531
       317   03 Jun 2027 15:08:54.579   03 Jun 2027 15:09:07.520            12.941                Anadyr2           404.406
       318   03 Jun 2027 15:09:29.582   03 Jun 2027 15:09:56.670            27.088                Anadyr2           846.500
       319   03 Jun 2027 15:10:51.615   03 Jun 2027 15:16:13.610           321.995               Magadan1         10062.344
       320   03 Jun 2027 16:42:34.729   03 Jun 2027 16:42:50.752            16.023                Anadyr1           500.719
       321   03 Jun 2027 16:43:24.816   03 Jun 2027 16:44:10.336            45.520                Anadyr1          1422.500
       322   03 Jun 2027 16:45:01.886   03 Jun 2027 16:46:01.772            59.886               Magadan2          1871.437
       323   03 Jun 2027 16:46:01.772   03 Jun 2027 16:47:00.565            58.793               Magadan1          1837.281
       324   03 Jun 2027 16:47:59.207   03 Jun 2027 16:48:08.684             9.477               Magadan1           296.156
       325   03 Jun 2027 16:49:50.312   03 Jun 2027 16:50:33.243            42.931               Magadan2          1341.594
       326   03 Jun 2027 18:18:27.886   03 Jun 2027 18:21:52.638           204.752                Anadyr2          6398.500
       327   03 Jun 2027 18:22:11.707   03 Jun 2027 18:23:54.550           102.843               Magadan2          3213.844
       328   03 Jun 2027 18:23:54.550   03 Jun 2027 18:24:04.642            10.092               Magadan1           315.375
       329   03 Jun 2027 18:24:37.442   03 Jun 2027 18:24:45.486             8.044                Norilsk           251.375
       330   03 Jun 2027 18:26:02.304   03 Jun 2027 18:26:21.681            19.377                Norilsk           605.531
       331   03 Jun 2027 18:27:22.253   03 Jun 2027 18:29:37.298           135.045                Irkutsk          4220.156
       332   03 Jun 2027 18:30:20.455   03 Jun 2027 18:31:14.036            53.581                Irkutsk          1674.406
       333   03 Jun 2027 19:12:45.375   03 Jun 2027 19:13:16.171            30.796            RioGallegos           962.375
       334   03 Jun 2027 19:14:24.161   03 Jun 2027 19:15:35.397            71.236            RioGallegos          2226.125
       335   03 Jun 2027 19:24:02.591   03 Jun 2027 19:24:05.557             2.966            RioGallegos            92.687
       336   03 Jun 2027 19:56:20.021   03 Jun 2027 19:57:59.758            99.737                Norilsk          3116.781
       337   03 Jun 2027 20:00:29.846   03 Jun 2027 20:01:35.468            65.622                Norilsk          2050.687
       338   03 Jun 2027 20:01:50.290   03 Jun 2027 20:07:57.671           367.381                Novosib         11480.656
       339   03 Jun 2027 20:15:10.230   03 Jun 2027 20:16:44.741            94.511                Sumatra          2953.469
       340   03 Jun 2027 21:36:10.939   03 Jun 2027 21:36:24.454            13.515                Irkutsk           422.344
       341   03 Jun 2027 21:36:32.913   03 Jun 2027 21:38:16.962           104.049                Novosib          3251.531
       342   03 Jun 2027 21:43:48.364   03 Jun 2027 21:47:29.630           221.266                  Delhi          6914.563
       343   03 Jun 2027 23:08:06.787   03 Jun 2027 23:08:33.360            26.573               Magadan2           830.406
       344   03 Jun 2027 23:08:53.193   03 Jun 2027 23:09:25.480            32.287                Norilsk          1008.969
       345   03 Jun 2027 23:10:35.741   03 Jun 2027 23:15:36.227           300.486              Murmansk2          9390.188
       346   03 Jun 2027 23:16:37.264   03 Jun 2027 23:19:11.019           153.755                 Moscow          4804.844
       347   03 Jun 2027 23:44:26.559   03 Jun 2027 23:45:29.771            63.212               CapeTown          1975.375
       348   04 Jun 2027 00:43:59.448   04 Jun 2027 00:44:14.413            14.965               Magadan2           467.656
       349   04 Jun 2027 00:45:37.146   04 Jun 2027 00:46:26.498            49.352               Magadan2          1542.250
       350   04 Jun 2027 00:46:47.936   04 Jun 2027 00:48:36.141           108.205              Murmansk2          3381.406
       351   04 Jun 2027 00:48:36.141   04 Jun 2027 00:48:44.866             8.725              Murmansk1           272.656
       352   04 Jun 2027 00:48:55.581   04 Jun 2027 00:49:00.339             4.758              Murmansk1           148.688
       353   04 Jun 2027 00:49:14.908   04 Jun 2027 00:49:44.563            29.655              Murmansk1           926.719
       354   04 Jun 2027 00:49:49.010   04 Jun 2027 00:51:05.297            76.287                 Moscow          2383.969
       355   04 Jun 2027 01:13:48.352   04 Jun 2027 01:15:26.102            97.750               CapeTown          3054.687
       356   04 Jun 2027 01:24:53.622   04 Jun 2027 01:26:17.296            83.674               CapeTown          2614.813
       357   04 Jun 2027 02:12:17.020   04 Jun 2027 02:13:23.825            66.805               Magadan1          2087.656
       358   04 Jun 2027 02:17:15.040   04 Jun 2027 02:17:47.813            32.773               Magadan1          1024.156
       359   04 Jun 2027 02:21:16.321   04 Jun 2027 02:22:34.706            78.385                Norilsk          2449.531
       360   04 Jun 2027 02:23:29.514   04 Jun 2027 02:23:51.632            22.118              Murmansk2           691.188
       361   04 Jun 2027 02:25:33.007   04 Jun 2027 02:26:29.101            56.094              Murmansk2          1752.937
       362   04 Jun 2027 02:28:24.618   04 Jun 2027 02:29:36.066            71.448                 Moscow          2232.750
       363   04 Jun 2027 02:51:24.300   04 Jun 2027 02:51:50.651            26.351               CapeTown           823.469
       364   04 Jun 2027 02:54:18.810   04 Jun 2027 02:55:27.458            68.648               CapeTown          2145.250
       365   04 Jun 2027 03:51:03.071   04 Jun 2027 03:51:13.487            10.416                Anadyr1           325.500
       366   04 Jun 2027 03:51:56.698   04 Jun 2027 03:52:15.007            18.309                Anadyr2           572.156
       367   04 Jun 2027 03:53:23.542   04 Jun 2027 03:55:01.401            97.859                Anadyr2          3058.094
       368   04 Jun 2027 03:55:06.799   04 Jun 2027 03:55:17.338            10.539                Anadyr2           329.344
       369   04 Jun 2027 03:55:34.142   04 Jun 2027 03:59:03.248           209.106                Anadyr2          6534.562
       370   04 Jun 2027 04:38:38.447   04 Jun 2027 04:40:36.185           117.738            RioGallegos          3679.312
       371   04 Jun 2027 05:28:03.231   04 Jun 2027 05:28:42.868            39.637                Irkutsk          1238.656
       372   04 Jun 2027 05:29:00.908   04 Jun 2027 05:30:57.621           116.713                Irkutsk          3647.281
       373   04 Jun 2027 05:31:10.170   04 Jun 2027 05:32:11.949            61.779                Anadyr1          1930.594
       374   04 Jun 2027 05:32:21.386   04 Jun 2027 05:32:26.707             5.321               Magadan1           166.281
       375   04 Jun 2027 05:32:35.192   04 Jun 2027 05:34:17.272           102.080                Anadyr2          3190.000
       376   04 Jun 2027 05:34:22.702   04 Jun 2027 05:34:37.823            15.121               Magadan1           472.531
       377   04 Jun 2027 06:12:42.234   04 Jun 2027 06:13:09.981            27.747            RioGallegos           867.094
       378   04 Jun 2027 07:05:31.914   04 Jun 2027 07:05:36.361             4.447               Magadan1           138.969
       379   04 Jun 2027 07:05:49.842   04 Jun 2027 07:06:05.366            15.524               Magadan2           485.125
       380   04 Jun 2027 07:06:07.319   04 Jun 2027 07:06:44.578            37.259                Norilsk          1164.344
       381   04 Jun 2027 07:07:01.350   04 Jun 2027 07:08:08.751            67.401               Magadan1          2106.281
       382   04 Jun 2027 07:08:11.916   04 Jun 2027 07:08:47.897            35.981                Novosib          1124.406
       383   04 Jun 2027 07:09:20.706   04 Jun 2027 07:10:07.605            46.899              Murmansk1          1465.594
       384   04 Jun 2027 07:10:12.343   04 Jun 2027 07:10:28.708            16.365                Irkutsk           511.406
       385   04 Jun 2027 07:10:30.789   04 Jun 2027 07:10:37.123             6.334              Murmansk2           197.937
       386   04 Jun 2027 07:10:37.123   04 Jun 2027 07:10:58.986            21.863              Murmansk1           683.219
       387   04 Jun 2027 07:11:52.738   04 Jun 2027 07:11:55.962             3.224              Murmansk1           100.750
       388   04 Jun 2027 07:13:00.492   04 Jun 2027 07:13:24.638            24.146              Murmansk1           754.562
       389   04 Jun 2027 07:45:15.247   04 Jun 2027 07:45:47.920            32.673            RioGallegos          1021.031
       390   04 Jun 2027 07:46:40.718   04 Jun 2027 07:46:48.488             7.770            RioGallegos           242.813
       391   04 Jun 2027 07:48:29.718   04 Jun 2027 07:49:42.479            72.761            RioGallegos          2273.781
       392   04 Jun 2027 08:20:56.198   04 Jun 2027 08:22:03.033            66.835                Sumatra          2088.594
       393   04 Jun 2027 08:31:41.720   04 Jun 2027 08:33:13.126            91.406                  Delhi          2856.438
       394   04 Jun 2027 08:35:16.379   04 Jun 2027 08:36:48.693            92.314                  Delhi          2884.813
       395   04 Jun 2027 08:40:30.447   04 Jun 2027 08:40:52.430            21.983                Irkutsk           686.969
       396   04 Jun 2027 08:41:09.947   04 Jun 2027 08:41:30.341            20.394                Norilsk           637.312
       397   04 Jun 2027 08:41:47.854   04 Jun 2027 08:42:19.425            31.571                Irkutsk           986.594
       398   04 Jun 2027 08:42:27.538   04 Jun 2027 08:42:37.700            10.162              Murmansk1           317.562
       399   04 Jun 2027 08:43:05.036   04 Jun 2027 08:43:20.023            14.987                Norilsk           468.344
       400   04 Jun 2027 08:43:24.569   04 Jun 2027 08:43:43.621            19.052                Irkutsk           595.375
       401   04 Jun 2027 08:43:50.942   04 Jun 2027 08:43:58.297             7.355                Novosib           229.844
       402   04 Jun 2027 08:43:58.967   04 Jun 2027 08:44:43.422            44.455                Novosib          1389.219
       403   04 Jun 2027 08:44:51.090   04 Jun 2027 08:45:21.502            30.412              Murmansk1           950.375
       404   04 Jun 2027 08:45:33.239   04 Jun 2027 08:45:52.704            19.465              Murmansk2           608.281
       405   04 Jun 2027 08:45:52.704   04 Jun 2027 08:46:13.494            20.790              Murmansk1           649.687
       406   04 Jun 2027 08:46:25.559   04 Jun 2027 08:46:28.368             2.809              Murmansk2            87.781
       407   04 Jun 2027 08:46:55.266   04 Jun 2027 08:47:50.072            54.806              Murmansk2          1712.687
       408   04 Jun 2027 09:24:48.807   04 Jun 2027 09:25:34.196            45.389            RioGallegos          1418.406
       409   04 Jun 2027 09:59:59.209   04 Jun 2027 10:02:07.191           127.982                Sumatra          3999.437
       410   04 Jun 2027 10:07:23.787   04 Jun 2027 10:08:28.447            64.660                  Delhi          2020.625
       411   04 Jun 2027 10:18:12.340   04 Jun 2027 10:18:18.995             6.655                Irkutsk           207.969
       412   04 Jun 2027 10:18:22.502   04 Jun 2027 10:19:05.784            43.282              Murmansk2          1352.563
       413   04 Jun 2027 10:19:10.212   04 Jun 2027 10:19:26.566            16.354              Murmansk2           511.063
       414   04 Jun 2027 10:19:32.336   04 Jun 2027 10:19:45.292            12.956                Novosib           404.875
       415   04 Jun 2027 10:19:50.056   04 Jun 2027 10:20:00.802            10.746                Norilsk           335.812
       416   04 Jun 2027 10:20:32.971   04 Jun 2027 10:21:18.271            45.300              Murmansk1          1415.625
       417   04 Jun 2027 10:21:24.579   04 Jun 2027 10:21:39.990            15.411                 Moscow           481.594
       418   04 Jun 2027 10:21:48.396   04 Jun 2027 10:22:14.033            25.637                Novosib           801.156
       419   04 Jun 2027 10:23:30.437   04 Jun 2027 10:23:41.634            11.197              Murmansk1           349.906
       420   04 Jun 2027 10:24:26.668   04 Jun 2027 10:25:18.301            51.633                 Moscow          1613.531
       421   04 Jun 2027 11:52:03.594   04 Jun 2027 11:52:52.942            49.348              Murmansk1          1542.125
       422   04 Jun 2027 11:53:05.837   04 Jun 2027 11:53:12.033             6.196              Murmansk1           193.625
       423   04 Jun 2027 11:53:13.710   04 Jun 2027 11:53:47.432            33.722              Murmansk2          1053.812
       424   04 Jun 2027 11:54:03.558   04 Jun 2027 11:54:19.704            16.146              Murmansk1           504.563
       425   04 Jun 2027 11:54:19.704   04 Jun 2027 11:55:12.498            52.794              Murmansk2          1649.812
       426   04 Jun 2027 11:55:25.010   04 Jun 2027 11:55:25.856             0.846              Murmansk2            26.437
       427   04 Jun 2027 11:56:06.139   04 Jun 2027 11:56:23.778            17.639                 Moscow           551.219
       428   04 Jun 2027 11:56:23.808   04 Jun 2027 11:56:29.847             6.039              Murmansk2           188.719
       429   04 Jun 2027 11:56:38.260   04 Jun 2027 11:56:57.570            19.310              Murmansk1           603.437
       430   04 Jun 2027 11:56:57.570   04 Jun 2027 11:57:34.109            36.539              Murmansk2          1141.844
       431   04 Jun 2027 11:57:35.847   04 Jun 2027 11:58:13.935            38.088              Murmansk2          1190.250
       432   04 Jun 2027 11:58:29.208   04 Jun 2027 11:59:15.666            46.458              Murmansk2          1451.813
       433   04 Jun 2027 12:00:55.747   04 Jun 2027 12:01:40.265            44.518              Murmansk1          1391.187
       434   04 Jun 2027 12:02:42.234   04 Jun 2027 12:03:15.337            33.103              Murmansk2          1034.469
       435   04 Jun 2027 12:03:55.542   04 Jun 2027 12:04:06.358            10.816              Murmansk1           338.000
       436   04 Jun 2027 12:04:45.750   04 Jun 2027 12:05:00.725            14.975              Murmansk1           467.969
       437   04 Jun 2027 13:03:32.593   04 Jun 2027 13:04:09.593            37.000               CapeTown          1156.250
       438   04 Jun 2027 13:05:12.560   04 Jun 2027 13:08:30.873           198.313               CapeTown          6197.281
       439   04 Jun 2027 13:08:54.937   04 Jun 2027 13:10:34.630            99.693               CapeTown          3115.406
       440   04 Jun 2027 13:28:58.960   04 Jun 2027 13:29:08.754             9.794              Murmansk1           306.062
       441   04 Jun 2027 13:29:24.351   04 Jun 2027 13:29:40.807            16.456              Murmansk2           514.250
       442   04 Jun 2027 13:31:21.185   04 Jun 2027 13:31:38.538            17.353              Murmansk2           542.281
       443   04 Jun 2027 13:32:53.251   04 Jun 2027 13:32:57.686             4.435              Murmansk1           138.594
       444   04 Jun 2027 13:32:57.686   04 Jun 2027 13:33:04.815             7.129              Murmansk2           222.781
       445   04 Jun 2027 13:33:38.326   04 Jun 2027 13:34:29.541            51.215              Murmansk1          1600.469
       446   04 Jun 2027 13:37:30.753   04 Jun 2027 13:38:33.846            63.093              Murmansk2          1971.656
       447   04 Jun 2027 13:43:14.304   04 Jun 2027 13:45:36.232           141.928                Anadyr2          4435.250
       448   04 Jun 2027 13:45:36.232   04 Jun 2027 13:46:03.675            27.443                Anadyr1           857.594
       449   04 Jun 2027 13:46:08.293   04 Jun 2027 13:46:20.783            12.490                Anadyr1           390.312
       450   04 Jun 2027 13:50:33.804   04 Jun 2027 13:51:17.745            43.941                Anadyr2          1373.156
       451   04 Jun 2027 15:08:06.839   04 Jun 2027 15:08:50.050            43.211              Murmansk2          1350.344
       452   04 Jun 2027 15:08:50.050   04 Jun 2027 15:08:57.449             7.399              Murmansk1           231.219
       453   04 Jun 2027 15:09:11.035   04 Jun 2027 15:10:08.871            57.836              Murmansk1          1807.375
       454   04 Jun 2027 15:16:29.058   04 Jun 2027 15:16:42.530            13.472              Murmansk1           421.000
       455   04 Jun 2027 15:18:42.219   04 Jun 2027 15:20:23.205           100.986                Anadyr1          3155.813
       456   04 Jun 2027 15:21:13.091   04 Jun 2027 15:21:23.124            10.033                Anadyr2           313.531
       457   04 Jun 2027 15:21:23.124   04 Jun 2027 15:21:29.961             6.837                Anadyr1           213.656
       458   04 Jun 2027 15:21:48.121   04 Jun 2027 15:22:40.297            52.176                Anadyr1          1630.500
       459   04 Jun 2027 15:23:48.453   04 Jun 2027 15:25:45.356           116.903               Magadan1          3653.219
       460   04 Jun 2027 15:25:58.757   04 Jun 2027 15:28:36.167           157.410               Magadan2          4919.063
       461   04 Jun 2027 16:55:55.394   04 Jun 2027 16:56:07.661            12.267                Anadyr2           383.344
       462   04 Jun 2027 16:56:10.743   04 Jun 2027 16:56:39.415            28.672                Anadyr1           896.000
       463   04 Jun 2027 16:56:59.709   04 Jun 2027 16:57:51.948            52.239               Magadan2          1632.469
       464   04 Jun 2027 16:58:39.320   04 Jun 2027 16:58:58.060            18.740               Magadan2           585.625
       465   04 Jun 2027 16:59:00.199   04 Jun 2027 16:59:26.637            26.438               Magadan1           826.187
       466   04 Jun 2027 16:59:52.045   04 Jun 2027 17:00:01.288             9.243               Magadan1           288.844
       467   04 Jun 2027 17:01:33.110   04 Jun 2027 17:03:20.634           107.524               Magadan2          3360.125
       468   04 Jun 2027 18:30:27.919   04 Jun 2027 18:32:03.217            95.298                Anadyr2          2978.063
       469   04 Jun 2027 18:32:13.290   04 Jun 2027 18:33:54.169           100.879                Anadyr1          3152.469
       470   04 Jun 2027 18:33:57.571   04 Jun 2027 18:35:31.869            94.298               Magadan2          2946.812
       471   04 Jun 2027 18:35:42.940   04 Jun 2027 18:36:43.131            60.191                Norilsk          1880.969
       472   04 Jun 2027 18:38:14.335   04 Jun 2027 18:39:10.997            56.662                Norilsk          1770.688
       473   04 Jun 2027 18:39:12.509   04 Jun 2027 18:41:20.611           128.102                Irkutsk          4003.188
       474   04 Jun 2027 18:44:06.629   04 Jun 2027 18:44:43.334            36.705                Irkutsk          1147.031
       475   04 Jun 2027 18:55:06.756   04 Jun 2027 18:56:32.992            86.236                Sumatra          2694.875
       476   04 Jun 2027 18:58:38.383   04 Jun 2027 18:58:47.196             8.813                Sumatra           275.406
       477   04 Jun 2027 20:09:26.973   04 Jun 2027 20:09:57.905            30.932                Norilsk           966.625
       478   04 Jun 2027 20:11:42.126   04 Jun 2027 20:12:32.425            50.299                Norilsk          1571.844
       479   04 Jun 2027 20:13:15.374   04 Jun 2027 20:13:52.720            37.346                Norilsk          1167.062
       480   04 Jun 2027 20:14:21.359   04 Jun 2027 20:14:31.788            10.429                Irkutsk           325.906
       481   04 Jun 2027 20:15:07.121   04 Jun 2027 20:17:47.054           159.933                Novosib          4997.906
       482   04 Jun 2027 20:26:02.421   04 Jun 2027 20:27:15.862            73.441                Sumatra          2295.031
