uniorb/output/strategy_2/Drop/Drop_KinoSat_110109.txt

KinoSat_110109
-------------------------
    Access    *     Start Time (UTCG)     *     Stop Time (UTCG)  *   Duration (s)        *       Station  *  Data (Mbytes)
         1   01 Jun 2027 03:28:08.066   01 Jun 2027 03:28:50.518            42.452                Irkutsk          1462.000
         2   01 Jun 2027 03:28:50.716   01 Jun 2027 03:29:01.990            11.274                Norilsk            99.000
         3   01 Jun 2027 03:29:11.923   01 Jun 2027 03:30:07.414            55.491                Norilsk          4966.500
         4   01 Jun 2027 03:30:09.600   01 Jun 2027 03:30:45.359            35.759                Irkutsk          1093.000
         5   01 Jun 2027 03:31:06.538   01 Jun 2027 03:32:50.591           104.053                Norilsk         10589.500
         6   01 Jun 2027 03:33:09.957   01 Jun 2027 03:34:47.752            97.795                Novosib          9683.000
         7   01 Jun 2027 03:34:48.067   01 Jun 2027 03:35:11.037            22.970              Murmansk1           157.500
         8   01 Jun 2027 05:05:36.765   01 Jun 2027 05:06:13.351            36.586                 Moscow           263.000
         9   01 Jun 2027 05:06:18.025   01 Jun 2027 05:06:51.453            33.428                 Moscow          2337.000
        10   01 Jun 2027 05:06:53.263   01 Jun 2027 05:07:20.972            27.709              Murmansk1           905.000
        11   01 Jun 2027 05:07:39.051   01 Jun 2027 05:08:51.497            72.446              Murmansk2          9039.500
        12   01 Jun 2027 05:08:52.352   01 Jun 2027 05:09:04.734            12.382                 Moscow           427.500
        13   01 Jun 2027 05:09:08.480   01 Jun 2027 05:09:28.886            20.406                 Moscow          1873.000
        14   01 Jun 2027 05:09:36.043   01 Jun 2027 05:10:43.715            67.672                 Moscow          3578.500
        15   01 Jun 2027 06:42:02.990   01 Jun 2027 06:42:50.734            47.744                Novosib          4200.000
        16   01 Jun 2027 06:42:59.617   01 Jun 2027 06:43:46.745            47.128                 Moscow          4441.500
        17   01 Jun 2027 06:44:03.227   01 Jun 2027 06:45:10.952            67.725              Murmansk2          8241.000
        18   01 Jun 2027 06:45:24.125   01 Jun 2027 06:46:28.817            64.692                Norilsk          6586.500
        19   01 Jun 2027 06:46:54.789   01 Jun 2027 06:48:13.587            78.798              Murmansk2          6307.000
        20   01 Jun 2027 08:20:31.159   01 Jun 2027 08:22:10.366            99.207              Murmansk2         11136.500
        21   02 Jun 2027 03:40:47.927   02 Jun 2027 03:41:33.157            45.230                Norilsk          4110.000
        22   02 Jun 2027 03:41:52.072   02 Jun 2027 03:42:52.791            60.719                Novosib          7589.875
        23   02 Jun 2027 03:42:55.811   02 Jun 2027 03:43:27.845            32.034                Norilsk          3377.625
        24   02 Jun 2027 03:43:38.491   02 Jun 2027 03:44:38.595            60.104                Novosib          5323.000
        25   02 Jun 2027 03:44:46.431   02 Jun 2027 03:45:19.477            33.046                Norilsk          3918.000
        26   02 Jun 2027 03:45:26.024   02 Jun 2027 03:45:57.759            31.735                Novosib          3273.500
        27   02 Jun 2027 03:46:12.850   02 Jun 2027 03:47:17.786            64.936                Norilsk          7545.500
        28   02 Jun 2027 05:18:03.577   02 Jun 2027 05:18:40.770            37.193              Murmansk1           505.000
        29   02 Jun 2027 05:18:45.266   02 Jun 2027 05:19:06.742            21.476                Irkutsk          2248.000
        30   02 Jun 2027 05:19:11.894   02 Jun 2027 05:20:07.608            55.714                 Moscow          2576.000
        31   02 Jun 2027 05:20:19.561   02 Jun 2027 05:21:12.605            53.044                 Moscow          5976.500
        32   02 Jun 2027 05:21:23.644   02 Jun 2027 05:22:48.941            85.297                 Moscow          5519.500
        33   02 Jun 2027 06:54:13.934   02 Jun 2027 06:55:15.866            61.932                Novosib           988.500
        34   02 Jun 2027 06:55:25.438   02 Jun 2027 06:56:33.841            68.403                 Moscow          4786.000
        35   02 Jun 2027 06:56:40.710   02 Jun 2027 06:57:17.240            36.530              Murmansk2          3434.500
        36   02 Jun 2027 06:57:27.516   02 Jun 2027 06:58:45.374            77.858              Murmansk2          5138.000
        37   02 Jun 2027 06:58:58.792   02 Jun 2027 06:59:17.259            18.467                Norilsk          2021.000
        38   03 Jun 2027 03:52:43.111   03 Jun 2027 03:54:05.349            82.238                Irkutsk         10279.750
        39   03 Jun 2027 03:54:05.474   03 Jun 2027 03:54:19.396            13.922                Novosib          1740.250
        40   03 Jun 2027 03:54:21.130   03 Jun 2027 03:55:55.587            94.457                Irkutsk          2086.500
        41   03 Jun 2027 03:56:00.847   03 Jun 2027 03:56:50.949            50.102                Irkutsk          2630.000
        42   03 Jun 2027 03:56:50.962   03 Jun 2027 03:57:03.364            12.402              Murmansk1             6.500
        43   03 Jun 2027 03:57:10.727   03 Jun 2027 03:57:47.599            36.872              Murmansk1          3681.500
        44   03 Jun 2027 03:58:12.039   03 Jun 2027 03:59:50.685            98.646              Murmansk2         12220.000
        45   03 Jun 2027 05:30:19.166   03 Jun 2027 05:31:44.329            85.163                Novosib          1890.500
        46   03 Jun 2027 05:31:52.098   03 Jun 2027 05:32:38.310            46.212                Novosib          3884.500
        47   03 Jun 2027 05:32:45.595   03 Jun 2027 05:33:21.544            35.949                 Moscow          3642.500
        48   03 Jun 2027 05:33:25.863   03 Jun 2027 05:33:43.702            17.839                Novosib          2159.500
        49   03 Jun 2027 05:34:03.283   03 Jun 2027 05:35:52.285           109.002                 Moscow          9790.500
        50   03 Jun 2027 07:06:11.680   03 Jun 2027 07:06:57.308            45.628              Murmansk2          2634.000
        51   03 Jun 2027 07:06:58.044   03 Jun 2027 07:07:08.624            10.580                Novosib           368.000
        52   03 Jun 2027 07:07:11.374   03 Jun 2027 07:07:45.553            34.179                 Moscow          1375.000
        53   03 Jun 2027 07:07:50.972   03 Jun 2027 07:08:22.094            31.122                Novosib          2709.500
        54   03 Jun 2027 07:08:27.309   03 Jun 2027 07:09:16.232            48.923                Novosib          2607.500
        55   03 Jun 2027 07:09:18.084   03 Jun 2027 07:09:29.719            11.635              Murmansk2           926.000
        56   03 Jun 2027 07:09:29.764   03 Jun 2027 07:09:45.627            15.863              Murmansk1            22.500
        57   03 Jun 2027 07:09:53.016   03 Jun 2027 07:10:11.070            18.054                Norilsk          2256.750
        58   03 Jun 2027 07:10:14.460   03 Jun 2027 07:10:54.000            39.540                Novosib          3132.750
        59   03 Jun 2027 07:10:59.262   03 Jun 2027 07:11:57.639            58.377              Murmansk1          2631.000
        60   04 Jun 2027 04:04:40.610   04 Jun 2027 04:05:35.140            54.530                Norilsk          6681.500
        61   04 Jun 2027 04:05:56.514   04 Jun 2027 04:08:05.103           128.589                Irkutsk         10687.000
        62   04 Jun 2027 04:08:06.056   04 Jun 2027 04:08:13.156             7.100                Irkutsk           476.500
        63   04 Jun 2027 04:08:22.780   04 Jun 2027 04:09:33.235            70.455                Novosib          4812.000
        64   04 Jun 2027 04:09:45.129   04 Jun 2027 04:10:45.552            60.423              Murmansk1          5947.000
        65   04 Jun 2027 04:10:51.382   04 Jun 2027 04:11:11.348            19.966                 Moscow           326.000
        66   04 Jun 2027 05:42:51.089   04 Jun 2027 05:43:52.903            61.814                Norilsk          6746.500
        67   04 Jun 2027 05:44:00.021   04 Jun 2027 05:44:46.789            46.768                Norilsk          3559.000
        68   04 Jun 2027 05:44:50.845   04 Jun 2027 05:45:00.830             9.985                 Moscow          1248.125
        69   04 Jun 2027 05:45:02.522   04 Jun 2027 05:45:31.144            28.622                Norilsk          1625.875
        70   04 Jun 2027 05:45:32.419   04 Jun 2027 05:46:03.002            30.583              Murmansk2           637.500
        71   04 Jun 2027 05:46:15.109   04 Jun 2027 05:47:40.673            85.564                 Moscow          6053.500
        72   04 Jun 2027 07:16:13.693   04 Jun 2027 07:16:35.646            21.953                 Moscow          2744.125
        73   04 Jun 2027 07:16:45.443   04 Jun 2027 07:18:47.234           121.791              Murmansk1         11602.875
        74   04 Jun 2027 07:18:50.750   04 Jun 2027 07:19:10.915            20.165                 Moscow          1758.000
        75   04 Jun 2027 07:19:12.979   04 Jun 2027 07:20:06.269            53.290              Murmansk2          1032.000
        76   04 Jun 2027 07:20:11.103   04 Jun 2027 07:20:53.832            42.729              Murmansk2          2417.000
        77   04 Jun 2027 07:20:53.998   04 Jun 2027 07:21:05.520            11.522                 Moscow            83.000
        78   04 Jun 2027 07:21:13.238   04 Jun 2027 07:21:45.222            31.984                 Moscow          3859.000
        79   04 Jun 2027 07:21:49.453   04 Jun 2027 07:22:11.644            22.191                Norilsk          2115.500
        80   04 Jun 2027 07:22:16.582   04 Jun 2027 07:22:18.730             2.148                Novosib           268.500
        81   04 Jun 2027 07:22:28.733   04 Jun 2027 07:22:52.461            23.728              Murmansk1          2966.000
        82   04 Jun 2027 07:22:52.461   04 Jun 2027 07:22:56.954             4.493              Murmansk2           287.000
        83   04 Jun 2027 07:22:59.762   04 Jun 2027 07:23:10.517            10.755                 Moscow          1344.375
        84   04 Jun 2027 07:23:21.033   04 Jun 2027 07:23:38.478            17.445                Norilsk          2180.625
        85   04 Jun 2027 07:23:40.796   04 Jun 2027 07:24:41.577            60.781              Murmansk1          4296.000
        86   05 Jun 2027 04:16:51.155   05 Jun 2027 04:17:41.361            50.206                Novosib          4276.000
        87   05 Jun 2027 04:18:04.940   05 Jun 2027 04:19:58.089           113.149                Irkutsk         11789.500
        88   05 Jun 2027 04:19:59.140   05 Jun 2027 04:20:24.308            25.168              Murmansk2           525.500
        89   05 Jun 2027 04:20:28.491   05 Jun 2027 04:20:36.481             7.990                Norilsk           998.750
        90   05 Jun 2027 04:20:49.228   05 Jun 2027 04:21:51.009            61.781              Murmansk2          7466.250
        91   05 Jun 2027 04:22:05.921   05 Jun 2027 04:22:58.148            52.227                Irkutsk          6528.375
        92   05 Jun 2027 04:23:04.783   05 Jun 2027 04:23:16.775            11.992                Novosib           927.625
        93   05 Jun 2027 05:54:48.355   05 Jun 2027 05:55:40.540            52.185                Novosib          4740.000
        94   05 Jun 2027 05:55:41.521   05 Jun 2027 05:56:11.813            30.292                Irkutsk           490.500
        95   05 Jun 2027 05:56:12.807   05 Jun 2027 05:56:17.728             4.921                Novosib           497.000
        96   05 Jun 2027 05:56:23.373   05 Jun 2027 05:57:01.232            37.859              Murmansk1          2822.500
        97   05 Jun 2027 05:57:04.663   05 Jun 2027 05:57:44.312            39.649                 Moscow          1715.500
        98   05 Jun 2027 05:57:53.491   05 Jun 2027 05:59:00.549            67.058                 Moscow          4589.500
        99   05 Jun 2027 07:28:19.614   05 Jun 2027 07:28:38.149            18.535                 Moscow          2316.875
       100   05 Jun 2027 07:28:46.078   05 Jun 2027 07:30:37.855           111.777              Murmansk2         11145.625
       101   05 Jun 2027 07:30:46.263   05 Jun 2027 07:31:33.252            46.989                Novosib          4204.000
       102   05 Jun 2027 07:31:44.122   05 Jun 2027 07:32:41.482            57.360              Murmansk2          5435.000
       103   05 Jun 2027 07:32:44.737   05 Jun 2027 07:32:58.439            13.702                Norilsk          1627.500
       104   05 Jun 2027 07:33:02.090   05 Jun 2027 07:33:14.167            12.077                 Moscow          1509.625
       105   05 Jun 2027 07:33:16.208   05 Jun 2027 07:33:33.850            17.642              Murmansk1          1336.375
       106   05 Jun 2027 07:33:37.111   05 Jun 2027 07:34:21.540            44.429              Murmansk1          1630.500
       107   05 Jun 2027 07:34:27.528   05 Jun 2027 07:34:53.335            25.807              Murmansk1          2994.000
       108   05 Jun 2027 07:34:56.898   05 Jun 2027 07:36:18.958            82.060                 Moscow          1781.500
       109   06 Jun 2027 04:28:34.428   06 Jun 2027 04:28:43.236             8.808                Irkutsk           435.000
       110   06 Jun 2027 04:28:56.666   06 Jun 2027 04:29:35.912            39.246                Norilsk          4905.750
       111   06 Jun 2027 04:29:46.228   06 Jun 2027 04:30:53.245            67.017                Novosib          6967.250
       112   06 Jun 2027 04:30:55.878   06 Jun 2027 04:31:32.858            36.980                Novosib          1316.500
       113   06 Jun 2027 04:31:46.301   06 Jun 2027 04:32:46.310            60.009              Murmansk2          6721.500
       114   06 Jun 2027 04:32:47.860   06 Jun 2027 04:33:25.249            37.389              Murmansk1           775.000
       115   06 Jun 2027 04:33:36.091   06 Jun 2027 04:34:53.147            77.056              Murmansk2          5421.000
       116   06 Jun 2027 04:34:55.389   06 Jun 2027 04:34:56.453             1.064                Novosib           133.000
       117   06 Jun 2027 04:35:16.715   06 Jun 2027 04:35:55.659            38.944                Norilsk          4868.000
       118   06 Jun 2027 04:36:15.066   06 Jun 2027 04:36:43.881            28.815                Novosib          3601.875
       119   06 Jun 2027 04:36:44.136   06 Jun 2027 04:37:19.788            35.652              Murmansk2          2640.125
       120   06 Jun 2027 06:06:45.394   06 Jun 2027 06:07:28.246            42.852              Murmansk2          4744.000
       121   06 Jun 2027 06:07:32.372   06 Jun 2027 06:08:07.321            34.949                 Moscow          2063.000
       122   06 Jun 2027 06:08:10.587   06 Jun 2027 06:08:37.080            26.493              Murmansk2          1633.000
       123   06 Jun 2027 06:08:46.055   06 Jun 2027 06:09:24.831            38.776                Norilsk          4487.500
       124   06 Jun 2027 06:09:32.921   06 Jun 2027 06:10:11.519            38.598              Murmansk2          4045.000
       125   06 Jun 2027 06:10:14.014   06 Jun 2027 06:10:38.161            24.147                Norilsk          1247.500
       126   06 Jun 2027 06:10:40.603   06 Jun 2027 06:10:48.501             7.898              Murmansk1           987.250
       127   06 Jun 2027 06:10:48.501   06 Jun 2027 06:11:04.970            16.469              Murmansk2           233.750
       128   06 Jun 2027 07:40:48.209   06 Jun 2027 07:42:29.202           100.993              Murmansk2         10645.000
       129   06 Jun 2027 07:42:50.613   06 Jun 2027 07:44:28.843            98.230              Murmansk1         10705.500
       130   06 Jun 2027 07:44:45.938   06 Jun 2027 07:46:04.484            78.546                 Moscow          8547.500
       131   06 Jun 2027 07:46:15.091   06 Jun 2027 07:47:27.211            72.120              Murmansk2          5303.500
       132   07 Jun 2027 03:03:49.076   07 Jun 2027 03:03:49.439             0.363                Irkutsk            45.375
       133   07 Jun 2027 03:03:55.294   07 Jun 2027 03:04:36.219            40.925                Irkutsk          3004.125
       134   07 Jun 2027 03:04:36.793   07 Jun 2027 03:05:14.007            37.214                Irkutsk           287.000
       135   07 Jun 2027 03:05:30.167   07 Jun 2027 03:06:36.730            66.563               Magadan1          8080.000
       136   07 Jun 2027 03:06:38.824   07 Jun 2027 03:06:49.561            10.737                Norilsk          1047.000
       137   07 Jun 2027 03:06:54.827   07 Jun 2027 03:07:25.172            30.345                Norilsk          2633.000
       138   07 Jun 2027 03:07:25.581   07 Jun 2027 03:07:27.094             1.513               Magadan2           189.125
       139   07 Jun 2027 03:07:32.845   07 Jun 2027 03:08:01.150            28.305                Irkutsk          2890.875
       140   07 Jun 2027 03:08:13.710   07 Jun 2027 03:09:06.544            52.834               Magadan1          6280.000
       141   07 Jun 2027 03:09:07.034   07 Jun 2027 03:09:33.032            25.998                Novosib           245.000
       142   07 Jun 2027 03:09:33.703   07 Jun 2027 03:09:40.311             6.608              Murmansk2           335.500
       143   07 Jun 2027 03:09:40.547   07 Jun 2027 03:09:52.019            11.472                Irkutsk           118.000
       144   07 Jun 2027 03:10:00.244   07 Jun 2027 03:10:53.218            52.974                Novosib          4112.500
       145   07 Jun 2027 03:11:01.042   07 Jun 2027 03:11:39.785            38.743              Murmansk1          3912.000
       146   07 Jun 2027 04:40:53.965   07 Jun 2027 04:41:51.614            57.649                Novosib          5013.500
       147   07 Jun 2027 04:42:09.069   07 Jun 2027 04:43:50.515           101.446                Irkutsk          8727.500
       148   07 Jun 2027 04:43:50.619   07 Jun 2027 04:44:20.678            30.059                Novosib            52.000
       149   07 Jun 2027 04:44:22.821   07 Jun 2027 04:44:58.261            35.440                 Moscow          1071.500
       150   07 Jun 2027 04:45:06.484   07 Jun 2027 04:46:08.728            62.244                 Moscow          4111.500
       151   07 Jun 2027 04:46:14.418   07 Jun 2027 04:46:50.919            36.501                 Moscow          2845.000
       152   07 Jun 2027 04:46:54.614   07 Jun 2027 04:47:12.119            17.505              Murmansk1          1847.500
       153   07 Jun 2027 06:17:51.743   07 Jun 2027 06:18:28.369            36.626                 Moscow           425.500
       154   07 Jun 2027 06:18:39.430   07 Jun 2027 06:19:51.900            72.470              Murmansk2          5530.500
       155   07 Jun 2027 06:19:52.919   07 Jun 2027 06:20:08.409            15.490                 Moscow           509.500
       156   07 Jun 2027 06:20:09.994   07 Jun 2027 06:20:31.135            21.141                Norilsk           792.500
       157   07 Jun 2027 06:20:33.908   07 Jun 2027 06:20:54.059            20.151              Murmansk2          1386.500
       158   07 Jun 2027 06:20:59.942   07 Jun 2027 06:21:23.782            23.840                Novosib          2941.500
       159   07 Jun 2027 06:21:28.331   07 Jun 2027 06:22:02.635            34.304                Norilsk          2274.500
       160   07 Jun 2027 06:22:03.086   07 Jun 2027 06:22:29.067            25.981              Murmansk2           225.500
       161   07 Jun 2027 06:22:29.171   07 Jun 2027 06:22:32.506             3.335                Norilsk            52.000
       162   07 Jun 2027 06:22:35.901   07 Jun 2027 06:23:03.521            27.620              Murmansk1          1697.500
       163   07 Jun 2027 07:52:51.890   07 Jun 2027 07:53:21.114            29.224              Murmansk2          2996.000
       164   07 Jun 2027 07:53:32.817   07 Jun 2027 07:55:20.083           107.266                 Moscow          5851.500
       165   07 Jun 2027 07:55:26.768   07 Jun 2027 07:56:20.444            53.676                 Moscow          3342.500
       166   07 Jun 2027 07:56:42.450   07 Jun 2027 07:58:23.828           101.378              Murmansk1         11003.000
       167   08 Jun 2027 03:16:16.614   08 Jun 2027 03:16:22.970             6.356                Irkutsk           441.500
       168   08 Jun 2027 03:16:23.719   08 Jun 2027 03:16:59.652            35.933                Novosib           374.500
       169   08 Jun 2027 03:17:14.564   08 Jun 2027 03:18:20.453            65.889                Irkutsk          7456.000
       170   08 Jun 2027 03:18:21.036   08 Jun 2027 03:19:25.534            64.498                Irkutsk           291.500
       171   08 Jun 2027 03:19:27.086   08 Jun 2027 03:19:51.440            24.354               Magadan2           776.000
       172   08 Jun 2027 03:19:59.971   08 Jun 2027 03:21:18.131            78.160                Irkutsk          4265.500
       173   08 Jun 2027 03:21:24.311   08 Jun 2027 03:22:05.192            40.881                Irkutsk          3090.000
       174   08 Jun 2027 03:22:17.632   08 Jun 2027 03:23:04.119            46.487                Norilsk          5810.875
       175   08 Jun 2027 03:23:08.584   08 Jun 2027 03:23:24.972            16.388              Murmansk2           409.125
       176   08 Jun 2027 04:53:40.879   08 Jun 2027 04:55:46.156           125.277                Novosib         15278.500
       177   08 Jun 2027 04:55:53.539   08 Jun 2027 04:56:33.527            39.988                Novosib          3691.500
       178   08 Jun 2027 04:56:36.723   08 Jun 2027 04:57:00.492            23.769              Murmansk2          1598.000
       179   08 Jun 2027 04:57:05.471   08 Jun 2027 04:57:48.105            42.634                Norilsk          2489.500
       180   08 Jun 2027 04:57:50.091   08 Jun 2027 04:58:01.587            11.496                 Moscow           993.000
       181   08 Jun 2027 04:58:04.334   08 Jun 2027 04:58:10.736             6.402                Novosib           800.250
       182   08 Jun 2027 04:58:17.772   08 Jun 2027 04:58:54.608            36.836              Murmansk1          4091.250
       183   08 Jun 2027 04:58:55.168   08 Jun 2027 04:59:15.632            20.464                 Moscow           280.000
       184   08 Jun 2027 06:30:05.768   08 Jun 2027 06:30:35.516            29.748                 Moscow          1270.500
       185   08 Jun 2027 06:30:36.012   08 Jun 2027 06:30:47.431            11.419                Norilsk           248.000
       186   08 Jun 2027 06:31:00.175   08 Jun 2027 06:32:16.340            76.165                Norilsk          6372.000
       187   08 Jun 2027 06:32:17.644   08 Jun 2027 06:32:31.307            13.663              Murmansk1           652.000
       188   08 Jun 2027 06:32:47.440   08 Jun 2027 06:34:20.806            93.366                Norilsk          8066.500
       189   08 Jun 2027 06:34:21.629   08 Jun 2027 06:35:01.572            39.943              Murmansk2           411.500
       190   08 Jun 2027 08:07:31.900   08 Jun 2027 08:08:47.031            75.131              Murmansk2          8998.000
       191   08 Jun 2027 08:09:21.904   08 Jun 2027 08:09:26.265             4.361                 Moscow           545.125
       192   08 Jun 2027 08:10:04.359   08 Jun 2027 08:13:32.567           208.208              Murmansk1         24059.875
       193   09 Jun 2027 03:28:24.241   09 Jun 2027 03:29:09.115            44.874                Irkutsk          1898.000
       194   09 Jun 2027 03:29:19.876   09 Jun 2027 03:29:49.346            29.470                Norilsk          3683.750
       195   09 Jun 2027 03:29:49.643   09 Jun 2027 03:30:02.726            13.083                Irkutsk          1635.375
       196   09 Jun 2027 03:30:02.962   09 Jun 2027 03:30:23.136            20.174                Novosib           327.875
       197   09 Jun 2027 03:30:24.484   09 Jun 2027 03:31:00.752            36.268                Irkutsk           674.000
       198   09 Jun 2027 03:31:22.057   09 Jun 2027 03:32:42.411            80.354                Norilsk         10044.250
       199   09 Jun 2027 03:32:58.898   09 Jun 2027 03:34:09.780            70.882                Irkutsk          8851.750
       200   09 Jun 2027 03:34:10.072   09 Jun 2027 03:34:39.564            29.492                Norilsk           146.000
       201   09 Jun 2027 03:34:49.876   09 Jun 2027 03:35:49.721            59.845              Murmansk1          5156.000
       202   09 Jun 2027 05:06:04.100   09 Jun 2027 05:06:55.675            51.575                Novosib          5423.000
       203   09 Jun 2027 05:07:04.971   09 Jun 2027 05:08:01.347            56.376                Irkutsk          4648.000
       204   09 Jun 2027 05:08:02.770   09 Jun 2027 05:08:17.359            14.589                 Moscow           711.500
       205   09 Jun 2027 05:08:18.586   09 Jun 2027 05:08:31.883            13.297                Norilsk           613.500
       206   09 Jun 2027 05:08:38.215   09 Jun 2027 05:09:08.884            30.669              Murmansk1          3166.000
       207   09 Jun 2027 05:09:09.370   09 Jun 2027 05:09:20.379            11.009                 Moscow           243.000
       208   09 Jun 2027 05:09:23.028   09 Jun 2027 05:09:48.401            25.373                 Moscow          1324.500
       209   09 Jun 2027 05:09:51.743   09 Jun 2027 05:10:59.901            68.158                 Moscow          1671.000
       210   09 Jun 2027 06:42:17.435   09 Jun 2027 06:43:04.883            47.448                Novosib          3393.000
       211   09 Jun 2027 06:43:17.567   09 Jun 2027 06:44:35.401            77.834                 Moscow          6342.000
       212   09 Jun 2027 06:44:46.693   09 Jun 2027 06:45:40.020            53.327                Norilsk          5646.000
       213   09 Jun 2027 06:45:40.517   09 Jun 2027 06:46:13.089            32.572                Norilsk           248.500
       214   09 Jun 2027 06:46:13.502   09 Jun 2027 06:46:59.090            45.588              Murmansk2           206.500
       215   09 Jun 2027 08:21:40.283   09 Jun 2027 08:22:27.119            46.836              Murmansk1          4038.000
       216   10 Jun 2027 03:40:58.260   10 Jun 2027 03:41:03.611             5.351                Novosib           668.875
       217   10 Jun 2027 03:41:03.756   10 Jun 2027 03:41:17.453            13.697                Norilsk           985.625
       218   10 Jun 2027 03:41:21.334   10 Jun 2027 03:41:50.694            29.360                Norilsk          1940.500
       219   10 Jun 2027 03:42:08.028   10 Jun 2027 03:43:17.527            69.499                Novosib          8667.000
       220   10 Jun 2027 03:43:23.879   10 Jun 2027 03:44:12.632            48.753                Norilsk          3176.000
       221   10 Jun 2027 03:44:15.461   10 Jun 2027 03:44:50.476            35.015              Murmansk1          1414.500
       222   10 Jun 2027 03:45:01.058   10 Jun 2027 03:45:16.177            15.119                Norilsk          1889.875
       223   10 Jun 2027 03:45:24.799   10 Jun 2027 03:46:37.976            73.177              Murmansk1          7712.125
       224   10 Jun 2027 03:46:47.726   10 Jun 2027 03:47:28.614            40.888              Murmansk1          4875.000
       225   10 Jun 2027 05:18:22.836   10 Jun 2027 05:18:55.265            32.429              Murmansk1          3042.500
       226   10 Jun 2027 05:18:56.029   10 Jun 2027 05:18:59.997             3.968                Irkutsk           382.000
       227   10 Jun 2027 05:19:02.334   10 Jun 2027 05:19:21.871            19.537                Irkutsk          1168.500
       228   10 Jun 2027 05:19:29.417   10 Jun 2027 05:20:22.682            53.265                 Moscow          3773.000
       229   10 Jun 2027 05:20:34.936   10 Jun 2027 05:21:28.277            53.341                 Moscow          6127.000
       230   10 Jun 2027 05:21:39.203   10 Jun 2027 05:23:05.152            85.949                 Moscow          5463.000
       231   10 Jun 2027 06:54:36.698   10 Jun 2027 06:55:35.902            59.204                Norilsk          4685.500
       232   10 Jun 2027 06:55:39.930   10 Jun 2027 06:55:50.620            10.690                 Moscow          1336.250
       233   10 Jun 2027 06:55:52.062   10 Jun 2027 06:56:33.908            41.846                Norilsk          1398.750
       234   10 Jun 2027 06:56:36.118   10 Jun 2027 06:56:47.271            11.153                Norilsk          1105.000
       235   10 Jun 2027 06:56:48.625   10 Jun 2027 06:57:18.727            30.102                 Moscow           677.000
       236   10 Jun 2027 06:57:20.211   10 Jun 2027 06:57:32.729            12.518              Murmansk1           742.000
       237   10 Jun 2027 06:57:34.944   10 Jun 2027 06:57:45.640            10.696              Murmansk2          1107.500
       238   10 Jun 2027 06:57:45.672   10 Jun 2027 06:58:15.864            30.192                 Moscow            16.000
       239   10 Jun 2027 06:58:17.270   10 Jun 2027 06:59:31.867            74.597                Novosib           703.000
       240   11 Jun 2027 03:52:57.465   11 Jun 2027 03:56:09.287           191.822                Irkutsk         13046.500
       241   11 Jun 2027 03:56:10.037   11 Jun 2027 03:56:33.229            23.192                Norilsk           375.000
       242   11 Jun 2027 03:56:38.582   11 Jun 2027 03:57:06.416            27.834              Murmansk1          2676.500
       243   11 Jun 2027 03:57:18.202   11 Jun 2027 03:58:26.584            68.382              Murmansk2          5893.000
       244   11 Jun 2027 03:58:37.031   11 Jun 2027 03:59:28.885            51.854                Novosib          5223.500
       245   11 Jun 2027 05:30:33.252   11 Jun 2027 05:31:59.171            85.919                Novosib          1349.500
       246   11 Jun 2027 05:32:00.926   11 Jun 2027 05:32:14.016            13.090              Murmansk1           877.500
       247   11 Jun 2027 05:32:14.990   11 Jun 2027 05:32:23.248             8.258                Irkutsk           487.000
       248   11 Jun 2027 05:32:25.664   11 Jun 2027 05:32:52.541            26.877                Novosib          1208.000
       249   11 Jun 2027 05:33:01.231   11 Jun 2027 05:33:37.247            36.016                 Moscow          4345.000
       250   11 Jun 2027 05:33:40.486   11 Jun 2027 05:33:53.266            12.780                Novosib          1597.500
       251   11 Jun 2027 05:34:21.067   11 Jun 2027 05:36:19.448           118.381                Norilsk         13922.500
       252   11 Jun 2027 07:06:26.718   11 Jun 2027 07:07:11.979            45.261              Murmansk1          2773.000
       253   11 Jun 2027 07:07:16.581   11 Jun 2027 07:07:59.110            42.529              Murmansk2          2301.000
       254   11 Jun 2027 07:08:00.804   11 Jun 2027 07:08:44.638            43.834                Norilsk           847.000
       255   11 Jun 2027 07:08:45.236   11 Jun 2027 07:08:50.183             4.947                Norilsk           299.000
       256   11 Jun 2027 07:08:51.121   11 Jun 2027 07:09:15.600            24.479              Murmansk1           469.000
       257   11 Jun 2027 07:09:17.699   11 Jun 2027 07:09:59.670            41.971                Norilsk          1049.500
       258   11 Jun 2027 07:10:00.362   11 Jun 2027 07:10:51.291            50.929              Murmansk1           346.000
       259   11 Jun 2027 07:10:52.356   11 Jun 2027 07:11:16.566            24.210              Murmansk1           532.500
       260   11 Jun 2027 07:11:20.212   11 Jun 2027 07:11:22.903             2.691                 Moscow           336.375
       261   11 Jun 2027 07:11:24.069   11 Jun 2027 07:11:33.819             9.750                Norilsk          1218.750
       262   11 Jun 2027 07:11:45.786   11 Jun 2027 07:12:13.685            27.899              Murmansk1          2421.875
       263   12 Jun 2027 04:04:56.381   12 Jun 2027 04:05:52.627            56.246                Norilsk          6720.000
       264   12 Jun 2027 04:05:55.030   12 Jun 2027 04:06:34.577            39.547                Novosib          1201.500
       265   12 Jun 2027 04:06:45.106   12 Jun 2027 04:07:20.861            35.755                Norilsk          4469.375
       266   12 Jun 2027 04:07:30.733   12 Jun 2027 04:08:39.529            68.796                Novosib          5731.125
       267   12 Jun 2027 04:08:48.456   12 Jun 2027 04:09:37.032            48.576                Norilsk          4463.500
       268   12 Jun 2027 04:09:39.621   12 Jun 2027 04:10:02.912            23.291              Murmansk2          1294.500
       269   12 Jun 2027 04:10:15.759   12 Jun 2027 04:11:31.958            76.199              Murmansk2          6423.500
       270   12 Jun 2027 05:42:54.583   12 Jun 2027 05:43:09.843            15.260              Murmansk1           978.500
       271   12 Jun 2027 05:43:11.150   12 Jun 2027 05:43:42.757            31.607                Irkutsk           653.500
       272   12 Jun 2027 05:43:44.420   12 Jun 2027 05:44:44.552            60.132                 Moscow           831.500
       273   12 Jun 2027 05:44:49.200   12 Jun 2027 05:45:17.939            28.739                 Moscow          2324.000
       274   12 Jun 2027 05:45:19.047   12 Jun 2027 05:45:23.921             4.874              Murmansk1           554.000
       275   12 Jun 2027 05:45:35.439   12 Jun 2027 05:46:15.517            40.078                Novosib          5009.750
       276   12 Jun 2027 05:46:17.513   12 Jun 2027 05:46:41.065            23.552              Murmansk2          1747.250
       277   12 Jun 2027 05:47:09.724   12 Jun 2027 05:47:27.540            17.816              Murmansk1          2227.000
       278   12 Jun 2027 05:47:27.540   12 Jun 2027 05:47:52.055            24.515              Murmansk2          2123.500
       279   12 Jun 2027 07:16:28.485   12 Jun 2027 07:17:47.699            79.214                 Moscow          9557.500
       280   12 Jun 2027 07:17:51.430   12 Jun 2027 07:18:17.581            26.151                Novosib          1865.500
       281   12 Jun 2027 07:18:27.838   12 Jun 2027 07:19:28.987            61.149                 Moscow          5128.500
       282   12 Jun 2027 07:19:30.706   12 Jun 2027 07:20:00.488            29.782              Murmansk1           859.500
       283   12 Jun 2027 07:20:05.262   12 Jun 2027 07:20:45.122            39.860                Novosib          2387.000
       284   12 Jun 2027 07:20:58.339   12 Jun 2027 07:21:53.974            55.635                Norilsk          6608.500
       285   12 Jun 2027 07:21:55.507   12 Jun 2027 07:22:43.352            47.845              Murmansk2           766.500
       286   12 Jun 2027 07:22:52.846   12 Jun 2027 07:23:09.631            16.785                Norilsk           282.000
       287   12 Jun 2027 07:23:14.149   12 Jun 2027 07:23:46.523            32.374              Murmansk1          2259.000
       288   12 Jun 2027 07:23:55.215   12 Jun 2027 07:24:12.013            16.798                Norilsk          2099.750
       289   12 Jun 2027 07:24:22.991   12 Jun 2027 07:24:56.358            33.367              Murmansk1          2246.250
       290   13 Jun 2027 04:17:02.377   13 Jun 2027 04:17:31.586            29.209                Novosib          2417.000
       291   13 Jun 2027 04:17:53.154   13 Jun 2027 04:19:23.665            90.511                Norilsk         10784.000
       292   13 Jun 2027 04:19:31.825   13 Jun 2027 04:20:07.276            35.451              Murmansk1          4080.000
       293   13 Jun 2027 04:20:08.643   13 Jun 2027 04:20:43.145            34.502                Norilsk           683.500
       294   13 Jun 2027 04:20:44.700   13 Jun 2027 04:22:20.235            95.535                Irkutsk           777.500
       295   13 Jun 2027 04:22:29.362   13 Jun 2027 04:23:06.295            36.933              Murmansk1          4563.500
       296   13 Jun 2027 05:55:02.083   13 Jun 2027 05:55:54.845            52.762                Novosib          5299.500
       297   13 Jun 2027 05:55:56.532   13 Jun 2027 05:56:26.829            30.297                Irkutsk           843.500
       298   13 Jun 2027 05:56:29.181   13 Jun 2027 05:56:50.690            21.509                Novosib          1176.000
       299   13 Jun 2027 05:56:52.829   13 Jun 2027 05:57:21.801            28.972                 Moscow          1069.500
       300   13 Jun 2027 05:57:25.749   13 Jun 2027 05:57:48.395            22.646              Murmansk1          1974.000
       301   13 Jun 2027 05:57:52.591   13 Jun 2027 05:58:34.638            42.047              Murmansk2          2098.000
       302   13 Jun 2027 05:58:41.810   13 Jun 2027 05:59:03.504            21.694                Norilsk          2711.750
       303   13 Jun 2027 05:59:03.959   13 Jun 2027 05:59:37.724            33.765                Novosib           874.250
       304   13 Jun 2027 07:28:16.065   13 Jun 2027 07:28:18.376             2.311                 Moscow            33.000
       305   13 Jun 2027 07:28:34.400   13 Jun 2027 07:28:53.175            18.775                 Moscow          2346.875
       306   13 Jun 2027 07:29:01.091   13 Jun 2027 07:30:52.550           111.459              Murmansk2          9623.125
       307   13 Jun 2027 07:30:54.165   13 Jun 2027 07:31:00.851             6.686                Novosib           807.500
       308   13 Jun 2027 07:31:18.969   13 Jun 2027 07:31:48.857            29.888                Novosib          3736.000
       309   13 Jun 2027 07:31:53.475   13 Jun 2027 07:33:11.413            77.938                Novosib          7632.000
       310   13 Jun 2027 07:33:13.277   13 Jun 2027 07:33:48.939            35.662                Norilsk           932.000
       311   13 Jun 2027 07:33:51.887   13 Jun 2027 07:34:36.170            44.283              Murmansk2          1474.000
       312   13 Jun 2027 07:34:56.617   13 Jun 2027 07:36:45.652           109.035              Murmansk2         10223.500
