uniorb/output/strategy_2/Drop/Drop_KinoSat_110505.txt

KinoSat_110505
-------------------------
    Access    *     Start Time (UTCG)     *     Stop Time (UTCG)  *   Duration (s)        *       Station  *  Data (Mbytes)
         1   01 Jun 2027 03:45:56.590   01 Jun 2027 03:47:02.080            65.490               Magadan1          4570.000
         2   01 Jun 2027 03:47:11.439   01 Jun 2027 03:47:58.178            46.739               Magadan1          4679.500
         3   01 Jun 2027 03:47:58.744   01 Jun 2027 03:48:11.890            13.146                Anadyr1           283.000
         4   01 Jun 2027 03:48:20.640   01 Jun 2027 03:49:20.654            60.014                Anadyr1          4375.000
         5   01 Jun 2027 03:49:26.767   01 Jun 2027 03:50:05.662            38.895                Anadyr2          3056.500
         6   01 Jun 2027 03:50:15.389   01 Jun 2027 03:50:24.071             8.682                Norilsk          1085.250
         7   01 Jun 2027 03:50:24.552   01 Jun 2027 03:51:08.349            43.797                Anadyr1          4018.750
         8   01 Jun 2027 03:51:12.890   01 Jun 2027 03:51:46.865            33.975                Anadyr2          2270.500
         9   01 Jun 2027 03:51:54.597   01 Jun 2027 03:53:21.228            86.631                Anadyr1          3866.000
        10   01 Jun 2027 03:53:45.065   01 Jun 2027 03:54:22.736            37.671              Murmansk1           385.000
        11   01 Jun 2027 05:23:21.694   01 Jun 2027 05:24:01.811            40.117               Magadan1          2986.500
        12   01 Jun 2027 05:24:22.942   01 Jun 2027 05:24:34.025            11.083                Norilsk          1385.375
        13   01 Jun 2027 05:24:39.625   01 Jun 2027 05:26:28.945           109.320               Magadan1         11980.125
        14   01 Jun 2027 05:26:42.645   01 Jun 2027 05:28:00.708            78.063                Norilsk          6850.000
        15   01 Jun 2027 05:28:20.883   01 Jun 2027 05:28:37.598            16.715                Novosib          2089.375
        16   01 Jun 2027 05:28:38.190   01 Jun 2027 05:29:44.935            66.745              Murmansk2          8294.125
        17   01 Jun 2027 05:30:01.428   01 Jun 2027 05:30:33.435            32.007                Irkutsk          4000.875
        18   01 Jun 2027 05:30:37.301   01 Jun 2027 05:31:32.411            55.110              Murmansk2          4434.625
        19   01 Jun 2027 07:00:02.646   01 Jun 2027 07:00:14.166            11.520                Irkutsk           991.000
        20   01 Jun 2027 07:00:19.030   01 Jun 2027 07:00:28.398             9.368                Norilsk          1171.000
        21   01 Jun 2027 07:00:32.055   01 Jun 2027 07:02:05.393            93.338                Irkutsk          3089.500
        22   01 Jun 2027 07:02:20.829   01 Jun 2027 07:03:34.982            74.153                Novosib          7718.000
        23   01 Jun 2027 07:03:41.125   01 Jun 2027 07:04:22.722            41.597                Novosib          3071.500
        24   01 Jun 2027 07:04:26.979   01 Jun 2027 07:04:54.269            27.290                 Moscow          2128.500
        25   01 Jun 2027 07:04:54.976   01 Jun 2027 07:05:03.809             8.833                Norilsk           353.500
        26   01 Jun 2027 07:05:07.933   01 Jun 2027 07:06:11.455            63.522                 Moscow          2062.000
        27   01 Jun 2027 07:06:12.544   01 Jun 2027 07:06:17.479             4.935                Irkutsk           544.500
        28   01 Jun 2027 07:06:17.813   01 Jun 2027 07:06:27.467             9.654                Norilsk           167.000
        29   01 Jun 2027 07:06:37.331   01 Jun 2027 07:07:02.863            25.532                Norilsk          2683.500
        30   01 Jun 2027 08:38:01.772   01 Jun 2027 08:38:20.688            18.916                Irkutsk          1431.000
        31   01 Jun 2027 08:38:23.901   01 Jun 2027 08:38:48.674            24.773              Murmansk2          1606.500
        32   01 Jun 2027 08:38:57.938   01 Jun 2027 08:40:01.922            63.984                Norilsk          4632.000
        33   01 Jun 2027 08:40:08.273   01 Jun 2027 08:40:34.748            26.475                Norilsk          3175.500
        34   01 Jun 2027 08:40:36.702   01 Jun 2027 08:40:48.788            12.086              Murmansk1           977.000
        35   01 Jun 2027 08:40:52.730   01 Jun 2027 08:41:26.598            33.868                Norilsk          1971.000
        36   01 Jun 2027 08:41:32.458   01 Jun 2027 08:42:03.155            30.697                Novosib          2930.000
        37   01 Jun 2027 08:42:03.518   01 Jun 2027 08:42:29.412            25.894                 Moscow           181.500
        38   01 Jun 2027 10:11:57.783   01 Jun 2027 10:13:37.556            99.773                 Moscow         10528.500
        39   01 Jun 2027 10:14:03.299   01 Jun 2027 10:16:16.943           133.644              Murmansk2         12871.500
        40   01 Jun 2027 10:16:24.959   01 Jun 2027 10:17:21.665            56.706              Murmansk1          4008.000
        41   01 Jun 2027 10:17:22.047   01 Jun 2027 10:17:49.319            27.272              Murmansk1           191.000
        42   01 Jun 2027 10:17:53.442   01 Jun 2027 10:18:26.804            33.362              Murmansk1          2061.500
        43   01 Jun 2027 10:18:31.680   01 Jun 2027 10:18:57.645            25.965                Norilsk          2438.000
        44   01 Jun 2027 10:18:58.464   01 Jun 2027 10:19:17.288            18.824                 Moscow           409.500
        45   02 Jun 2027 03:57:16.726   02 Jun 2027 03:58:02.146            45.420                Irkutsk           698.000
        46   02 Jun 2027 03:58:07.986   02 Jun 2027 03:59:39.140            91.154                Irkutsk          2920.000
        47   02 Jun 2027 03:59:40.253   02 Jun 2027 03:59:45.181             4.928                Anadyr1           556.500
        48   02 Jun 2027 03:59:53.015   02 Jun 2027 04:01:28.230            95.215                Anadyr2          3917.000
        49   02 Jun 2027 04:01:35.043   02 Jun 2027 04:02:35.918            60.875                Irkutsk          3406.500
        50   02 Jun 2027 04:02:37.059   02 Jun 2027 04:02:52.525            15.466               Magadan1           570.500
        51   02 Jun 2027 04:02:53.859   02 Jun 2027 04:03:03.830             9.971               Magadan1           667.000
        52   02 Jun 2027 04:03:16.731   02 Jun 2027 04:05:01.765           105.034                Irkutsk          6450.500
        53   02 Jun 2027 04:05:21.155   02 Jun 2027 04:06:38.230            77.075               Magadan2          8204.500
        54   02 Jun 2027 05:35:09.574   02 Jun 2027 05:35:17.677             8.103                Norilsk           428.500
        55   02 Jun 2027 05:35:18.337   02 Jun 2027 05:35:40.389            22.052                Norilsk           330.000
        56   02 Jun 2027 05:35:42.820   02 Jun 2027 05:36:36.150            53.330                Irkutsk          1215.500
        57   02 Jun 2027 05:36:37.124   02 Jun 2027 05:37:03.722            26.598                Novosib           487.000
        58   02 Jun 2027 05:37:05.473   02 Jun 2027 05:37:39.659            34.186               Magadan1           875.500
        59   02 Jun 2027 05:37:42.251   02 Jun 2027 05:37:56.794            14.543               Magadan2          1296.000
        60   02 Jun 2027 05:38:03.529   02 Jun 2027 05:38:33.463            29.934                Irkutsk          3367.500
        61   02 Jun 2027 05:38:50.070   02 Jun 2027 05:40:27.008            96.938                Irkutsk          8303.500
        62   02 Jun 2027 05:40:28.057   02 Jun 2027 05:40:54.326            26.269               Magadan1           524.500
        63   02 Jun 2027 05:40:59.360   02 Jun 2027 05:41:00.520             1.160               Magadan2           145.000
        64   02 Jun 2027 05:41:07.845   02 Jun 2027 05:41:22.413            14.568                Norilsk          1821.000
        65   02 Jun 2027 05:41:28.244   02 Jun 2027 05:42:25.605            57.361                Novosib          7129.000
        66   02 Jun 2027 05:42:26.240   02 Jun 2027 05:42:42.447            16.207              Murmansk1           317.500
        67   02 Jun 2027 07:11:56.554   02 Jun 2027 07:12:17.205            20.651                Norilsk          1975.500
        68   02 Jun 2027 07:12:17.621   02 Jun 2027 07:12:46.289            28.668                Norilsk           208.000
        69   02 Jun 2027 07:13:03.206   02 Jun 2027 07:14:12.253            69.047                Novosib          8458.500
        70   02 Jun 2027 07:14:19.810   02 Jun 2027 07:15:14.763            54.953              Murmansk2          3778.500
        71   02 Jun 2027 07:15:17.158   02 Jun 2027 07:15:38.309            21.151                Novosib          1197.500
        72   02 Jun 2027 07:15:39.257   02 Jun 2027 07:16:07.582            28.325              Murmansk1           474.000
        73   02 Jun 2027 07:16:07.664   02 Jun 2027 07:16:31.275            23.611              Murmansk2            41.000
        74   02 Jun 2027 07:16:32.010   02 Jun 2027 07:16:39.380             7.370              Murmansk1           367.500
        75   02 Jun 2027 07:16:40.335   02 Jun 2027 07:17:42.549            62.214                Irkutsk           477.500
        76   02 Jun 2027 07:17:44.070   02 Jun 2027 07:17:59.918            15.848                Novosib           598.500
        77   02 Jun 2027 07:18:03.910   02 Jun 2027 07:18:25.843            21.933                Norilsk          1996.000
        78   02 Jun 2027 07:18:29.352   02 Jun 2027 07:18:51.581            22.229                Norilsk          1754.500
        79   02 Jun 2027 08:49:59.684   02 Jun 2027 08:50:11.816            12.132              Murmansk2           259.500
        80   02 Jun 2027 08:50:29.502   02 Jun 2027 08:52:03.495            93.993                Norilsk          8843.000
        81   02 Jun 2027 08:52:06.919   02 Jun 2027 08:52:20.716            13.797                Norilsk          1712.000
        82   02 Jun 2027 08:52:24.926   02 Jun 2027 08:52:32.269             7.343                 Moscow           917.875
        83   02 Jun 2027 08:52:32.896   02 Jun 2027 08:52:46.032            13.136              Murmansk1          1500.625
        84   02 Jun 2027 08:52:50.901   02 Jun 2027 08:53:19.168            28.267                Norilsk          2434.500
        85   02 Jun 2027 08:53:28.940   02 Jun 2027 08:54:17.270            48.330              Murmansk1          4886.000
        86   02 Jun 2027 10:25:45.235   02 Jun 2027 10:26:02.730            17.495                 Moscow          1147.500
        87   02 Jun 2027 10:26:05.393   02 Jun 2027 10:26:47.257            41.864                 Moscow          1331.500
        88   02 Jun 2027 10:26:56.257   02 Jun 2027 10:28:11.809            75.552              Murmansk2          4500.000
        89   02 Jun 2027 10:28:25.440   02 Jun 2027 10:29:21.182            55.742              Murmansk2          6815.500
        90   02 Jun 2027 10:29:25.547   02 Jun 2027 10:30:01.457            35.910                Norilsk          2182.500
        91   02 Jun 2027 10:30:02.474   02 Jun 2027 10:30:19.188            16.714                 Moscow           508.500
        92   03 Jun 2027 04:10:08.935   03 Jun 2027 04:11:19.843            70.908                Irkutsk           797.000
        93   03 Jun 2027 04:11:27.644   03 Jun 2027 04:11:58.531            30.887               Magadan1          3860.875
        94   03 Jun 2027 04:11:58.531   03 Jun 2027 04:12:15.822            17.291               Magadan2            39.625
        95   03 Jun 2027 04:12:23.845   03 Jun 2027 04:13:29.631            65.786                Anadyr1          4011.500
        96   03 Jun 2027 04:13:35.388   03 Jun 2027 04:13:40.102             4.714                Norilsk           589.250
        97   03 Jun 2027 04:13:42.539   03 Jun 2027 04:14:23.647            41.108               Magadan2          3507.750
        98   03 Jun 2027 04:14:24.353   03 Jun 2027 04:14:38.665            14.312               Magadan1           353.000
        99   03 Jun 2027 04:14:43.968   03 Jun 2027 04:15:22.504            38.536               Magadan2          2651.500
       100   03 Jun 2027 04:15:27.059   03 Jun 2027 04:15:45.968            18.909                Anadyr1          2277.500
       101   03 Jun 2027 04:15:53.883   03 Jun 2027 04:17:23.409            89.526                Anadyr2          3957.500
       102   03 Jun 2027 04:17:25.291   03 Jun 2027 04:17:46.361            21.070                Irkutsk           941.000
       103   03 Jun 2027 04:17:47.450   03 Jun 2027 04:17:56.366             8.916               Magadan1           544.500
       104   03 Jun 2027 04:17:57.270   03 Jun 2027 04:18:25.966            28.696              Murmansk2           452.000
       105   03 Jun 2027 04:18:29.819   03 Jun 2027 04:19:15.866            46.047                Norilsk          1926.500
       106   03 Jun 2027 05:47:22.322   03 Jun 2027 05:47:53.888            31.566                Irkutsk          3100.500
       107   03 Jun 2027 05:48:04.166   03 Jun 2027 05:49:24.277            80.111                Novosib          5139.000
       108   03 Jun 2027 05:49:25.385   03 Jun 2027 05:49:48.021            22.636               Magadan2           554.000
       109   03 Jun 2027 05:50:00.594   03 Jun 2027 05:50:43.926            43.332                Norilsk          5416.500
       110   03 Jun 2027 05:50:46.807   03 Jun 2027 05:51:10.239            23.432                Irkutsk          2310.500
       111   03 Jun 2027 05:51:16.957   03 Jun 2027 05:51:52.772            35.815                Norilsk          3359.000
       112   03 Jun 2027 05:51:55.573   03 Jun 2027 05:52:28.662            33.089                Novosib          1400.500
       113   03 Jun 2027 05:52:38.020   03 Jun 2027 05:52:59.605            21.585                Norilsk          2698.125
       114   03 Jun 2027 05:53:06.621   03 Jun 2027 05:54:04.774            58.153              Murmansk2          5488.875
       115   03 Jun 2027 05:54:05.216   03 Jun 2027 05:54:14.599             9.383              Murmansk1           221.000
       116   03 Jun 2027 05:54:31.637   03 Jun 2027 05:56:00.658            89.021                Norilsk          8519.000
       117   03 Jun 2027 07:24:35.811   03 Jun 2027 07:25:06.844            31.033                Norilsk          2660.500
       118   03 Jun 2027 07:25:15.911   03 Jun 2027 07:25:57.650            41.739                Norilsk          4533.500
       119   03 Jun 2027 07:26:02.024   03 Jun 2027 07:26:28.282            26.258                Irkutsk          2187.000
       120   03 Jun 2027 07:26:49.093   03 Jun 2027 07:28:43.634           114.541                Norilsk         10405.500
       121   03 Jun 2027 07:28:47.460   03 Jun 2027 07:29:33.402            45.942              Murmansk2          1913.000
       122   03 Jun 2027 07:29:39.626   03 Jun 2027 07:30:15.328            35.702                Novosib          3112.000
       123   03 Jun 2027 07:30:22.479   03 Jun 2027 07:31:36.236            73.757                 Moscow          3575.500
       124   03 Jun 2027 09:01:19.204   03 Jun 2027 09:02:33.122            73.918                 Moscow          3118.500
       125   03 Jun 2027 09:02:33.360   03 Jun 2027 09:02:46.690            13.330              Murmansk2           119.000
       126   03 Jun 2027 09:02:48.179   03 Jun 2027 09:04:05.197            77.018                Norilsk           744.500
       127   03 Jun 2027 09:04:06.015   03 Jun 2027 09:04:09.990             3.975                Norilsk           409.000
       128   03 Jun 2027 09:04:10.392   03 Jun 2027 09:04:23.944            13.552                 Moscow           201.000
       129   03 Jun 2027 09:04:24.655   03 Jun 2027 09:04:35.725            11.070                 Moscow           355.500
       130   03 Jun 2027 09:04:42.901   03 Jun 2027 09:05:18.691            35.790              Murmansk2          3588.000
       131   03 Jun 2027 09:05:29.185   03 Jun 2027 09:06:19.360            50.175                Norilsk          5247.000
       132   03 Jun 2027 10:36:35.059   03 Jun 2027 10:37:40.650            65.591              Murmansk1          5336.000
       133   03 Jun 2027 10:38:00.236   03 Jun 2027 10:39:00.719            60.483                 Moscow           652.000
       134   03 Jun 2027 10:39:04.035   03 Jun 2027 10:39:28.205            24.170              Murmansk1          1658.000
       135   03 Jun 2027 10:39:32.772   03 Jun 2027 10:40:07.368            34.596              Murmansk2          2283.500
       136   03 Jun 2027 10:40:11.608   03 Jun 2027 10:40:28.622            17.014                 Moscow          2120.000
       137   03 Jun 2027 10:40:31.790   03 Jun 2027 10:41:13.831            42.041                 Moscow          1584.000
       138   04 Jun 2027 04:22:43.622   04 Jun 2027 04:23:29.799            46.177               Magadan1          5772.125
       139   04 Jun 2027 04:23:29.799   04 Jun 2027 04:23:45.159            15.360               Magadan2           685.875
       140   04 Jun 2027 04:23:45.254   04 Jun 2027 04:24:15.852            30.598               Magadan2            47.500
       141   04 Jun 2027 04:24:28.050   04 Jun 2027 04:25:27.200            59.150                Irkutsk          6099.000
       142   04 Jun 2027 04:25:36.530   04 Jun 2027 04:26:22.661            46.131               Magadan2          4665.000
       143   04 Jun 2027 04:26:23.146   04 Jun 2027 04:26:38.610            15.464                Anadyr1           242.500
       144   04 Jun 2027 04:26:54.742   04 Jun 2027 04:28:34.653            99.911                Novosib          8066.000
       145   04 Jun 2027 04:28:35.493   04 Jun 2027 04:28:53.232            17.739                Novosib           420.000
       146   04 Jun 2027 04:28:58.389   04 Jun 2027 04:29:21.351            22.962               Magadan2          2578.500
       147   04 Jun 2027 04:29:24.183   04 Jun 2027 04:30:00.912            36.729              Murmansk1          1416.000
       148   04 Jun 2027 04:30:01.190   04 Jun 2027 04:30:13.135            11.945                Novosib           139.000
       149   04 Jun 2027 04:30:18.005   04 Jun 2027 04:30:21.533             3.528                Irkutsk           441.000
       150   04 Jun 2027 04:30:25.160   04 Jun 2027 04:31:07.802            42.642                Norilsk          3807.500
       151   04 Jun 2027 05:59:44.336   04 Jun 2027 05:59:54.466            10.130                Norilsk          1266.250
       152   04 Jun 2027 06:00:08.209   04 Jun 2027 06:01:10.521            62.312                Norilsk          7007.750
       153   04 Jun 2027 06:01:21.504   04 Jun 2027 06:02:26.871            65.367                Novosib          5491.500
       154   04 Jun 2027 06:02:33.121   04 Jun 2027 06:03:00.527            27.406                Norilsk          3125.000
       155   04 Jun 2027 06:03:09.530   04 Jun 2027 06:03:49.158            39.628                Norilsk          4501.500
       156   04 Jun 2027 06:03:50.704   04 Jun 2027 06:04:08.323            17.619              Murmansk1           773.000
       157   04 Jun 2027 06:04:09.654   04 Jun 2027 06:04:43.773            34.119                Irkutsk           665.500
       158   04 Jun 2027 06:04:44.134   04 Jun 2027 06:04:58.073            13.939              Murmansk1           180.500
       159   04 Jun 2027 06:04:59.436   04 Jun 2027 06:05:27.334            27.898                Norilsk           681.500
       160   04 Jun 2027 06:05:43.517   04 Jun 2027 06:06:02.722            19.205                Novosib          2400.625
       161   04 Jun 2027 06:06:07.105   04 Jun 2027 06:07:13.932            66.827                Norilsk          7882.375
       162   04 Jun 2027 07:37:01.927   04 Jun 2027 07:38:48.050           106.123                Norilsk         10097.500
       163   04 Jun 2027 07:38:53.206   04 Jun 2027 07:39:17.511            24.305              Murmansk2          2578.000
       164   04 Jun 2027 07:39:18.106   04 Jun 2027 07:40:40.059            81.953                Irkutsk           297.500
       165   04 Jun 2027 07:40:43.382   04 Jun 2027 07:41:26.654            43.272              Murmansk1          1661.500
       166   04 Jun 2027 07:41:31.788   04 Jun 2027 07:42:05.529            33.741                 Moscow          2567.000
       167   04 Jun 2027 09:13:29.500   04 Jun 2027 09:14:14.153            44.653                Novosib           841.500
       168   04 Jun 2027 09:14:14.784   04 Jun 2027 09:14:40.235            25.451              Murmansk2           315.500
       169   04 Jun 2027 09:14:45.663   04 Jun 2027 09:16:05.517            79.854                Norilsk          2714.000
       170   04 Jun 2027 09:16:07.000   04 Jun 2027 09:16:40.972            33.972                Norilsk           741.500
       171   04 Jun 2027 09:16:42.109   04 Jun 2027 09:17:00.054            17.945              Murmansk1           568.500
       172   04 Jun 2027 09:17:02.474   04 Jun 2027 09:17:18.502            16.028                Norilsk          1210.000
       173   04 Jun 2027 09:17:29.118   04 Jun 2027 09:18:21.911            52.793                Norilsk          5308.000
       174   04 Jun 2027 10:51:55.046   04 Jun 2027 10:53:15.751            80.705                 Moscow          8658.500
       175   05 Jun 2027 03:00:45.608   05 Jun 2027 03:01:21.186            35.578                Anadyr2          3567.000
       176   05 Jun 2027 03:01:22.525   05 Jun 2027 03:01:31.538             9.013                Irkutsk           669.500
       177   05 Jun 2027 03:01:36.507   05 Jun 2027 03:02:09.910            33.403                Anadyr1          2484.500
       178   05 Jun 2027 03:02:12.802   05 Jun 2027 03:02:47.321            34.519                Anadyr1          1446.000
       179   05 Jun 2027 03:02:49.026   05 Jun 2027 03:02:58.319             9.293               Magadan1           852.500
       180   05 Jun 2027 03:03:03.400   05 Jun 2027 03:03:57.745            54.345                Irkutsk          2540.500
       181   05 Jun 2027 03:03:59.101   05 Jun 2027 03:04:15.482            16.381                Norilsk           678.000
       182   05 Jun 2027 04:36:02.419   05 Jun 2027 04:37:09.492            67.073               Magadan2          7550.000
       183   05 Jun 2027 04:37:13.936   05 Jun 2027 04:37:53.407            39.471               Magadan1          2222.000
       184   05 Jun 2027 04:38:05.315   05 Jun 2027 04:39:01.228            55.913               Magadan1          5954.000
       185   05 Jun 2027 04:39:05.578   05 Jun 2027 04:39:36.817            31.239               Magadan1          2175.000
       186   05 Jun 2027 04:39:38.468   05 Jun 2027 04:40:48.069            69.601               Magadan1           825.500
       187   05 Jun 2027 04:40:52.230   05 Jun 2027 04:41:36.691            44.461               Magadan2          2080.500
       188   05 Jun 2027 04:41:37.320   05 Jun 2027 04:41:52.496            15.176                Norilsk           314.500
       189   05 Jun 2027 04:41:58.716   05 Jun 2027 04:42:28.571            29.855                Irkutsk          3110.000
       190   05 Jun 2027 04:42:31.365   05 Jun 2027 04:42:41.132             9.767                Norilsk          1220.875
       191   05 Jun 2027 04:42:53.831   05 Jun 2027 04:43:32.068            38.237                Novosib           176.125
       192   05 Jun 2027 06:12:10.573   05 Jun 2027 06:12:15.916             5.343                Norilsk           667.875
       193   05 Jun 2027 06:12:44.789   05 Jun 2027 06:15:00.120           135.331                Norilsk         15400.625
       194   05 Jun 2027 06:15:02.780   05 Jun 2027 06:15:16.950            14.170                Norilsk          1330.000
       195   05 Jun 2027 06:15:25.255   05 Jun 2027 06:15:38.488            13.233                Irkutsk          1654.125
       196   05 Jun 2027 06:15:44.175   05 Jun 2027 06:16:42.189            58.014              Murmansk2          5341.875
       197   05 Jun 2027 06:16:46.336   05 Jun 2027 06:17:15.451            29.115              Murmansk1          2073.500
       198   05 Jun 2027 06:17:28.543   05 Jun 2027 06:18:40.508            71.965                Irkutsk          6546.000
       199   05 Jun 2027 07:49:43.168   05 Jun 2027 07:50:21.183            38.015                Novosib           664.000
       200   05 Jun 2027 07:50:32.736   05 Jun 2027 07:51:39.453            66.717                 Moscow          5776.500
       201   05 Jun 2027 07:51:40.229   05 Jun 2027 07:52:03.000            22.771                Norilsk           388.000
       202   05 Jun 2027 07:52:10.407   05 Jun 2027 07:52:43.749            33.342                Novosib          3703.500
       203   05 Jun 2027 07:52:44.891   05 Jun 2027 07:53:12.647            27.756                Irkutsk           571.000
       204   05 Jun 2027 07:53:20.639   05 Jun 2027 07:53:53.585            32.946              Murmansk2          3996.000
       205   05 Jun 2027 07:53:55.500   05 Jun 2027 07:54:40.988            45.488                Novosib           957.500
       206   05 Jun 2027 09:25:44.921   05 Jun 2027 09:27:25.625           100.704                 Moscow           139.000
       207   05 Jun 2027 09:27:28.544   05 Jun 2027 09:28:21.516            52.972                 Moscow          1459.500
       208   05 Jun 2027 09:28:32.606   05 Jun 2027 09:29:53.156            80.550              Murmansk1          5545.000
       209   05 Jun 2027 09:29:55.606   05 Jun 2027 09:30:05.905            10.299                 Moscow          1145.500
       210   06 Jun 2027 03:12:54.914   06 Jun 2027 03:13:24.336            29.422                Anadyr2          3031.000
       211   06 Jun 2027 03:13:27.643   06 Jun 2027 03:13:43.830            16.187                Irkutsk          1653.500
       212   06 Jun 2027 03:13:47.994   06 Jun 2027 03:14:43.343            55.349                Irkutsk          2082.000
       213   06 Jun 2027 03:14:45.191   06 Jun 2027 03:14:50.548             5.357                Norilsk           669.625
       214   06 Jun 2027 03:14:59.564   06 Jun 2027 03:15:38.476            38.912               Magadan2          4762.375
       215   06 Jun 2027 03:15:48.552   06 Jun 2027 03:16:44.827            56.275               Magadan1          5038.000
       216   06 Jun 2027 04:48:05.627   06 Jun 2027 04:48:40.425            34.798               Magadan2          3328.000
       217   06 Jun 2027 04:49:12.112   06 Jun 2027 04:51:37.575           145.463               Magadan1         15843.500
       218   06 Jun 2027 04:51:43.808   06 Jun 2027 04:51:56.729            12.921                Norilsk          1615.125
       219   06 Jun 2027 04:52:18.595   06 Jun 2027 04:54:28.290           129.695                Norilsk         12434.375
       220   06 Jun 2027 04:54:37.135   06 Jun 2027 04:55:06.224            29.089                Novosib          3119.500
       221   06 Jun 2027 06:24:39.514   06 Jun 2027 06:25:18.165            38.651                Norilsk          4831.375
       222   06 Jun 2027 06:25:26.207   06 Jun 2027 06:26:46.056            79.849                Irkutsk          9029.125
       223   06 Jun 2027 06:26:50.201   06 Jun 2027 06:27:10.845            20.644                Novosib          2072.500
       224   06 Jun 2027 06:27:22.666   06 Jun 2027 06:27:35.944            13.278                Norilsk          1659.750
       225   06 Jun 2027 06:27:36.844   06 Jun 2027 06:28:14.712            37.868                Novosib          4700.750
       226   06 Jun 2027 06:28:15.614   06 Jun 2027 06:28:42.976            27.362              Murmansk2           451.000
       227   06 Jun 2027 06:28:43.223   06 Jun 2027 06:28:48.596             5.373              Murmansk1           123.500
       228   06 Jun 2027 06:28:51.648   06 Jun 2027 06:29:13.380            21.732                Irkutsk          1526.000
       229   06 Jun 2027 06:29:22.344   06 Jun 2027 06:30:43.279            80.935                Novosib          4482.000
       230   06 Jun 2027 08:01:38.720   06 Jun 2027 08:02:03.290            24.570                Norilsk          1047.500
       231   06 Jun 2027 08:02:06.974   06 Jun 2027 08:03:19.378            72.404                Irkutsk          1842.000
       232   06 Jun 2027 08:03:27.675   06 Jun 2027 08:04:48.926            81.251                Irkutsk          4148.500
       233   06 Jun 2027 08:04:48.942   06 Jun 2027 08:04:49.503             0.561                Irkutsk             8.000
       234   06 Jun 2027 08:04:51.610   06 Jun 2027 08:05:42.590            50.980                Norilsk          1053.500
       235   06 Jun 2027 08:05:46.886   06 Jun 2027 08:06:17.412            30.526              Murmansk1          2148.000
       236   06 Jun 2027 08:06:17.984   06 Jun 2027 08:06:36.243            18.259                Norilsk           146.000
       237   06 Jun 2027 09:37:55.731   06 Jun 2027 09:38:29.509            33.778              Murmansk2          3347.000
       238   06 Jun 2027 09:38:29.609   06 Jun 2027 09:38:40.476            10.867                Norilsk            50.000
       239   06 Jun 2027 09:38:53.571   06 Jun 2027 09:40:05.617            72.046                Norilsk          6547.500
       240   06 Jun 2027 09:40:06.880   06 Jun 2027 09:40:21.546            14.666              Murmansk1           631.500
       241   06 Jun 2027 09:40:31.661   06 Jun 2027 09:41:24.622            52.961              Murmansk2          5057.500
       242   06 Jun 2027 09:41:40.547   06 Jun 2027 09:42:43.068            62.521                Novosib          7815.125
       243   06 Jun 2027 09:42:45.603   06 Jun 2027 09:43:45.262            59.659                 Moscow           147.375
       244   07 Jun 2027 03:24:42.133   07 Jun 2027 03:24:59.516            17.383               Magadan2          2172.875
       245   07 Jun 2027 03:24:59.516   07 Jun 2027 03:25:08.167             8.651               Magadan1           633.125
       246   07 Jun 2027 03:25:10.905   07 Jun 2027 03:25:22.029            11.124                Irkutsk          1369.000
       247   07 Jun 2027 03:25:31.738   07 Jun 2027 03:26:13.028            41.290                Anadyr2          4854.500
       248   07 Jun 2027 03:26:14.113   07 Jun 2027 03:26:36.911            22.798               Magadan1           542.500
       249   07 Jun 2027 03:26:44.453   07 Jun 2027 03:27:22.532            38.079               Magadan1          3771.000
       250   07 Jun 2027 03:27:27.285   07 Jun 2027 03:27:52.839            25.554                Norilsk          2376.500
       251   07 Jun 2027 03:27:56.254   07 Jun 2027 03:28:29.220            32.966               Magadan1          1707.500
       252   07 Jun 2027 03:28:32.697   07 Jun 2027 03:29:33.782            61.085                Anadyr1          1738.500
       253   07 Jun 2027 04:59:30.077   07 Jun 2027 04:59:34.435             4.358               Magadan2            60.000
       254   07 Jun 2027 04:59:34.893   07 Jun 2027 05:00:17.925            43.032               Magadan2           229.000
       255   07 Jun 2027 05:00:24.590   07 Jun 2027 05:01:09.756            45.166                Novosib          3332.500
       256   07 Jun 2027 05:01:14.605   07 Jun 2027 05:01:55.141            40.536               Magadan2          2424.500
       257   07 Jun 2027 05:01:59.071   07 Jun 2027 05:03:07.710            68.639                Irkutsk          1965.000
       258   07 Jun 2027 05:03:14.251   07 Jun 2027 05:03:45.301            31.050                Norilsk          3270.500
       259   07 Jun 2027 05:03:49.866   07 Jun 2027 05:03:54.422             4.556                Irkutsk           569.500
       260   07 Jun 2027 05:04:08.256   07 Jun 2027 05:05:44.648            96.392                Norilsk          8630.000
       261   07 Jun 2027 05:05:51.751   07 Jun 2027 05:06:11.466            19.715               Magadan2          2464.375
       262   07 Jun 2027 05:06:21.512   07 Jun 2027 05:06:39.921            18.409                Irkutsk          2301.125
       263   07 Jun 2027 05:06:41.917   07 Jun 2027 05:07:30.589            48.672                Norilsk          4807.000
       264   07 Jun 2027 06:36:00.628   07 Jun 2027 06:36:38.433            37.805                Norilsk          1251.500
       265   07 Jun 2027 06:36:53.377   07 Jun 2027 06:38:01.046            67.669                Irkutsk          7472.000
       266   07 Jun 2027 06:38:03.408   07 Jun 2027 06:38:05.373             1.965                Norilsk           245.625
       267   07 Jun 2027 06:38:15.077   07 Jun 2027 06:39:29.972            74.895                Norilsk          5787.375
       268   07 Jun 2027 06:39:39.066   07 Jun 2027 06:40:36.916            57.850              Murmansk2          4547.000
       269   07 Jun 2027 06:40:40.753   07 Jun 2027 06:41:24.917            44.164                Norilsk          1918.500
       270   07 Jun 2027 06:41:55.777   07 Jun 2027 06:42:38.662            42.885                Irkutsk          5360.625
       271   07 Jun 2027 06:42:51.524   07 Jun 2027 06:44:14.085            82.561              Murmansk2         10069.375
       272   07 Jun 2027 08:14:27.239   07 Jun 2027 08:15:18.594            51.355                Irkutsk          5568.500
       273   07 Jun 2027 08:15:21.081   07 Jun 2027 08:15:34.971            13.890              Murmansk2          1243.500
       274   07 Jun 2027 08:15:47.148   07 Jun 2027 08:16:48.610            61.462                Novosib          6088.500
       275   07 Jun 2027 08:16:51.226   07 Jun 2027 08:17:27.191            35.965                Novosib          1308.000
       276   07 Jun 2027 08:17:36.324   07 Jun 2027 08:18:19.503            43.179                 Moscow          4566.500
       277   07 Jun 2027 09:49:47.558   07 Jun 2027 09:50:25.185            37.627              Murmansk1          2284.500
       278   07 Jun 2027 09:50:25.448   07 Jun 2027 09:50:51.430            25.982                 Moscow           131.500
       279   07 Jun 2027 09:50:55.142   07 Jun 2027 09:51:32.633            37.491                Norilsk          1856.000
       280   07 Jun 2027 09:51:37.485   07 Jun 2027 09:52:12.480            34.995                Novosib          2426.000
       281   07 Jun 2027 09:52:12.766   07 Jun 2027 09:52:31.409            18.643                Norilsk           143.000
       282   07 Jun 2027 09:52:35.181   07 Jun 2027 09:53:15.815            40.634                 Moscow          1886.000
       283   07 Jun 2027 09:53:16.442   07 Jun 2027 09:53:58.763            42.321                 Moscow           313.500
       284   07 Jun 2027 09:54:12.241   07 Jun 2027 09:54:41.575            29.334              Murmansk1          3528.500
       285   07 Jun 2027 09:54:42.409   07 Jun 2027 09:54:57.458            15.049                Norilsk           417.000
       286   07 Jun 2027 09:55:07.919   07 Jun 2027 09:56:03.838            55.919              Murmansk2          3450.000
       287   08 Jun 2027 03:35:03.994   08 Jun 2027 03:36:14.652            70.658                Irkutsk          5608.000
       288   08 Jun 2027 03:36:22.984   08 Jun 2027 03:36:43.429            20.445               Magadan2           731.500
       289   08 Jun 2027 03:36:43.618   08 Jun 2027 03:36:46.851             3.233                Anadyr1            94.500
       290   08 Jun 2027 03:36:58.673   08 Jun 2027 03:37:50.352            51.679                Norilsk          5911.000
       291   08 Jun 2027 03:37:50.518   08 Jun 2027 03:37:55.605             5.087                Norilsk            83.000
       292   08 Jun 2027 03:37:59.479   08 Jun 2027 03:38:16.024            16.545                Anadyr1          1937.000
       293   08 Jun 2027 03:38:24.558   08 Jun 2027 03:38:32.959             8.401                Norilsk          1050.125
       294   08 Jun 2027 03:38:37.897   08 Jun 2027 03:39:03.520            25.623               Magadan2          3202.875
       295   08 Jun 2027 03:39:03.520   08 Jun 2027 03:39:29.789            26.269               Magadan1          2483.000
       296   08 Jun 2027 03:39:36.806   08 Jun 2027 03:40:13.230            36.424                Anadyr1          3508.500
       297   08 Jun 2027 03:40:17.967   08 Jun 2027 03:41:30.032            72.065                Irkutsk          2368.500
       298   08 Jun 2027 05:11:21.222   08 Jun 2027 05:12:41.418            80.196               Magadan1          4825.500
       299   08 Jun 2027 05:12:41.951   08 Jun 2027 05:12:58.567            16.616                Norilsk           266.500
       300   08 Jun 2027 05:12:59.449   08 Jun 2027 05:13:15.603            16.154               Magadan1           441.000
       301   08 Jun 2027 05:13:16.691   08 Jun 2027 05:13:19.517             2.826                Novosib           353.250
       302   08 Jun 2027 05:13:21.819   08 Jun 2027 05:13:40.289            18.470               Magadan2          1341.750
       303   08 Jun 2027 05:13:45.101   08 Jun 2027 05:14:06.399            21.298                Irkutsk          2406.000
       304   08 Jun 2027 05:14:09.684   08 Jun 2027 05:15:10.098            60.414               Magadan1          1642.500
       305   08 Jun 2027 05:15:15.427   08 Jun 2027 05:15:54.037            38.610                Irkutsk          2664.500
       306   08 Jun 2027 05:15:58.417   08 Jun 2027 05:16:20.705            22.288                Norilsk          2190.000
       307   08 Jun 2027 05:16:24.329   08 Jun 2027 05:17:09.935            45.606               Magadan1          1812.000
       308   08 Jun 2027 05:17:12.613   08 Jun 2027 05:17:37.014            24.401               Magadan2          1339.000
       309   08 Jun 2027 05:17:43.657   08 Jun 2027 05:17:58.576            14.919               Magadan2          1864.875
       310   08 Jun 2027 05:18:00.502   08 Jun 2027 05:18:30.395            29.893              Murmansk2          2419.625
       311   08 Jun 2027 05:18:39.934   08 Jun 2027 05:19:27.410            47.476                Novosib          4769.500
       312   08 Jun 2027 06:48:36.070   08 Jun 2027 06:49:42.359            66.289                Norilsk          8286.125
       313   08 Jun 2027 06:49:51.611   08 Jun 2027 06:50:42.015            50.404                Novosib          5408.875
       314   08 Jun 2027 06:50:46.519   08 Jun 2027 06:51:00.833            14.314                Norilsk          1789.250
       315   08 Jun 2027 06:51:05.342   08 Jun 2027 06:51:27.684            22.342              Murmansk2          2717.250
       316   08 Jun 2027 06:51:35.764   08 Jun 2027 06:52:22.142            46.378                Novosib          4040.000
       317   08 Jun 2027 06:52:23.647   08 Jun 2027 06:52:58.008            34.361                Irkutsk           752.500
       318   08 Jun 2027 06:53:01.961   08 Jun 2027 06:53:17.593            15.632                Norilsk          1954.000
       319   08 Jun 2027 06:53:18.159   08 Jun 2027 06:54:06.219            48.060              Murmansk2           305.500
       320   08 Jun 2027 06:54:12.731   08 Jun 2027 06:54:52.864            40.133              Murmansk1          3256.000
       321   08 Jun 2027 08:26:24.067   08 Jun 2027 08:27:20.101            56.034                Norilsk          4986.500
       322   08 Jun 2027 08:27:22.000   08 Jun 2027 08:27:54.295            32.295              Murmansk2           949.500
       323   08 Jun 2027 08:28:05.512   08 Jun 2027 08:28:19.726            14.214                Irkutsk          1776.750
       324   08 Jun 2027 08:28:26.289   08 Jun 2027 08:29:02.280            35.991                Norilsk          4498.875
       325   08 Jun 2027 08:29:06.798   08 Jun 2027 08:29:52.658            45.860              Murmansk1          4873.375
       326   08 Jun 2027 08:29:59.731   08 Jun 2027 08:30:12.183            12.452                Norilsk          1556.500
       327   08 Jun 2027 08:30:13.603   08 Jun 2027 08:31:41.562            87.959                Novosib          1980.000
       328   08 Jun 2027 09:59:42.918   08 Jun 2027 09:59:51.190             8.272                 Moscow          1034.000
       329   08 Jun 2027 10:00:04.489   08 Jun 2027 10:02:38.282           153.793                 Moscow         17562.000
       330   08 Jun 2027 10:02:46.731   08 Jun 2027 10:03:39.852            53.121                Novosib          4224.500
       331   08 Jun 2027 10:03:41.490   08 Jun 2027 10:03:51.764            10.274              Murmansk2           819.000
       332   08 Jun 2027 10:03:59.053   08 Jun 2027 10:04:38.284            39.231              Murmansk2          3644.500
       333   08 Jun 2027 10:04:39.472   08 Jun 2027 10:04:59.726            20.254              Murmansk1           594.000
       334   08 Jun 2027 10:05:16.668   08 Jun 2027 10:05:28.975            12.307                Novosib          1538.375
       335   08 Jun 2027 10:05:31.565   08 Jun 2027 10:06:39.895            68.330                 Moscow          8227.625
       336   08 Jun 2027 10:06:49.002   08 Jun 2027 10:07:51.509            62.507                Norilsk          4553.500
       337   09 Jun 2027 03:46:11.694   09 Jun 2027 03:47:18.521            66.827               Magadan2          5013.500
       338   09 Jun 2027 03:47:26.173   09 Jun 2027 03:48:02.733            36.560               Magadan1          3826.000
       339   09 Jun 2027 03:48:13.142   09 Jun 2027 03:48:51.831            38.689               Magadan1          3841.000
       340   09 Jun 2027 03:49:00.302   09 Jun 2027 03:49:38.386            38.084                Irkutsk          4235.500
       341   09 Jun 2027 03:49:42.256   09 Jun 2027 03:50:05.810            23.554                Anadyr1          1935.000
       342   09 Jun 2027 03:50:21.023   09 Jun 2027 03:51:24.194            63.171                Anadyr2          7606.500
       343   09 Jun 2027 03:51:28.826   09 Jun 2027 03:52:01.699            32.873                Anadyr2          2316.000
       344   09 Jun 2027 03:52:10.213   09 Jun 2027 03:53:36.461            86.248                Anadyr2          4257.000
       345   09 Jun 2027 03:54:08.061   09 Jun 2027 03:54:45.005            36.944                Norilsk          4616.500
       346   09 Jun 2027 05:23:36.704   09 Jun 2027 05:24:16.622            39.918               Magadan2          3238.000
       347   09 Jun 2027 05:24:40.204   09 Jun 2027 05:24:48.599             8.395                Norilsk          1049.375
       348   09 Jun 2027 05:24:54.730   09 Jun 2027 05:27:12.937           138.207               Magadan1         13807.125
       349   09 Jun 2027 05:27:18.414   09 Jun 2027 05:27:49.585            31.171                Novosib          2738.500
       350   09 Jun 2027 05:28:02.806   09 Jun 2027 05:29:12.635            69.829               Magadan2          6610.500
       351   09 Jun 2027 05:29:12.808   09 Jun 2027 05:29:14.047             1.239               Magadan1            86.500
       352   09 Jun 2027 05:29:34.444   09 Jun 2027 05:29:56.222            21.778                Novosib          2722.250
       353   09 Jun 2027 05:29:56.957   09 Jun 2027 05:31:46.956           109.999              Murmansk2          7843.750
       354   09 Jun 2027 07:00:17.716   09 Jun 2027 07:00:46.409            28.693                Irkutsk          1398.500
       355   09 Jun 2027 07:00:56.351   09 Jun 2027 07:02:35.538            99.187                Novosib          4971.000
       356   09 Jun 2027 07:02:42.385   09 Jun 2027 07:03:49.542            67.157                Norilsk          3423.500
       357   09 Jun 2027 07:03:49.671   09 Jun 2027 07:03:55.512             5.841                Novosib            64.500
       358   09 Jun 2027 07:03:57.351   09 Jun 2027 07:04:26.884            29.533                Norilsk           919.500
       359   09 Jun 2027 07:04:30.392   09 Jun 2027 07:05:43.784            73.392                Irkutsk          1754.000
       360   09 Jun 2027 07:05:47.400   09 Jun 2027 07:06:27.210            39.810                Irkutsk          1808.000
       361   09 Jun 2027 07:06:27.943   09 Jun 2027 07:06:59.385            31.442                Novosib           366.500
       362   09 Jun 2027 08:38:13.976   09 Jun 2027 08:38:21.986             8.010                Novosib           337.000
       363   09 Jun 2027 08:38:28.088   09 Jun 2027 08:39:04.065            35.977                Novosib          3051.000
       364   09 Jun 2027 08:39:14.754   09 Jun 2027 08:40:16.956            62.202                Norilsk          5344.500
       365   09 Jun 2027 08:40:24.484   09 Jun 2027 08:41:07.678            43.194                Norilsk          3764.000
       366   09 Jun 2027 08:41:10.179   09 Jun 2027 08:41:20.842            10.663              Murmansk1          1250.500
       367   09 Jun 2027 08:41:39.925   09 Jun 2027 08:42:41.639            61.714              Murmansk1          7714.250
       368   09 Jun 2027 08:42:41.639   09 Jun 2027 08:43:51.226            69.587              Murmansk2          1827.250
       369   09 Jun 2027 10:12:15.231   09 Jun 2027 10:13:52.762            97.531                 Moscow         12005.000
       370   09 Jun 2027 10:14:18.443   09 Jun 2027 10:16:32.453           134.010              Murmansk2         12840.500
       371   09 Jun 2027 10:16:39.681   09 Jun 2027 10:17:36.671            56.990              Murmansk2          3614.000
       372   09 Jun 2027 10:17:56.329   09 Jun 2027 10:19:53.015           116.686                Norilsk          9829.000
       373   10 Jun 2027 03:57:35.508   10 Jun 2027 03:58:17.607            42.099                Irkutsk          2903.500
       374   10 Jun 2027 03:58:22.801   10 Jun 2027 03:59:53.519            90.718                Irkutsk          2597.000
       375   10 Jun 2027 03:59:56.608   10 Jun 2027 04:00:09.029            12.421                Anadyr2          1544.500
       376   10 Jun 2027 04:00:29.313   10 Jun 2027 04:01:53.446            84.133                Norilsk         10142.000
       377   10 Jun 2027 04:01:53.900   10 Jun 2027 04:02:05.995            12.095                Anadyr1           227.000
       378   10 Jun 2027 04:02:19.672   10 Jun 2027 04:03:15.273            55.601                Novosib          6838.500
       379   10 Jun 2027 04:03:18.115   10 Jun 2027 04:03:38.880            20.765                Norilsk          1421.000
       380   10 Jun 2027 04:03:41.588   10 Jun 2027 04:04:01.485            19.897                Anadyr1          1354.000
       381   10 Jun 2027 04:04:08.998   10 Jun 2027 04:05:37.628            88.630                Anadyr1          3756.500
       382   10 Jun 2027 04:05:57.953   10 Jun 2027 04:06:37.514            39.561                Norilsk          2448.000
       383   10 Jun 2027 04:06:39.025   10 Jun 2027 04:07:01.651            22.626                Novosib           755.500
       384   10 Jun 2027 05:35:27.260   10 Jun 2027 05:35:44.094            16.834               Magadan2          1974.500
       385   10 Jun 2027 05:35:49.717   10 Jun 2027 05:36:50.157            60.440                Irkutsk          2811.500
       386   10 Jun 2027 05:36:50.913   10 Jun 2027 05:37:11.110            20.197               Magadan1           378.000
       387   10 Jun 2027 05:37:17.843   10 Jun 2027 05:39:08.702           110.859                Novosib          3366.500
       388   10 Jun 2027 05:39:10.980   10 Jun 2027 05:39:23.387            12.407                Norilsk          1139.000
       389   10 Jun 2027 05:39:24.144   10 Jun 2027 05:39:35.508            11.364               Magadan2           378.500
       390   10 Jun 2027 05:39:39.065   10 Jun 2027 05:40:41.365            62.300                Irkutsk          1778.500
       391   10 Jun 2027 05:40:43.075   10 Jun 2027 05:41:12.343            29.268               Magadan2           855.000
       392   10 Jun 2027 05:41:25.028   10 Jun 2027 05:41:37.470            12.442                Norilsk          1555.250
       393   10 Jun 2027 05:41:46.706   10 Jun 2027 05:43:02.011            75.305                Novosib          9405.250
       394   10 Jun 2027 07:12:12.446   10 Jun 2027 07:12:32.803            20.357                Norilsk          2544.625
       395   10 Jun 2027 07:12:45.047   10 Jun 2027 07:13:38.356            53.309                Novosib          6178.375
       396   10 Jun 2027 07:13:38.949   10 Jun 2027 07:13:45.849             6.900                Norilsk           296.500
       397   10 Jun 2027 07:13:48.384   10 Jun 2027 07:14:03.708            15.324                Norilsk          1267.500
       398   10 Jun 2027 07:14:10.443   10 Jun 2027 07:14:38.855            28.412                Norilsk          3367.500
       399   10 Jun 2027 07:14:38.884   10 Jun 2027 07:15:08.454            29.570              Murmansk1            14.500
       400   10 Jun 2027 07:15:11.230   10 Jun 2027 07:15:19.365             8.135                 Moscow          1016.875
       401   10 Jun 2027 07:15:26.739   10 Jun 2027 07:16:01.924            35.185                Norilsk          4058.125
       402   10 Jun 2027 07:16:14.250   10 Jun 2027 07:17:14.309            60.059                 Moscow          6163.000
       403   10 Jun 2027 07:17:14.559   10 Jun 2027 07:17:50.896            36.337                Norilsk           125.000
       404   10 Jun 2027 07:17:55.514   10 Jun 2027 07:18:20.407            24.893              Murmansk2          2309.000
       405   10 Jun 2027 07:18:23.831   10 Jun 2027 07:18:54.820            30.989              Murmansk2          1712.000
       406   10 Jun 2027 08:50:15.732   10 Jun 2027 08:50:27.283            11.551              Murmansk2          1126.500
       407   10 Jun 2027 08:50:44.855   10 Jun 2027 08:52:18.530            93.675                Norilsk          8786.000
       408   10 Jun 2027 08:52:23.152   10 Jun 2027 08:53:05.765            42.613                Norilsk          2311.000
       409   10 Jun 2027 08:53:06.562   10 Jun 2027 08:53:10.477             3.915              Murmansk1           398.500
       410   10 Jun 2027 08:53:14.657   10 Jun 2027 08:53:36.260            21.603                Norilsk          2090.000
       411   10 Jun 2027 08:53:44.258   10 Jun 2027 08:54:31.100            46.842              Murmansk2          3999.000
       412   10 Jun 2027 10:26:00.415   10 Jun 2027 10:26:19.642            19.227                 Moscow          1248.500
       413   10 Jun 2027 10:26:19.955   10 Jun 2027 10:27:03.240            43.285                 Moscow           156.500
       414   10 Jun 2027 10:27:11.861   10 Jun 2027 10:28:27.346            75.485              Murmansk2          4310.500
       415   10 Jun 2027 10:28:40.169   10 Jun 2027 10:30:05.926            85.757              Murmansk2          6411.500
       416   10 Jun 2027 10:30:07.225   10 Jun 2027 10:30:31.199            23.974              Murmansk2           649.500
       417   11 Jun 2027 04:10:23.804   11 Jun 2027 04:11:34.261            70.457                Irkutsk           856.000
       418   11 Jun 2027 04:11:42.698   11 Jun 2027 04:12:13.983            31.285               Magadan1          3910.625
       419   11 Jun 2027 04:12:27.333   11 Jun 2027 04:13:01.486            34.153                Norilsk          4269.125
       420   11 Jun 2027 04:13:13.769   11 Jun 2027 04:14:38.277            84.508               Magadan1          8855.250
       421   11 Jun 2027 04:14:39.242   11 Jun 2027 04:14:53.514            14.272               Magadan2           482.500
       422   11 Jun 2027 04:14:53.947   11 Jun 2027 04:15:03.067             9.120                Anadyr2           216.500
       423   11 Jun 2027 04:15:05.085   11 Jun 2027 04:15:24.222            19.137                Irkutsk          1009.000
       424   11 Jun 2027 04:15:39.664   11 Jun 2027 04:16:45.044            65.380               Magadan2          7721.000
       425   11 Jun 2027 04:16:53.786   11 Jun 2027 04:17:27.881            34.095                Novosib          4261.875
       426   11 Jun 2027 04:17:38.627   11 Jun 2027 04:18:02.709            24.082                Anadyr2          3010.250
       427   11 Jun 2027 04:18:02.862   11 Jun 2027 04:18:29.074            26.212               Magadan2          2548.375
       428   11 Jun 2027 04:18:37.295   11 Jun 2027 04:19:23.497            46.202                Novosib          4110.500
       429   11 Jun 2027 05:47:36.819   11 Jun 2027 05:48:08.017            31.198                Irkutsk          2961.500
       430   11 Jun 2027 05:48:08.855   11 Jun 2027 05:48:30.633            21.778                Norilsk           419.000
       431   11 Jun 2027 05:48:32.932   11 Jun 2027 05:48:52.910            19.978                Irkutsk          1149.500
       432   11 Jun 2027 05:49:08.603   11 Jun 2027 05:50:15.222            66.619                Norilsk          7846.500
       433   11 Jun 2027 05:50:22.931   11 Jun 2027 05:51:01.830            38.899                Irkutsk          3854.500
       434   11 Jun 2027 05:51:08.997   11 Jun 2027 05:51:53.338            44.341                Novosib          3583.500
       435   11 Jun 2027 05:52:00.923   11 Jun 2027 05:53:32.439            91.516                Irkutsk          3792.500
       436   11 Jun 2027 05:53:46.204   11 Jun 2027 05:54:29.500            43.296              Murmansk2          5412.000
       437   11 Jun 2027 05:54:29.500   11 Jun 2027 05:55:01.808            32.308              Murmansk1          1470.500
       438   11 Jun 2027 07:24:52.438   11 Jun 2027 07:25:21.724            29.286                Norilsk          3479.500
       439   11 Jun 2027 07:25:32.121   11 Jun 2027 07:26:35.900            63.779                Norilsk          5198.500
       440   11 Jun 2027 07:26:39.128   11 Jun 2027 07:27:09.703            30.575              Murmansk1          1614.000
       441   11 Jun 2027 07:27:10.337   11 Jun 2027 07:27:13.742             3.405                Novosib           317.000
       442   11 Jun 2027 07:27:28.213   11 Jun 2027 07:28:33.923            65.710              Murmansk2          7235.500
       443   11 Jun 2027 07:28:36.983   11 Jun 2027 07:28:49.267            12.284                Novosib          1530.000
       444   11 Jun 2027 07:28:49.799   11 Jun 2027 07:29:04.428            14.629                Irkutsk           266.000
       445   11 Jun 2027 07:29:07.887   11 Jun 2027 07:29:55.100            47.213                Novosib          1729.500
       446   11 Jun 2027 07:30:02.579   11 Jun 2027 07:30:18.766            16.187                Irkutsk          2023.375
       447   11 Jun 2027 07:30:20.641   11 Jun 2027 07:30:55.378            34.737              Murmansk2          2653.625
       448   11 Jun 2027 09:01:34.190   11 Jun 2027 09:01:55.844            21.654                 Moscow          2706.750
       449   11 Jun 2027 09:01:57.097   11 Jun 2027 09:02:11.127            14.030                Norilsk          1312.250
       450   11 Jun 2027 09:02:13.226   11 Jun 2027 09:02:42.948            29.722                Norilsk          1049.500
       451   11 Jun 2027 09:02:50.623   11 Jun 2027 09:03:25.806            35.183              Murmansk1          3837.500
       452   11 Jun 2027 09:03:29.191   11 Jun 2027 09:03:53.515            24.324              Murmansk1          1692.500
       453   11 Jun 2027 09:03:56.064   11 Jun 2027 09:04:09.281            13.217                Novosib          1274.500
       454   11 Jun 2027 09:04:20.232   11 Jun 2027 09:05:23.258            63.026                Norilsk          5475.500
       455   11 Jun 2027 09:05:23.894   11 Jun 2027 09:05:29.568             5.674                Norilsk           318.000
       456   11 Jun 2027 09:05:34.033   11 Jun 2027 09:06:22.802            48.769              Murmansk2          2232.500
       457   11 Jun 2027 10:36:50.803   11 Jun 2027 10:37:57.460            66.657              Murmansk1          5812.000
       458   11 Jun 2027 10:38:13.983   11 Jun 2027 10:38:28.199            14.216              Murmansk2             2.500
       459   11 Jun 2027 10:39:03.748   11 Jun 2027 10:41:36.405           152.657              Murmansk1         17774.500
       460   12 Jun 2027 04:22:58.404   12 Jun 2027 04:23:46.130            47.726               Magadan2          5965.750
       461   12 Jun 2027 04:23:46.130   12 Jun 2027 04:24:00.003            13.873               Magadan1           314.250
       462   12 Jun 2027 04:24:02.214   12 Jun 2027 04:24:30.711            28.497               Magadan2          1105.500
       463   12 Jun 2027 04:24:38.125   12 Jun 2027 04:25:42.026            63.901                Irkutsk          3707.000
       464   12 Jun 2027 04:25:45.396   12 Jun 2027 04:26:28.361            42.965                Irkutsk          1685.000
       465   12 Jun 2027 04:26:28.699   12 Jun 2027 04:26:37.283             8.584               Magadan1           169.000
       466   12 Jun 2027 04:26:37.723   12 Jun 2027 04:26:54.721            16.998                Anadyr1           220.000
       467   12 Jun 2027 04:26:54.908   12 Jun 2027 04:27:18.291            23.383                Norilsk            93.500
       468   12 Jun 2027 04:27:19.075   12 Jun 2027 04:28:05.385            46.310                Irkutsk           392.000
       469   12 Jun 2027 04:28:12.217   12 Jun 2027 04:29:27.884            75.667                Anadyr2          3416.000
       470   12 Jun 2027 04:29:30.051   12 Jun 2027 04:30:06.600            36.549               Magadan2          1083.500
       471   12 Jun 2027 04:30:08.831   12 Jun 2027 04:30:22.022            13.191               Magadan1          1115.500
       472   12 Jun 2027 04:30:27.384   12 Jun 2027 04:30:32.748             5.364                Irkutsk           670.500
       473   12 Jun 2027 04:30:40.009   12 Jun 2027 04:31:49.769            69.760                Norilsk          5641.000
       474   12 Jun 2027 05:59:59.948   12 Jun 2027 06:00:09.867             9.919                Norilsk          1239.875
       475   12 Jun 2027 06:00:22.814   12 Jun 2027 06:00:31.677             8.863                Norilsk          1107.875
       476   12 Jun 2027 06:00:38.564   12 Jun 2027 06:02:07.843            89.279                Irkutsk          9429.750
       477   12 Jun 2027 06:02:26.848   12 Jun 2027 06:03:49.571            82.723                Irkutsk          9502.500
       478   12 Jun 2027 06:04:04.224   12 Jun 2027 06:04:49.877            45.653                Norilsk          5706.625
       479   12 Jun 2027 06:04:57.793   12 Jun 2027 06:06:08.495            70.702              Murmansk2          5577.874
       480   12 Jun 2027 06:06:17.370   12 Jun 2027 06:07:03.752            46.382              Murmansk2          4437.500
       481   12 Jun 2027 07:37:16.830   12 Jun 2027 07:39:03.708           106.878                Norilsk         10609.000
       482   12 Jun 2027 07:39:05.214   12 Jun 2027 07:39:23.661            18.447                Norilsk           753.000
